t,x,y,z,roll,pitch,yaw,v_x,v_y,v_z,ref_x,ref_y,ref_z,ref_v_x,ref_v_y,ref_v_z,a_com,a_x,a_y,a_z,thrust,wind_x,wind_y,wind_z
0.0,-1.7720206609252525,0.4053220048545578,1.9372274354125576,0.0247973835747774,0.150084710064316,0.0289515324965201,0.0016958975957517,-0.000918794232014,-0.0036273662147728,-1.7719744544526703,0.4054004784259768,1.937120066654172,0.1015810963665525,-0.0887184428342298,-0.1035923502301546,0.205414441752122,0.084794879787586,-0.0459397116007006,-0.1813683107386436,10.661329421282062,-1.4129412377923267,0.1660573903546694,-1.2800633599253977
0.02,-1.772083755438087,0.4055132884834997,1.936971599967955,0.0317767694660158,0.1520107114111022,0.0294772353810473,-0.0081614750487705,0.0175751998814852,-0.0245241595443909,-1.7719744544526703,0.4054004784259768,1.937120066654172,0.1015810963665525,-0.0887184428342298,-0.1035923502301546,1.4797563863554453,-0.4928686322261148,0.9246997056749612,-1.044839666480903,10.662189474069235,-1.407707621199343,0.1576350798561688,-1.2778668302901766
0.04,-1.7723360461081497,0.4058862478952664,1.936151265072112,0.0460769053826588,0.1573770223696363,0.0306510743893852,-0.0160821832895462,0.0179116587271649,-0.0566715024016532,-1.7719744544526703,0.4054004784259768,1.937120066654172,0.1015810963665525,-0.0887184428342298,-0.1035923502301546,1.655522935791513,-0.3960354120387838,0.0168229422839871,-1.6073671428631142,9.263765852282631,-1.3961362754102535,0.1405302226408478,-1.2833765032918234
0.06,-1.7727068605236571,0.4061839338082595,1.9346837283772769,0.0609989233199026,0.1644196472210317,0.0320158085542245,-0.0202685871990598,0.011503359224554,-0.0884799614404576,-1.770958643489005,0.4045132939976345,1.9360841431518705,0.1215810966645757,-0.1067990826734022,-0.1235923505281778,1.6358257445645386,-0.2093201954756818,-0.3204149751305454,-1.590422951940219,8.836912002086592,-1.385274071597135,0.1237551723242828,-1.2890076271541686
0.08,-1.773106059722947,0.4063137799567434,1.932718841905612,0.0747084277766322,0.1717141277189632,0.0333965301388954,-0.0213132772699092,0.0022227544414012,-0.1168033333640265,-1.768927021561674,0.4027389251409499,1.9340122961472677,0.1615810972606222,-0.1429603623517469,-0.1635923511242243,1.4911693394832983,-0.0522345035424696,-0.4640302391576409,-1.4161685961784458,9.04105117043582,-1.373566520212908,0.1067566362413683,-1.2940444934544462
0.1,-1.7735208334208286,0.4062313218939826,1.9300859786172628,0.0884877241394051,0.1794843405307911,0.0348950861640247,-0.0198625736589922,-0.0102782430277299,-0.1449479647601931,-1.7668953996343428,0.4009645562842653,1.9319404491426644,0.2015810978566686,-0.1791216420300916,-0.2035923517202708,1.541508802371913,0.072535180545852,-0.6250498734565584,-1.407231569808328,9.04105117043582,-1.3623659564766408,0.0906724570516831,-1.2978001721420325
0.12,-1.7738816743136372,0.4058708748657932,1.9269096858707315,0.1015944252341579,0.1870540223721467,0.0364067356805733,-0.0160794669947601,-0.0254246958644962,-0.1712311217691171,-1.7628637776772096,0.3973821234436634,1.927868602108259,0.2415810984527151,-0.2152829217084363,-0.2435923523163172,1.5285052109210302,0.1891553332116038,-0.7573226418383135,-1.314157850446204,9.152447635685348,-1.3523522686957352,0.0754907390864821,-1.3012151707152362
0.14,-1.7741463530619144,0.4051721128025894,1.9232159338048924,0.1137450705719984,0.1942797953555744,0.0378821860007809,-0.01040831400004,-0.0437416537905476,-0.1968739644756683,-1.758832155720076,0.3937996906030616,1.9237967550738533,0.2815810990487616,-0.2514442013867811,-0.2835923529123637,1.6009593264877058,0.2835576497360045,-0.915847896302572,-1.2821421353275602,9.323676606652043,-1.3434551606908716,0.0620632175515403,-1.3051591227668702
0.16,-1.7742766729144843,0.4041298883406922,1.9192334358147736,0.123678457648575,0.2007808751563838,0.03917563610488,-0.0034577905050234,-0.064675418621692,-0.2210369402532098,-1.7538005337480416,0.3893132257705012,1.918724908024547,0.321581099644808,-0.2876054810651258,-0.3235923535084101,1.635834408861799,0.3475261747508305,-1.046688241557221,-1.208148788877074,9.323676606652043,-1.333456325857024,0.0498463534576693,-1.3079550736549812
0.18,-1.7742557600366755,0.4025854022971323,1.9145471447360332,0.1320985955480536,0.2072330952789136,0.0403754344059174,0.0053366968207961,-0.0884134093855104,-0.2462840801495025,-1.747768911761106,0.3839227289459822,1.9126530609603392,0.3615811002408544,-0.3237667607434705,-0.3635923541044565,1.787633411643801,0.4397243662909814,-1.18689953819092,-1.2623569948146327,9.36926971945286,-1.3236460762355473,0.0401353816278776,-1.3095910956007837
0.2,-1.7740429665593027,0.4005483638485169,1.909362398260926,0.1383820006123541,0.2132908445926428,0.0413856114967738,0.0156354908025577,-0.1136047816582338,-0.2708824690775964,-1.7739889251956358,0.3981647318278568,1.9022329407285583,0.1053366983109122,-0.1771291638348779,-0.3408069288748214,1.834224040513778,0.5149396990880796,-1.259568613636168,-1.229919446404694,9.457230972719117,-1.314474699186394,0.0329954685179084,-1.3103840445023265
0.22,-1.7736119545072873,0.3980495544694591,1.9040763345842229,0.1400555342325159,0.2186666443797685,0.0419837519998248,0.0294620287896581,-0.1471610951884598,-0.2835544356415392,-1.7739889251956358,0.3981647318278568,1.9022329407285583,0.1053366983109122,-0.1771291638348779,-0.3408069288748214,1.9220939538984865,0.6913268993550175,-1.6778156765113024,-0.6335983281971436,9.457230972719117,-1.306510621383221,0.0315231999073806,-1.3087191272323906
0.24,-1.7728608266967063,0.3947832040326369,1.898274221096822,0.1367077855707332,0.2239253993147005,0.042163325979811,0.0449998878097947,-0.1768718530758014,-0.2960202091823631,-1.7739889251956358,0.3981647318278568,1.9022329407285583,0.1053366983109122,-0.1771291638348779,-0.3408069288748214,1.7885397026212293,0.776892951006832,-1.485537894367077,-0.623288677041195,10.250581525243431,-1.299990264627152,0.0358765979688208,-1.3090301698189193
0.26,-1.7717931949196657,0.3909815678562212,1.8922136216420091,0.1313294571294228,0.2288188527962994,0.0421039717114483,0.0610776347947191,-0.2014046471854422,-0.3094381059944229,-1.7729355582125266,0.396393440189508,1.8988248714398104,0.1253366986089355,-0.1948723147247514,-0.3597114986198852,1.6127553207138687,0.8038873492462222,-1.2266397054820397,-0.6708948406029897,10.160123090310664,-1.2941735196765969,0.0421792458593275,-1.309221838661907
0.28,-1.770398393428277,0.386725806816698,1.8858727661530112,0.1256900664316078,0.233381639786527,0.0419374044064924,0.0776872096712176,-0.2228109987691347,-0.3240316038195705,-1.7708288242463084,0.3928508569128104,1.8920087328623136,0.1653366992049819,-0.2303586165044985,-0.3975206381100128,1.5387332813675432,0.8304787438249219,-1.0703175791846264,-0.7296748912573786,10.069726414899378,-1.2880587020806424,0.0490175829521807,-1.3091851843805702
0.3,-1.76876095518309,0.3823070391816506,1.8795662475719763,0.1207379341913812,0.2374378816302752,0.0417347244781224,0.0939325511231271,-0.2412785710623562,-0.33909182938449,-1.7687220902800902,0.3893082736361129,1.8851925942848171,0.2053366998010284,-0.2658449182842455,-0.4353297776001403,1.4420235256062452,0.812267072595478,-0.9233786146610732,-0.7530112782459741,9.987246227748985,-1.2818593647802723,0.0551997910648454,-1.309207004785398
0.32,-1.7666986068687014,0.3772915815601826,1.8726073978373996,0.1162007166594445,0.2414383793940005,0.0415014491488184,0.1115282224792964,-0.2593295231638894,-0.3560703889680123,-1.7646153562840696,0.383991375270428,1.8764859987328144,0.2453367003970748,-0.3013312200639925,-0.4731389170902679,1.519634830952309,0.8797835678084641,-0.9025476050766632,-0.8489279791761145,9.914190263517412,-1.2759305803388157,0.0604741758909036,-1.308952028757842
0.34,-1.7642774483027053,0.3719249702013574,1.8653037296551096,0.112416869477401,0.2451803652807194,0.0412600485144937,0.1297975962964627,-0.2765309832514633,-0.3734651123376666,-1.760508622288049,0.3786744769047431,1.867779403180812,0.2853367009931213,-0.3368175218437395,-0.5109480565803955,1.526627533095873,0.9134686908583142,-0.8600730043786947,-0.8697361684827154,9.845772662002672,-1.270422569892243,0.0645709112794188,-1.3084434412678292
0.36,-1.7614832302563272,0.3662124098021994,1.8576503297010765,0.1090283913822709,0.2486781790482854,0.0409915802740898,0.1487916879444882,-0.2937734131825996,-0.391002744839856,-1.7554018882771274,0.3724704209945645,1.858127579141556,0.3253367015891678,-0.3723038236234865,-0.5487571960705231,1.553741823184908,0.9497045824012742,-0.8621214965568114,-0.8768816251094713,9.8273488664845,-1.2649858160355798,0.0683603115169798,-1.3075471996770192
0.38,-1.7584704950158332,0.3604696287678416,1.8500538348386737,0.1059038880747987,0.2517876815894022,0.0406967276477063,0.1674538432924232,-0.3097541415326222,-0.4077452740620964,-1.7492951542513044,0.3653792075398922,1.8475305266150464,0.3653367021852142,-0.4077901254032335,-0.5865663355606506,1.4865833356940077,0.93310776739675,-0.7990364175011339,-0.8371264611120172,9.8273488664845,-1.259864870351684,0.0719712030408245,-1.3062980623694
0.4,-1.7549104530563608,0.3541043106019794,1.8417112145050425,0.1026765007065361,0.254849777448117,0.0403459973300808,0.1876353472939218,-0.3258390541576478,-0.4256462888926819,-1.750097802851212,0.3449819216912105,1.8296665711355689,0.2674538447825393,-0.3601402015618905,-0.4568471073161952,1.5704011031278426,1.0090752000749312,-0.8042456312512797,-0.8950507415292797,9.82390075177682,-1.2550876525845058,0.0754578241336934,-1.3048616960163582
0.42,-1.750861816628711,0.3472849165062306,1.833271955156007,0.0958072151250871,0.2575949279909459,0.0396817975910699,0.2166414452011724,-0.3533179037962165,-0.4157131242198451,-1.750097802851212,0.3449819216912105,1.8296665711355689,0.2674538447825393,-0.3601402015618905,-0.4568471073161952,2.058584862036153,1.4503048953625266,-1.3739424819284334,0.4966582336418418,9.805968609681258,-1.2490922340739223,0.0828931451648405,-1.2958170801052329
0.44,-1.7464677579667478,0.3403872634220703,1.825478064279887,0.0859958992062417,0.2598482200704937,0.0387620121844583,0.2444206810456045,-0.3707135725179178,-0.4053051619524535,-1.750097802851212,0.3449819216912105,1.8296665711355689,0.2674538447825393,-0.3601402015618905,-0.4568471073161952,1.719462788878554,1.388961792221606,-0.8697834360850643,0.5203981133695801,11.742553600288376,-1.247318633194581,0.0945467060895298,-1.2983375535977026
0.46,-1.741272692969228,0.3328329966226699,1.8174543546510933,0.0753588229283562,0.2617249176279272,0.0377129954469659,0.2735749005332006,-0.3835170038365214,-0.3977708060998312,-1.7474232644033865,0.3413805196755916,1.825098100062407,0.2874538450805626,-0.3702174135677442,-0.466667473967015,1.636049270021438,1.4577109743798042,-0.640171565930181,0.3767177926311177,11.525407205153895,-1.2464252207728246,0.1066166121450004,-1.3015684343181406
0.48,-1.7354956222442834,0.3250642242371447,1.809542169082448,0.065486406798877,0.2626958221022193,0.0366435214676121,0.3025544486337774,-0.3926959067339892,-0.3937919093019471,-1.7420741875077357,0.3341777156443538,1.815961157916083,0.327453845676609,-0.3903718375794515,-0.4863082072686546,1.532887867917121,1.4489774050288395,-0.4589451448733905,0.1989448398942023,11.277007345115637,-1.24668252225673,0.1172769627521762,-1.303444209143776
0.5,-1.7294748667399906,0.3175400329428169,1.802073254035374,0.0571768891796519,0.2625627615220262,0.0356396859673476,0.3296456144407396,-0.3989588047447138,-0.3925903424979908,-1.736725110612085,0.326974911613116,1.8068242157697592,0.3674538462726555,-0.4105262615911588,-0.5059489405702942,1.3915808627757034,1.3545582903481124,-0.3131449005362302,0.0600783401978166,10.899618842911876,-1.24848376873191,0.1272037170468105,-1.3035643547174072
0.52,-1.7225890411243645,0.3095110130731797,1.7942147313494283,0.0496691971336083,0.2612144018723369,0.0346188807111978,0.3574098823186197,-0.4036727022920792,-0.3934101861847022,-1.7293760336866315,0.3187643863812928,1.7967052369583532,0.4074538468687019,-0.4306806856028661,-0.5255896738719337,1.408676279838969,1.3882133938940056,-0.2356948773682671,-0.0409921843355698,10.899618842911876,-1.251999806654871,0.1356214548032864,-1.3018027862210857
0.54,-1.715152764954252,0.3014037963347341,1.7863303991590445,0.0434462691815339,0.2584955592654551,0.0336470289577489,0.3847254718354262,-0.4069217823077871,-0.394985528483229,-1.7220269567611788,0.3105538611494696,1.7865862581469474,0.4474538474647484,-0.4508351096145734,-0.5452304071735733,1.3776607482946135,1.3657794758403257,-0.1624540007853947,-0.0787671149263424,10.76272208975115,-1.2568736700295582,0.1424628918403955,-1.2974549846604002
0.56,-1.707170698440195,0.2932394985436504,1.7784076910717517,0.0383174812577999,0.2540192160441132,0.0327090457977681,0.4119126875041776,-0.4094593002754543,-0.3971573869479506,-1.7136778798208243,0.3018394753173538,1.7759762610030003,0.4874538480607948,-0.4709895336262807,-0.5648711404752128,1.3695808322678669,1.3593607834375687,-0.1268758983833606,-0.108592923236081,10.718685386294965,-1.2633654415609017,0.1477061635339575,-1.2913966231764211
0.58,-1.6990992779531118,0.2854428179040723,1.770836944125894,0.0342198285341234,0.2479892416230042,0.0318400053941625,0.4359563576794732,-0.411211940726389,-0.3995733922226134,-1.704328802865569,0.2926212288849452,1.7648752455265126,0.5274538486568413,-0.491143957637988,-0.5845118737768524,1.2114112694868036,1.2021835087647814,-0.0876320225467353,-0.1208002637331395,10.630714122638892,-1.2735706962681224,0.1523129211737124,-1.2820956218308714
0.6,-1.6901402429555707,0.2772054544159368,1.762814052847359,0.0306023394313864,0.2404083449903715,0.0309724187803587,0.4583360882032433,-0.4124815200380483,-0.4025651943134478,-1.677301460069138,0.2648822208677528,1.7508582745147634,0.5359563591695894,-0.4357957479414835,-0.4282235866291228,1.1307243803154243,1.1189865261885037,-0.0634789655829665,-0.1495901045417191,10.630714122638892,-1.2844603315418288,0.1559808917918258,-1.271082162208524
0.62,-1.6807109132279552,0.268890327835578,1.7549433089811666,0.0259090895590555,0.2322377826076375,0.0300573292212537,0.4834096691556224,-0.4181036893047877,-0.3831617256380415,-1.677301460069138,0.2648822208677528,1.7508582745147634,0.5359563591695894,-0.4357957479414835,-0.4282235866291228,1.609959507003865,1.2536790476189552,-0.2811084633369681,0.970173433770316,10.565153239462234,-1.295000294490112,0.1607554904484784,-1.2565988205365946
0.64,-1.6713180675243198,0.2609310216460716,1.7478347457980852,0.0204488345056008,0.2245217216593051,0.0291795580952673,0.5038273000078826,-0.4192559028791589,-0.366161250363079,-1.677301460069138,0.2648822208677528,1.7508582745147634,0.5359563591695894,-0.4357957479414835,-0.4282235866291228,1.3296836139799753,1.0208815426130058,-0.0576106787185615,0.8500237637481228,12.108086709057716,-1.3077247879017273,0.1667681934203227,-1.2495006837517653
0.66,-1.6610484129745364,0.2525583962769653,1.740661530716912,0.0150474906654411,0.2169360297262868,0.0283569939966802,0.5218283864477852,-0.4179298556956087,-0.3522192222894881,-1.6719418964774422,0.260524263388338,1.746576038648472,0.5559563594676126,-0.4407125093845024,-0.4339536255104247,1.1403701821718306,0.9000543219951307,0.0663023591775086,0.6971014036795481,11.786709244924168,-1.3184343967152257,0.1725644024442787,-1.2421846309531313
0.68,-1.650451859268219,0.2442299293577837,1.733726533618465,0.0104666133127427,0.2102170990677909,0.0276633495166243,0.5367501069150792,-0.4150588071719951,-0.3421205036729316,-1.6612227692940502,0.2518083484295084,1.7380115669158898,0.595956360063659,-0.4505460322705403,-0.4454137032730285,0.9122565141249872,0.7460860233647004,0.1435524261806792,0.504935930827824,11.233057141948848,-1.327723211071702,0.1774150525701181,-1.2353202353001185
0.7000000000000001,-1.639588179826808,0.2359704764632792,1.72695654146694,0.0068605764144137,0.2047131052351901,0.0270959739285108,0.5487673213631273,-0.411226156455614,-0.3353483530500675,-1.6505036421106585,0.2430924334706787,1.7294470951833072,0.6359563606597055,-0.4603795551565781,-0.4568737810356322,0.7158293767772328,0.6008607224024076,0.1916325358190584,0.3386075311432035,11.233057141948848,-1.3355168302690017,0.1810172492739521,-1.229208298840002
0.72,-1.6290702229521703,0.2282004698995779,1.7206271239934126,0.0042957350198261,0.2010850004188777,0.0266583945634747,0.5577287223152342,-0.4070505409853434,-0.3312309862544735,-1.6377845148974643,0.2338848423675471,1.7203096195625946,0.675956361255752,-0.470213078042616,-0.468333858798236,0.5354791800561548,0.4480700476053423,0.2087807735135283,0.2058683397797023,10.874339758828684,-1.3417268402301223,0.1838025406265882,-1.224346986486611
0.74,-1.6178331962033892,0.2201098400236953,1.7140393726779657,0.00241462515485,0.199521122766958,0.0262857681485383,0.5656028602535289,-0.4023464192430903,-0.3278148107539002,-1.6250653876842702,0.2246772512644155,1.711172143941882,0.7159563618517985,-0.4800466009286538,-0.4797939365608398,0.4893900915628261,0.3937068969147361,0.2352060871126576,0.1708087750286663,10.874339758828684,-1.3441337095560797,0.1855886609313173,-1.2226541964448654
0.76,-1.6064289019590086,0.2121156114742284,1.7075104508617915,0.0013018253533728,0.2000105421160663,0.0259862993423919,0.5746315821811557,-0.3973506529036995,-0.3253007108643402,-1.611346260456175,0.215223822089133,1.701748166377104,0.7559563624478448,-0.4898801238146916,-0.4912540143234435,0.531027775212569,0.4514360963813413,0.2497883169695375,0.1257049944779958,10.811605840138329,-1.342919268021622,0.1864620638932831,-1.2239997944564878
0.78,-1.5948275001362904,0.2042262773300437,1.7010240776319474,0.0010537775544844,0.2015822687424976,0.0257598618006377,0.5851787471002952,-0.3919323503108175,-0.3234776305297894,-1.5966271332131787,0.2055245548416996,1.6920376868682614,0.7959563630438913,-0.4997136467007294,-0.5027140920860473,0.5998422974536378,0.5273582459569714,0.2709151296441003,0.0911540167275432,10.76021539553767,-1.3407539975481138,0.1864314319426275,-1.226647729686741
0.8,-1.5835972676859986,0.1968336050291796,1.6948911873591876,0.0017318277399069,0.2033877941587741,0.0256186401662445,0.5964673828149917,-0.3866204363372207,-0.322190059113826,-1.5655685627812757,0.1846296598145028,1.6848501961054578,0.6851787485904113,-0.4077420855940731,-0.3301736759285015,0.6271115660574696,0.5644317857348258,0.2655956986798408,0.0643785707981708,10.729470432670496,-1.338308532838287,0.1853633924811166,-1.229989564791251
0.8200000000000001,-1.5714594361695933,0.1891187725816156,1.688657836858183,0.0021296573000171,0.2041280978160505,0.0254552466092426,0.6168913650125405,-0.3849013251543545,-0.3001552470675637,-1.5655685627812757,0.1846296598145028,1.6848501961054578,0.6851787485904113,-0.4077420855940731,-0.3301736759285015,1.5046821375118982,1.021199109877441,0.0859555591433108,1.1017406023131116,10.710806275727007,-1.336520839263844,0.1845532287576693,-1.2311989455475494
0.84,-1.5589107270940938,0.1814500080492899,1.6828838971577074,0.0014787853145374,0.2025912917459503,0.0252243325533645,0.6367355371275972,-0.38198849681615,-0.2785834587330782,-1.5655685627812757,0.1846296598145028,1.6848501961054578,0.6851787485904113,-0.4077420855940731,-0.3301736759285015,1.472767622376056,0.9922086057528368,0.1456414169102249,1.0785894167242764,11.982320752179476,-1.339691666453551,0.18524507556126,-1.2332285577184
0.86,-1.5459829291706064,0.1738498069332347,1.6775020322031888,0.0004339081415828,0.1990655072421141,0.0249770335527371,0.654859969382655,-0.3781866144906539,-0.2606397790288218,-1.5587167752953714,0.1805522389585621,1.681548459346173,0.7051787488884345,-0.4109040326507242,-0.331512885008244,1.2893069796542247,0.9062216127528888,0.1900941162748026,0.8971839852128183,11.982320752179476,-1.3447786733230465,0.1863309512052333,-1.2328735702485876
0.88,-1.533387263782523,0.166707567074126,1.6726927208982565,-0.0005693023843643,0.1941328127064523,0.0247565917413322,0.6698302697117421,-0.3738672570568604,-0.2464555868106362,-1.5450132003235633,0.1723973972466806,1.6749449858276029,0.7451787494844809,-0.4172279267640264,-0.3341913031677288,1.053515602004036,0.7485150164543541,0.2159678716896762,0.7092096109092824,11.541549196126653,-1.3526179795243165,0.1875213933142764,-1.2294393868561453
0.9,-1.5198567862295762,0.1592840310408989,1.6678982469733397,-0.0013328802401505,0.1880214422937935,0.0245627057425013,0.6821301834241115,-0.3687523580592554,-0.2338182859950607,-1.531309625351755,0.1642425555347992,1.6683415123090328,0.7851787500805274,-0.4235518208773287,-0.3368697213272137,0.9180842022804564,0.6149956856184691,0.2557449498802489,0.6318650407787729,11.370886636547766,-1.3613725302017392,0.1883503209392962,-1.2239350294356517
0.92,-1.5061158493529454,0.1519678791715356,1.6633317998717445,-0.0015158436448089,0.1819124849270365,0.0244237691330811,0.6911536397628273,-0.3631838632856851,-0.2235415410179964,-1.5156060503501445,0.1557715191172526,1.6616041178824883,0.8251787506765739,-0.4298757149906309,-0.3395481394866986,0.7383129175078937,0.4511728169357909,0.2784247386785149,0.5138372488532161,11.370886636547766,-1.369583837704519,0.1884774224031169,-1.2176242178664425
0.94,-1.4922259603012125,0.1447660855322184,1.6589558624503855,-0.0008684941970277,0.1766037427532232,0.0243499512618863,0.6972601251529756,-0.3574080787500738,-0.2145375179934285,-1.499902475348534,0.147300482699706,1.6548667234559442,0.8651787512726203,-0.4361996091039331,-0.3422265576461834,0.6158759644783399,0.3053242695074176,0.2887892267805642,0.4502011512283937,11.130510545107429,-1.376629799953449,0.1877358113909922,-1.2117256431212349
0.96,-1.4789378204385553,0.1380280603988739,1.654956765159675,0.0005642484983182,0.1729061784153603,0.0243379728405492,0.7011095790771504,-0.3522483177913517,-0.2068595472547543,-1.4831989003320225,0.1386713489293269,1.648062368575413,0.9051787518686668,-0.4425235032172354,-0.3449049758056683,0.5009806965578503,0.1924726962087397,0.2579880479361057,0.3838985369337119,11.130510545107429,-1.3820236149798173,0.1860113446812041,-1.2079046403306513
0.98,-1.4648875981867386,0.1310341563188365,1.6508983363798466,0.0028366307965691,0.1709049961270925,0.0243796533826728,0.7036840907833151,-0.3476017426582409,-0.1994204902119092,-1.465495325300609,0.1298841178061152,1.6411910532408944,0.9451787524647132,-0.4488473973305376,-0.3475833939651531,0.4570512571898426,0.1287255853082314,0.2323287566555421,0.3719528521422557,11.068307759462186,-1.384822628898365,0.1834268886027577,-1.2073238573430785
1.0,-1.4507845383954805,0.1241160769929541,1.6469812691444512,0.0054052902421738,0.1708651275571374,0.0244488417877571,0.7066952954482165,-0.3445242416527063,-0.1927061863983293,-1.429703393647573,0.1136540691859245,1.6409273118692511,0.7965179450413755,-0.3448166883899254,-0.2227400456584147,0.3988114895349775,0.1505602332450728,0.1538750502767277,0.3357151906789909,10.976588096734304,-1.3843413125271269,0.1804740031836129,-1.2103774753576848
1.02,-1.4365705724160938,0.1171698508057455,1.6432654099223722,0.005253968016533,0.1713551881092137,0.0243358059882547,0.7146292222216766,-0.3495082596102828,-0.1788340636518232,-1.429703393647573,0.1136540691859245,1.6409273118692511,0.7965179450413755,-0.3448166883899254,-0.2227400456584147,0.8369937552667337,0.3966963386730027,-0.2492008978788235,0.6936061373253061,10.976588096734304,-1.3835219887260417,0.18045703979734,-1.2151684857246816
1.04,-1.4229251720560605,0.1105044268155648,1.6399843332021318,0.0012525616003418,0.1715055873665531,0.0239682306101982,0.7213007446711917,-0.3509473710011317,-0.1672707287758607,-1.429703393647573,0.1136540691859245,1.6409273118692511,0.7965179450413755,-0.3448166883899254,-0.2227400456584147,0.6713623590195255,0.3335761224757538,-0.071955569542445,0.5781667437981238,11.496567179931844,-1.3829566338769317,0.1848724967648102,-1.215852552759118
1.06,-1.4084341460568066,0.1035191647450785,1.6367420130326005,-0.0043382395582935,0.1717029840352287,0.0235015472992541,0.7274385095306543,-0.3472459528743869,-0.1576940690328083,-1.421738214197159,0.1102059023020252,1.638699911412667,0.8150847158929876,-0.3442596775362623,-0.2274039567477158,0.5980908489795889,0.3068882429731301,0.1850709063372396,0.478832987152622,11.318795788686655,-1.38251514684871,0.1909846049336837,-1.2168691455587526
1.08,-1.3938281760398306,0.0966426956347981,1.6336617859559095,-0.0096451887697127,0.1721146724192843,0.0230714935969244,0.7329072366814317,-0.3406503705859444,-0.1508066343996562,-1.4058078552963316,0.1033095685342267,1.6342451104994986,0.8522182575962118,-0.3431456558289362,-0.236731778926318,0.5496486109306763,0.2734363575388698,0.329779114422124,0.3443717316576042,11.148804437450051,-1.3818755653435608,0.1965568395630885,-1.2182257438768662
1.1,-1.3798550469831117,0.0902491414827071,1.6308434367477345,-0.0138706237557821,0.1727874070970039,0.0227323300566792,0.7377407946422351,-0.3328607133322979,-0.1462099924024472,-1.389877496395504,0.0964132347664282,1.6297903095863304,0.889351799299436,-0.34203163412161,-0.2460596011049202,0.5127649567302728,0.2416778980401712,0.3894828626823249,0.2298320998604511,10.997967641701509,-1.3809122131496283,0.2015129300402555,-1.2196967941059964
1.12,-1.3650489135534662,0.0836872452676398,1.6279561121235069,-0.0173520542840177,0.1738476501917248,0.0224518747753324,0.7426768685825157,-0.323868157729515,-0.1428339443765534,-1.3720904604095154,0.089572602083996,1.624869117564232,0.92648534100266,-0.3409176124142838,-0.2553874232835225,0.539973569923104,0.2468036970140308,0.4496277801391446,0.1688024012946876,10.881111143434282,-1.3794956223912516,0.205372950102257,-1.2212736905711683
1.14,-1.3501425826971816,0.0773115760852559,1.6251259650570538,-0.0198713709072817,0.1752757230464578,0.0222449979420252,0.7477851410067169,-0.3143023565779732,-0.1403878596634194,-1.3543034244235266,0.0827319694015638,1.6199479255421336,0.9636188827058844,-0.3398035907069577,-0.2647152454621247,0.5558379468301039,0.2554136212100599,0.4782900575770937,0.1223042356567005,10.796069263158644,-1.3773942076653558,0.2081857895310352,-1.2236573833212865
1.16,-1.3351257276488162,0.0711325740853225,1.622336622344993,-0.0214451839536686,0.1768581636624586,0.0221131015989514,0.7536907164330712,-0.3042675268447691,-0.1386719919483428,-1.3355880498949573,0.0759191872618147,1.61479353796557,1.0007524244091086,-0.3386895689996315,-0.2740430676407269,0.5884679917089768,0.2952787713177141,0.5017414866602038,0.0857933857538337,10.750098494127087,-1.3749867073386772,0.2099089782169955,-1.2266266152082186
1.18,-1.320743639141922,0.0654529054319635,1.6197132728642196,-0.022005279732658,0.1782146836488689,0.022067223832316,0.7599220495578103,-0.294233644768582,-0.1375574217430745,-1.3159443368238075,0.0691342556647489,1.6094059548345416,1.0378859661123327,-0.3375755472923053,-0.2833708898193292,0.5931917244297403,0.3115666562369557,0.5016941038093553,0.0557285102634141,10.717054065924458,-1.3727891143603776,0.2106734890646573,-1.229736637852681
1.2,-1.3054726614352152,0.0596827189997081,1.6169700900153208,-0.0214321556737857,0.1793184348000083,0.0221184826835409,0.7668475090371827,-0.2834203178629749,-0.1368380165802025,-1.2827475366640315,0.0507412231935344,1.612835401777066,0.8419581796881013,-0.2814325861781698,-0.1528224441475664,0.6430543747544237,0.3462729739686199,0.5406663452803523,0.0359702581435986,10.6926215221647,-1.371189182892121,0.2101319206968043,-1.2325434521659129
1.22,-1.289971264622775,0.0541100220954985,1.6143794040273969,-0.0202719991280841,0.1780292420718658,0.022270818407667,0.7831695777670951,-0.2743137909320313,-0.1215115663572445,-1.2827475366640315,0.0507412231935344,1.612835401777066,0.8419581796881013,-0.2814325861781698,-0.1528224441475664,1.2085516505354597,0.8161034364956188,0.4553263465471802,0.7663225111478995,10.67041190177224,-1.3705405525226697,0.2092246861415941,-1.2385138729989031
1.24,-1.2741508885815265,0.0487212470931362,1.6121021445817607,-0.0189721085959818,0.1722860274406058,0.0225271283125691,0.7972806569197509,-0.2650793424832314,-0.1069729791831048,-1.2827475366640315,0.0507412231935344,1.612835401777066,0.8419581796881013,-0.2814325861781698,-0.1528224441475664,1.1132925379545588,0.7055539576327929,0.4617224224399946,0.7269293587069854,11.716660663545554,-1.378581496226813,0.2080050086353895,-1.2317556041591655
1.26,-1.258914521326884,0.0437703743262624,1.6101791775280885,-0.0174018411746832,0.1644241411690405,0.0228358846524798,0.8054554310421814,-0.256611113339202,-0.0961112060658892,-1.2743279548671504,0.0479268973317527,1.6113071773355905,0.8583654057141594,-0.2788723744600874,-0.1558754486284647,0.8008057692699505,0.4087387061215253,0.4234114572014696,0.543088655860778,11.523789788184333,-1.3896279099564477,0.2063805650091266,-1.220983459741214
1.28,-1.242762267531169,0.0387253739525491,1.608350364854814,-0.0154073264133037,0.1554025546005177,0.0231861418573874,0.8089904903104742,-0.248477878590365,-0.0874447820893482,-1.2574887912733883,0.0422982456081893,1.6082507284526388,0.8911798577662758,-0.2737519510239226,-0.1619814575902615,0.6199859999451547,0.1767529634146392,0.4066617374418518,0.4333211988270489,11.289875329919596,-1.401487875313212,0.2043787025537351,-1.2089286890290196
1.3,-1.2265891621048308,0.0338304749057463,1.6066614803680774,-0.0133404018043327,0.1470512035592743,0.0235158769680819,0.8080607644681665,-0.2414731308053328,-0.0818445441008884,-1.2406496276796264,0.0366695938846259,1.6051942795696876,0.9239943098183924,-0.2686315275877577,-0.1680874665520583,0.4508146714592279,-0.046486292115383,0.3502373892516092,0.2800118994229917,11.084223334395574,-1.4116096760415762,0.2023860340023776,-1.1980501920678868
1.32,-1.2112771034075978,0.029301891454221,1.605137480786032,-0.0115251419191725,0.1406792273340528,0.0237860508667935,0.8037496375143365,-0.2355674175238519,-0.0788435541058523,-1.2221697414832586,0.0312969633328707,1.6018325302386465,0.9568087618705088,-0.2635111041515928,-0.174193475513855,0.3951873161091037,-0.2155563476915034,0.2952856640740436,0.1500494997518066,10.89173805129849,-1.4204008633605276,0.2004853735972897,-1.1888263988681649
1.34,-1.1952780479632474,0.0246501943818692,1.603582832448504,-0.009856921837645,0.1365625675821913,0.0240168839948122,0.7962428609418711,-0.2299150861138446,-0.0768253375913153,-1.2036898552868909,0.0259243327811155,1.5984707809076053,0.9896232139226252,-0.258390680715428,-0.1802994844756518,0.4805562994515327,-0.3753388286232673,0.2826165705003686,0.1009108257268513,10.741242433688967,-1.4263378808912646,0.1988907753097884,-1.183284117763715
1.36,-1.1794461740115172,0.0201067003381235,1.602058471734761,-0.0084855921165534,0.1358853129706297,0.0241925846623731,0.7877886730039915,-0.2247053938931249,-0.075728251215464,-1.18438960778922,0.0206797128152645,1.5949563813525192,1.0224376659747414,-0.2532702572792631,-0.1864054934374485,0.4995442553960951,-0.4227093968939832,0.260484611035984,0.0548543187925631,10.678832474269257,-1.4263919996230536,0.197519063139954,-1.183505929288022
1.38,-1.1637645869597408,0.0156635750371275,1.6005510847678883,-0.0074791680532258,0.1379703185184529,0.0243239253563191,0.7811389453004044,-0.2198513775728344,-0.0750841971621508,-1.1642689989902464,0.0155631034353176,1.5912893315733885,1.055252118026858,-0.2481498338430983,-0.1925115023992453,0.4129018000478113,-0.3324863851793536,0.2427008160145252,0.0322027026656582,10.6190193578841,-1.4233998781014137,0.196588649503988,-1.1875846171920557
1.4,-1.148969073683042,0.0115302898928371,1.599129768051536,-0.0069299278716602,0.1415828029634776,0.0244142695757871,0.7768577619258761,-0.2154518812661295,-0.0745799195945891,-1.1247076396947209,0.0046710061584858,1.596796874909781,0.84463093050224,-0.1950718287042974,-0.0999380283192391,0.3079707563397603,-0.2140591687264159,0.2199748153352443,0.0252138783780865,10.591160621926065,-1.4182673717120349,0.1960834864065248,-1.194448975718035
1.42,-1.1333922934320158,0.0072316550963168,1.5977251834207404,-0.0081005042000292,0.144537008496473,0.024399111874302,0.7810829678850613,-0.2142925303676725,-0.0654686366040727,-1.1247076396947209,0.0046710061584858,1.596796874909781,0.84463093050224,-0.1950718287042974,-0.0999380283192391,0.5054995985076536,0.2112602979592592,0.0579675449228503,0.4555641495258173,10.58813031812042,-1.413641940455341,0.1976175792176002,-1.203460868847318
1.44,-1.1177326240125145,0.0029723202927313,1.596501203855816,-0.0117816933904581,0.1449010253864375,0.0242370911668346,0.7844475052597248,-0.2109803619083869,-0.057434087576465,-1.1247076396947209,0.0046710061584858,1.596796874909781,0.84463093050224,-0.1950718287042974,-0.0999380283192391,0.4659521159014792,0.1682268687331789,0.1656084229642793,0.4017274513803851,11.1781655194618,-1.41280124649039,0.2015951753737922,-1.2049519256130352
1.46,-1.1028102088590594,-0.0009732343038109,1.5954623560305528,-0.0159722115109576,0.1436419592481339,0.0240685145120962,0.7860434840746073,-0.2044098962114772,-0.052308454471229,-1.1162613303896982,0.0027202878714429,1.5957974946265885,0.8573293275426072,-0.19011591893059,-0.1049087945506568,0.4242354375264768,0.0797989407441246,0.3285232848454847,0.2562816552618027,11.045368498945209,-1.414117947411096,0.2066082444767935,-1.2029413922142738
1.48,-1.087089371805333,-0.0049702993760069,1.5944513453889542,-0.0200608162358624,0.1413047495537279,0.0239522355875903,0.7857966798653229,-0.1956583901935473,-0.0491532337679887,-1.0993687117796536,-0.001181148702643,1.5937987340602038,0.8827261216233414,-0.1802040993831752,-0.1148503270134921,0.4653095410201127,-0.0123402104642234,0.4375753008964936,0.1577610351620122,10.884893213205032,-1.4171089622319684,0.2113133250663681,-1.1992681840009196
1.5,-1.071396151524011,-0.00877967772624,1.5934808337193826,-0.0234468230481039,0.1386797822487423,0.0239148448737919,0.7833910406086644,-0.1858115619426268,-0.0481318449895828,-1.082476093169609,-0.005082585276729,1.591799973493819,0.9081229157040756,-0.1702922798357605,-0.1247918594763274,0.5093877743746822,-0.1202819628329243,0.4923414125460268,0.0510694389202995,10.619448217362333,-1.420626473761642,0.2152715440183826,-1.1951320490937685
1.52,-1.0557754393912022,-0.0123848912295508,1.5925102034708178,-0.0260153418833939,0.1366244071062252,0.0239416380054946,0.778748829746229,-0.1753850819731489,-0.0489635184324798,-1.064313634855527,-0.0084884308734442,1.5893041363042926,0.93351970978481,-0.1603804602883457,-0.1347333919391627,0.5721741145858827,-0.2321105431217662,0.5213239984738923,-0.0415836721448532,10.619448217362333,-1.4235692790086203,0.2182277933133027,-1.1919972048725775
1.54,-1.0410372394133425,-0.0156139141328898,1.5915632008063976,-0.0277632995929655,0.1359054640759496,0.0239973294250866,0.773055048257724,-0.1651847019756521,-0.0506794778872189,-1.0461511765414455,-0.0118942764701594,1.586808299114766,0.9589165038655442,-0.1504686407409309,-0.144674924401998,0.5903630590206445,-0.2846890744252539,0.5100189998748422,-0.0857979727369524,10.519720007202524,-1.4245150788030256,0.2205402533681497,-1.1910197054067209
1.56,-1.025635581262005,-0.0187993352049931,1.5905245636879095,-0.0288698248846611,0.1364458822368417,0.0240813913506844,0.7675430701944915,-0.1539481381363197,-0.0531257902558807,-1.0273537983753458,-0.0150523265781892,1.5840639236136684,0.9843132979462784,-0.1405568211935161,-0.1546164568648333,0.637625895980582,-0.2755989031616224,0.5618281919666193,-0.1223156184330942,10.46399394734999,-1.423370641859547,0.2220300639068034,-1.1924280481352092
1.58,-1.010336225380316,-0.0217532499965532,1.5894319857261494,-0.0289738349865563,0.1379348239281413,0.0242159527702763,0.7627932612815411,-0.1420933725406223,-0.0560302103717155,-1.0079215003572275,-0.0179625811975337,1.581071009801,1.0097100920270128,-0.1306450016461014,-0.1645579893276686,0.6548507620972519,-0.2374904456475202,0.5927382797848726,-0.1452210057917378,10.427795253650402,-1.421164342858685,0.2224580873429335,-1.1955089982931957
1.6,-0.995122367274838,-0.0244669222192448,1.5882781196861202,-0.0278174866453392,0.1400108600086378,0.0244286151198157,0.7589413991064615,-0.129988138210079,-0.0592249629175305,-0.9721965623162389,-0.0288579186235843,1.5866304752075635,0.8126424026706727,-0.1158789033164077,-0.084067657854063,0.6549427155144233,-0.19259310875398,0.6052617165271612,-0.1597376272907506,10.40654432876272,-1.4185170189370044,0.2216260311997078,-1.199688645635039
1.62,-0.9806679481075096,-0.0268073435130797,1.5872213115936296,-0.0250753655588659,0.1406687560209255,0.0247862252336664,0.7625197444559059,-0.1174966682658591,-0.0518361944978712,-0.9721965623162389,-0.0288579186235843,1.5866304752075635,0.8126424026706727,-0.1158789033164077,-0.084067657854063,0.7473875761052532,0.1789172674722172,0.6245734972109964,0.3694384209829645,10.395129338304288,-1.4166144000045662,0.2190878955482317,-1.2068680563391576
1.64,-0.9653888286903276,-0.0290508999316547,1.5862534004580071,-0.021181265816121,0.1385632576724,0.0252988787622651,0.7649857627199994,-0.1077370960758619,-0.0454635412041463,-0.9721965623162389,-0.0288579186235843,1.5866304752075635,0.8126424026706727,-0.1158789033164077,-0.084067657854063,0.5956954033158041,0.1233009132046769,0.4879786094998575,0.3186326646862445,11.094683288929446,-1.4197626536839425,0.2152512897271497,-1.2059447349566004
1.66,-0.9500836699703232,-0.0311230539289598,1.5853829731344462,-0.0173891218861534,0.1343400784729686,0.0258333661795037,0.7651863414091504,-0.0999794497463383,-0.0418645108242906,-0.964070138289532,-0.0300167076567484,1.585789798629023,0.822612230948499,-0.1106360094715648,-0.0896751473505325,0.4277099720009991,0.010028934457551,0.3878823164761846,0.1799515189927845,10.948105169837618,-1.4248795141665251,0.2116504113642194,-1.2014581280274597
1.68,-0.9348089468238184,-0.0330543695704132,1.5845585676846676,-0.0140714752902356,0.1289791041649178,0.0263330738773018,0.7620429597101842,-0.0934776002977792,-0.0407298934922725,-0.9478172902361186,-0.0323342857230765,1.584108445471942,0.8425518875041516,-0.100150221781879,-0.1008901263434715,0.3655210364918813,-0.1571690849483109,0.3250924724279534,0.0567308666009094,10.77814751826918,-1.4319856724747375,0.2083704982107179,-1.194415926832722
1.7,-0.9203890067113608,-0.0347772250665894,1.5837750550702758,-0.0114596553497169,0.1239657501076963,0.0267500394525248,0.7559022174517942,-0.0881088444142157,-0.0417867930407611,-0.9315644421827052,-0.0346518637894047,1.582427092314861,0.8624915440598042,-0.0896644340921931,-0.1121051053364105,0.411245947934048,-0.3070371129195004,0.268437794178173,-0.0528449774244297,10.48715041446576,-1.4388679242273903,0.2057089191551525,-1.1870288620375102
1.72,-0.9053667028904152,-0.0364862141908791,1.5829104529810487,-0.0092714079841266,0.1198410297657101,0.0271218635839481,0.746465837897573,-0.0830116998045018,-0.0446945755819236,-0.914314611301509,-0.0364451524712485,1.5801849902081324,0.8824312006154569,-0.0791786464025073,-0.1233200843293495,0.5556107935649482,-0.4718189777110582,0.2548572304856951,-0.1453891270581292,10.48715041446576,-1.444548662204454,0.2036898184103433,-1.181013565846965
1.74,-0.8905638724221,-0.0380986458912867,1.581974150584181,-0.007645751619545,0.1180939265562641,0.027424168108208,0.7343819613111054,-0.0783951656517767,-0.0487844488805454,-0.897064780420313,-0.0382384411530924,1.5779428881014044,0.9023708571711094,-0.0686928587128215,-0.1345350633222885,0.6783426946224089,-0.6041938293233795,0.2308267076362558,-0.2044936649310883,10.38043073618246,-1.4470938257895225,0.2023300855287347,-1.178745246927773
1.76,-0.8767238479293268,-0.0395467153757896,1.5810027538895308,-0.0065809859083195,0.1189760701094356,0.0276562530737107,0.723394698736118,-0.0742258438255127,-0.0532710030379564,-0.8793164581252256,-0.0397695851426941,1.575420411519853,0.922310513726762,-0.0582070710231357,-0.1457500423152275,0.628952207226559,-0.549363128749375,0.2084660913131981,-0.2243277078705512,10.322705984392996,-1.4452394494571754,0.2013488233697111,-1.1808663652085571
1.78,-0.8623627559068782,-0.0409874692646266,1.579884834402691,-0.0059890260245991,0.1218209364122741,0.027851858926741,0.7135448364193525,-0.0700469739123584,-0.058306454712037,-0.8610696444162469,-0.0410385844400537,1.5726175604634776,0.9422501702824146,-0.0477212833334499,-0.1569650213081665,0.5912666804672462,-0.4924931158382717,0.2089434956577152,-0.2517725837040275,10.282178561180444,-1.4412240015623774,0.2009575685456494,-1.1857324787218562
1.8,-0.8481784173189624,-0.0423451560507392,1.5786650413261818,-0.0059776740966201,0.1258700422611672,0.028000783790648,0.7056000413434103,-0.0658998260926629,-0.0634336796181531,-0.8266855140859105,-0.0444898179602445,1.5769695116670892,0.7391465214665022,-0.0561486236139537,-0.0671389047368206,0.5162534238991047,-0.3972397537971128,0.2073573909847782,-0.2563612453058059,10.263900266615565,-1.4358987259898044,0.2011981279640029,-1.1921715151229375
1.82,-0.83403522262812,-0.0435641087499443,1.5774939456498287,-0.0049083196327957,0.1279617569644334,0.0282349094989293,0.7092820240457314,-0.0565795844325936,-0.0526166518921027,-0.8266855140859105,-0.0444898179602445,1.5769695116670892,0.7391465214665022,-0.0561486236139537,-0.0671389047368206,0.7372787635088002,0.1840991351160559,0.4660120830034652,0.5408513863025193,10.26297554210305,-1.430517677532364,0.200343346868985,-1.202520750726182
1.84,-0.8198112085881782,-0.0446182073473924,1.5765538248077284,-0.0019341027728199,0.1252431631309641,0.0286181463637317,0.7124576492852017,-0.0498093158366736,-0.041993884709989,-0.8266855140859105,-0.0444898179602445,1.5769695116670892,0.7391465214665022,-0.0561486236139537,-0.0671389047368206,0.6495466017304933,0.1587812619735173,0.3385134297959991,0.5311383591056839,11.341302286415155,-1.4345906906075885,0.1976707196685809,-1.2008096256877827
1.86,-0.8062780283868671,-0.0455238076350913,1.5758320999174704,0.0012634706378065,0.1194398329836261,0.0289936425148434,0.7114757601017826,-0.0459250745512499,-0.0344708910739693,-0.8192940488712455,-0.0450513041963841,1.576298122619721,0.7442668584759321,-0.0533689535542728,-0.0689053947417773,0.4261656660839176,-0.0490944591709563,0.1942120642711861,0.3761496818009888,11.203086727673508,-1.443273071924954,0.1943998965290413,-1.1931347056987671
1.88,-0.7921018795342756,-0.0464145174989411,1.5752021682725266,0.0043348473337148,0.1117900432621276,0.0293354299181484,0.7058206200010545,-0.0433440822935614,-0.0290136306979075,-0.8045111184419155,-0.0461742766686631,1.5749553445249846,0.754507532494792,-0.0478096134349109,-0.0724383747516907,0.4135934640599534,-0.2827570050364048,0.1290496128844249,0.2728630188030885,11.017545237134982,-1.453412254199873,0.191415051777892,-1.1826789206550996
1.9,-0.7780844623039501,-0.047264330212903,1.5746546879711945,0.0068620419326797,0.1040861440785403,0.0296083495706077,0.6959772092263187,-0.041705545519518,-0.0261013132864482,-0.7897281880125854,-0.0472972491409422,1.5736125664302485,0.7647482065136518,-0.042250273315549,-0.0759713547616042,0.5197574702329127,-0.4921705387367914,0.0819268387021669,0.1456158705729661,10.694256648666853,-1.4632622028905042,0.1890002290695039,-1.1717981150034749
1.92,-0.764301680736499,-0.0480878075073226,1.5741422230587816,0.0087965814750043,0.0974929365386014,0.0298235427609293,0.6826367371026066,-0.0406424472364169,-0.0253706451560879,-0.7744332238823123,-0.0481422546072532,1.5720931393350162,0.7749888805325117,-0.0366909331961872,-0.0795043347715176,0.6701347818905437,-0.6670236061856016,0.0531549141550583,0.0365334065180113,10.694256648666853,-1.4714791124393618,0.1873062297941592,-1.162570406602872
1.94,-0.751486458834164,-0.0488560822272182,1.5736568687936392,0.0100500055020133,0.0932595970384734,0.0299904454524667,0.6669661546402116,-0.0402021362526304,-0.0257430139630357,-0.7591382597520393,-0.0489872600735642,1.570573712239784,0.7852295545513716,-0.0311315930768253,-0.0830373147814311,0.7840594476848586,-0.7835291231197528,0.0220155491893237,-0.0186184403473881,10.569889790988782,-1.4783230894396076,0.1862309930273807,-1.155973029827646
1.96,-0.7383389709694631,-0.0496595399285423,1.573132992450673,0.0106666667929959,0.091865099615164,0.0301400977170497,0.6488325477061809,-0.0401213485888704,-0.0266461171656875,-0.7435872787712947,-0.0496932820368911,1.568965960644304,0.7954702285702314,-0.0255722529574634,-0.0865702947913445,0.9078130623635854,-0.9066803467015327,0.0040393831879995,-0.0451551601325908,10.524050881700532,-1.4802401053189136,0.1858174429145539,-1.1546676390449404
1.98,-0.7255453935426228,-0.0504639863946767,1.572588098579626,0.0104402989323715,0.0935006254964479,0.0302596166559938,0.6318290364574294,-0.0402255959956681,-0.0277973413317215,-0.7277802809400787,-0.050260320497234,1.5672698845485764,0.8057109025890913,-0.0200129128381015,-0.090103274801258,0.8521378694036327,-0.8501755624375773,-0.0052123703398843,-0.0575612083016987,10.493345591588875,-1.478176533571938,0.1861902810356639,-1.1576926824051532
2.0,-0.7136871910497303,-0.051228470737499,1.5720497614993318,0.0094063423796738,0.0970419735114112,0.0303333393906897,0.6175415888722059,-0.0401504523167183,-0.0288178158002821,-0.6939539417197513,-0.0524752661944601,1.57119823151304,0.6517956946622233,-0.0365092240421807,-0.0243642933050853,0.7162020895214887,-0.7143723792611745,0.0037571839474885,-0.0510237234280291,10.475257474188766,-1.4735263055011223,0.1874876980599447,-1.1639954980807192
2.02,-0.7014377471238026,-0.0519815654647045,1.571557385401712,0.0089275511219078,0.1011252846766791,0.0304517644998876,0.6083331525706621,-0.0354459430765299,-0.0198868160902628,-0.6939539417197513,-0.0524752661944601,1.57119823151304,0.6517956946622233,-0.0365092240421807,-0.0243642933050853,0.6831735909177331,-0.4604218150771888,0.2352254620094199,0.4465499855009649,10.476467482115368,-1.4683581259309508,0.1882698674552116,-1.1756258190305116
2.04,-0.6893597249076322,-0.0526488791126605,1.5712543661778249,0.0100300020229206,0.1043256669312268,0.0306701479494542,0.5999229682047424,-0.0316971375369986,-0.0109329663060585,-0.6939539417197513,-0.0524752661944601,1.57119823151304,0.6517956946622233,-0.0365092240421807,-0.0243642933050853,0.6421763192458814,-0.4205092182959835,0.1874402769765644,0.4476924892102141,11.126968436005882,-1.4650189941209248,0.187424932829148,-1.182623864258595
2.06,-0.6780389899907715,-0.0532226415287071,1.5711196924215567,0.0120528602908913,0.1067448094824151,0.0309385914559847,0.592166029598139,-0.02897937451141,-0.0036995320863059,-0.6874359847731291,-0.0528403584348819,1.5709545885799892,0.6557890263031821,-0.0357659496514832,-0.023677683699758,0.5474461229686433,-0.3878469303301712,0.1358881512794294,0.3616717109876319,10.993891994748084,-1.4623167851295678,0.1854111424605013,-1.189110664260886
2.08,-0.6662799428308507,-0.0537876987293767,1.5711153297606082,0.0147037383893164,0.1088044718328598,0.0312501641707623,0.5841674546590526,-0.0278359100121594,0.0028277150155567,-0.6744000708798846,-0.0535705429157255,1.5704673027138871,0.6637756895850997,-0.0342794008700882,-0.0223044644891035,0.5193497541301098,-0.39992874695432,0.0571732249625322,0.3263623550931336,10.934172812302675,-1.4605071827960352,0.1828012208607917,-1.1947115762762686
2.1,-0.6546796237382085,-0.0543465158554561,1.5712305773814033,0.0171675774661385,0.1105197913766272,0.0315407661277167,0.5762836953826644,-0.0280768001682782,0.0083252087960341,-0.6613641569866402,-0.0543007273965691,1.5699800168477858,0.6717623528670172,-0.0327928520886933,-0.020931245278449,0.4807133404164562,-0.394187963819409,-0.0120445078059434,0.2748746890238687,10.880404855677623,-1.4587972390982615,0.1803324179101346,-1.1994016208134597
2.12,-0.6432360237380881,-0.0549184344272113,1.5714466333165735,0.0191617409897628,0.1120236885247076,0.031790912532357,0.5684946475150632,-0.029031812455886,0.0129690618668988,-0.6479289099292999,-0.054956584438343,1.5695613919422169,0.6797490161489348,-0.0313063033072983,-0.0195580260677945,0.4559240246385501,-0.3894523933800631,-0.0477506143803874,0.2321926535432362,10.836522526043154,-1.4573201316852102,0.1784259960591129,-1.2031742352129842
2.14,-0.6325075283980148,-0.0554850755576444,1.5717342299481043,0.0205112620270021,0.1133519775286907,0.0319842455358476,0.5612431774140646,-0.0304817756300901,0.017070425289959,-0.6344936628719595,-0.0556124414801169,1.5691427670366478,0.6877356794308523,-0.0298197545259034,-0.01818480685714,0.4228102226775047,-0.362573505049929,-0.0724981587102054,0.2050681711530096,10.836522526043154,-1.45598615821848,0.1770243136574467,-1.2066714859168592
2.16,-0.6213600190169565,-0.0561152686559782,1.5721191578939409,0.0212476711694075,0.1146746439236291,0.0321336821217834,0.5539214949810359,-0.0324204648000812,0.0211951343173549,-0.6208587492325712,-0.0562311348023559,1.5687584726113453,0.69572234271277,-0.0283332057445084,-0.0168115876464855,0.4312156476423437,-0.3660841216514332,-0.0969344584995568,0.2062354513697932,10.81851049616762,-1.4546645095217372,0.1763684813881397,-1.2097872897946624
2.18,-0.6103559822191439,-0.0567875335850989,1.572583955095298,0.0211329184780708,0.1159075878039255,0.0322170777588173,0.5468748078695531,-0.0346448232410095,0.0250653792944329,-0.607024169011135,-0.05681266440506,1.5684085086663089,0.7037090059946876,-0.0268466569631134,-0.015438368435831,0.4170802258063338,-0.3523343555741409,-0.1112179220464144,0.1935122488539031,10.81851049616762,-1.4534844005519518,0.1765977136223117,-1.2123351156480735
2.2,-0.6000304699491389,-0.0574675215449979,1.573094501523755,0.0201361452441097,0.1169935315607825,0.0322286405144529,0.5403932028073625,-0.0367223066459441,0.0284815575872732,-0.5830122418256662,-0.0585197747471494,1.5738372240600196,0.5604215671322341,-0.0013769452450417,0.0045895931151288,0.3807801715178556,-0.3240802531095321,-0.1038741702467278,0.1708089146420142,10.8067543154948,-1.4523019675685889,0.1778551812103119,-1.2146524916199082
2.22,-0.5892752006908645,-0.0583002744099597,1.5736749083679653,0.0156044770715888,0.1174844134336308,0.031984229529,0.5353688670378118,-0.0448092133878107,0.0292943446495012,-0.5830122418256662,-0.0585197747471494,1.5738372240600196,0.5604215671322341,-0.0013769452450417,0.0045895931151288,0.4777620573710293,-0.2512167884775318,-0.4043453370933325,0.0406393531114004,10.793775069725598,-1.4507920269761871,0.182862053861663,-1.213650120747971
2.24,-0.5786312725370686,-0.0592157610927699,1.5742578515761254,0.0080406789392302,0.1170162087280361,0.0315225985306271,0.5291495934637619,-0.0457547010889735,0.0289323677038887,-0.5830122418256662,-0.0585197747471494,1.5738372240600196,0.5604215671322341,-0.0013769452450417,0.0045895931151288,0.3150568920492018,-0.3109636787024972,-0.0472743850581377,-0.0180988472806262,10.620035880808246,-1.4512508367393433,0.1912963421176755,-1.2116447796755607
2.26,-0.5681258421180663,-0.0600956562533827,1.5748223245234916,0.0002103060583462,0.1161917388440248,0.0310573833215254,0.5216627055119588,-0.04210534049271,0.0275376512849761,-0.577408026154344,-0.0585335441995998,1.573883119991171,0.5631309189847703,0.0052766303541518,0.000494435879268,0.4222456567378737,-0.3743443975901539,0.1824680298131764,-0.0697358209456286,10.549442369912867,-1.452476647874512,0.1996454154752653,-1.2094762335903575
2.28,-0.558293958513751,-0.0608360372363233,1.5753245327723415,-0.0064414490791929,0.1154854173448794,0.0306883112108109,0.5136664445194314,-0.0361415319261046,0.0253949025189947,-0.5661995948116992,-0.0585610831045006,1.5739749118534734,0.5685496226898428,0.018583781552539,-0.0076958785924536,0.5101435453719022,-0.3998130496263685,0.2981904283302691,-0.1071374382990727,10.491317988274204,-1.453811695665318,0.2075759645583006,-1.207640802032962
2.3000000000000003,-0.548114895196384,-0.0614777256726071,1.5758022297046024,-0.0123389600024006,0.1150831295162262,0.0303906280664778,0.5046819131771956,-0.0284296514913941,0.0224554178431561,-0.5549911634690545,-0.0585886220094015,1.574066703715776,0.5739683263949151,0.0318909327509261,-0.0158861930641752,0.6099907241884464,-0.4492265671117934,0.3855940217355221,-0.146974233791928,10.444253957660294,-1.4547462608897033,0.2142862808260069,-1.2066741565493149
2.32,-0.53811937530549,-0.0619530301372679,1.5762150205756502,-0.0170828131129311,0.1151872369307259,0.0301793814182118,0.4953721944489148,-0.0196134363841846,0.0189467313831723,-0.5435117969411563,-0.057950803354383,1.5737489798544926,0.5793870300999875,0.0451980839493132,-0.0240765075358969,0.6646566637948593,-0.4654859364140395,0.440810755360476,-0.1754343229991893,10.406877177983006,-1.4549915953082273,0.2197591180395682,-1.206934590030642
2.34,-0.5283113354790954,-0.0622433925541053,1.576551836509027,-0.0207229222044823,0.1158775287245715,0.0300433585285599,0.4860053352552193,-0.0100762470139574,0.0149083951239795,-0.5320324304132579,-0.0573129846993644,1.573431255993209,0.58480573380506,0.0585052351477004,-0.0322668220076185,0.6982195069969125,-0.4683429596847727,0.4768594685113624,-0.201916812959644,10.378924635314434,-1.4545159260881375,0.2238589632591607,-1.2084027350016504
2.36,-0.5191643723134655,-0.062335963154694,1.5767933731314443,-0.0232317423484173,0.1170250885385201,0.0299752349877469,0.4773948239407905,-0.0003778545011211,0.0107151115924227,-0.5204175962927328,-0.0563424872643862,1.5729087742701324,0.5902244375101323,0.0718123863460876,-0.0404571364793402,0.6815118289600167,-0.4305255657214402,0.4849196256418155,-0.2096641765778372,10.35411920304432,-1.4532671983564518,0.2271242866604235,-1.211331125941452
2.38,-0.5097077309843956,-0.0622324785131565,1.5769583378177157,-0.0249700018687414,0.1186244912110658,0.0299611964552382,0.4688065889894733,0.0100924419101577,0.0059842458293498,-0.5086672945795808,-0.0550393110494484,1.572181534685263,0.5956431412152048,0.0851195375444747,-0.0486474509510618,0.7172272606839478,-0.4294117475658582,0.5235148205639414,-0.2365432881536476,10.323189628065848,-1.451466768591721,0.2293798024041576,-1.2150515089519078
2.4,-0.500417414635632,-0.061913141139833,1.5770259148289216,-0.0257089654708477,0.1204981760631441,0.0300133719014254,0.4607444594825668,0.0211586370871247,0.0010038551966272,-0.4862674015349219,-0.0617278564176486,1.5772575501091832,0.4777829805060992,0.0310673927750688,0.0007470599674344,0.7284622480529984,-0.4031064753453245,0.5533097588483513,-0.2490195316361283,10.315614043076494,-1.449340007324717,0.2305079642386179,-1.2191830763068836
2.42,-0.4917014276953398,-0.0613255555806139,1.577087229851463,-0.0229912394487258,0.1216332134812142,0.0303199023772381,0.4571835832155286,0.039311187718239,0.0062634242244832,-0.4862674015349219,-0.0617278564176486,1.5772575501091832,0.4777829805060992,0.0310673927750688,0.0007470599674344,0.9615846303928588,-0.1780438133519135,0.9076275315557168,0.2629784513928014,10.315614043076494,-1.4477152343977813,0.2279522702111211,-1.2254117327393657
2.44,-0.4825996705801278,-0.0604044235102282,1.5772746590279858,-0.0161766175816269,0.1214217517979826,0.0309447428828234,0.4530638837166337,0.0510146113897131,0.012097402285989,-0.4862674015349219,-0.0617278564176486,1.5772575501091832,0.4777829805060992,0.0310673927750688,0.0007470599674344,0.6855241600726887,-0.2059849749447451,0.5851711835737041,0.2916989030752914,11.025365553156009,-1.4497988363958725,0.2209521823582602,-1.230822871746632
2.46,-0.4735907897635171,-0.0593114446658516,1.5775629641269804,-0.0087697371319554,0.1203059530018282,0.0316081514461118,0.4479315975570707,0.0575436264783529,0.0163710497696833,-0.4814895717298609,-0.0614171824898979,1.5772650207088577,0.4795782588094244,0.035262382948051,-0.0003003772049486,0.4669916007440994,-0.256614307978148,0.3264507544319912,0.2136823741847146,10.942579261753052,-1.4519136660437328,0.2130637466557491,-1.233703499097603
2.48,-0.4646973530947535,-0.0581223693020715,1.5779195930778267,-0.002118119065163,0.1187770114004184,0.0321993502422987,0.4415921794517429,0.0611667200802688,0.0190833697321223,-0.4719339121197389,-0.0607958346343965,1.5772799619082063,0.4831688154160747,0.0436523632940154,-0.0023952515497147,0.3894602314134478,-0.3169709052663921,0.1811546800957915,0.1356159981219457,10.844372603176453,-1.454216879918379,0.206246865162535,-1.2347485673700216
2.5,-0.4563781690910639,-0.0569432287820874,1.5782966921768264,0.003118240295621,0.1174026161481122,0.0326645816724834,0.4343781687009522,0.0629800507816102,0.0204776124485615,-0.4623782525096169,-0.0601744867788951,1.577294903107555,0.4867593720227251,0.0520423436399798,-0.0044901258944808,0.3783980447138111,-0.3607005375395322,0.0906665350670712,0.0697121358219606,10.689979174737346,-1.456515714332585,0.2002744105229514,-1.235081083101845
2.52,-0.4477785812281862,-0.0556743875040728,1.5787126166281735,0.0074698767431769,0.1164534903566459,0.033057503242189,0.4259908505871554,0.0639530988537602,0.0209983105196591,-0.4526430650691624,-0.0591336399060955,1.5772051005896652,0.4903499286293755,0.0604323239859443,-0.006585000239247,0.4229806561002031,-0.4193659056898391,0.0486524036075013,0.0260349035548822,10.689979174737346,-1.4577548208571198,0.1955721745022862,-1.2355979522222873
2.54,-0.4393502278179334,-0.0543942014610601,1.5791338765064884,0.0106906709148145,0.1161593925149395,0.033363659792007,0.4173402807213308,0.0642619965948302,0.0211039254596828,-0.4429078776287079,-0.0580927930332959,1.5771152980717755,0.4939404852360258,0.0688223043319087,-0.0086798745840131,0.432836375936414,-0.4325284932912315,0.0154448870534971,0.0052807470011823,10.63425109328091,-1.4581990749785565,0.1921129619973025,-1.2365824706507602
2.56,-0.4310939259969638,-0.053109320655644,1.5795548796097885,0.0130170401537831,0.1164930558068393,0.0336052961940146,0.408805666020636,0.0643880029310028,0.0209885527527482,-0.4330829262730872,-0.0568421966518472,1.5769731236952669,0.4975310418426761,0.0772122846778731,-0.0107747489287793,0.4268162266935776,-0.4267307350347415,0.0063003168086293,-0.0057686353467279,10.61647890223594,-1.4577306859917467,0.1897327886677604,-1.2381866341044214
2.58,-0.4234057038886196,-0.0518881627508854,1.5799508677999436,0.0145670303379924,0.1172960730053545,0.0337890379365802,0.4009821187476957,0.0642594352207683,0.0206968216398047,-0.4231682110023002,-0.0553818507617494,1.5767785774601388,0.5011215984493266,0.0856022650238376,-0.0128696232735454,0.3915020071158835,-0.3911773636470161,-0.0064283855117239,-0.0145865556471738,10.596151788343375,-1.4565627421787892,0.1879846667133882,-1.2404513588653672
2.6,-0.4154687336232029,-0.0506080559996007,1.5803599451706107,0.0155236353032793,0.1185231545399847,0.0339357261662158,0.393196985374538,0.063797054849738,0.0202152265468514,-0.4033565979512348,-0.0486751909898469,1.580985708881934,0.3967633294645095,0.0804233971826337,-0.0040976507416678,0.3906853947837163,-0.3892566686578808,-0.0231190185515123,-0.0240797546476684,10.596151788343375,-1.4549179828246732,0.1870062179422676,-1.24305354401728
2.62,-0.4076593283655863,-0.0493302646201914,1.580748032180164,0.0159774975386824,0.1192472620087902,0.0340344661302231,0.38808803482125,0.0639808344569038,0.0185637352616642,-0.4033565979512348,-0.0486751909898469,1.580985708881934,0.3967633294645095,0.0804233971826337,-0.0040976507416678,0.2686194993154904,-0.2554475276644041,0.0091889803582906,-0.08257456425936,10.58823570435834,-1.4521120880621812,0.1864418082567153,-1.2448879355378693
2.64,-0.4003387593850485,-0.0481194644352597,1.5810751197599402,0.0159371449363896,0.1188624995819596,0.0340737690218625,0.3826549199215751,0.0635334383804093,0.0159613793826728,-0.4033565979512348,-0.0486751909898469,1.580985708881934,0.3967633294645095,0.0804233971826337,-0.0040976507416678,0.302039554045711,-0.2716557449837453,-0.0223698038247267,-0.1301177939495653,10.45759701440238,-1.4529451813053351,0.1865783707681585,-1.2440966224482173
