t,x,y,z,roll,pitch,yaw,v_x,v_y,v_z,ref_x,ref_y,ref_z,ref_v_x,ref_v_y,ref_v_z,a_com,a_x,a_y,a_z,thrust,wind_x,wind_y,wind_z
0.0,-2.5236876487764808,-0.0698448489675228,2.042329766205711,0.0244186594246355,0.1500852780561921,0.0289432929233493,0.0022269162372384,0.0026483903340761,-0.0001048810475389,-2.523622051103459,-0.0696775749598795,2.0423283592613517,0.1021431644823553,0.0020579268407267,-0.10006032305718,0.173090491675865,0.1113458118619218,0.1324195167038077,-0.005244052376949,10.661784398933378,-1.413208187588742,0.1665732207613079,-1.2818034758856447
0.02,-2.523745647753642,-0.0697906816064524,2.0420947356646866,0.0256407181365946,0.1522523899232404,0.0290715803139424,-0.0078845490950813,0.0027469675239503,-0.0246557354884043,-2.523576302964619,-0.069712429450819,2.042324522153334,0.1022269177273545,-0.0139770177491242,-0.1001048825376551,1.3275879466212666,-0.5055732666159877,0.0049288594937076,-1.2275427220432704,10.662670926138162,-1.406983496638419,0.1647648113935556,-1.2754013720001036
0.04,-2.5239844084278538,-0.0696969276715484,2.0413075529621723,0.0288482232378818,0.1577800477875786,0.0294296148605494,-0.0149842795537118,0.0057098691194653,-0.0527785078390158,-2.523576302964619,-0.069712429450819,2.042324522153334,0.1022269177273545,-0.0139770177491242,-0.1001048825376551,1.4578025270370358,-0.3549865229315251,0.1481450797757499,-1.4061386175305726,9.146485952776402,-1.397065334979667,0.1607672282056603,-1.280508312237622
0.06,-2.524326276550157,-0.0695891787350584,2.0399592334975334,0.0335370653689605,0.1649030660623229,0.029957037496389,-0.0185216969899642,0.0046418002568567,-0.0806716824466353,-2.523576302964619,-0.069712429450819,2.042324522153334,0.1022269177273545,-0.0139770177491242,-0.1001048825376551,1.4068433485153289,-0.1768708718126227,-0.0534034431304281,-1.3946587303809777,9.094199404005847,-1.386331876391665,0.1553719665492345,-1.2856615046794344
0.08,-2.5246884408160577,-0.0695318543297789,2.038169781991163,0.0379835932249212,0.1722469232144212,0.0305024762393824,-0.0192001838884439,0.0014527166636915,-0.1063186665862848,-2.5225540337873453,-0.0698521996283102,2.041323473327957,0.1222269180253777,-0.0173020993657643,-0.1201048828356783,1.292670099150433,-0.0339243449239844,-0.1594541796582583,-1.2823492069824742,9.122409851886914,-1.3748215097829704,0.1497279009403817,-1.2912721127718336
0.1,-2.5250592340484284,-0.0695499843602552,2.035766728096325,0.0421823431153118,0.1800677962596297,0.0310722447779788,-0.0176125218788037,-0.003075767355959,-0.1326188749994977,-2.5205094954327985,-0.0701317399832927,2.0393213756772046,0.1622269186214242,-0.0239522625990445,-0.1601048834317247,1.336720614742958,0.0793831004820132,-0.226424200982529,-1.3150104206606414,9.182544816422704,-1.3635005184377045,0.1446872960444025,-1.296543325398566
0.12,-2.5253758737289536,-0.0696679643984351,2.0328474946383763,0.0457536740439833,0.1876998932870064,0.0316115694288236,-0.0139284422924801,-0.0084400031298415,-0.1579576447738815,-2.518464957078251,-0.0704112803382752,2.0373192780264517,0.2022269192174706,-0.0306024258323247,-0.2001048840277712,1.3080526762284768,0.1842039793161758,-0.2682117886941256,-1.2669384887191897,9.296003162756278,-1.3532960206242044,0.140617955334728,-1.3004001072980955
0.14,-2.525600972146865,-0.0698992073663204,2.029421376675129,0.0486845370882924,0.195002153792769,0.032106024364354,-0.0085957716666717,-0.0143093608614388,-0.1834060856219791,-2.5144204186939016,-0.0710233288549217,2.033317180345896,0.2422269198135171,-0.0372525890656049,-0.2401048846238176,1.3327695578980865,0.2666335312904213,-0.293467886579867,-1.2724220424048804,9.296003162756278,-1.343411683389778,0.1371138524262508,-1.3035571143680726
0.16,-2.525702201340548,-0.0702307219026903,2.025692673713885,0.0509498385538082,0.2015803348136923,0.0325305401517929,-0.0021912893451865,-0.0202041224430303,-0.2078299690672559,-2.510375880309552,-0.0716353773715682,2.0293150826653403,0.2822269204095636,-0.0439027522988851,-0.2801048852198641,1.296429414255259,0.3202241160742586,-0.2947380790795769,-1.221194172263844,9.293346852437937,-1.3340981980415478,0.1342644919785746,-1.3073768459905333
0.18,-2.52566369852409,-0.0707038705020465,2.021264162482462,0.0528285331607833,0.2081083775183375,0.0329260390151433,0.0058514352691878,-0.0267296872534334,-0.2337513374983115,-2.505331341910302,-0.0724136799690467,2.024312984969884,0.32222692100561,-0.0505529155321653,-0.3201048858159105,1.3956949493495696,0.4021362307187205,-0.3262782405201512,-1.296068421552779,9.28848616862615,-1.3251143993917691,0.1320062198266139,-1.3108499944917582
0.2,-2.525450431283616,-0.0713122283360446,2.016318575496326,0.0541365584391356,0.2142300115842803,0.0332601605078215,0.015210481270983,-0.0337450318169186,-0.2595088471202963,-2.4992868034961497,-0.0733582366473572,2.018310887259526,0.3622269216016564,-0.0572030787654454,-0.360104886411957,1.4144399097653266,0.4679523000897623,-0.3507672281742599,-1.2878754810992377,9.287021198007096,-1.3175884477055044,0.1305214143716686,-1.3136610704046736
0.22,-2.525036840358922,-0.0720666856738726,2.0108604366859644,0.0546653551027753,0.2199559805625865,0.0335138677460133,0.0258026826079327,-0.0412517203397389,-0.2850286778062737,-2.5246899072200666,-0.0729994799268905,2.003343133140312,0.1152104827610992,-0.0391648202333936,-0.3595088486104124,1.4316134778477008,0.5296100668474849,-0.3753344261410177,-1.2759915342988704,9.32859805683347,-1.310321089658252,0.1298593100472962,-1.315888766565491
0.24,-2.524410597908868,-0.0729785644074227,2.0053057641996395,0.0527128387757216,0.2249995342903854,0.0335504238260889,0.0396656366959277,-0.0536006592004191,-0.2983661241982586,-2.5246899072200666,-0.0729994799268905,2.003343133140312,0.1152104827610992,-0.0391648202333936,-0.3595088486104124,1.1429843210754718,0.6931477043997474,-0.6174469430340088,-0.6668723195992432,9.32859805683347,-1.3037387907860425,0.1322334925462299,-1.315946458195281
0.26,-2.5234600607925324,-0.0741497069672526,1.9991792554916377,0.0477699207829618,0.2298972194258728,0.0333415210594626,0.0547173524497011,-0.0621199110477281,-0.3136932210378201,-2.5246899072200666,-0.0729994799268905,2.003343133140312,0.1152104827610992,-0.0391648202333936,-0.3595088486104124,1.1554779278501677,0.7525857876886716,-0.4259625923654482,-0.7663548419780786,10.017765136501112,-1.2976869288383843,0.1381574903436336,-1.31738728065117
0.28,-2.5222057244119287,-0.0754450166567663,1.9927246709660311,0.0421392380192654,0.234441710561977,0.0330407450607261,0.0700624773913641,-0.0668146786697519,-0.3309955496037518,-2.523537802392456,-0.0733911281292244,1.999748044654208,0.1352104830591224,-0.0402487779166886,-0.3795088489084356,1.1799197814931175,0.767256247083151,-0.2347383811011912,-0.8651164282965834,9.884426765010176,-1.2927090278726945,0.1445739260265486,-1.318885493251841
0.3,-2.5207261476936105,-0.0767397428456669,1.9862573091134184,0.0370740429570039,0.2384732647158222,0.0327410092439434,0.0849978350119697,-0.0692500590826182,-0.3489241240659532,-2.5212335927372336,-0.0741744245338923,1.9925578676819995,0.1752104836551688,-0.0424166932832787,-0.4195088495044821,1.1730619839307863,0.746767881030276,-0.1217690206433169,-0.8964287231100709,9.69510758387969,-1.2878762328236513,0.1509639691492859,-1.3200451850801955
0.32,-2.518857925726792,-0.0781384460989761,1.9790673939280403,0.0323618278240961,0.2424472475805877,0.0324404136632725,0.1011130464105796,-0.0705101517359481,-0.3691977607415903,-2.5189293830820114,-0.0749577209385602,1.9853676907097912,0.2152104842512153,-0.0445846086498687,-0.4595088501005285,1.2964453478382718,0.8057605699304977,-0.0630046326664954,-1.0136818337818514,9.69510758387969,-1.283074183600347,0.1565411873561336,-1.3209008737828865
0.34,-2.516662412982184,-0.0795518375474631,1.9714607713465089,0.0283703009690791,0.2461674030533611,0.0321674704522107,0.1177082265540432,-0.0708164159440475,-0.390499229307848,-2.514625173396987,-0.0758494131115576,1.9761775137077808,0.2552104848472617,-0.0467525240164587,-0.4995088506965749,1.3502280963215385,0.8297590071731774,-0.0153132104049699,-1.0650734283128849,9.619257959237984,-1.278243849047948,0.1612019600443199,-1.3215799714672662
0.36,-2.5141285887766496,-0.0809633586599943,1.963423896186468,0.0251039897188527,0.2496484212620478,0.0319277865190934,0.1349250488759643,-0.0704352604858178,-0.4121362336037945,-2.510320963711963,-0.076741105284555,1.9669873367057704,0.2952104854433082,-0.0489204393830487,-0.5395088512926215,1.3826823616170414,0.8608411160960588,0.0190577729114883,-1.081850214797328,9.57064222763256,-1.2738959653263595,0.1648029419308772,-1.3224169535637855
0.38,-2.511396243356577,-0.0822934080487465,1.9553876386365228,0.0225777298203848,0.2527434831851468,0.0317279956017849,0.1518942171075062,-0.0696745828351432,-0.4327160023774275,-2.505016754012037,-0.0776869953417171,1.9567971596888585,0.3352104860393546,-0.0510883547496388,-0.5795088518886679,1.3342209184902685,0.8484584115770951,0.0380338825337292,-1.0289884386816497,9.561976896970918,-1.269469039420336,0.1678398725305752,-1.3229801976329376
0.4,-2.5081660480022743,-0.0836748414933547,1.9465034041221985,0.0204218859498851,0.2557904203517341,0.0315428971495294,0.1702998905202077,-0.0685549900034365,-0.4546450982144349,-2.4987125442972107,-0.078687083283044,1.9456069826570452,0.3752104866354011,-0.0532562701162288,-0.6195088524847143,1.4325742093452696,0.920283670635072,0.055979641585336,-1.0964547918503709,9.5663880004804,-1.264905133750021,0.1701998928709376,-1.3231023598632434
0.42,-2.504561683820552,-0.0850304758972228,1.9371797038847745,0.0187208361429228,0.2586338377819808,0.0313818315593971,0.1892816564966914,-0.0671044807543223,-0.4766359962968547,-2.499651053476264,-0.0871025909935265,1.9237711492114768,0.2702998920103238,-0.0776671012962159,-0.5244374284794802,1.4543134249011933,0.949088298824184,0.0725254624557081,-1.0995449041209917,9.554977452398816,-1.2605431470184472,0.17199829962244,-1.3230858878175946
0.44,-2.50050500548712,-0.0863231534190268,1.927653661497185,0.018538047611632,0.2611650874925112,0.0313201384467236,0.2158184778364543,-0.0625263451269229,-0.4736442664401116,-2.499651053476264,-0.0871025909935265,1.9237711492114768,0.2702998920103238,-0.0776671012962159,-0.5244374284794802,1.3547256735009965,1.326841066988148,0.2289067813699724,0.1495864928371587,9.556944177567855,-1.2543646487128253,0.1716773775361333,-1.31689408737669
0.46,-2.496150991000484,-0.0874700168662866,1.91867987477054,0.0205795579569543,0.2632409561084998,0.0314121967185202,0.2411692796976508,-0.0586821262063463,-0.4712695152839168,-2.499651053476264,-0.0871025909935265,1.9237711492114768,0.2702998920103238,-0.0776671012962159,-0.5244374284794802,1.2875175893641302,1.2675400930598226,0.1922109460288274,0.1187375578097366,11.175895294040856,-1.2538497346527442,0.1692568937438729,-1.3222929241881105
0.48,-2.491052975546664,-0.0886189456668091,1.9092500226380504,0.0244466801498084,0.2652072205509653,0.0316267904631429,0.2673097039109582,-0.0569590326555088,-0.4720029572098785,-2.4969480545561606,-0.0878792620064887,1.9185267749266817,0.2902998923083471,-0.0794895235547718,-0.5383958945324891,1.310370907887693,1.3070212106653725,0.0861546775418775,-0.0366720962980848,10.971215619491886,-1.2537298665974963,0.1646672121428848,-1.3279860739349325
0.5,-2.4854367087553,-0.0897653691918704,1.8997732203091415,0.0287190858118459,0.2670241396348877,0.0318660715026094,0.2930605824862587,-0.0578854540620596,-0.4756401126470687,-2.4915420567159545,-0.089432604032413,1.908038026357092,0.3302998929043935,-0.0831343680718836,-0.5663128266385072,1.301148438588643,1.2875439287650223,-0.0463210703275415,-0.1818577718595088,10.7730906230272,-1.2518219979004317,0.1596169350427742,-1.331851945383247
0.52,-2.4796260685180367,-0.0908874719410546,1.8906823484761213,0.0325216672007154,0.2686471181989396,0.0320706173603288,0.3173370782394212,-0.0601733336835366,-0.4811142942859978,-2.486136058875748,-0.0909859460583373,1.8975492777875027,0.3702998935004399,-0.0867792125889954,-0.5942297587445253,1.2495492225515508,1.2138247876581243,-0.1143939810738507,-0.2737090819464521,10.621251240397214,-1.249763931314641,0.1545601469879191,-1.3348933452720864
0.54,-2.473012158518281,-0.0921252141018917,1.8809835905125547,0.0360483129489996,0.2702657169772006,0.0322462590671938,0.3427978378455781,-0.0634693296117669,-0.4885494622191487,-2.4787300610057392,-0.0927215303101172,1.885664682612612,0.4102998940964864,-0.0904240571061071,-0.6221466908505434,1.3364089859354231,1.273037980307845,-0.1647997964115171,-0.3717583966575483,10.505373019332184,-1.247691859409333,0.150058129237829,-1.3370644521570123
0.56,-2.4658864824715208,-0.0934370918879835,1.8711308870074224,0.0390210304468228,0.2717972134556016,0.0323753800025626,0.3685345241715108,-0.0675122379161907,-0.4963521866106941,-2.4713240631357305,-0.0944571145618971,1.8737800874377215,0.4502998946925329,-0.0940689016232189,-0.6500636229565615,1.3597836579101914,1.2868343162966367,-0.2021454152211881,-0.3901362195772667,10.403938949843903,-1.2457270856502485,0.1462107418407881,-1.33830432910888
0.58,-2.458232832515378,-0.0948372645958615,1.8611194287399515,0.0413715936807629,0.2729280520305978,0.0324390633537648,0.3954772579586974,-0.0721783735319421,-0.5043853829516862,-2.4629180652508205,-0.0962838199266048,1.8611975689601807,0.4902998952885793,-0.0977137461403307,-0.6779805550625795,1.4249701479019825,1.3471366893593295,-0.2333067807875705,-0.4016598170496072,10.403938949843903,-1.243821098148982,0.1432068974938264,-1.3388932839599803
0.6,-2.450452213899105,-0.0962577855813158,1.851457039541992,0.0430235541690235,0.2731143449014372,0.0324144310357612,0.4220624092582944,-0.0770055871372451,-0.5122742114842909,-2.453512067351009,-0.0982016464042403,1.8479171271799892,0.5302998958846258,-0.1013585906574425,-0.7058974871685976,1.407396422859002,1.329257564979852,-0.2413606802651513,-0.3944414266302321,10.398234528853209,-1.2431717326117648,0.1407740603360315,-1.337813896472661
0.62,-2.4417119089421,-0.0978555839535394,1.8411203651899917,0.0441227553103836,0.2719322790778541,0.0322745295422267,0.4505140754026904,-0.0824870875641599,-0.5209728840012253,-2.42934909343619,-0.100108064938178,1.825843328967777,0.5220624107484106,-0.0785314582436686,-0.5368749594570177,1.512622769297837,1.4225833072197962,-0.2740750213457383,-0.4349336258467229,10.398234528853209,-1.2455328280197704,0.139209934940656,-1.33496893835659
0.64,-2.432288600598069,-0.0996193273766351,1.8308866634955772,0.0430301817984616,0.2679112591607345,0.031847040386525,0.4906714341037686,-0.0932650937576334,-0.5003978251400069,-2.42934909343619,-0.100108064938178,1.825843328967777,0.5220624107484106,-0.0785314582436686,-0.5368749594570177,2.3195430166825,2.0078679350539117,-0.5389003096736767,1.0287529430609232,10.376491197405812,-1.2509866228226092,0.1402100929713784,-1.3222730792297803
0.66,-2.4220731023182114,-0.1015836431656528,1.8211027458100904,0.0388638257637766,0.2600391083407658,0.0310556429823762,0.5280881818959597,-0.1018372670174965,-0.4791734334557551,-2.42934909343619,-0.100108064938178,1.825843328967777,0.5220624107484106,-0.0785314582436686,-0.5368749594570177,2.193154105454108,1.870837389609556,-0.4286086629931511,1.061219584212586,12.512878038444796,-1.2649993179950714,0.1451634475615481,-1.314043539895816
0.68,-2.4111661504954176,-0.10367411070106,1.8117041153968652,0.0334251867428115,0.249514488597124,0.0301290580942814,0.5601095104893806,-0.1064482085208656,-0.4615793925550675,-2.424128469328706,-0.1008933795206147,1.820474579373207,0.5420624110464338,-0.0788366324649533,-0.541795109051563,1.841315115379762,1.6010664296710442,-0.2305470751684565,0.8797020450343807,12.23597244611392,-1.280919786016021,0.1512437032725302,-1.303672298100612
0.7000000000000001,-2.3996787997914795,-0.1058281779208482,1.802622764472088,0.02794548217398,0.2374859262791147,0.0292290565886079,0.586500345909589,-0.1086166383840176,-0.4473100687454265,-2.413687221113738,-0.1024640086854881,1.8097370801840664,0.5820624116424803,-0.0794469809075226,-0.5516354082406538,1.503987935650019,1.3195417710104185,-0.1084214931575996,0.7134661904820511,11.924742413826609,-1.299417206445263,0.1576888263883511,-1.2903882780112004
0.72,-2.38832986572705,-0.1078979614023596,1.7942298365556038,0.0231345325552236,0.2256252746361134,0.0284677369002493,0.6064529749135771,-0.1091418627671776,-0.4367890190407623,-2.4032459728987696,-0.1040346378503614,1.7989995809949262,0.6220624122385268,-0.080057329350092,-0.5614757074297445,1.1281353550344329,0.9976314501994044,-0.0262612191579983,0.5260524852332082,11.64009441520011,-1.3180722853839495,0.1636046647402702,-1.275972296552292
0.74,-2.376025686373757,-0.1100753583911843,1.7855845263984451,0.0186459203829068,0.2135615710679204,0.0277921312372008,0.622548457792854,-0.1085636749285262,-0.4283868610479449,-2.390804724653999,-0.1056357844373633,1.7877700668463312,0.6620624128345732,-0.0806676777926614,-0.5713160066188352,0.9082884030280864,0.8047741439638434,0.0289093919325682,0.4201078996408702,11.382000557188803,-1.335571021707711,0.1687776681704439,-1.2613665018774944
0.76,-2.3634457370002435,-0.1122305019081697,1.777087148751445,0.0148222271123975,0.2026714235318431,0.0272500557912742,0.6344858358580587,-0.1070534313236083,-0.4217253091798371,-2.3783634764092283,-0.1072369310243651,1.7765405526977365,0.7020624134306197,-0.0812780262352308,-0.581156305807926,0.6876738036840561,0.5968689032602392,0.0755121802458971,0.3330775934053925,11.038986592577205,-1.34995658445032,0.1729028085339267,-1.2481588197413718
0.78,-2.3513012286371344,-0.1142434710182896,1.7691248381957578,0.011780432311471,0.1937044392662912,0.0268441756441742,0.6431933019386827,-0.1049887848249933,-0.4167237126119303,-2.3649222281495565,-0.1088533363224312,1.7650650310694145,0.7420624140266661,-0.0818883746778001,-0.5909966049970167,0.5125882824878972,0.4353733040312002,0.1032323249307493,0.2500798283953359,10.93186097312173,-1.3621164539390829,0.1764558488742767,-1.2360956292709633
0.8,-2.338362033893162,-0.1163152721320658,1.7608344458870135,0.009137433897731,0.1857572892002271,0.0265110589280138,0.6501489869064474,-0.1023421101463191,-0.4126243016590322,-2.350480979874984,-0.1104850003315615,1.7533435019613648,0.7820624146227125,-0.0824987231203695,-0.6008369041861075,0.4248282311307229,0.3477842483882332,0.1323337339337101,0.2049705476449059,10.93186097312173,-1.3718504162344511,0.1793182553757132,-1.2257879262176348
0.8200000000000001,-2.3253050970349785,-0.1183295217431543,1.752613070489501,0.0070205521370955,0.1793844266729321,0.0262575200012457,0.6550536962637524,-0.0992712285314712,-0.4097597029441116,-2.3058545845478395,-0.1214323776393818,1.740203230804062,0.7501489883965635,-0.1057923634261988,-0.4300752042700494,0.3228483141103989,0.2452354678652513,0.1535440807423911,0.1432299357460309,10.840846677728225,-1.3794583305729868,0.1814995929646726,-1.2175895133328438
0.84,-2.3121542571002816,-0.1202383604526078,1.744638346567056,0.0067327666009807,0.1753906240048497,0.0261652684811857,0.6597217619106314,-0.092393078492731,-0.3878644025086243,-2.3058545845478395,-0.1214323776393818,1.740203230804062,0.7501489883965635,-0.1057923634261988,-0.4300752042700494,1.1710080764017416,0.2334032823439469,0.3439075019370137,1.0947650217743632,10.75559068482471,-1.3857474589104006,0.1818698018565197,-1.2075881070178227
0.86,-2.299594775880959,-0.1219367249625248,1.7374467751278233,0.0087231610678991,0.1747783982664209,0.0262596662719198,0.6625339707162465,-0.0869546026426311,-0.3703349187706498,-2.3058545845478395,-0.1214323776393818,1.740203230804062,0.7501489883965635,-0.1057923634261988,-0.4300752042700494,0.9283969221976296,0.1406104402807584,0.2719237925049945,0.8764741868987264,12.02096608863667,-1.3856209784214966,0.1796403417117476,-1.21239452620128
0.88,-2.286301391533576,-0.1236340425782504,1.7302007095894472,0.0124944379334253,0.1768665278213255,0.0265023704857759,0.6669511593318277,-0.083591279885581,-0.355375096010822,-2.2983530946638737,-0.1224903012736438,1.7359024787613615,0.7701489886945867,-0.1064824140821747,-0.4335653847922529,0.7978405107525777,0.2208594307790579,0.1681661378525059,0.7479911379913912,11.702371246516122,-1.3822769764439915,0.1754752665722123,-1.2210892943147544
0.9,-2.272900267052288,-0.1252964221483372,1.723222962418744,0.0166253359835836,0.1807252362420455,0.0268019350632667,0.6731936475300226,-0.0829102816878464,-0.3432808062493141,-2.2833501148959425,-0.1246061485421678,1.7273009746759609,0.8101489892906332,-0.1078625153941266,-0.4405457458366598,0.6813667556559309,0.3121244099097475,0.0340499098867283,0.6047144880753946,11.475654168079927,-1.3767752141330007,0.171033722224377,-1.230195468775195
0.92,-2.259354219820945,-0.1269627893661019,1.716462906690638,0.020417484038622,0.1855095221185421,0.0271077368407156,0.681323436784295,-0.0837213144715887,-0.3333543723423497,-2.268347135128012,-0.1267219958106917,1.7186994705905596,0.8501489898866796,-0.1092426167060784,-0.4475261068810667,0.6428167266113243,0.4064894627136162,-0.0405516391871169,0.4963216953482202,11.314631320913575,-1.3698321166627268,0.1666567216102499,-1.2403462073421272
0.94,-2.2463167436074394,-0.1285703371505874,1.710210181547968,0.0234947362543448,0.1903058782926029,0.027380262173976,0.6907702255491008,-0.0853665979727139,-0.3253473298386552,-2.251344155330278,-0.1289068481448133,1.7097489484529382,0.8901489904827261,-0.1106227180180303,-0.4545064679254736,0.6246228970785239,0.4723394382402934,-0.0822641750562583,0.4003521251847247,11.136906673134035,-1.3629662774899405,0.1629062528288647,-1.250819674478576
0.96,-2.232381507654336,-0.1303020170439207,1.7037884241131342,0.0261495818598892,0.1951705344672113,0.0276336183793908,0.7023862744216285,-0.0876569794251338,-0.3172730635749995,-2.234341175532544,-0.1310917004789349,1.7007984263153169,0.9301489910787726,-0.1120028193299822,-0.4614868289698804,0.7165406727865291,0.5808024436263826,-0.1145190726209957,0.4037133131827852,11.136906673134035,-1.3564474061023346,0.1597977319093785,-1.2593485622236815
0.98,-2.218191329511745,-0.1320854884708877,1.6975239208236286,0.0281819796915779,0.1993278459016667,0.0278327636792347,0.7160413801886011,-0.0904422454878444,-0.3095912792298156,-2.216338195719909,-0.1333110553458552,1.6916733951515854,0.9701489916748188,-0.1133829206419341,-0.4684671900142874,0.7956592098273091,0.6827552883486299,-0.1392633031355276,0.3840892172591925,11.134326018340287,-1.3508833261934017,0.157471780581191,-1.266369296463442
1.0,-2.203712666356457,-0.1339290410865756,1.691408347472482,0.0295835446636999,0.2022948779109306,0.0279576492113981,0.7310525217835495,-0.093683866324283,-0.302347984567611,-2.1973352158923736,-0.1355649127455744,1.6823738549617435,1.0101489922708653,-0.1147630219538859,-0.4754475510586942,0.8489814414849514,0.7505570797474215,-0.1620810418219334,0.3621647331102318,11.123961963317017,-1.346784264777014,0.1557269296931691,-1.2718067701814264
1.02,-2.1896726440138723,-0.1357452834573367,1.685727593449316,0.0301955233070504,0.2037953564011715,0.0279869998144545,0.7459598132822901,-0.0972506796876733,-0.29597425578415,-2.182389260502315,-0.1366076007452799,1.6820443568621375,0.8160413816787172,-0.0771467822015041,-0.3394088846209604,0.8300209575709551,0.7453645749370297,-0.1783406681695139,0.3186864391730493,11.123961963317017,-1.3446779828967053,0.1548680745371368,-1.2748862035930069
1.04,-2.1745219942930256,-0.1377990167710939,1.6799599435772747,0.0278039958664717,0.2025285245015479,0.0277212224449176,0.7684567109524251,-0.1072593313606167,-0.280621448637089,-2.182389260502315,-0.1366076007452799,1.6820443568621375,0.8160413816787172,-0.0771467822015041,-0.3394088846209604,1.4508550930276298,1.1248448835067482,-0.5004325836471687,0.7676403573530527,11.101824062327978,-1.3453660891613932,0.1575019749957993,-1.2758332206454737
1.06,-2.1589335108971466,-0.1400039781408276,1.674493099319328,0.0217938077962687,0.1969084652984683,0.0271093902664499,0.7885157411060345,-0.1118239637561394,-0.2667411541925965,-2.182389260502315,-0.1366076007452799,1.6820443568621375,0.8160413816787172,-0.0771467822015041,-0.3394088846209604,1.240829494204861,1.0029515076804718,-0.2282316197761369,0.6940147222246229,11.775302315892986,-1.3519363641429778,0.1639451177506511,-1.2660871115820975
1.08,-2.143805910127877,-0.1421334516546114,1.6695288347911978,0.0153724646164238,0.1890935197922514,0.0264829887022957,0.8024485704751652,-0.1119329395047327,-0.2564306056079189,-2.174228846685528,-0.1373790685672949,1.678650268015928,0.8360413819767404,-0.0744876895442361,-0.3453724056991893,0.866664615148339,0.6966414684565325,-0.005448787429664,0.515527429233878,11.306138181334973,-1.362750756732371,0.1716440509457575,-1.2532292967361316
1.1,-2.1276503264385886,-0.1443490974327665,1.664487213126891,0.0089840943837538,0.1799285061199107,0.0259123039124169,0.8119938588546151,-0.1095703390241577,-0.2483764675532694,-2.1579080190519537,-0.138922004211325,1.6718620903235089,0.8760413825727869,-0.0691695042297,-0.3572994478556472,0.6355382582524609,0.477264418972495,0.1181300240287508,0.4027069027324775,11.306138181334973,-1.3747528100165582,0.1788909801410631,-1.2392767710034545
1.12,-2.1113532965856714,-0.1464986357853218,1.6595749839562208,0.0033943531478853,0.1711278019771038,0.0254759583471957,0.8169920275365559,-0.1055352285177487,-0.243362549516906,-2.1415871914183797,-0.1404649398553551,1.6650739126310896,0.9160413831688332,-0.0638513189151639,-0.3692264900121051,0.4074407350997094,0.2499084340970403,0.2017555253204503,0.2506959018181709,11.087461236939816,-1.3860935843083,0.185212545534413,-1.2264421513374064
1.14,-2.094998441793504,-0.1485541819285642,1.6547316572119513,-0.0012473023121975,0.1636991513489415,0.025171292553738,0.8182237034285555,-0.100363238427068,-0.2411964722977433,-2.1232663637550027,-0.1417419662336584,1.6576893828308474,0.9560413837648798,-0.0585331336006278,-0.381153532168563,0.2870470236755971,0.0615837945999842,0.2585995045340329,0.1083038609581324,10.879978815592947,-1.395183570243728,0.19020788975176,-1.215968115159075
1.16,-2.079468660283329,-0.1504036649530526,1.6501539563314704,-0.0048134828060191,0.1586408968748976,0.0249784888666792,0.8163855802200759,-0.0947240267230327,-0.2407643344796059,-2.104945536091626,-0.1430189926119617,1.6503048530306053,0.9960413843609264,-0.0532149482860917,-0.3930805743250209,0.2973472240762704,-0.0919061604239823,0.2819605852017681,0.0216068909068709,10.708091219383276,-1.4026473281129286,0.1945207658450724,-1.2079425256494856
1.18,-2.063180859059641,-0.1522298423498915,1.645332549371971,-0.00776148524735,0.1561805882947854,0.0248439555193141,0.8125016360285545,-0.0882880899032585,-0.2414550608237625,-2.085624708413348,-0.1441630643574015,1.6426221471764515,1.0360413849569727,-0.0478967629715556,-0.4050076164814788,0.3774367765384346,-0.1941972095760691,0.3217968409887091,-0.0345363172078325,10.607355887757876,-1.405784994788596,0.1978798665933401,-1.204548612930665
1.2,-2.046968508686688,-0.1539222829018919,1.640487264335382,-0.0099513199638092,0.1566759226800141,0.024753519327063,0.809241869653277,-0.081383105262023,-0.2430928569588521,-2.065303880720169,-0.145174181469978,1.6346412652683868,1.076041385553019,-0.0425785776570195,-0.4169346586379368,0.3904717207980692,-0.1629883187638736,0.3452492320617756,-0.0818898067544759,10.534241338093125,-1.4045246536410685,0.2002582741825492,-1.2057550127191
1.22,-2.0308033878807272,-0.1554711450719406,1.6356029637151102,-0.0113897629337303,0.1592281662149005,0.0247018594914099,0.8077135907725428,-0.0739754733000356,-0.2452743457023202,-2.0065064152040235,-0.1579914381649931,1.6283326214874394,0.9092418711433932,-0.075324972986084,-0.2657612093094447,0.3935973220165298,-0.0764139440367128,0.3703815980993695,-0.109074437173405,10.452042670714036,-1.400842683753594,0.2019786323550953,-1.2097769512977088
1.24,-2.0154134119366955,-0.1567359861639405,1.6310938122475402,-0.0099952602161147,0.162259857297939,0.0248441819291983,0.8124094193817768,-0.0604754189504258,-0.229268788995635,-2.0065064152040235,-0.1579914381649931,1.6283326214874394,0.9092418711433932,-0.075324972986084,-0.2657612093094447,1.0729400254215444,0.2347914304617004,0.6750027174804909,0.8002778353342579,10.452042670714036,-1.396578622615952,0.2008260607858071,-1.2195985413793349
1.26,-1.99910993606708,-0.1578311502375654,1.6266688640205442,-0.0049264906879683,0.1652867177352406,0.0252579202677457,0.817757514364502,-0.0507357444293384,-0.214271689434543,-2.0065064152040235,-0.1579914381649931,1.6283326214874394,0.9092418711433932,-0.075324972986084,-0.2657612093094447,0.9332421644009036,0.2674047491362574,0.4869837260543689,0.7498549780545982,11.699690030279273,-1.3939862554170854,0.1955246577590663,-1.2277627766255657
1.28,-1.982695330808318,-0.1587887367693025,1.6225081233544447,0.0012121070185213,0.1681543455332356,0.0257601424290439,0.8235120046446347,-0.0457563494500823,-0.2025547590175963,-1.9974139964925897,-0.1587446878948539,1.625675009394345,0.9292418714414163,-0.0741133465308962,-0.2702948797795632,0.698561005101118,0.2877245140066375,0.2489697489628021,0.5858465208473357,11.490197375096614,-1.3905605986856917,0.1891855950355188,-1.2347256781820226
1.3,-1.9669920908861236,-0.1596349211089469,1.618747901773099,0.0067946346502197,0.1706835494321067,0.0262298453138525,0.8292285254533152,-0.0435565391455298,-0.1938516314361671,-1.9792291590697215,-0.1602511873545756,1.6203597852081562,0.9692418720374628,-0.0716900936205206,-0.2793622207198002,0.532123588160511,0.2858260404340229,0.109990515227629,0.4351563790714621,11.302338956124911,-1.3870743962159398,0.1826972092237863,-1.2409280792677089
1.32,-1.9503428158082567,-0.160497877338998,1.6149483839256604,0.011959385828696,0.173170711062832,0.0266810659896741,0.8354472222502607,-0.0428260581885453,-0.1866519666248436,-1.9610443216468536,-0.1617576868142972,1.6150445610219673,1.0092418726335093,-0.069266840710145,-0.2884295616600373,0.477076947871795,0.3109348398472766,0.0365240478492203,0.3599832405661737,11.155676360019244,-1.3837712452550506,0.1769675852474541,-1.2461849300226315
1.34,-1.9335661909023956,-0.1613588535247375,1.611274058800774,0.0162563105895827,0.1755043909718632,0.0270748339338636,0.841951070521681,-0.043230500435027,-0.1812152510786195,-1.9408594841941835,-0.1631430236285001,1.6092759697887664,1.0492418732295556,-0.0668435877997694,-0.2974969026002743,0.4243273848072724,0.3251924135710182,-0.0202221123240812,0.2718357773112051,10.945300541363396,-1.380599215272403,0.1721748989881208,-1.2506503808760796
1.36,-1.916655149920175,-0.162237293591118,1.6076992218455175,0.0196565675438592,0.1776764791675371,0.0274058527118022,0.8488772169510932,-0.0444273541074441,-0.176541058602496,-1.9206746467415132,-0.164528360442703,1.6035073785555658,1.0892418738256022,-0.0644203348893938,-0.3065642435405114,0.4220546125168112,0.3463073214706069,-0.0598426836208539,0.2337096238061747,10.945300541363396,-1.3778620972130151,0.1685535334698742,-1.254356895032143
1.38,-1.9004525006202304,-0.1630985188445063,1.6043842409498483,0.0221429118727821,0.1794277574463756,0.0276624680194935,0.8563048155251282,-0.0460234462921591,-0.1726380484004807,-1.899489809273942,-0.1658531159341466,1.597512103798859,1.1292418744216486,-0.0619970819790182,-0.3156315844807484,0.4270545031847522,0.3713799287017483,-0.0798046092357514,0.1951505101007652,10.915282912194016,-1.375151777659784,0.1655895212384662,-1.2574862732900822
1.4,-1.883239456773897,-0.1640400570760422,1.600969511909044,0.0240941887246553,0.1807292441980595,0.0278723599485769,0.8645903303126588,-0.0479561993135838,-0.1690603672266857,-1.8773049717914696,-0.1671172901028307,1.5912901455186463,1.169241875017695,-0.0595738290686426,-0.3246989254209855,0.4614788514047583,0.4142757393765295,-0.0966376510712376,0.1788840586897516,10.889237808178224,-1.3732973609199306,0.1634083563324563,-1.2595434554358922
1.42,-1.865857631406475,-0.1650242962460313,1.5976195796460528,0.0253986093043169,0.1813737586512175,0.0280180135336822,0.8731296076606034,-0.0503350289981144,-0.1661329194664207,-1.840009940258264,-0.1664378670417214,1.59251649354771,0.9645903318027748,-0.0404122168413131,-0.1900531715453521,0.4667655693230949,0.4269638673972342,-0.1189414842265264,0.1463723880132481,10.861403691626949,-1.3724342446013114,0.1619680724411841,-1.2604393323611662
1.44,-1.8482334027499148,-0.1660812956824622,1.5944688827656432,0.0253157876332358,0.1799389054107087,0.0280104009541104,0.8886382980842129,-0.0549172204459913,-0.1490492741433113,-1.840009940258264,-0.1664378670417214,1.59251649354771,0.9645903318027748,-0.0404122168413131,-0.1900531715453521,1.176187585640733,0.7754345211804736,-0.2291095723938447,0.8541822661554704,10.82570747776208,-1.373382295727496,0.1620464156027815,-1.2624172429239326
1.46,-1.831216463340824,-0.1671668281316551,1.5917777009222418,0.0235451794015324,0.1755900436557449,0.0278129325626436,0.9015107967305868,-0.0589266063700429,-0.1350749705224178,-1.840009940258264,-0.1664378670417214,1.59251649354771,0.9645903318027748,-0.0404122168413131,-0.1900531715453521,0.9708984995582652,0.6436249323186927,-0.2004692962025808,0.6987151810446735,11.784918592877148,-1.3795747753636152,0.1642043820988095,-1.255879338214793
1.48,-1.813083256691192,-0.1683777173326149,1.58920132355087,0.0202094916805597,0.1689693975026165,0.027474076953251,0.9106926208292836,-0.0614787290161382,-0.1233930527480055,-1.8303640369402363,-0.1668419892101345,1.5906159618322564,0.984590332100798,-0.038903420346859,-0.1942517324090854,0.7538010789794873,0.4590912049348472,-0.1276061323047649,0.5840958887206177,11.554277921267383,-1.3880939269361123,0.1680525218069223,-1.2457498087436123
1.5,-1.7948150453707898,-0.16961044293426,1.58682453992886,0.016470525938305,0.1617670131149422,0.027128925748356,0.9153909691164784,-0.0615596788268903,-0.1149866659901148,-1.8110722303041809,-0.1676502335469608,1.5868148984013493,1.0245903326968446,-0.0358858273579507,-0.202648854136552,0.4815297701671381,0.2349174143597365,-0.0040474905376088,0.4203193378945355,11.092829141514812,-1.3971289834621266,0.1723275384437876,-1.2347113066285669
1.52,-1.7764942305949367,-0.1708284592569525,1.5845838825432108,0.012994692678167,0.1551652347518881,0.0268466255960417,0.9162807174555172,-0.0602290748213607,-0.1096127106929898,-1.7917804236681254,-0.168458477883787,1.5830138349704423,1.064590333292891,-0.0328682343690424,-0.2110459758640186,0.2803638469108079,0.0444874169519327,0.0665302002764801,0.2686977648562474,11.092829141514812,-1.405083354175505,0.1761107423244903,-1.2249351745906092
1.54,-1.7591077513560038,-0.1719515924403467,1.5825279387432114,0.0101663076780778,0.1504129595408063,0.0266568606910596,0.9137704402502924,-0.0581361794865465,-0.1070493373862698,-1.7704886170022676,-0.1691158425711679,1.578792915453162,1.1045903338889371,-0.0298506413801341,-0.2194430975914852,0.20768115730106,-0.1255138602612393,0.1046447667407114,0.1281686653360009,10.896502599964151,-1.4118481044518072,0.1795619161579172,-1.2167669554763405
1.56,-1.7408868943182196,-0.1730859332582182,1.5804037764171208,0.0077076539409589,0.1480805259444211,0.0265371745210969,0.9084182751288457,-0.0554517705522276,-0.1055573284270764,-1.7491968103364095,-0.1697732072585487,1.5745719959358817,1.144590334484984,-0.0268330483912258,-0.2278402193189518,0.3085361143699226,-0.267608256072338,0.1342204467159466,0.0746004479596711,10.74374159929721,-1.4150403086002743,0.1824244558681848,-1.213334064532315
1.58,-1.722772990964548,-0.1741609638358442,1.5782986965783112,0.0057801910787114,0.1488231418548305,0.026486144213767,0.9036395423462892,-0.0522778037754653,-0.1050451539088381,-1.7269050036556508,-0.1703551321212069,1.5701411483754146,1.1845903350810305,-0.0238154554023175,-0.2362373410464184,0.2879786226623582,-0.2389366391278236,0.158698338838116,0.0256087259119158,10.671222200324337,-1.4134776677405447,0.1845427175815631,-1.215006412771085
1.6,-1.705634320894455,-0.1751192091797623,1.5763043525292362,0.0044251600132869,0.151475311476554,0.0264838317917601,0.9009195569394856,-0.0488068515196798,-0.1049298698105994,-1.7036131969599906,-0.1708616171591423,1.565500372771761,1.2245903356770766,-0.0207978624134092,-0.2446344627738849,0.2205624661998986,-0.1359992703401702,0.1735476127892744,0.0057642049119337,10.592288354673656,-1.409354805035774,0.1862364239668099,-1.2195330093316763
1.62,-1.6876277920006977,-0.1760521764036079,1.574206030548951,0.0035748481481855,0.1554332915760877,0.0265265021163167,0.9000944370335527,-0.0446929358837247,-0.104928981007774,-1.6605883430474808,-0.1775595517557463,1.571057859038706,1.0009195584296018,-0.0203543079778907,-0.1311367487558308,0.2097923110417346,-0.0412559952966462,0.2056957817977531,4.444014127108487e-05,10.592551715581068,-1.4039890585585897,0.1873195860808258,-1.2262350862120095
1.64,-1.6695678965099316,-0.1769447502676637,1.5722193679275702,0.0019321981554224,0.1589201060839752,0.026512135171701,0.9060485839359324,-0.0443270965312381,-0.0931458325711917,-1.6605883430474808,-0.1775595517557463,1.571057859038706,1.0009195584296018,-0.0203543079778907,-0.1311367487558308,0.6603565151595681,0.2977073451189804,0.0182919676243318,0.5891574218291131,10.592551715581068,-1.4001321326166505,0.1894471701595041,-1.2342270655063776
1.66,-1.6513876723253604,-0.1778039645099048,1.570469837286964,-0.0010165219596373,0.1609521520473771,0.0264032906669786,0.911583975516034,-0.0413375008558921,-0.0824706711894614,-1.6605883430474808,-0.1775595517557463,1.571057859038706,1.0009195584296018,-0.0203543079778907,-0.1311367487558308,0.6195508711419364,0.2767695790050761,0.1494797837672971,0.5337580690865172,11.401337886996773,-1.397525702293131,0.1927911255943049,-1.238564986303328
1.68,-1.634022517065984,-0.1785444443704835,1.5689797147346607,-0.0039625140100479,0.1620890549110309,0.0262929351935788,0.9160209214905084,-0.0367219967083007,-0.0749171577990803,-1.6505791474631848,-0.1777630948355252,1.569746491551148,1.020919558727625,-0.0146637992695329,-0.1363781245448771,0.4950882059176573,0.2218472987237318,0.2307752073795722,0.3776756695190508,11.247902723412151,-1.3960066051005835,0.1965403540252686,-1.2418545257526927
1.7,-1.615661231708238,-0.179217731512865,1.567543879465684,-0.0067821717094464,0.1628773006504995,0.026203020476117,0.919850645987594,-0.0308492266352723,-0.0691638958623086,-1.6305607562945927,-0.178170180995083,1.5671237565760312,1.0609195593236715,-0.0032827818528173,-0.1468608761229697,0.4534761321374591,0.1914862248542703,0.2936385036514194,0.2876630968385855,11.085775865698452,-1.3951489294505035,0.1999927054027356,-1.2442528144102425
1.72,-1.5972304534962192,-0.1797654557404941,1.5662015468381227,-0.0091577079008565,0.1635903956512506,0.0261506220773072,0.9230440773451624,-0.0242578688647056,-0.0654408294545395,-1.610542365126001,-0.1785772671546408,1.5645010216009143,1.100919559919718,0.0080982355638982,-0.1573436277010623,0.4108078156868824,0.1596715678784221,0.3295678885283362,0.1861533203884588,10.83617139904254,-1.3943896039883334,0.2028144091639425,-1.24626603076565
1.74,-1.5796669326023145,-0.1801586752966593,1.564977968377076,-0.0109496772877503,0.1644180855840797,0.02613729783459,0.9256507936610197,-0.0175518711456488,-0.0635412637924057,-1.5885239739276062,-0.1784153024433628,1.5613541490468934,1.1409195605157645,0.0194792529806139,-0.1678263792791549,0.3720676183978824,0.1303358157928646,0.335299885952838,0.0949782831066899,10.744088777011711,-1.3934009852659393,0.2052447739199558,-1.2485037690254646
1.76,-1.5611267780093585,-0.1804322346495848,1.5637210706675866,-0.0123844774321082,0.1655921629797638,0.0261564987405121,0.9282893878508144,-0.0101738577798071,-0.0622860596163064,-1.5665055827292118,-0.1782533377320849,1.558207276492872,1.1809195611118108,0.0308602703973295,-0.1783091308572474,0.3967770093158532,0.1319297094897309,0.368900668292083,0.0627602088049617,10.744088777011711,-1.391971903727635,0.2071647927909838,-1.2514104152598364
1.78,-1.5425273696158626,-0.1805497392666013,1.5624818181793072,-0.0131671372564988,0.1669777380957079,0.0262232339601362,0.9315692442034784,-0.0020403489537399,-0.061708043245483,-1.5434871915159163,-0.177806847585389,1.5547983351493986,1.2209195617078572,0.0422412878140451,-0.18879188243534,0.4394471710079708,0.1639928176332017,0.4066754413033599,0.02890081854117,10.673925346621218,-1.3900558982736264,0.2083004405625146,-1.2547508810789718
1.8,-1.5247914148175032,-0.1805058017326651,1.56131003153555,-0.0130617808331495,0.16823629392679,0.0263505479172776,0.9352237054150082,0.0061466159406276,-0.0616705049942526,-1.5194688002877197,-0.1770758320032753,1.5511273250164723,1.2609195623039036,0.0536223052307607,-0.1992746340134326,0.4482825282355161,0.1827230605764951,0.409348244718383,0.0018769125615221,10.648671479185396,-1.3882033373044491,0.2084958755886208,-1.2582512942355586
1.82,-1.5060432772741656,-0.1802914728727286,1.5600723432030947,-0.0119101873122117,0.169347806613394,0.0265634660634605,0.9394080272409576,0.0147594764972893,-0.0621232314309079,-1.478030229546753,-0.1801984709356337,1.5582265062858374,1.0160116844813802,0.0406879806998344,-0.0918971677492651,0.4793090791390794,0.209216091297465,0.4306430278330841,-0.0226363218327661,10.623296051861873,-1.386734641062697,0.2074687379304725,-1.2614793972365306
1.84,-1.4871133959595992,-0.1799066665245663,1.558933097616585,-0.0097208955369155,0.1677735935308247,0.0268794334400241,0.9536072554099034,0.0231971203739945,-0.0511768686144759,-1.478030229546753,-0.1801984709356337,1.5582265062858374,1.0160116844813802,0.0406879806998344,-0.0918971677492651,0.9907506922693172,0.709961408447296,0.42188219383526,0.5473181408215982,10.623296051861873,-1.3858251394265573,0.2053885498001901,-1.265880001876983
1.86,-1.4688805422625515,-0.1794022619341364,1.5580531636951265,-0.0071265089084228,0.1616352116034115,0.0272483850594067,0.9641840068135914,0.0293317069045236,-0.0419790658141786,-1.478030229546753,-0.1801984709356337,1.5582265062858374,1.0160116844813802,0.0406879806998344,-0.0918971677492651,0.7650169908392923,0.5288375701843984,0.3067293265264571,0.4598901400148663,11.447235079816892,-1.395970374901006,0.2026616571986367,-1.257633122118663
1.88,-1.4495355914583803,-0.1787633482789581,1.5572843318347456,-0.0046014858725676,0.152570500483939,0.0276160279652033,0.9692364172447104,0.0342427532021041,-0.0355054103655561,-1.4678701127019391,-0.1797915911286354,1.5573075346083447,1.0321692802946547,0.0475962536516757,-0.0979425003002676,0.4784178136549162,0.2526205215559574,0.2455523148790205,0.3236827724311268,11.23661517297387,-1.4085157336580532,0.2001050724214265,-1.2453238467693226
1.9,-1.430150922893184,-0.1780366297838294,1.5566069239932665,-0.0025568024908778,0.1428813019860099,0.0279265599890435,0.9686341119993972,0.038242536511029,-0.0326921128046399,-1.4475498790123114,-0.1789778315146387,1.5554695912533594,1.0644844719212034,0.0614127995553584,-0.1100331654022726,0.2463517875576695,-0.0301152622656619,0.1999891654462484,0.14066487804581,10.989776609712862,-1.4210968141090514,0.1980620568387202,-1.231921599745497
1.92,-1.4108292336570107,-0.1772370900711575,1.5559501548917865,-0.0010856657441553,0.1341122681315957,0.0281742957061685,0.9633910677989448,0.0415505136400202,-0.0332532937818716,-1.4272296453226838,-0.178164071900642,1.553631647898374,1.0967996635477522,0.0752293454590412,-0.1221238305042776,0.3112360409039773,-0.2621522100226203,0.1653988564495573,-0.0280590488615863,10.747226754734584,-1.4317991963788543,0.1967100193677442,-1.2198720141172796
1.94,-1.3926096395086545,-0.1764233547546057,1.5552864221786764,-0.0003848473406393,0.127724561811483,0.0283483577947012,0.9547203977188908,0.0440312028966228,-0.0365639047587855,-1.4052936520517287,-0.1766594849914612,1.5511891712882886,1.1291148551743009,0.0890458913627239,-0.1342144956062826,0.4803500907292276,-0.4335335040027033,0.1240344628301293,-0.1655305488456933,10.539616804185243,-1.4406535904173852,0.1960954054118255,-1.2094119448142724
1.96,-1.3736401353173149,-0.1755200749336698,1.554505473439323,-0.0005529996449471,0.1240827451179432,0.0284649058987469,0.942568074500411,0.046235200169883,-0.041412448464543,-1.3833576587807737,-0.1751548980822803,1.548746694678203,1.1614300468008498,0.1028624372664066,-0.1463051607082876,0.6634096390119442,-0.6076161609239905,0.1101998636630113,-0.242427185287878,10.308620352742764,-1.4458149743658335,0.1965135342392658,-1.2031668410431435
1.98,-1.3549217853587423,-0.1745701416921816,1.553618376340122,-0.0016813339333478,0.1242004832585887,0.0285145619812838,0.930307131184564,0.0487309619798556,-0.0470971435972604,-1.360613785719155,-0.1733048975255074,1.5460019514405672,1.1937452384273983,0.1166789831700893,-0.1583958258102926,0.6871595825542817,-0.6130471657923464,0.124788090498629,-0.2842347566358694,10.308620352742764,-1.445158868794752,0.1979333879735678,-1.203842734762942
2.0,-1.3364276811335665,-0.1735634916212175,1.5526148582673025,-0.003625685943777,0.1271929139404043,0.028502775471526,0.9200985400786365,0.0518908918057394,-0.0529839132795544,-1.3370620328668723,-0.1711094833211425,1.5429549415753814,1.2260604300539473,0.130495529073772,-0.1704864909122976,0.610029806986738,-0.5104295552963822,0.1579964912941895,-0.2943384841146999,10.242179144531292,-1.4414012196581534,0.2001296699291702,-1.2082502309246577
2.02,-1.3190234524133406,-0.1725361375689981,1.5515544885899533,-0.0059153845320315,0.1317072204861039,0.0284502962118984,0.9126986230359256,0.056242620230899,-0.0583590930747063,-1.2904227541296347,-0.1709689470309306,1.5499656626033245,0.980916910510298,0.0845136873577547,-0.076559031091115,0.5064308204373903,-0.3699958521355462,0.2175864212579828,-0.2687589897575948,10.242179144531292,-1.4349409444044143,0.2029637460032355,-1.215524839835567
2.04,-1.3007448896053502,-0.1713138855027117,1.5504676411458134,-0.0071332381788219,0.1352141791355728,0.0284812538239253,0.9156496710203346,0.065399223453379,-0.0493069380706755,-1.2904227541296347,-0.1709689470309306,1.5499656626033245,0.980916910510298,0.0845136873577547,-0.076559031091115,0.660480084857251,0.1475523992204519,0.457830161124001,0.4526077502015415,10.257942482317048,-1.428746487985179,0.2045591629053155,-1.2249133501129437
2.06,-1.2824043331404678,-0.1699188340302416,1.5495755025567146,-0.006514852353589,0.1352877977836389,0.0286640631533207,0.9180155402214288,0.0735055037566023,-0.040530134544063,-1.2904227541296347,-0.1709689470309306,1.5499656626033245,0.980916910510298,0.0845136873577547,-0.076559031091115,0.6089774166089216,0.1182934600547136,0.4053140151611657,0.4388401763306251,11.242805119548391,-1.4292303358094096,0.204251481601079,-1.2279088085430463
2.08,-1.2640363010469924,-0.1683705601548143,1.548826270357615,-0.0045634904136669,0.132820822392815,0.0289522999578915,0.9184763715307668,0.0807862015729916,-0.0348052619191501,-1.2806135850245317,-0.170123810157353,1.5492000722924133,0.9930805845966304,0.0910382464681577,-0.0812740546534272,0.4636676955555507,0.0230415654668969,0.3640348908194618,0.2862436312456438,11.11458765039879,-1.432272811632162,0.2025304576646892,-1.2272207742100878
2.1,-1.2466016069645445,-0.1667788748695474,1.548193823081952,-0.001859516859761,0.1288696161913825,0.0292804304402602,0.9165718924597251,0.0861324922048536,-0.0320289182627808,-1.2609952468143255,-0.1684335364101979,1.547668891670591,1.0174079327692949,0.1040873646889638,-0.0907041017780514,0.3159032611046972,-0.0952239535520815,0.2673145315930998,0.1388171828184649,10.75648297353473,-1.43812207606202,0.1997054130005682,-1.2230715686313272
2.12,-1.22831802935392,-0.1650173889866883,1.5475612464847543,0.0009926795025554,0.123948793458668,0.0296081161891311,0.9116368522091716,0.089726061089188,-0.0314688756318399,-1.2413769086041198,-0.1667432626630428,1.5461377110487686,1.0417352809419596,0.11713648290977,-0.1001341489026757,0.3065208286132971,-0.2467520125276845,0.1796784442167222,0.0280021315470432,10.75648297353473,-1.4448443475150934,0.1968149595491219,-1.2167857226891965
2.14,-1.2101676364884828,-0.1631968319412278,1.546915857971624,0.0033636271194329,0.1193856821952164,0.0298834288684593,0.903433307556622,0.0922201767997845,-0.0331814670567124,-1.2205422029852806,-0.1644005330048474,1.5441350280707151,1.0660626291146242,0.1301856011305761,-0.1095641960272999,0.4371833923903266,-0.4101772326274788,0.1247057855298251,-0.0856295712436228,10.605193878934188,-1.4511009275006923,0.1944427787577187,-1.2103017064801789
2.16,-1.1922156441323448,-0.1613345120866036,1.5462206560716056,0.0050847944373084,0.1164840976683795,0.03010559448509,0.8921156627206668,0.094027031295593,-0.0362382927649834,-1.1997074973664414,-0.162057803346652,1.5421323450926616,1.090389977287289,0.1432347193513822,-0.1189942431519242,0.5930809203063927,-0.5658822417977549,0.0903427247904251,-0.1528412854135505,10.473191742261406,-1.455329801772228,0.1928601571153259,-1.205903274753377
2.18,-1.1753861558043714,-0.1595343034626281,1.545496456389439,0.0061257095921018,0.1161441658624688,0.0302810700583778,0.8803064630828337,0.0954462209550426,-0.039847034482695,-1.1782646080432857,-0.1593888457329365,1.5398939109364924,1.1147173254599534,0.1562838375721884,-0.1284242902765484,0.621478704705234,-0.5904599818916556,0.0709594829724803,-0.1804370858855781,10.410514410296855,-1.4555661243956484,0.1918052219944276,-1.205891908745301
2.2,-1.15789928662095,-0.1576126072492421,1.5446562561559842,0.0065406152547496,0.1179855514794475,0.0304291353267614,0.869253725925107,0.0966931319996765,-0.0440045909925772,-1.1562135350158131,-0.1563936601637008,1.5374197256022075,1.139044673632618,0.1693329557929945,-0.1378543374011727,0.5937235509138201,-0.552636857886335,0.0623455522316913,-0.2078778254941102,10.36401288266461,-1.4528006966682483,0.1914942135982676,-1.2092507509829349
2.22,-1.1406151213694853,-0.1556666234757818,1.543732119833779,0.0061788604847521,0.1213276464268097,0.0305309418362953,0.8599403467267657,0.0979020538306072,-0.0482089976225195,-1.1144366003246946,-0.1527779506492583,1.5424560266063554,0.9168016325622989,0.1237756683692386,-0.0581363968520833,0.5144841085866994,-0.4656689599170649,0.0604460915465378,-0.2102203314971157,10.341544334820355,-1.448284767319822,0.1920385116764741,-1.2145363586383633
2.24,-1.1234316598482403,-0.1536554251175335,1.5428469975448844,0.0062295518294105,0.1238482284818248,0.0306540016304033,0.8589356071969875,0.102911411821541,-0.0394517453756334,-1.1144366003246946,-0.1527779506492583,1.5424560266063554,0.9168016325622989,0.1237756683692386,-0.0581363968520833,0.5069335161528133,-0.0502369764889099,0.2504678995466878,0.4378626123443033,10.34196050814353,-1.4438500640632097,0.1921436600839762,-1.2212116916267397
2.26,-1.107125032015865,-0.1516635586767854,1.5421781975925526,0.0072854105635779,0.1239246865854123,0.0308240928355325,0.8574180073501043,0.1064240024963131,-0.0314572187807547,-1.1144366003246946,-0.1527779506492583,1.5424560266063554,0.9168016325622989,0.1237756683692386,-0.0581363968520833,0.4431530718047037,-0.0758799923441577,0.1756295337386054,0.3997263297439331,11.194497707397204,-1.44423731771164,0.1912005924366396,-1.2239924333489212
2.28,-1.0900076191958403,-0.1495058228841901,1.5416159486867316,0.008841261197314,0.1223563609231121,0.0310163239859962,0.8542492506038936,0.10912369111242,-0.0252855083557077,-1.1052685839990717,-0.1515401939655659,1.5418746626378346,0.9263112138897373,0.129192175643151,-0.0609627580239845,0.3722208602134899,-0.1584378373105377,0.134984430805346,0.3085855212523535,11.083941828042953,-1.4464304874288596,0.1896908744614527,-1.223860023119541
2.3000000000000003,-1.0729739642701617,-0.1473047830533715,1.5411506022599213,0.0104715400154839,0.1198115695778983,0.0311961222914701,0.8491523385268216,0.1108624719046219,-0.0215373721332314,-1.0869325513478256,-0.1490646805981811,1.540711934700793,0.9453303765446138,0.1400251901909759,-0.066615480367787,0.3280640048335501,-0.2548456038535984,0.0869390396100955,0.1874068111238131,10.941189816076983,-1.4496907369313743,0.1881549096196749,-1.2217252252535529
2.32,-1.056063786187469,-0.1450782794336848,1.540740948819269,0.0118593085809499,0.1170438093821018,0.0313468057630053,0.8419682927837843,0.111708524545069,-0.0196948670242336,-1.0685965186965796,-0.1465891672307963,1.5395492067637513,0.9643495391994904,0.1508582047388008,-0.0722682027115894,0.3732329814778671,-0.3592022871518663,0.0423026320223528,0.09212525544989,10.803494036594202,-1.453539468920719,0.1867768790613102,-1.2184763662204907
2.34,-1.0401539166863825,-0.1429559984123118,1.5403680065469856,0.0126284748866799,0.1150150649788366,0.0314514214731761,0.8330655734876448,0.1117319758160609,-0.0196402213141637,-1.0493095279125897,-0.1435720031360203,1.5381038427095195,0.9833687018543672,0.1616912192866256,-0.0779209250553919,0.4451458945716418,-0.4451359648069752,0.0011725635495979,0.0027322855034967,10.686162718555352,-1.4566826450524448,0.186029811035025,-1.215548568548299
2.36,-1.023604364747078,-0.1407264444239969,1.5399691942489866,0.0126113717317349,0.1142515965611471,0.031516841795401,0.8224973031207417,0.1112965891216131,-0.0202742176728231,-1.0300225371285998,-0.1405548390412443,1.5366584786552877,1.002387864509244,0.1725242338344505,-0.0835736473991943,0.5298109368077872,-0.5284135183451555,-0.0217693347223921,-0.0316998179329723,10.591269281891073,-1.457579035236468,0.1861745135961978,-1.214820902471473
2.38,-1.0072625804584263,-0.1385048664869633,1.539552647431289,0.0116315661785503,0.1149171288311272,0.0315310372094938,0.8123915047144218,0.1109913379146181,-0.021350589626749,-1.0102600672782382,-0.1372668495827727,1.535071796542461,1.021407027164121,0.1833572483822753,-0.0892263697429968,0.5083771147281986,-0.5052899203159933,-0.0152625603497512,-0.0538185976962915,10.551030485071353,-1.456509331119771,0.1872754412389175,-1.2161087149457857
2.4,-0.9911137461561372,-0.1362840312467953,1.5391126671369055,0.0097670184767129,0.1166113487084076,0.0314935395940055,0.8031536385368809,0.1112041749282879,-0.0225996550582116,-0.9900221183615046,-0.1337080347606054,1.533343796371039,1.0404261898189973,0.1941902629301002,-0.0948790920867992,0.4662178556228194,-0.4618933088770427,0.0106418506834939,-0.0624532715731301,10.517922787648786,-1.4541367047639988,0.1893955293452037,-1.2188317807445754
2.42,-0.9759339057811556,-0.1341594901143267,1.538670966126656,0.0074176113108979,0.1188247591502819,0.0314206140479513,0.7952964949192417,0.1126209066296351,-0.0238398739301979,-0.9509560642292932,-0.1307238225003809,1.537982684383995,0.8362680159461007,0.1282788213565154,-0.0405866660587256,0.4039801275813017,-0.3928571808819614,0.0708365850673575,-0.0620109435993171,10.517922787648786,-1.450736254020995,0.1922213392319516,-1.2226066874182375
2.44,-0.9600525452375976,-0.1318174599106795,1.5382444296765871,0.0068461129672229,0.1199731425155095,0.031465071511626,0.7933082520053949,0.1209251408384843,-0.0184227281088985,-0.9509560642292932,-0.1307238225003809,1.537982684383995,0.8362680159461007,0.1282788213565154,-0.0405866660587256,0.5056156755113124,-0.0994121456923402,0.4152117104424583,0.2708572910649697,10.515996137197362,-1.4469682080521262,0.1928743292757492,-1.2279001761395552
2.46,-0.9442134866914542,-0.1293285653651928,1.5379264493858609,0.0093436984859941,0.1184690209369523,0.0316987685620881,0.7904935700270993,0.1272578677472868,-0.0137486165223296,-0.9509560642292932,-0.1307238225003809,1.537982684383995,0.8362680159461007,0.1282788213565154,-0.0405866660587256,0.4179509058014811,-0.1407340989147798,0.3166363454401265,0.2337055793284455,10.862869316603792,-1.4493358889478554,0.1905033512705347,-1.2284282485899396
2.48,-0.9292361252316748,-0.1268790706966842,1.5376898263918508,0.0132595211886632,0.1152657347460787,0.0319943933499387,0.7860667274132566,0.1299021509225573,-0.0113743482682097,-0.9425933840698322,-0.1294410342868157,1.5375768177234077,0.8428908914279446,0.1316937506421609,-0.0441840682588284,0.2838411473926649,-0.221342130692137,0.1322141587635231,0.1187134127059928,10.732416474290403,-1.4543942006676065,0.1861313752394067,-1.2252325802240958
2.5,-0.913584994681755,-0.1242795810684178,1.5374708265624977,0.0173875617740607,0.110785111126481,0.0322630056507424,0.7790596177865362,0.1298913869474471,-0.010721814240488,-0.9258680237509102,-0.1268754578596854,1.5367650844022334,0.8561366423916326,0.1385236092134518,-0.051378872659034,0.35187178716605,-0.3503554813360177,-0.0005381987555078,0.0326267013860874,10.732416474290403,-1.4604237195596734,0.1816635871094942,-1.219382619817026
2.52,-0.8981037055756143,-0.1216979799764071,1.5372456771932097,0.0208569126628125,0.106112575963888,0.0324525729345122,0.7692029081532334,0.128361925881703,-0.0118884853458028,-0.909142663431988,-0.1243098814325551,1.5359533510810588,0.8693823933553204,0.1453534677847428,-0.0585736770592396,0.5021331930246373,-0.4928354816651381,-0.0764730532872043,-0.0583335552657414,10.616156190156287,-1.4663873735313468,0.1780909265389015,-1.2127522476884829
2.54,-0.8828524940265858,-0.1191573305819437,1.5369793415977284,0.0234504864392242,0.102412077067706,0.0325776783901769,0.7563122565393741,0.1259907488510287,-0.0146673473241308,-0.8917550155648817,-0.1214028120768602,1.534781877539874,0.8826281443190083,0.1521833263560338,-0.0657684814594452,0.6699131537656384,-0.6445325806929691,-0.1185588515337149,-0.1389430989163972,10.510569392434263,-1.471535188487697,0.1752687555672893,-1.20657508782907
2.56,-0.8686273314652846,-0.1167923852572243,1.536666758509618,0.0251242443339672,0.1008683813007973,0.0326736414362791,0.7417755444546245,0.1232454311852216,-0.0180897077048421,-0.8743673676977753,-0.1184957427211654,1.533610403998689,0.8958738952826962,0.1590131849273247,-0.0729632858596509,0.7592188714339235,-0.7268356042374802,-0.1372658832903536,-0.1711180190355666,10.42813383146131,-1.4738468275667818,0.1733574362386692,-1.203574825378838
2.58,-0.8539503752054488,-0.1143611468968815,1.5362633334885023,0.026076460299658,0.1016987670720028,0.0327720845482209,0.7269723663210497,0.1200877086363436,-0.0220899621011717,-0.8566485760565767,-0.1154179269011882,1.5322590603474993,0.909119646246384,0.1658430434986157,-0.0801580902598565,0.7827951995659428,-0.7401589066787395,-0.1578861274439014,-0.200012719816479,10.386580431542823,-1.4720403139287366,0.1722654645901405,-1.2046575921580416
2.6,-0.8395533861486757,-0.1119964522480282,1.5357788021876553,0.0260760415942657,0.1043839123326515,0.0328476234784847,0.7137060156747412,0.1166222107796701,-0.0261640269516231,-0.838598640641286,-0.1121693646169288,1.530727846586304,0.922365397210072,0.1726729020699067,-0.0873528946600621,0.7151988172373825,-0.6633175323154217,-0.173274892833674,-0.2037032425225706,10.354233816669876,-1.467999982483451,0.1722100631275219,-1.2079303884190644
2.62,-0.8261052148599154,-0.1098149040620616,1.5352445316255383,0.025059117030331,0.1080392851045387,0.0328721822020377,0.7027523999540422,0.1133151678042333,-0.0298753459211489,-0.8038680853649386,-0.1061653417090447,1.534470600840074,0.7250834108054351,0.1202058175778719,-0.0221296036822916,0.6014401863271481,-0.5476807860349542,-0.1653521487718398,-0.1855659484762888,10.354233816669876,-1.4628902267323056,0.1732786727567282,-1.2125160055357955
2.64,-0.8120726749069608,-0.1075284927530522,1.5347315261956465,0.0246318241253282,0.110233744402956,0.0328956372432886,0.7011896627620369,0.1151554176727365,-0.0205974117755769,-0.8038680853649386,-0.1061653417090447,1.534470600840074,0.7250834108054351,0.1202058175778719,-0.0221296036822916,0.4793452021230984,-0.078136859600264,0.0920124934251601,0.4638967072786005,11.223939747434088,-1.4567442041873415,0.1734688886491186,-1.2179626970731117
