t,x,y,z,roll,pitch,yaw,v_x,v_y,v_z,ref_x,ref_y,ref_z,ref_v_x,ref_v_y,ref_v_z,a_com,a_x,a_y,a_z,thrust,wind_x,wind_y,wind_z
0.0,-2.348031146243005,2.212283264459314,2.6584921374319403,0.0245403495593508,0.1500709117244551,0.0289431289227208,0.0014067516168736,0.0018862514356537,-0.0035775118121511,-2.3479926357270258,2.2124308262371515,2.6583869925969075,0.0154344803192266,-0.0958770626192928,-0.103524205675187,0.2140997743819659,0.0703375808436809,0.0943125717826857,-0.1788755906075591,10.660107547272672,-1.413000487573819,0.1664285172741925,-1.2805984944705873
0.02,-2.348100775752424,2.2125381581715904,2.6582151350399927,0.0325888601133768,0.151930527034299,0.029542767004076,-0.0080065386678756,0.0198267101975618,-0.0257081660342614,-2.3479926357270258,2.2124308262371515,2.6583869925969075,0.0154344803192266,-0.0958770626192928,-0.103524205675187,1.5001966128405368,-0.4706645142374611,0.8970229380954046,-1.1065327111055154,10.66099633452268,-1.407218456493236,0.1566584906573565,-1.278394689051967
0.04,-2.3483455448755097,2.2129443727805582,2.657406678231028,0.0470570755704618,0.1569610159108964,0.0307193411119502,-0.0155458939834762,0.0191947288836729,-0.0541164411624379,-2.3479926357270258,2.2124308262371515,2.6583869925969075,0.0154344803192266,-0.0958770626192928,-0.103524205675187,1.46992463643051,-0.376967765780032,-0.0315990656944414,-1.4204137564088204,9.2622314236869,-1.3975881229806697,0.1394742036593407,-1.283849429949803
0.06,-2.3487033053570543,2.2132627331244143,2.656023634160519,0.0619625537195921,0.1638082316120296,0.0320776576436325,-0.0195062026882548,0.0123367666868337,-0.0827943219171191,-2.3478382909238333,2.2114720556109586,2.657351750540156,0.0182582270823964,-0.115877062917316,-0.1235242059732102,1.487562213077271,-0.1980154352389312,-0.3428981098419616,-1.4338940377340632,9.054200540862894,-1.3868606990053072,0.1227007979456498,-1.2894210747917287
0.08,-2.349087417662264,2.2134053493284243,2.654184936422805,0.0756297404828967,0.171001536580041,0.0334534747136569,-0.0204925805427014,0.0027552511266841,-0.1093608282506881,-2.347529601317449,2.2095545143585724,2.655281266426652,0.0239057206087359,-0.1558770635133625,-0.1635242065692566,1.4129381094661344,-0.0493188927223291,-0.4790757780074818,-1.3283253166784497,9.07802627706178,-1.375127845443888,0.1057201650457145,-1.2948220395273835
0.1,-2.349486925526213,2.2133311006642207,2.6517084686180907,0.0893621658270685,0.1787260475606876,0.0349497322936634,-0.0191648890880823,-0.0099690752563586,-0.1368999947296215,-2.3472209117110645,2.2076369731061867,2.653210782313148,0.0295532141350754,-0.1958770641094089,-0.2035242071653031,1.5182859882572135,0.0663845727309568,-0.6362163191521367,-1.3769583239466685,9.135452388692102,-1.3636639953074512,0.0896320753357939,-1.2990377164930915
0.12,-2.34983645388511,2.2129755785809206,2.6486874706166104,0.1024236648054856,0.1862747727063931,0.0364602017090161,-0.0156480758593027,-0.0252235831404288,-0.1638264200637943,-2.346629847428363,2.2037194318239983,2.649140298169842,0.035200707661415,-0.2358770647054554,-0.2435242077613495,1.557321713189075,0.1758406614389801,-0.762725394203513,-1.3463212667086388,9.178972716361386,-1.3533183209327355,0.0744849916840935,-1.3020558077695
0.14,-2.3500902772419723,2.212290373146973,2.6451259564124143,0.1148321549083965,0.1932529862681667,0.0379300475022713,-0.0098092097028469,-0.0427937550757894,-0.1910276828898348,-2.3460387831456617,2.1998018905418104,2.6450698140265363,0.0408482011877545,-0.2758770653015019,-0.283524208357396,1.6452294666417144,0.2919433078227902,-0.8785085967680258,-1.3600631413020283,9.23264704232679,-1.3442756641040714,0.0607091170596116,-1.3059224711352029
0.16,-2.350203173750866,2.2112929464873656,2.6412369004008798,0.1260292734923441,0.1989489134737824,0.0392201774951131,-0.0023502232266089,-0.0615365513947278,-0.2170158311171036,-2.3453065315248014,2.194884349244721,2.639999329868329,0.046495694714094,-0.3158770658975483,-0.3235242089534424,1.644926093619714,0.3729493238118994,-0.9371398159469236,-1.299407411363436,9.238403402724543,-1.3355012795158507,0.0469386964536234,-1.3077675178364256
0.18,-2.35015465252828,2.209836956479116,2.6366072871535877,0.1372091073461527,0.2037260521602142,0.0404056500363481,0.0068391398876347,-0.0833158479114011,-0.2446024460019663,-2.344433092565783,2.1889668079327307,2.633928845695221,0.0521431882404336,-0.3558770664935947,-0.3635242095494889,1.8164549760538573,0.4594681557121836,-1.0889648258336655,-1.3793307442431346,9.255813406647576,-1.3275015501667626,0.0338792837920099,-1.3071019309067755
0.2,-2.349909289514321,2.2079007135521915,2.6314246892074014,0.1470352334275249,0.2071558499522579,0.0413130241989175,0.017159748421699,-0.1089275161127808,-0.2722264862275934,-2.3498126955338985,2.2056711640835456,2.624377164853489,0.0094381785369851,-0.1833158494015173,-0.3446024474920824,1.952920957795036,0.5160304267032166,-1.2805834100689848,-1.3812020112813572,9.264731649291209,-1.3219752138881475,0.023037626267307,-1.3042623457220086
0.22,-2.3494116540364574,2.205422659504198,2.626116814454501,0.1505549360417744,0.2081896825880033,0.0414130617109501,0.0344485944813431,-0.1479209018581966,-0.2846842580098696,-2.3498126955338985,2.2056711640835456,2.624377164853489,0.0094381785369851,-0.1833158494015173,-0.3446024474920824,2.2218148031193654,0.8644423029822016,-1.949669287270788,-0.622888589113807,9.296872404708663,-1.3166908467986604,0.0185105511357269,-1.2965447045412344
0.24,-2.3485347084387844,2.2021052605604248,2.620285762989164,0.1481181576938069,0.2058872295784602,0.0405413112667601,0.0521319373907369,-0.1811658388724414,-0.2977758882276794,-2.3498126955338985,2.2056711640835456,2.624377164853489,0.0094381785369851,-0.1833158494015173,-0.3446024474920824,1.9933120900226504,0.8841671454696914,-1.6622468507122414,-0.6545815108904923,10.30236600921762,-1.320283900605215,0.0215823760917118,-1.2861795719735538
0.26,-2.3473280902848326,2.198180540758665,2.614174988616712,0.1427808137422049,0.2003905662390046,0.0389857500356571,0.0670841696573069,-0.2090085281323052,-0.3124255256289455,-2.3497183137485287,2.2038380055895304,2.620931140378568,0.0099579862668552,-0.2033158496995405,-0.3646024477901056,1.7416920443661723,0.747611613328502,-1.3921344629931889,-0.7324818700633062,10.151366166123807,-1.3281955217545032,0.0277202431079332,-1.2708246854748462
0.28,-2.345944265672091,2.1939765906706192,2.608085200002932,0.1371360747801067,0.193320452080337,0.0372273498843291,0.0775010710056338,-0.2319908056425071,-0.3277752404257844,-2.3495295501777886,2.2001716886015004,2.6140390914287264,0.0109976017265954,-0.2433158502955869,-0.404602448386152,1.4767452874488871,0.5208450674163436,-1.1491138755100925,-0.7674857398419443,9.990023464160911,-1.3385414245524474,0.0345559983423351,-1.2531330395418023
0.3,-2.344313945445484,2.18910548837775,2.601343404296876,0.1315368024022851,0.1850658751086289,0.0353293705441778,0.0846668774952004,-0.2538819324865913,-0.3456500988901432,-2.349340786607049,2.19650537161347,2.6071470424788847,0.0120372171863355,-0.2833158508916334,-0.4446024489821985,1.457807242291107,0.3582903244783282,-1.0945563422042128,-0.8937429232179411,9.838054975550222,-1.3486093706765692,0.0406947663330925,-1.234770863594147
0.32,-2.342577149639305,2.1838120481395693,2.594225962831457,0.1266187237347063,0.1768884955490799,0.0335311884938959,0.0884352515083287,-0.2743815577890454,-0.3652495977163806,-2.349100042263322,2.1908390545956373,2.598254993499241,0.0130768326460757,-0.3233158514876798,-0.4846024495782449,1.4305380408114927,0.1884187006564175,-1.0249812651227013,-0.9799749413118676,9.686517759528217,-1.3574055649095966,0.0456712029659874,-1.2173622327717506
0.34,-2.340795514748429,2.1781201030424184,2.586704464692984,0.1224560858128459,0.1694776253216327,0.031917939260073,0.0894741389281556,-0.2938854624491077,-0.3858890427095069,-2.348859297919596,2.1851727375778047,2.5893629445195967,0.0141164481058158,-0.3633158520837263,-0.5246024501742914,1.4207993117292843,0.0519443709913448,-0.975195233003115,-1.0319722496563182,9.481666556508571,-1.364577923252017,0.0499168334381621,-1.2002557371023317
0.36,-2.339103329430821,2.172349724963832,2.5791689935926887,0.1188871686960897,0.1635233408342853,0.0305697094340868,0.0885733105794939,-0.3124470407540485,-0.4062465497114301,-2.348592563189376,2.178506420545071,2.579470895525052,0.015156063565556,-0.4033158526797727,-0.5646024507703378,1.3781978923739084,-0.0450414174330872,-0.9280789152470436,-1.0178753500961562,9.481666556508571,-1.3695670656093737,0.0535988371387604,-1.1845391842997188
0.38,-2.337358550536221,2.1659008339897983,2.5708108257884725,0.1152865416257168,0.1587080774795994,0.029353683214743,0.0858353681511456,-0.3313577901085318,-0.4285113930235951,-2.348299838072662,2.170840103497436,2.5685788465156056,0.0161956790252962,-0.4433158532758192,-0.6046024513663842,1.467000355831842,-0.1368971214174161,-0.945537467724164,-1.1132421656082525,9.422791082139156,-1.3726486874629575,0.0570828746084445,-1.170705800960193
0.4,-2.3356872124504977,2.1590796537188663,2.561999709731281,0.111758340412876,0.1558569808713342,0.0283832749620358,0.0813615398776724,-0.3496836437078332,-0.4514887250519422,-2.333066782128664,2.149332944484372,2.5493852561372927,0.1028278439886147,-0.4313577915986479,-0.5285113945137112,1.486446969037627,-0.223691413673658,-0.9162926799650696,-1.1488666014173532,9.305128208976384,-1.3733206852557622,0.0604699546218853,-1.1595387794639154
0.42,-2.334116771060604,2.151887521789685,2.5529563252043417,0.1087115082217211,0.1565929181918294,0.0278522368861192,0.0765579083542996,-0.3688261872661592,-0.4505679819194882,-2.333066782128664,2.149332944484372,2.5493852561372927,0.1028278439886147,-0.4313577915986479,-0.5285113945137112,0.9878760266484744,-0.2401815761686417,-0.9571271779163004,0.0460371566226996,9.305128208976384,-1.3699596662616975,0.0638150799693317,-1.1456270813635263
0.44,-2.3326825063022847,2.144711779027068,2.5443757094147506,0.1066799114724304,0.1607237688425314,0.0277764550047166,0.0750463083049629,-0.385770861835182,-0.4528853952998895,-2.333066782128664,2.149332944484372,2.5493852561372927,0.1028278439886147,-0.4313577915986479,-0.5285113945137112,0.8584540403173985,-0.075580002466831,-0.8472337284511411,-0.1158706690200656,10.778093422975871,-1.362597449926776,0.0652825903084553,-1.152037478559339
0.46,-2.3311761490132588,2.1368125989530524,2.535243475977871,0.1052297954896963,0.166907207936269,0.0279297623831231,0.0759713687978445,-0.4032527971155288,-0.4604575891588749,-2.3320385036887776,2.145019366568385,2.544100142192156,0.1062263391561085,-0.4513577918966712,-0.5485113948117344,0.953692715055246,0.0462530246440766,-0.8740967640173375,-0.3786096929492694,10.394573957759349,-1.353401059285707,0.0661970280373776,-1.159435397784243
0.48,-2.3296300995670736,2.1285700198228907,2.52591143704368,0.1042895009094806,0.1739446286880186,0.0281975058974427,0.0788662129785811,-0.4201448685423782,-0.4723711288046607,-2.329981946809005,2.136392210736412,2.533529914301881,0.1130233294910961,-0.4913577924927176,-0.5885113954077809,1.043617059572423,0.14474220903683,-0.8446035713424699,-0.5956769822892893,10.100225537671577,-1.3437404236472843,0.066678828515438,-1.16627531276231
0.5,-2.328007900228412,2.1199956442721697,2.516307866852268,0.1038369295861912,0.1812475568202371,0.0285178468884258,0.0834430145498222,-0.4364681916683514,-0.4874093352919766,-2.327925389929233,2.12776505490444,2.5229596864116077,0.1198203198260838,-0.5313577930887641,-0.6285113960038273,1.1330772754457172,0.2288400785620543,-0.8161661562986589,-0.7519103243657954,9.885948438950436,-1.3332873650052293,0.0667532459128401,-1.172986382565194
0.52,-2.3263678475254443,2.1115520218507795,2.506882467468226,0.1039137715717528,0.1881354525201224,0.0288464840793841,0.0891436678870566,-0.451553809882289,-0.5040043392573427,-2.325528983532711,2.117137899042664,2.5103894584915305,0.1266173101610714,-0.5713577936848105,-0.6685113965998738,1.1570085155029388,0.2850326668617238,-0.7542809106968834,-0.8297501982683031,9.727042702405017,-1.322871170291542,0.0662870499950896,-1.1790051057121065
0.54,-2.3245090925125527,2.102357938485972,2.4966086829062424,0.1046456463136773,0.195161773693741,0.0292116564717631,0.0966091019026056,-0.4671122862613527,-0.5225643105512544,-2.3231325771361897,2.106510743180889,2.497819230571454,0.1334143004960591,-0.611357794280857,-0.7085113971959203,1.2671537265750603,0.3732717007774486,-0.7779238189531829,-0.9279985646955868,9.6064878171901,-1.312587479855925,0.0651260108546018,-1.1841482291658307
0.56,-2.3224857300014348,2.092840554505225,2.485955480383671,0.1057554883360429,0.2018668468337424,0.029569375930658,0.1055163298157726,-0.4838235741673375,-0.541858463306546,-2.320566245981293,2.094883587304212,2.4842490026364765,0.1402112908310467,-0.6513577948769034,-0.7485113977919666,1.3517305418595291,0.4453613956583516,-0.8355643952992431,-0.964707637764578,9.558548934924149,-1.3028304806061517,0.0635701135368401,-1.1886656821498836
0.58,-2.320261642467368,2.082977766949581,2.474908178466985,0.1065968047382095,0.2079386762376611,0.0298396147772509,0.1165106634045603,-0.5014886488331642,-0.5619013974816276,-2.3178299900680224,2.0822564314126346,2.4696787746865976,0.1470082811660343,-0.6913577954729498,-0.7885113983880131,1.4445150088848426,0.5497166794393826,-0.8832537332913337,-1.0021467087540814,9.539162443859825,-1.29388839948129,0.0623153187187435,-1.1920351853393267
0.6,-2.317928331014289,2.073273453552983,2.4640351305605286,0.1066993744855114,0.2127087945992479,0.0299355982398659,0.1285325513119357,-0.5189778009778944,-0.5816074683422181,-2.3144361092971395,2.0579033345079227,2.446813108592904,0.1398704519862892,-0.6014886503232804,-0.6619013989717437,1.448037862386229,0.6010943953687703,-0.8744576072365062,-0.9853035430295254,9.51967034242898,-1.2859760905458912,0.061775178094929,-1.193939315512951
0.62,-2.3151605299634994,2.0626488827542637,2.452429328290388,0.1050085946884567,0.2165120986525732,0.0297699135374054,0.1479062593708903,-0.5423796768202449,-0.5765992785349049,-2.3144361092971395,2.0579033345079227,2.446813108592904,0.1398704519862892,-0.6014886503232804,-0.6619013989717437,1.5395375296176337,0.9686854029477276,-1.170093792117527,0.2504094903656606,9.498398986439495,-1.2799384782475505,0.0636536389355795,-1.1872050318696452
0.64,-2.311995345644727,2.051583533118926,2.440927100626151,0.1014374772612329,0.2189992626930945,0.0293208574362297,0.1675073548439675,-0.5624890487625677,-0.5739560141901692,-2.3144361092971395,2.0579033345079227,2.446813108592904,0.1398704519862892,-0.6014886503232804,-0.6619013989717437,1.4102983993250475,0.98005477365386,-1.005468597116138,0.1321632172367859,11.172627052480491,-1.2773663899855825,0.0667670905391682,-1.1894044362170688
0.66,-2.308444017582149,2.040148344907479,2.4294208356274534,0.0974189140337697,0.2200448360825564,0.0286860501408971,0.1864779934307749,-0.5798655107945454,-0.576745682313988,-2.3130374047772766,2.0518884480046897,2.440194094603186,0.144542409702635,-0.6214886506213035,-0.6819013992697669,1.2938400300859092,0.9485319293403724,-0.8688231015988868,-0.1394834061909433,10.81998821436082,-1.2763969471780057,0.0705289135582599,-1.189582103291151
0.68,-2.304726434902084,2.028981737663308,2.418394627301657,0.093670102066148,0.2195836228877357,0.0279457145438635,0.2038023207695923,-0.5946537359183669,-0.5837277116963672,-2.310239995737551,2.039858674998224,2.4269560666237515,0.1538863251353266,-0.66148865121735,-0.7219013998658134,1.191189168805406,0.8662163669408681,-0.7394112561910748,-0.3491014691189564,10.49047546761085,-1.2767450768844026,0.0741846256349054,-1.18696976170698
0.7000000000000001,-2.300466284566573,2.016939480485513,2.40660792675853,0.090061588856453,0.2173785307112734,0.0270364523688546,0.2211801808417648,-0.6087823454314835,-0.5947146222182981,-2.307442586697825,2.0278289019917586,2.4137180386443164,0.1632302405680182,-0.7014886518133965,-0.7619014004618598,1.2473169507778,0.8688930036086256,-0.7064304756558282,-0.5493455260965452,9.995333994335851,-1.2790025338766646,0.0774394543613376,-1.1814244786408934
0.72,-2.2958691028452933,2.004625794099178,2.394564702290728,0.0869098348399297,0.2131786409646216,0.0259939564294824,0.2374746977537079,-0.6219359204322064,-0.6089932168675664,-2.3041779818864647,2.013799128955491,2.398480010635079,0.1725741560007098,-0.741488652409443,-0.8019014010579063,1.267286551900708,0.8147258455971542,-0.6576787500361447,-0.7139297324634142,9.995333994335851,-1.283423980317443,0.0800352106119658,-1.1736534362956592
0.74,-2.2912202041945844,1.992690759661767,2.382846285574926,0.0843465867636614,0.2075020712957222,0.0249053899291144,0.2507343754315824,-0.6338007307614536,-0.6237425632139205,-2.3009133770751045,1.999769355919223,2.383241982625842,0.1819180714334013,-0.7814886530054894,-0.8419014016539528,1.1555691172695444,0.6629838838937238,-0.5932405164623622,-0.7374673173177082,9.7202276534681,-1.2906539133930242,0.0823386024914648,-1.1618169135481269
0.76,-2.2860832346606696,1.9798815321258745,2.3701978473566023,0.0818712760909825,0.2005046076425046,0.0237115210592216,0.2619716139326807,-0.6464190932122001,-0.6403266469750701,-2.2974151743779267,1.9847395828680536,2.367003954601704,0.1912619868660929,-0.8214886536015358,-0.8819014022499991,1.1837761974564749,0.5618619250549184,-0.6309181225373273,-0.8292041880574808,9.7202276534681,-1.298014569847272,0.0842696583929728,-1.1486941077334527
0.78,-2.2807492203210256,1.9668216797246965,2.357206153051373,0.079356849327011,0.1930687331267481,0.022505311941216,0.2706206195783504,-0.6588107681394074,-0.658015764879149,-2.293683373794932,1.9687098098019835,2.349765926562664,0.2006059022987845,-0.8614886541975822,-0.9219014028460456,1.1632538398655814,0.4324502822834836,-0.6195837463603637,-0.884455895203945,9.546904304519558,-1.3053013805627371,0.0861644204736135,-1.1353532052641648
0.8,-2.27554545932289,1.9541894794707533,2.344523571811368,0.076840037607223,0.1860330908100843,0.0213800085174788,0.276556093145335,-0.6701321676353325,-0.6760510629397296,-2.267218189342108,1.933881141317726,2.324305364807416,0.3105038904380687,-0.7588107696295235,-0.7580157663692652,1.1053007612689474,0.2967736783492297,-0.5660699747962517,-0.9017649030290288,9.546904304519558,-1.3118016747044845,0.088056765113845,-1.1227946013635497
0.8200000000000001,-2.26998850994876,1.940640261991659,2.3311037429586645,0.0740122186306403,0.1814540438101543,0.0204271895596078,0.2787613276080535,-0.6841160851918403,-0.6634082267480524,-2.267218189342108,1.933881141317726,2.324305364807416,0.3105038904380687,-0.7588107696295235,-0.7580157663692652,0.9490183299498908,0.1102617231359265,-0.6991958778253926,0.6321418095838582,9.45762505949824,-1.3197269010254216,0.0909664517729976,-1.102969300476009
0.84,-2.2643850680441524,1.9268327684612647,2.3179246956950887,0.0714183951566614,0.1820799845940927,0.0198955120668238,0.2820588244421237,-0.6960017861838156,-0.6553607712777418,-2.267218189342108,1.933881141317726,2.324305364807416,0.3105038904380687,-0.7588107696295235,-0.7580157663692652,0.7363846022765164,0.1648748417035106,-0.5942850495987639,0.4023727735155302,10.93691705533638,-1.3181696281115285,0.0927013421014569,-1.1062271653039033
0.86,-2.258977583829485,1.9135048274519968,2.3054840228910924,0.0693757248008426,0.1854278327395386,0.0196227885944569,0.2872875591751418,-0.7063865243935044,-0.6545982664999653,-2.264113150437727,1.926293033621431,2.3167252071437234,0.3184805446100124,-0.7788107699275467,-0.7780157666672883,0.582588766043792,0.2614367366509024,-0.5192369104844385,0.0381252388888253,10.93691705533638,-1.313431271141733,0.0942178303993755,-1.1121271634453116
0.88,-2.2531596026885894,1.899271536805365,2.292349910969384,0.0676623422630161,0.1904306429910694,0.0194702948555004,0.2944648718658157,-0.7164250632395364,-0.6591054630221586,-2.257903072628966,1.9111168182288405,2.301564891816338,0.3344338529538997,-0.8188107705235932,-0.8180157672633348,0.6568883088331565,0.3588656345336977,-0.5019269423016004,-0.2253598261096612,10.511160142865265,-1.306877141229798,0.095366346951971,-1.118872716097139
0.9,-2.2471834813628506,1.8848451951215104,2.279078703851908,0.0664561368051647,0.1961276245678277,0.019401124766689,0.3029768106550863,-0.7257117956213067,-0.6679749447243005,-2.2516929948202047,1.89594060283625,2.2864045764889527,0.3503871612977871,-0.8588107711196397,-0.8580157678593813,0.7703314318323357,0.4255969394635295,-0.4643366190885178,-0.4434740851070984,9.978432949111266,-1.2993707476009817,0.0960524105028266,-1.1256448827621806
0.92,-2.241338049250908,1.8709761609059656,2.2662714085297027,0.0659442695867785,0.2017519543017103,0.0193963032343324,0.3120753510550847,-0.7337960247423759,-0.6797271866431809,-2.244685251594249,1.878764387413857,2.269244261131765,0.3663404696416744,-0.8988107717156861,-0.8980157684554277,0.8459512220161313,0.4549270199999178,-0.4042114560534604,-0.5876120959440179,9.808669440752055,-1.2918336307485785,0.0960861294171541,-1.1317776064318923
0.94,-2.234984864836204,1.856217332639113,2.252534061518675,0.0663119255781058,0.2076359692705341,0.0194581716882266,0.3229227169690629,-0.7417387599170789,-0.6934630701356895,-2.2376775083682934,1.8615881719914644,2.2520839457745776,0.3822937779855617,-0.9388107723117326,-0.9380157690514742,0.9610240432046582,0.5423682956989084,-0.3971367587351504,-0.6867941746254325,9.808669440752055,-1.2837659371593029,0.0952142523899529,-1.137515878142196
0.96,-2.22839912296002,1.8412908611909515,2.238511811680271,0.0674823268664436,0.2132589030985947,0.0195687759345594,0.3352411162236494,-0.7505346274943422,-0.7081195717153859,-2.2302709324337404,1.8434119565541704,2.2339236304024888,0.398247086329449,-0.9788107729077792,-0.9780157696475208,1.053474353256629,0.6159199627293249,-0.4397933788631625,-0.7328250789848167,9.746969405873642,-1.2762303198328302,0.0936160603797116,-1.1424544967316077
0.98,-2.221546127839336,1.8261792288707064,2.224186405780209,0.0689891191121114,0.2181804422571414,0.0196663351793396,0.3494583327138005,-0.7601556254185273,-0.7236919803400056,-2.22246552379059,1.8242357411019752,2.2147633150154986,0.4142003946733363,-1.0188107735038254,-1.018015770243567,1.158870955021667,0.7108608245075587,-0.4810498962092568,-0.7786204312309863,9.71560798561859,-1.2687351188076332,0.0915564506535724,-1.1467253892175588
1.0,-2.2147589122577096,1.811636990126048,2.21028062686485,0.0703890571165542,0.2217976037217975,0.0196919917605816,0.3642204854430148,-0.7700699912634661,-0.7392866223518325,-2.204073211203646,1.78817144759978,2.1880018067632085,0.3935881588422834,-0.8601556269086434,-0.8236919818301217,1.182591077660588,0.7381076364607109,-0.4957182922469383,-0.779732100591346,9.685847177264804,-1.2625836540315576,0.0895103969964951,-1.1494647041868584
1.02,-2.2072352895489384,1.7960640466506277,2.195623227114417,0.0704113653870104,0.2243930485603174,0.0195368880764128,0.3876964972240959,-0.7865020427868566,-0.7240186016022248,-2.204073211203646,1.78817144759978,2.1880018067632085,0.3935881588422834,-0.8601556269086434,-0.8236919818301217,1.6234591956862332,1.1738005890540582,-0.8216025761695278,0.7634010374803879,11.772159758014825,-1.2557112600409852,0.0891438353971461,-1.140483762527951
1.04,-2.199235259515056,1.7801777355700514,2.1812715729657404,0.068320930403435,0.225723036926016,0.0191473592534852,0.4109558247951135,-0.8011233608473399,-0.7120634747076349,-2.204073211203646,1.78817144759978,2.1880018067632085,0.3935881588422834,-0.8601556269086434,-0.8236919818301217,1.498085711789767,1.1629663785508808,-0.731065903024164,0.5977563447294942,11.772159758014825,-1.256272364264191,0.0907397931508488,-1.1456128939768808
1.06,-2.1912133667905143,1.764834237549726,2.1677922404942698,0.0650769849445429,0.2256270095788056,0.0186025229155806,0.4321611000014081,-0.8128432893613544,-0.7073462871053203,-2.200137329615223,1.7795698913306937,2.1797648869449078,0.4024141240679799,-0.8801556272066666,-0.8436919821281449,1.23417207048261,1.060263760314731,-0.5859964257007244,0.2358593801157271,11.312186242311329,-1.2577816099149213,0.0938005273165493,-1.147943481191368
1.08,-2.182345803792772,1.7484741539854107,2.153643933926144,0.061424492503595,0.2237858958213734,0.0179137498548298,0.4533447674464017,-0.8224699123062382,-0.7079589079072909,-2.192265566438377,1.7623667787925208,2.163291047308305,0.420066054519373,-0.9201556278027132,-0.8836919827241914,1.1638244498098185,1.059183372249678,-0.4813311472441905,-0.0306310400985276,10.880138489111232,-1.260289783309006,0.097111108851885,-1.1462920125497202
1.1,-2.1730668782777665,1.7319387578974974,2.139429276513249,0.0580892035415039,0.2198148719209831,0.0171393985366621,0.4733175342456803,-0.8305884034328673,-0.7136438667112103,-2.1843938032615315,1.745163666254348,2.1468172076717025,0.4377179849707662,-0.9601556283987596,-0.9236919833202378,1.1148319025684796,0.9986383399639308,-0.4059245563314551,-0.2842479401959696,10.525966815399444,-1.2646412799716489,0.1000614919898111,-1.140788206657616
1.12,-2.1634140154961865,1.7152530731194682,2.12505312002048,0.0552706702092222,0.2136467811705075,0.0163027913046833,0.4905121145049093,-0.8376778307702657,-0.7235825634303975,-2.175639443562116,1.7259605536863727,2.128343368005298,0.4553699154221593,-1.000155628994806,-0.9636919839162844,1.05438520325745,0.8597290129614493,-0.3544713668699184,-0.4969348359593617,9.980144511065191,-1.271591231856085,0.1023963137386367,-1.132070096164748
1.14,-2.1539578107674675,1.6992769626688289,2.1111923861737893,0.0531360802959983,0.2065012568295265,0.015504202829722,0.5037261246332145,-0.8437891405570922,-0.734882319856114,-2.166885083862701,1.7067574411183974,2.1098695283388933,0.4730218458735524,-1.0401556295908525,-1.0036919845123309,0.92146983979677,0.6607005064152599,-0.3055654893413251,-0.5649878212858228,9.980144511065191,-1.2799324447202678,0.104242622783503,-1.1202875483296666
1.16,-2.1437629689600017,1.6823309594858753,2.0963533709790134,0.0512235733987711,0.1983179391220154,0.0146815267410497,0.51475993106576,-0.8504540986812628,-0.7484588727716117,-2.1576894259020007,1.6865543285355211,2.0903956886575874,0.4906737763249456,-1.0801556301868989,-1.0436919851083772,0.9360680267148586,0.5516903216272739,-0.333247906208528,-0.6788276457748876,9.845882319995326,-1.2883099641184397,0.105689658609619,-1.1070936642260143
1.18,-2.1333768006886102,1.6652524830941082,2.081224465476511,0.049378617901775,0.1899333568824205,0.0138834902947361,0.5230454393290356,-0.8569854661312966,-0.7637863019683955,-2.148052469680016,1.6653512159377435,2.06992184896138,0.5083257067763387,-1.1201556307829452,-1.0836919857044236,0.9303742442299604,0.4142754131637782,-0.3265683725016899,-0.766371459839188,9.722491962717868,-1.2964423437762504,0.1070489655305557,-1.0933409355255104
1.2,-2.122852498595561,1.6480469578549184,2.0657703632617017,0.0475093132002149,0.1817241229419796,0.0131232262201663,0.5287514961988324,-0.8631588017469137,-0.7809009774795519,-2.1072245287221585,1.6224032097875434,2.043035150378091,0.5859212838672474,-0.9569854676214128,-0.8637863034585116,0.9533903653233818,0.285302843489843,-0.3086667807808585,-0.8557337755578209,9.602241289637275,-1.3035130583753454,0.1083309479521626,-1.0812483868898195
1.22,-2.1127894372778253,1.6315593219458098,2.051115097800277,0.0452260567307107,0.1770048534410567,0.0125387219182422,0.5303597931674929,-0.8716295778162553,-0.7609005890324794,-2.1072245287221585,1.6224032097875434,2.043035150378091,0.5859212838672474,-0.9569854676214128,-0.8637863034585116,1.0889860012761,0.0804148484330247,-0.4235388034670773,1.0000194223536265,9.483197258065957,-1.3091511923948935,0.1104463108316748,-1.060555026659587
1.24,-2.102156278844338,1.6140610156268984,2.0360529497948927,0.0427115044241242,0.1774289811321676,0.0121822508085226,0.5333727533948095,-0.8777466807421244,-0.7469787785827529,-2.1072245287221585,1.6224032097875434,2.043035150378091,0.5859212838672474,-0.9569854676214128,-0.8637863034585116,0.7751027088960243,0.1506480113658281,-0.3058551462934544,0.6960905224863256,11.889778173231209,-1.3095309908028163,0.1125592534972578,-1.0667921382659524
1.26,-2.0914379168790243,1.5964549495515132,2.021178713815301,0.0406823102660831,0.1809842065989388,0.0120051411925679,0.5386083405176136,-0.8826151645624708,-0.7414857710412465,-2.101365315883486,1.6128333551113292,2.034397287343506,0.5984964527748897,-0.976985467919436,-0.8837863037565348,0.4507955165052489,0.2617793561402071,-0.2434241910173218,0.2746503770753195,11.190731190217775,-1.3061668293787374,0.1142731460997722,-1.0748774054179169
1.28,-2.080597639229936,1.5787624219096208,2.0063404490328085,0.0393170738173165,0.186130931580666,0.0119461808969303,0.5454452759144853,-0.8865139215472461,-0.7426159096524277,-2.0896468902061414,1.593693645758901,2.017121561274336,0.6236467905901745,-1.0169854685154824,-0.9237863043525812,0.3975588161763417,0.3418467698435845,-0.1949378492387632,-0.0565069305590637,10.696626244833167,-1.3005329399785814,0.1153724171558164,-1.0833091636950356
1.3,-2.0701592083346663,1.5618906132463324,1.9921785812131236,0.0388472994793805,0.1916969926634251,0.0119817419676229,0.5531979246035708,-0.889394532450789,-0.7480693110749292,-2.0779284645287963,1.574553936406473,1.9998458352051651,0.6487971284054592,-1.0569854691115288,-0.9637863049486276,0.4953308690888598,0.3876324344542714,-0.1440305451771484,-0.2726700711250751,10.351359949142534,-1.2940922109246598,0.1156238563227134,-1.091244946122114
1.32,-2.058999715593949,1.5440789347613215,1.9771238581151012,0.0395503081326232,0.1977944649547173,0.0121237370771811,0.5625131472773681,-0.8917378873432678,-0.7572901329145163,-2.064952521960687,1.553414227024242,1.980570109106193,0.673947466220744,-1.0969854697075752,-1.003786305544674,0.6657481524794833,0.4657611336898681,-0.117167744623936,-0.4610410919793528,10.10631907104016,-1.2867030130652517,0.1147097800987882,-1.0991742090335823
1.34,-2.0476395217638386,1.5262239352776337,1.961867930201383,0.0418267940548176,0.2038584050254407,0.0123927857243347,0.5732164095032496,-0.8938872102482087,-0.7678618087893954,-2.0519765793925777,1.5322745176420114,1.9612943830072205,0.6990978040360287,-1.1369854703036215,-1.0437863061407209,0.7598350841287618,0.5351631112940736,-0.1074661452470482,-0.528583793743953,9.91929395147963,-1.278955557018813,0.1122189532964574,-1.1062463167462482
1.36,-2.0360505958193444,1.508301740329904,1.946393839512779,0.045177885777368,0.2097275172511744,0.012753227853176,0.5852932427231495,-0.8984964193107422,-0.7790553686610139,-2.0383718783790865,1.5101348082448798,1.9410186568933463,0.7242481418513134,-1.176985470899668,-1.083786306736767,0.8549714781835238,0.603841660994997,-0.230460453126674,-0.559677993580926,9.87411759416591,-1.2720194885650464,0.1088533826592936,-1.1124278558091447
1.38,-2.0248012154613755,1.4911697296839357,1.9314799914682024,0.0483208339115832,0.2149056863184091,0.0130973073013622,0.5983208327265294,-0.9046162093030422,-0.7902800123084966,-2.0241384189202134,1.4869950988328469,1.919742930764572,0.7493984796665981,-1.2169854714957145,-1.1237863073328134,0.9126370525282664,0.6513795001689915,-0.3059894996150003,-0.5612321823741384,9.858879553238694,-1.2653793201918326,0.1053477622045616,-1.1182618612539228
1.4,-2.012675597387906,1.4730012812304778,1.9155415755515008,0.0512165260873801,0.2195544046449367,0.0134108646612754,0.6136024675095206,-0.9118761191741452,-0.803012624779094,-1.994885173825049,1.4459389192187837,1.8919659908527773,0.6552654898436577,-1.0046162107931584,-0.8902800137986128,1.0587186516063631,0.7640817391495636,-0.3629954935551516,-0.6366306235298658,9.843755239753593,-1.2596373812836346,0.1022591286852752,-1.1229920087726413
1.42,-2.0001265219076787,1.4546127046473236,1.8996737324502089,0.0519042982520899,0.2221856234438774,0.0134774098119132,0.640825962008357,-0.9261583273409734,-0.7813528255456414,-1.994885173825049,1.4459389192187837,1.8919659908527773,0.6552654898436577,-1.0046162107931584,-0.8902800137986128,1.880323792384076,1.361174724941816,-0.7141104083414063,1.0829899616726255,9.808005168686575,-1.2487056741302716,0.1010945470204492,-1.1138176123560002
1.44,-1.9870265081068148,1.4359618725266363,1.8842395091082071,0.0496804508424525,0.2217940385480396,0.013189783622456,0.6675411277951153,-0.9379433728687616,-0.763304858329853,-1.994885173825049,1.4459389192187837,1.8919659908527773,0.6552654898436577,-1.0046162107931584,-0.8902800137986128,1.7163307531826455,1.3357582893379183,-0.5892522763894126,0.9023983607894248,12.189127127954634,-1.252920386156961,0.1031962085226588,-1.1184596704324214
1.46,-1.9741017597562376,1.4180534976499728,1.8698344446692865,0.0460511642289321,0.2184314513961161,0.0126789023873126,0.6913934812002154,-0.9461354478273852,-0.7538355929445925,-1.9883325189266128,1.435892757110852,1.8830631907147917,0.6666544212670834,-1.0246162110911816,-0.910280014096636,1.34695196835855,1.1926176702550029,-0.4096037479311809,0.4734632692630247,11.66650375248446,-1.260496436054434,0.1070407012348898,-1.118204273447103
1.48,-1.9600433597288,1.3990694203176497,1.8548001009934607,0.0420694020030315,0.2117739593200918,0.0120219523447802,0.7125765111005645,-0.9517925453193582,-0.7503089804072366,-1.9752272091297396,1.4158004328949887,1.8652575904388191,0.6894322841139348,-1.0646162116872282,-0.9502800146926824,1.110360869021203,1.0591514950174574,-0.2828548745986481,0.1763306268677933,11.14512731472132,-1.2718383248952194,0.1111033777509597,-1.112200224012485
1.5,-1.9456136119366108,1.3799903518122252,1.8397720154878887,0.0385688079099759,0.2029803290514785,0.0113558970107624,0.7288477478816622,-0.9558717940788772,-0.7528624495796327,-1.9621218993328664,1.3957081086791256,1.8474519901628468,0.7122101469607861,-1.1046162122832746,-0.9902800152887288,0.848400880543745,0.8135618390548827,-0.2039624379759574,-0.1276734586198036,10.316116050434175,-1.2839174608934942,0.1145842596357969,-1.1018140138477013
1.52,-1.9309097966714532,1.3608421129376105,1.8246312000763707,0.0357808206936283,0.1930539623826002,0.0107436980126409,0.7403484916383882,-0.9589118167266052,-0.7609929877182737,-1.9478776963936504,1.3736157844334602,1.8276463898570725,0.7349880098076375,-1.144616212879321,-1.0302800158847754,0.720441696253881,0.5750371878363025,-0.1520011323863868,-0.4065269069320532,9.987390136338943,-1.2955377286476648,0.1171693943555872,-1.089322956022576
1.54,-1.9167676659672133,1.3426013634956726,1.810067930754359,0.0338413853981137,0.1833861144723966,0.0102415683323702,0.7474848890170124,-0.961197502728974,-0.7715211982726098,-1.9336334934544348,1.3515234601877948,1.8078407895512976,0.7577658726544888,-1.1846162134753675,-1.0702800164808215,0.6461341685816719,0.3568198689312074,-0.114284300118439,-0.526410527716803,9.987390136338943,-1.3069260470584645,0.1191009390486858,-1.0744356763635636
1.56,-1.9017676931813232,1.323349449332199,1.794498388761764,0.0322962854392099,0.1735376139462692,0.0097910661186402,0.7518739058076146,-0.9638624032512854,-0.7849539436636654,-1.918819843944048,1.328431135927228,1.787035189230622,0.7805437355013402,-1.224616214071414,-1.110280017076868,0.7190337473354976,0.2194508395301109,-0.1332450261155748,-0.6716372695527828,9.800292945167712,-1.317136149221814,0.1204894640159856,-1.0594252170099765
1.58,-1.886711084387122,1.30404538015416,1.7786333238860756,0.0310365067691509,0.164375623758984,0.0094103724355768,0.7534097274214895,-0.966385613666891,-0.8008292085955738,-1.9034367478624892,1.3043388116517602,1.765229588895045,0.8033215983481915,-1.2646162146674602,-1.1502800176729144,0.8073867962280319,0.0767910806937444,-0.1261605207802829,-0.7937632465954192,9.498768678800843,-1.325618814374664,0.1215365425704693,-1.0455678913035085
1.6,-1.8724025194487095,1.285662086759508,1.7632473486883722,0.0300531166616771,0.1565333691131218,0.0091123473919722,0.7525901070822617,-0.9685492212836906,-0.8179217409298117,-1.849040598016048,1.2557260994708157,1.738591863456297,0.8413823460609586,-1.066385615157007,-0.90082921008569,0.8624204847649977,-0.0409810169613888,-0.1081803808399783,-0.8546266167118954,9.3690789416014,-1.3330389525801074,0.1224112895887368,-1.0324477584356315
1.62,-1.857402876952184,1.2662347074693008,1.7470688710553297,0.0285131285137716,0.152058303070647,0.0088962639835571,0.7474725499210063,-0.9738970182057703,-0.797106070929207,-1.849040598016048,1.2557260994708157,1.738591863456297,0.8413823460609586,-1.066385615157007,-0.90082921008569,1.104627132557178,-0.2558778580627696,-0.2673898461039936,1.0407835000302346,9.3690789416014,-1.333167596367622,0.1235341407201612,-1.0127059905776854
1.64,-1.842491714464062,1.246724629535529,1.7312933395507335,0.0264804497592266,0.153595629685689,0.0088340853037428,0.7444660179468232,-0.9767638893284148,-0.782244765601625,-1.849040598016048,1.2557260994708157,1.738591863456297,0.8413823460609586,-1.066385615157007,-0.90082921008569,0.7715513278215105,-0.1503265987091551,-0.1433435561322138,0.7430652663791004,11.946252559034292,-1.3331882786402294,0.1255780237361098,-1.0212856364823608
1.66,-1.8276096453096335,1.22717591238865,1.715714884720141,0.0248697950728016,0.15843875410193,0.0088968791902637,0.7443090686006795,-0.9780498493531185,-0.7763259186232945,-1.840626774555438,1.2450622433192453,1.72958357135544,0.8589768697888525,-1.0863856154550302,-0.9208292103837132,0.3029483282479186,-0.0078474673071871,-0.0642980012351801,0.295942348916528,11.174041181272514,-1.3295529592284647,0.1271777199265362,-1.0310043929718613
1.68,-1.8134520809848995,1.2085924190156123,1.700967027604056,0.0241562256947956,0.1645758829460141,0.0090568036465252,0.7462519199696014,-0.978191646848205,-0.7763909790017751,-1.823799127634219,1.2237345310161052,1.7115669871537262,0.8941659172446401,-1.1263856160510768,-0.9608292109797596,0.0974552567102291,0.0971425684460958,-0.0070898747543346,-0.003253018924032,10.675978101820874,-1.323554400027979,0.1280801454732185,-1.041811908592565
1.7,-1.7984897229117496,1.1890366302133093,1.685397640031577,0.024673851118281,0.1717443980161787,0.0093401631601072,0.7501197875771399,-0.9775094512972988,-0.78075377607174,-1.806971480713,1.202406818712965,1.6935504029520123,0.9293549647004278,-1.1663856166471231,-1.0008292115758062,0.293512303289047,0.1933933803769272,0.0341097775453158,-0.2181398534982448,10.344659456844964,-1.316451048479358,0.12776206641767,-1.0526572094071325
1.72,-1.7834331956593907,1.1695006091652065,1.6697025310214508,0.0269375439399799,0.1791166373256409,0.009768935296769,0.7555720732957215,-0.9764030200624458,-0.7885571324894659,-1.7883843814189913,1.1790791063800226,1.6735338187204962,0.9645440121562154,-1.2063856172431695,-1.0408292121718523,0.4791763271922212,0.2726142859290792,0.0553215617426439,-0.3901678208862946,10.109125865928943,-1.3092197366121376,0.1259088301640878,-1.0626650876638029
1.74,-1.769011105267026,1.1509496831611956,1.654640231552308,0.0306166346657056,0.186028383668221,0.0103073699740997,0.7624468904408057,-0.9769205143250188,-0.7965931728217991,-1.7697972821249828,1.15575139404708,1.65351723448898,0.9997330596120032,-1.246385617839216,-1.0808292127678991,0.5294073462680348,0.34374085725421,-0.0258747131286429,-0.4018020166166591,9.947883108180577,-1.301074975392058,0.1223531971516903,-1.0721160791687037
1.76,-1.7536716525018468,1.1313800081068976,1.6386163104955629,0.0349187512756345,0.1930446447717377,0.0109291655917802,0.7713174698952157,-0.9801381169192168,-0.8054127990184845,-1.7503304566445794,1.1314236816992365,1.632500650242563,1.0349221070677908,-1.2863856184352624,-1.1208292133639457,0.6458056065110667,0.4435289727204972,-0.1608801297099116,-0.4409813098342707,9.934613469141368,-1.2930586384357403,0.1183155408608032,-1.0809145945972838
1.78,-1.73813872906618,1.1117282599185612,1.6224126068590412,0.0389552607914143,0.1997152187864167,0.0115516590340208,0.7816932434287078,-0.9848881447929754,-0.8145483712808518,-1.7299839049777817,1.1060959693364916,1.6104840659812445,1.0701111545235784,-1.3263856190313088,-1.1608292139599918,0.7308866563646055,0.5187886766746086,-0.2375013936879222,-0.4567786131183637,9.934345722003854,-1.2853461464023157,0.1145133723968523,-1.0889746521049213
1.8,-1.7223842128132831,1.0919701452583042,1.6060208723527862,0.0424507452994882,0.2060090820611432,0.0121476196888759,0.7933878617799078,-0.990606803629232,-0.8241954721492075,-1.6990540668947447,1.0624838526789124,1.5816851882949987,0.8762706974592216,-1.0848881462830915,-0.8851574565426735,0.8101446050396638,0.5847309175600002,-0.2859329418128276,-0.482355043417787,9.923197169202467,-1.2783845994054144,0.1113798646005918,-1.0959756022977316
1.82,-1.707080817057101,1.073007308899403,1.5906676056866274,0.0431588244267185,0.2110047591556443,0.0125035523664174,0.8168378405601909,-1.0041163161972175,-0.7914446671102702,-1.6990540668947447,1.0624838526789124,1.5816851882949987,0.8762706974592216,-1.0848881462830915,-0.8851574565426735,2.1242785041742835,1.172498939014155,-0.6754756283992802,1.6375402519468674,12.9002914650182,-1.263172156587363,0.1102140297133318,-1.0885926066719092
1.84,-1.690481115973654,1.052805036923253,1.5751570280240252,0.04053620044382,0.2145437849861538,0.0125683844605208,0.8417300294467326,-1.015024555125394,-0.7618149722240963,-1.6990540668947447,1.0624838526789124,1.5816851882949987,0.8762706974592216,-1.0848881462830915,-0.8851574565426735,2.0103044316254746,1.2446094443270828,-0.5454119464088247,1.481484744308692,12.9002914650182,-1.2644359127580531,0.113267970055606,-1.1011320309502803
1.86,-1.6733949035758722,1.0324301873196653,1.5601525204564926,0.0362471745632407,0.2162031103494554,0.0124396143093201,0.8654370794937865,-1.0215426947175106,-0.7404310471912576,-1.6902913599201526,1.0516349712160815,1.572833613729572,0.8951861882653244,-1.104888146581115,-0.8992792735950379,1.629250299590198,1.1853525023526934,-0.3259069796058278,1.069196251641935,12.3442748126281,-1.267693240043656,0.1180420458938947,-1.110499194629395
1.88,-1.655850674658326,1.0119611234713748,1.5454911630008998,0.0319708502380079,0.2159099352749959,0.0122489616426438,0.8876408267269034,-1.0250576572548622,-0.7267180279277627,-1.672765945970968,1.0299372082904197,1.5551304645987185,0.9330171698775298,-1.1448881471771613,-0.9275229076997664,1.3166323045483448,1.1101873616558455,-0.1757481268675809,0.6856509631747443,11.338381956186822,-1.2717164687664235,0.1225614556982776,-1.1152673277619192
1.9,-1.6387861827130148,0.9924682563617108,1.5317587138311315,0.0285024187552826,0.2137193878902115,0.0120639682173976,0.9073737769286088,-1.0267874044883198,-0.7194527482586005,-1.6552405320217836,1.0082394453647578,1.537427315467865,0.9708481514897354,-1.1848881477732076,-0.9557665418044952,1.0549474368727882,0.9866475100852756,-0.0864873616728822,0.3632639834581119,10.9667050004864,-1.277359036718083,0.126677544268761,-1.1162477109327225
1.92,-1.6204365336352076,0.971925051761288,1.517404604561449,0.0256913706305139,0.2092928383256689,0.011889762002224,0.9263139064881364,-1.0275817399447291,-0.7165187599334342,-1.6358235689919889,0.9845416824092936,1.5183119846317752,1.008679133101941,-1.224888148369254,-0.984010175909224,0.9591242933546272,0.9470064779763698,-0.039716772820475,0.1466994162583168,10.9667050004864,-1.284476236733364,0.1298629671590231,-1.112719612590573
1.94,-1.6017368021488962,0.9513726773724976,1.5030796386653476,0.0238090407309672,0.2029977356538872,0.0117557693127406,0.9423091119724644,-1.0277697313120169,-0.7161634809971511,-1.6164066059621942,0.9608439194538296,1.4991966537956851,1.0465101147141465,-1.2648881489653006,-1.0122538100139526,0.8000127535899412,0.79976027421641,-0.0093995683643766,0.0177639468141532,10.504503085668148,-1.2925662621918257,0.1319676661143283,-1.1055231461832429
1.96,-1.5827484232652065,0.930813209349682,1.4887368339106817,0.0226379255420262,0.1955497744104342,0.0116636804027554,0.9553867860710552,-1.0282076274558862,-0.7180619147659214,-1.5960438683920943,0.9361461564834642,1.479375232106977,1.0843410963263518,-1.304888149561347,-1.0404974441186812,0.6611001505751113,0.6538837049295365,-0.0218948071934677,-0.0949216884385151,10.504503085668148,-1.301758880220096,0.133441509544698,-1.0961086228628434
1.98,-1.564495529449215,0.9112743728290174,1.4750558021822833,0.0219956245977801,0.1878865511506031,0.0116099619940526,0.9650573926829868,-1.0285088217958636,-0.7218999773809804,-1.5747353562816897,0.9104483934981976,1.4588477195656506,1.122172077938557,-1.3448881501573933,-1.06874107822341,0.5204374960316609,0.4835303305965766,-0.0150597169988664,-0.1919031307529517,10.359874317200592,-1.3113620716739702,0.1343944479626701,-1.0854550678069237
2.0,-1.545113546563443,0.8907030602532469,1.4605555190810102,0.0218273695813485,0.179667502597882,0.0115956644332892,0.9723625823928406,-1.0286273019255123,-0.727992246534916,-1.516242659815066,0.8598489317392242,1.4389608033132342,1.065057394173103,-1.1285088232859797,-0.7282461728515222,0.4756458180255314,0.3652594854926916,-0.0059240064824495,-0.3046134576967785,10.214354994098358,-1.3208073898849193,0.1348242162850016,-1.074197526287572
2.02,-1.5255197760559576,0.8700824937473863,1.4464097015128032,0.0210163264289778,0.1716165084966242,0.0115487505187937,0.986820973765404,-1.033195126024771,-0.6837273796848404,-1.516242659815066,0.8598489317392242,1.4389608033132342,1.065057394173103,-1.1285088232859797,-0.7282461728515222,2.339491683752532,0.722919568628172,-0.2283912049629188,2.213243342503779,13.712436698556305,-1.318559442648914,0.1349928003907404,-1.0496017266203803
2.04,-1.505656305626375,0.8493821484689454,1.4331733203570358,0.0188182046272617,0.1638519405216887,0.0114332867797348,0.9984904631928988,-1.0363062739461606,-0.642378018094891,-1.516242659815066,0.8598489317392242,1.4389608033132342,1.065057394173103,-1.1285088232859797,-0.7282461728515222,2.1538488391618618,0.5834744713747342,-0.1555573960694833,2.06746807949747,13.712436698556305,-1.3325673219149887,0.1377376094057412,-1.050381462396247
2.06,-1.4866091485238184,0.8296900150978828,1.421281836137057,0.0165524315799279,0.1569279132972941,0.0113480353067907,1.0057422129380222,-1.036491622628669,-0.611393041808521,-1.505592085873335,0.8485638435063644,1.431678341584719,1.085057394471126,-1.1485088235840029,-0.7295154119456305,1.5911403017701775,0.3625874872561774,-0.0092674341254039,1.549248814318499,13.027817161214443,-1.3456694645369565,0.1407637323410724,-1.048938106985221
2.08,-1.466447149299468,0.8089750126472316,1.4093326180303791,0.0148907101100242,0.1504787920053253,0.0113479117743538,1.0098420009586409,-1.035145152282862,-0.5854468773930761,-1.484290937989873,0.8259936670406447,1.4171134181276883,1.1250573950671727,-1.1885088241800494,-0.7320538901338471,1.3151280280636624,0.2049894010309305,0.0673235172903408,1.2973082207722475,12.39912122989881,-1.3566357160231828,0.1430156316176389,-1.046368244517727
2.1,-1.4462392801832202,0.788297994797102,1.3978381691313488,0.014442614651391,0.1454150987724123,0.0114685937286747,1.010536679383725,-1.0327573181612035,-0.5655302173086395,-1.4629897901064108,0.8034234905749251,1.402548494670658,1.165057395663219,-1.2285088247760958,-0.7345923683220639,1.0035657412768522,0.0347339212542041,0.1193917060829163,0.99583300422183,11.549671908360324,-1.365876061558514,0.1441230228302829,-1.045268734899786
2.12,-1.4270596080185247,0.7687082589130415,1.3872386697508703,0.0156284316209907,0.1425675281958205,0.0117281647528981,1.0083131847448787,-1.0297141951026398,-0.5511784255760971,-1.4396886421931463,0.7788533140794032,1.3878566473042169,1.2050573962592654,-1.2685088253721422,-0.7371308465102806,0.7419205690180262,-0.1111747319423095,0.1521561529281845,0.7175895866271209,11.549671908360324,-1.372146007967827,0.143608902120555,-1.0453619685344513
2.14,-1.4069261914596507,0.748148244651459,1.3763655418063094,0.0188762164893925,0.1421071203263538,0.0121788374917222,1.0054475702017809,-1.0269956540224603,-0.5369402469098392,-1.416387494279882,0.7542831375838813,1.3731647999377756,1.245057396855312,-1.3085088259681887,-0.7396693246984972,0.7387962236749025,-0.1432807271549041,0.1359270540089663,0.7119089333128936,11.277233875225647,-1.373375444205756,0.1410080163806019,-1.049220436081567
2.16,-1.3868327567560204,0.72760471205244,1.3657739903596675,0.0231532418245444,0.1436019096637706,0.0127381319150127,1.0042665730509284,-1.0277127495679772,-0.5229516542810241,-1.3920863463517166,0.7287129610734582,1.3584094906166289,1.2850573974513584,-1.348508826564235,-0.742207802886714,0.7028330243142076,-0.0590498575426146,-0.0358547772758344,0.6994296314407566,11.21872726782749,-1.3720451288786495,0.1373668922035341,-1.0554763241874705
2.18,-1.366743477962857,0.7070224892772807,1.355462820312638,0.0272914434299624,0.1461487882445376,0.0133173842781265,1.0048780494397418,-1.0304738475643522,-0.5088884009428939,-1.36678519840865,0.702142784548134,1.3435907193407768,1.3250573980474047,-1.3885088271602817,-0.7447462810749306,0.7172389071503518,0.0305738194406712,-0.1380548998187514,0.7031626669065094,11.21872726782749,-1.3693737262363903,0.1339596328226671,-1.0622959533377552
2.2,-1.347631401321134,0.6874053238118678,1.3459275215838835,0.030722818290267,0.1489140804572781,0.013849005590162,1.0069710079321168,-1.034271211561092,-0.4955474409824412,-1.3164995754908695,0.6554987968990631,1.3300184002654931,1.104878050929858,-1.1304738490544683,-0.4847306663551053,0.7013944347529074,0.1046479246187503,-0.1898681998369844,0.6670479980226324,11.233679803872292,-1.3661776380906077,0.1308288829932187,-1.069713934335799
2.22,-1.3273701790024155,0.6665908413104824,1.3364113029494136,0.0313801288283369,0.1502747441104978,0.0141587206179405,1.0191869930666015,-1.0462177042253429,-0.4554434663616294,-1.3164995754908695,0.6554987968990631,1.3300184002654931,1.104878050929858,-1.1304738490544683,-0.4847306663551053,2.179608772331441,0.6107992567242371,-0.597324633212537,2.005198731040592,11.243882452381513,-1.356003452451647,0.1299542704529299,-1.069865559105978
2.24,-1.3068629646909675,0.6455702854858424,1.327714694941531,0.0281387306553725,0.1485260832566072,0.014106443094929,1.030620669769621,-1.0545627397286146,-0.4163386298686065,-1.3164995754908695,0.6554987968990631,1.3300184002654931,1.104878050929858,-1.1304738490544683,-0.4847306663551053,2.0793970385944167,0.5716838351509712,-0.4172517751635962,1.955241824651144,13.233870840374038,-1.363006349868955,0.1335703338773147,-1.0761063324362676
2.26,-1.28719415256974,0.6254996928278123,1.320125956254774,0.0237957180876787,0.1445015480891824,0.0139239379297945,1.0389946825140846,-1.05756795085205,-0.3844025134697463,-1.305450794981571,0.6441940584085184,1.3251710936019423,1.124878051227881,-1.1504738493524915,-0.4798991194375476,1.6576119223014834,0.4187006372231794,-0.1502605561717662,1.5968058199430115,12.924715504639607,-1.3707349540215277,0.1386082537866501,-1.078042979753962
2.28,-1.266355830870848,0.6043453730602245,1.312746191306993,0.0196754692557338,0.1385579191723271,0.0137571647495327,1.0439714784447809,-1.0578083702743175,-0.3554493737473854,-1.2833532339629738,0.6215845814274291,1.3154764802748402,1.1648780518239277,-1.190473849948538,-0.4702360256024321,1.468937199999499,0.2488397965348054,-0.01202097111338,1.4476569861180426,12.518539288741522,-1.3796091395138486,0.1431944969851998,-1.0753393381750167
2.3000000000000003,-1.245463695586048,0.5832029256290948,1.3058956521801368,0.0166318213223542,0.1321299535992419,0.0136899406875037,1.044733295681908,-1.0566312051202431,-0.331241572493547,-1.261255672944377,0.5989751044463397,1.305781866947738,1.204878052419974,-1.2304738505445845,-0.4605729317673167,1.2124187857832915,0.0380908618563657,0.0588582577037199,1.210390062691921,12.177094608239711,-1.3885562781548952,0.1467288418453955,-1.0713954877187224
2.32,-1.2245979585408464,0.5620942618553487,1.2994836444153757,0.0148736468561661,0.1263471070295168,0.0137470961595917,1.0416803991744823,-1.0546225588448188,-0.3111469163258903,-1.2371581118959771,0.5743656274354481,1.296570408312392,1.2448780530160204,-1.2704738511406308,-0.4509098379322013,1.021212567785439,-0.1526448253712842,0.1004323137712148,1.0047328083828355,11.858796035987323,-1.3960950539076422,0.1489119236942358,-1.0673554914547436
2.34,-1.204863626920912,0.5420846349312659,1.293746896588282,0.0145377440302618,0.1224371737511955,0.0139288386220115,1.0356988568787686,-1.051995926951298,-0.2937223596188625,-1.2130605508475778,0.5497561504245563,1.2873589496770454,1.284878053612067,-1.3104738517366774,-0.4412467440970858,0.930447768249108,-0.2990771147856841,0.1313315946760429,0.8712278353513875,11.613949041450724,-1.402004165171976,0.1498518367124826,-1.0642404221028636
2.36,-1.18423281514443,0.5210703703042351,1.2880575836986203,0.0156248053788256,0.1208579093412432,0.014259313017391,1.0278549400833716,-1.0496845196046922,-0.2761706502015674,-1.1879629897842772,0.5241466733987635,1.2783890683875772,1.324878054208113,-1.3504738523327238,-0.4315836502619704,0.968158223231386,-0.3921958397698488,0.1155703673302865,0.8775854708647585,11.51894078432997,-1.40413422930496,0.1493188836905029,-1.065735077442047
2.38,-1.1637507168329015,0.5000954280932509,1.2827142372925535,0.0180074905381443,0.1216944118166318,0.0147171084428478,1.0209950726227042,-1.0480658889633203,-0.2590702367197129,-1.1618654287060752,0.4975371963580695,1.2696607644439866,1.3648780548041597,-1.39047385292877,-0.421920556426855,0.9247998269645982,-0.3429933730333734,0.0809315320685843,0.8550206740927213,11.439574610613818,-1.403738772216389,0.1475429202457973,-1.07121992822357
2.4,-1.1433889130395385,0.4791323417576946,1.2777133388233115,0.0211390716686576,0.1241599031595208,0.0152585436987684,1.0157659318871637,-1.048532269997074,-0.2418983144836246,-1.1127009632017664,0.4476921336450848,1.2697607254565682,1.1209950741128205,-1.1480658904534369,-0.1870483723651025,0.897825619737763,-0.2614570367770241,-0.0233190516876757,0.8585961118044174,11.439574610613818,-1.4016521845255188,0.14513889235276,-1.0783415052350456
2.42,-1.124039723079726,0.4591279495231192,1.2735000016565992,0.0220961161466038,0.12558960738395,0.0156152074651738,1.0208966874837215,-1.0561713927178344,-0.202464977435642,-1.1127009632017664,0.4476921336450848,1.2697607254565682,1.1209950741128205,-1.1480658904534369,-0.1870483723651025,2.0246412766674524,0.2565377798278923,-0.3819561360380197,1.97166685239913,13.204913038289304,-1.3960045603321811,0.1442144866435562,-1.081954415055695
2.44,-1.103575116243813,0.437946412437424,1.2698874588931337,0.0202891086839381,0.1245097739026294,0.0157411949935284,1.025062339916034,-1.0613686237123467,-0.1609952032238169,-1.1127009632017664,0.4476921336450848,1.2697607254565682,1.1209950741128205,-1.1480658904534369,-0.1870483723651025,2.100063120109072,0.2082826216156186,-0.2598615497256151,2.0734887105912523,13.204913038289304,-1.400520707028778,0.1466915504565875,-1.086565276724974
2.46,-1.0830526727351593,0.4166943404734737,1.2670689431270985,0.0171074361307702,0.1216520848248097,0.0157475243727254,1.026777152879126,-1.063282760608786,-0.1229135498098605,-1.101491012460638,0.4362114747405505,1.2678902417329172,1.1409950744108437,-1.1680658907514598,-0.1726439994941804,1.9084134970554725,0.0857406481545974,-0.0957068448219633,1.9040826706978224,13.09293392866948,-1.4065629519752054,0.150334374891007,-1.0880632807323456
2.48,-1.063552827890063,0.3965028531323826,1.265064327281473,0.0143598597442072,0.1181405804610087,0.0157759829930893,1.0256067217470768,-1.0622637266464514,-0.0899986002186485,-1.0790711109783817,0.4132501569314817,1.264149274285615,1.18099507500689,-1.2080658913475064,-0.1438352537523362,1.6475756779608668,-0.0585215566024532,0.0509516981167301,1.6457474795605969,12.842927092220634,-1.4139501986055627,0.1539494557996662,-1.0880822846899962
2.5,-1.043081859454356,0.3752842765579561,1.2636041174705115,0.0125143311680491,0.1146240063719925,0.0158965520767119,1.021343119024606,-1.0598651508501848,-0.0578705084614436,-1.0566512094961251,0.390288839122413,1.260408306838313,1.2209950756029364,-1.2480658919435528,-0.115026508010492,1.624919808778942,-0.2131801361235363,0.1199287898133283,1.6064045878602484,12.601654834423243,-1.4210824843208656,0.1565253247715106,-1.0878387491823462
2.52,-1.0227279682378834,0.3541232455587287,1.2627612926622154,0.0121304667359968,0.1124336759882576,0.0161432986578249,1.014166261248818,-1.0565268275040531,-0.0281224112764058,-1.0322313079840666,0.3653275212835419,1.258107776678103,1.2609950761989828,-1.2880658925395991,-0.0862177622686479,1.5391564056551164,-0.3588428887894013,0.1669161673065855,1.4874048592518898,12.431481629354494,-1.4265036096240635,0.1576642180350447,-1.0896287948065515
2.54,-1.0025303468549616,0.3330372885695805,1.2625043768458375,0.0137117755394611,0.1123119012976092,0.0165526354966802,1.0062492686149218,-1.0525702507924095,0.0009298164611493,-1.0078114064720078,0.3403662034446709,1.255807246517893,1.3009950767950291,-1.3280658931356455,-0.0574090165268037,1.5185233025500926,-0.3958496316948112,0.19782883558217,1.4526113868777586,12.284113099407476,-1.4289476571958155,0.1569332167229149,-1.0953809055881312
2.56,-0.983478253376412,0.3130636780945699,1.262799855052738,0.0168760564143839,0.1137665390493159,0.0170776797058096,0.9998312410739456,-1.0505671273558488,0.0286977863485767,-0.982391504945048,0.3144048855908987,1.2542269350012296,1.3409950773910757,-1.368065893731692,-0.0286002707849595,1.4285164793308305,-0.3209013770488045,0.1001561718280474,1.3883984943713683,12.254032765143164,-1.4290644703344286,0.1543468423844219,-1.1038123363001526
2.58,-0.9635386915459604,0.2920463342691574,1.2636887807811568,0.0207175819002048,0.1163477219065654,0.0176856198012344,0.994644296540916,-1.0513955708687406,0.058758073545134,-0.9559716034031868,0.2874435677222253,1.253366842128112,1.380995077987122,-1.4080658943277384,0.0002084749568846,1.5257879755902228,-0.2593472266514796,-0.0414221756445898,1.5030143598278645,12.269687777236868,-1.4271875178244953,0.1510966154303173,-1.1134148237461687
2.6,-0.9436849399614304,0.2709911842386251,1.2651863433907284,0.0242018997878277,0.1194494999566441,0.0182837261676783,0.9911349448255122,-1.054042521070622,0.0895065358508572,-0.9138064767189148,0.2394765557257203,1.2666266844584135,1.0946442980310322,-1.1513955723588567,0.1243649954563736,1.553053306393677,-0.1754675857701948,-0.1323475100940663,1.5374231152861637,12.34097215618658,-1.4240103459859494,0.1480934422210596,-1.1233118392784576
2.62,-0.9238302886040496,0.2497919538928769,1.2672573432468284,0.0243698420390231,0.1207438690772384,0.0186085318129406,0.9941309474501588,-1.0643830070598987,0.1160847039106763,-0.9138064767189148,0.2394765557257203,1.2666266844584135,1.0946442980310322,-1.1513955723588567,0.1243649954563736,1.433789297314381,0.1498001312323249,-0.5170242994638419,1.3289084029909546,12.398534425977232,-1.4208904948948031,0.1481679565953146,-1.1321908592230046
2.64,-0.9049275078549602,0.2295110732248779,1.2697199366763154,0.0211722084589299,0.1190920367574483,0.0186176808277728,0.9952696010062164,-1.0694635068777631,0.1418373670683814,-0.9138064767189148,0.2394765557257203,1.2666266844584135,1.0946442980310322,-1.1513955723588567,0.1243649954563736,1.3136853409723548,0.0569326778028844,-0.2540249908932201,1.2876331578852511,12.138094858949444,-1.4236409012884146,0.1520660321223504,-1.1321574595415265
2.66,-0.8850344062344914,0.2081141276265733,1.2728345384788926,0.0170237049779061,0.1155031605141282,0.0185513436867324,0.9937276080301216,-1.0699131245498283,0.1682259390387735,-0.9028600337386044,0.2279626000021317,1.2678703344129774,1.1146442983290554,-1.17139557265688,0.1374863798386215,1.3218704825227072,-0.0770996488047459,-0.0224808836032597,1.3194285985196077,12.169427993114368,-1.4289551714537625,0.156879097549158,-1.1295325754026384
