t,x,y,z,roll,pitch,yaw,v_x,v_y,v_z,ref_x,ref_y,ref_z,ref_v_x,ref_v_y,ref_v_z,a_com,a_x,a_y,a_z,thrust,wind_x,wind_y,wind_z
0.0,0.8359433500123289,2.4869098505615823,2.8535497711154405,0.01382096940027,0.1498758835650169,0.0281890430804298,0.0006933343021286,0.0041848116457985,-0.0027129034993118,0.8359694726303651,2.486932909328792,2.853468837550774,-0.0991764702059421,-0.0983213016456192,-0.1027011094454245,0.2517598377516645,0.0346667151064318,0.2092405822899262,-0.1356451749655936,10.658553689984728,-1.4134924612739908,0.1790249574988616,-1.2792111070101213
0.02,0.83607104985255,2.4872286965208983,2.853266499682105,0.0225311666286442,0.1450068936247057,0.0287082687140714,0.0117053017083532,0.0241256850279454,-0.0270448019705957,0.8359694726303651,2.486932909328792,2.853468837550774,-0.0991764702059421,-0.0983213016456192,-0.1027011094454245,1.6665406840334245,0.5505983703112316,0.9970436691073482,-1.216594923564194,10.658553689984728,-1.4091568779732204,0.1679158303499565,-1.273839036254829
0.04,0.8363812144504096,2.4877431108240136,2.852403123443098,0.0374187894371178,0.1309486693881328,0.0292795746952738,0.0174928971886735,0.0255680406263192,-0.0580208455378573,0.8359694726303651,2.486932909328792,2.853468837550774,-0.0991764702059421,-0.0983213016456192,-0.1027011094454245,1.57725388428502,0.2893797740160149,0.0721177799186891,-1.5488021783630803,9.21587902859801,-1.4255632628940056,0.1505191212310746,-1.2479391376228277
0.06,0.8367038994288363,2.4882077426999936,2.8509255858914124,0.0525777825448825,0.1113855481343749,0.0293514082372868,0.0135482338886047,0.0204458518039896,-0.0880374921883185,0.8349777079283057,2.4859496963123355,2.85244182645632,-0.1191764705039653,-0.1183213019436424,-0.1227011097434477,1.5352493795969706,-0.1972331650034404,-0.2561094411164798,-1.5008323325230613,8.92132909760221,-1.4496475121916192,0.1334441517939078,-1.2096824544646587
0.08,0.8368499045077779,2.4885299099516267,2.8488656478903467,0.0671010008068704,0.0901527345510762,0.0289236094913505,0.0006882520312419,0.0116955326139947,-0.1164173673101532,0.8329941785241869,2.483983270279423,2.850387804267412,-0.1591764711000117,-0.1583213025396888,-0.1627011103394941,1.6181505888122891,-0.6429990928681423,-0.437515959499748,-1.4189937560917312,8.933478631914113,-1.473659087347015,0.118491170605244,-1.1700679822179794
0.1,0.8366773645738742,2.488645198675264,2.8463942623028933,0.0802326115686638,0.0709159034338363,0.0282008340469369,-0.0184322770005926,0.0006125529434044,-0.142312749203481,0.8310106491200681,2.4820168442465107,2.848333782078502,-0.1991764716960582,-0.1983213031357353,-0.2027011109355406,1.702202890548917,-0.9560264515917272,-0.5541489835295148,-1.2947690946663906,8.981929166140617,-1.496686490103566,0.1040539938008168,-1.1306720955044849
0.12,0.8360479721016175,2.488511593732355,2.843265874931178,0.093390670968804,0.0532415944167854,0.0272921335290194,-0.0436653878033279,-0.0136810107037935,-0.1691667251936932,0.8270271196861468,2.478050418183796,2.844279759859792,-0.2391764722921046,-0.2383213037317817,-0.242701111531587,1.976203347964544,-1.2616555401367653,-0.7146781823598971,-1.3426987995106097,9.0318604155068,-1.5164548244463665,0.0908097736866051,-1.0966997005433703
0.14,0.8348702708385122,2.48806603208262,2.8395960915238896,0.1059089912380743,0.0391729115583197,0.0264174396625652,-0.0726892616094068,-0.0304264664819523,-0.1964887951314128,0.8230435902522257,2.474083992121081,2.840225737641081,-0.2791764728881512,-0.2783213043278282,-0.2827011121276335,2.161764930335342,-1.4511936903039448,-0.837272788907939,-1.366103496885981,9.06066161231456,-1.5263048942579336,0.0787765223384594,-1.070050599053767
0.16,0.8331859157534863,2.487310422549042,2.835601160291819,0.1172395125334967,0.0296334318701924,0.0257724776352995,-0.1029669600162966,-0.0484926316819688,-0.2226709709186616,0.8180600608034034,2.4691175660434657,2.835171715407469,-0.3191764734841976,-0.3183213049238746,-0.3227011127236799,2.195809460544824,-1.5138849203444902,-0.9033082600008268,-1.309108789362437,9.049270660849288,-1.533145745304493,0.0672587572467392,-1.046343978773345
0.18,0.8307719647209681,2.4861221123102086,2.830855054482491,0.1286021315676654,0.0240666341725686,0.0254555121350182,-0.136868747017421,-0.0696315302696167,-0.2505870628740541,0.8120765313396799,2.4631511399509485,2.829117693158956,-0.359176474080244,-0.3583213055199211,-0.3627011133197264,2.436951161508169,-1.695089350056222,-1.0569449293823967,-1.3958045977696274,9.056798793790676,-1.5346699545138538,0.0565979528906763,-1.0292024704226426
0.2,0.8276701633334062,2.484478733491057,2.82554890362248,0.1390838326078511,0.0235144763916738,0.0256601010317227,-0.1710584493459938,-0.0936955753160062,-0.2785789771139075,0.8239285273700971,2.482640535796728,2.818325701338789,-0.2368687485075372,-0.1696315317597329,-0.3505870643641702,2.5157311422936157,-1.7094851164286355,-1.2032022523194712,-1.3995957119926683,9.058962768720448,-1.5291262592777488,0.0465941693303854,-1.021568041569788
0.22,0.823868288440065,2.4821551184879915,2.8198366406688025,0.1435265341263467,0.028656103719644,0.0262285833223748,-0.2064653296252883,-0.1343167724143426,-0.2907308514305026,0.8239285273700971,2.482640535796728,2.818325701338789,-0.2368687485075372,-0.1696315317597329,-0.3505870643641702,2.761972517160749,-1.770344013964728,-2.0310598549168195,-0.6075937158297545,9.064438972134669,-1.5178755854592756,0.0433653517982629,-1.0123007929224324
0.24,0.8196516839274594,2.4792770512172617,2.814193245423702,0.1420739631714871,0.0381257444232619,0.02702612369418,-0.2350141765432984,-0.1660374633907511,-0.302616012183117,0.8239285273700971,2.482640535796728,2.818325701338789,-0.2368687485075372,-0.1696315317597329,-0.3505870643641702,2.215003353543888,-1.4274423459005037,-1.586034548820428,-0.5942580376307238,10.1009059884409,-1.502687154940094,0.043968798844717,-1.0233771118319497
0.26,0.8146821931466083,2.4756506636332074,2.80798530118133,0.1375596479102138,0.0505410586598568,0.0279642384575456,-0.2598901959283567,-0.1941678450246068,-0.317583085663187,0.8215598398850218,2.4809442204791305,2.814819830695147,-0.2568687488055604,-0.1896315320577561,-0.3705870646621935,2.021229823566567,-1.2438009692529144,-1.406519081692785,-0.7483536740034963,9.9073395612304,-1.4866611012246225,0.0476640882423498,-1.0376193109154246
0.28,0.809267366307669,2.471511697990345,2.8014465516140428,0.1322185438097105,0.0636990950838125,0.0288781177541901,-0.2799679041839588,-0.2181010270691167,-0.3354988457267877,0.816822464914871,2.477551589843936,2.8078080894078634,-0.2968687494016068,-0.2296315326538025,-0.4105870652582399,1.8006151936416277,-1.003885412780106,-1.1966591022254918,-0.8957880031800342,9.689246914213072,-1.469619026011297,0.0521672106854749,-1.0528837559688462
0.3,0.8034952645180914,2.4669238530237894,2.794520685516023,0.1270635844872227,0.0763541579653553,0.0296658890355668,-0.2959986720771609,-0.2394565974568938,-0.3561978737493633,0.8120850899447203,2.4741589592087414,2.80079634812058,-0.3368687499976533,-0.269631533249849,-0.4505870658542864,1.6893013843837914,-0.8015383946601062,-1.067778519388858,-1.0349514011287837,9.50269233635754,-1.4540401188281282,0.0563661659235732,-1.0665243072882369
0.32,0.797746676018277,2.4621878839478164,2.7875332552303216,0.1226940544082291,0.0871606823996129,0.0302381428354647,-0.3082107214909377,-0.258063205242119,-0.3783041541375164,0.8053477149447672,2.468766328543744,2.7917846068034944,-0.3768687505936997,-0.3096315338458954,-0.4905870664503328,1.5684607396723167,-0.6106024706888397,-0.9303303892612608,-1.105314019407655,9.205866406906352,-1.4388815349372164,0.0603769170945608,-1.0780917638813008
0.34,0.7914706184748459,2.4568345205948146,2.779707295632631,0.1188124937763142,0.0967958740851968,0.0306300589770815,-0.318651256951562,-0.2763632423014412,-0.4032216218836801,0.7986103399448141,2.4633736978787475,2.782772865486409,-0.4168687511897462,-0.3496315344419419,-0.5305870670463793,1.631545537181099,-0.5220267730312117,-0.9150018529661104,-1.2458733873081829,9.205866406906352,-1.4255972012048437,0.0637602183635216,-1.0861150778192887
0.36,0.7850018401076012,2.4511148773354026,2.771368475724231,0.115404109990845,0.1045468130026764,0.0307965079345598,-0.3277017085169545,-0.2946201786085282,-0.4294021782074218,0.7908729649299598,2.456981067198849,2.772761124154422,-0.4568687517857926,-0.3896315350379883,-0.5705870676424256,1.6588007160891554,-0.452522578269629,-0.9128468153543456,-1.309027816187086,9.1198242888986,-1.4150025482589712,0.0666172525240359,-1.0902215394260628
0.38,0.7783616617767523,2.4450345752458564,2.7624966746016053,0.1121350650115362,0.1106518658867711,0.0307572622358506,-0.3358715270022336,-0.312391818466231,-0.4564513190481238,0.7821355899002045,2.44958843650405,2.7617493828075337,-0.496868752381839,-0.4296315356340348,-0.6105870682384721,1.669006543976412,-0.4084909242639517,-0.888581992885143,-1.3524570420351016,9.066847344087364,-1.4056578539749294,0.069494273362846,-1.0917626843914745
0.4,0.7719076716463047,2.4389351460088555,2.7535601310038103,0.1090792174049748,0.1151636668526752,0.0305613034549681,-0.3431009095089011,-0.3286685824330044,-0.4828692602763684,0.7615680854266406,2.4294149843225448,2.739674108649199,-0.4358715284923497,-0.4123918199563471,-0.55645132053824,1.5930353381177311,-0.3614691253333774,-0.8138381983386705,-1.3208970614122295,9.022481907279143,-1.3975680599980382,0.0721712046067374,-1.0923516644787776
0.42,0.7649998812746478,2.4321771215058265,2.7438197142222327,0.1062898749418144,0.1186465999209964,0.0302339041697551,-0.3471752307312551,-0.3464962859902151,-0.4887021201802102,0.7615680854266406,2.4294149843225448,2.739674108649199,-0.4358715284923497,-0.4123918199563471,-0.55645132053824,0.959751741603724,-0.2037160611177008,-0.8913851778605347,-0.2916429951920901,10.289722041884488,-1.3909324694887313,0.0744325821492515,-1.0906094769046952
0.44,0.7580219447655037,2.4250751353758915,2.7339653607390337,0.1044135482497359,0.1206490253478681,0.0298055241964268,-0.3505368805503598,-0.3629597402929131,-0.4968173968021386,0.7615680854266406,2.4294149843225448,2.739674108649199,-0.4358715284923497,-0.4123918199563471,-0.55645132053824,0.9330108945421378,-0.1680824909552319,-0.8231727151348983,-0.4057638310964201,10.289722041884488,-1.3884752634322235,0.0756228792467568,-1.0910536112086788
0.46,0.7513270798308256,2.418025283354672,2.724402704839405,0.1034279531080545,0.1210779602332373,0.02929716785541,-0.3541259743778186,-0.3783728530274432,-0.5093415409957892,0.7572093701417171,2.4252910661229814,2.7341095954438166,-0.4558715287903729,-0.4323918202543704,-0.5764513208362632,1.00908352782734,-0.1794546913729405,-0.7706556367265055,-0.6262072096825277,9.992410950338126,-1.3864596584944695,0.0759397023816666,-1.089267816604927
0.48,0.7442010633279693,2.410293288546028,2.71404320377522,0.1030904788332829,0.1200295955410794,0.0286537962784491,-0.3583653987504963,-0.394043065551742,-0.5260972064499692,0.7484919395718701,2.417043229723854,2.7229805690330515,-0.4958715293864194,-0.4723918208504168,-0.6164513214323096,1.1664911105327225,-0.2119712186338856,-0.7835106262149422,-0.8377832727089973,9.52712812574373,-1.3852172672037213,0.0754717742858359,-1.0851070932304776
0.5,0.7369846305494626,2.402251159011312,2.7033181206399277,0.1035173500462255,0.1173822267808281,0.0278955543096582,-0.3631674284597945,-0.4094305112430523,-0.5456667509403011,0.7397745090020231,2.4087953933247275,2.711851542622287,-0.5358715299824659,-0.5123918214464633,-0.6564513220283561,1.2676750823762857,-0.240101485464908,-0.7693722845655143,-0.9784772245165996,9.52712812574373,-1.385168329115027,0.074224020452351,-1.0783459271107347
0.52,0.7296636610144926,2.393901983302666,2.692177779953288,0.1047170578362105,0.1130911968349262,0.0270136838597998,-0.3688725958848368,-0.4248042020990821,-0.5673539482982367,0.7290570784023738,2.398547556895798,2.69872251618172,-0.5758715305785124,-0.5523918220425098,-0.6964513226244026,1.3594427490028629,-0.2852583712521173,-0.7686845428014871,-1.084359867896778,9.37590460841875,-1.3861318204513775,0.0723235632600671,-1.069284679692751
0.54,0.7225858511521077,2.385682234679595,2.6811877723706203,0.1065484353121563,0.1077887031651755,0.0260832493409722,-0.3761247823654708,-0.4397547704270072,-0.5883809326547099,0.7183396478027245,2.388299720466869,2.685593489741153,-0.6158715311745588,-0.5923918226385563,-0.736451323220449,1.3400072511046517,-0.3626093240317013,-0.7475284163962564,-1.0513492178236603,9.265124653948078,-1.3885992742007265,0.0696804428466442,-1.0574090717666036
0.56,0.7149605486962072,2.3767040154801737,2.6691836658898334,0.108729484689656,0.1017305553844171,0.025052162709805,-0.3862153058880654,-0.4573281389810129,-0.6109231605209713,0.706622217188174,2.377051884023038,2.6714644632856843,-0.6558715317706052,-0.6323918232346026,-0.7764513238164954,1.5155807339675111,-0.5045261761297298,-0.8786684277002826,-1.1271113933130683,9.235587182190102,-1.391264363477858,0.0667794753979878,-1.0448880434192385
0.58,0.7071101423231774,2.3673581930392804,2.6567266769195257,0.1103915556523077,0.0959443712474288,0.0239971876669681,-0.398435978124469,-0.4762489542171154,-0.633622296136001,0.6939047865587223,2.3648040475643066,2.656335436815315,-0.6958715323666517,-0.6723918238306491,-0.8164513244125419,1.598900275797277,-0.6110336118201803,-0.9460407618051252,-1.1349567807514838,9.212252190643994,-1.3934804627669868,0.064358586914367,-1.03314659383143
0.6,0.6989942573571224,2.357622992243823,2.643812774394692,0.1110663727439385,0.09104435172302,0.0229619312931419,-0.4126200276064229,-0.4961311798185112,-0.6565954096745863,0.6871883434169539,2.3435457453284245,2.6250455621127258,-0.4984359796145852,-0.5762489557072314,-0.7336222976261171,1.676494930075879,-0.7092024740976949,-0.9941112800697928,-1.1486556769292666,9.20415888631942,-1.3945896345038076,0.0629432488142562,-1.0228838857667988
0.62,0.6909746503604027,2.3479494375008363,2.6313474971384907,0.1096667539966195,0.0894162834168536,0.0221732853259907,-0.4306002767099912,-0.5206050158828597,-0.6543224234194387,0.6871883434169539,2.3435457453284245,2.6250455621127258,-0.4984359796145852,-0.5762489557072314,-0.7336222976261171,1.5226822354377307,-0.8990124551784107,-1.223691803217422,0.1136493127573801,9.18992236195254,-1.3942310560704272,0.0640582404197047,-1.0098743698471726
0.64,0.6821821943940181,2.3372960407490164,2.618253338979298,0.1059558247215222,0.0921781015216305,0.0216820881645636,-0.4471940798003395,-0.5428380834834262,-0.6554884376658089,0.6871883434169539,2.3435457453284245,2.6250455621127258,-0.4984359796145852,-0.5762489557072314,-0.7336222976261171,1.3883652123589043,-0.8296901545174179,-1.1116533800283268,-0.0583007123185097,10.725933059490671,-1.3906818515245465,0.0665360807633829,-1.014334127217616
0.66,0.6730894286767212,2.326236570756363,2.6050758373060035,0.1014668691477028,0.097630921096063,0.0214144842637289,-0.4609016373060208,-0.561735966655714,-0.6624290562466846,0.682203983620808,2.337783255771352,2.6177093391364648,-0.5184359799126084,-0.5962489560052546,-0.7536222979241403,1.2177841633990338,-0.6853778752840628,-0.94489415861439,-0.3470309290437845,9.995270691690166,-1.3834538767990687,0.0697669482997422,-1.0218742378943464
0.68,0.6637506007036255,2.3148253721693512,2.5916997409184277,0.0969163567916111,0.1044027928185621,0.0212588417975875,-0.4720020601340968,-0.5783187194885291,-0.674803003442793,0.6722352640285164,2.3262582766572075,2.6030368931839423,-0.5584359805086548,-0.6362489566013011,-0.7936222985201867,1.174011975757047,-0.5550211414037998,-0.8291376416407537,-0.6186973598054202,9.995270691690166,-1.37456264283623,0.0729581361238706,-1.0299034473954278
0.7000000000000001,0.6546958385835735,2.30369503559523,2.5787220724520226,0.0928473904914188,0.1111505666940044,0.0211399169093237,-0.4804023328638993,-0.5924430420117435,-0.6906437479509587,0.6622665444362247,2.314733297543063,2.58836444723142,-0.5984359811047013,-0.6762489571973476,-0.8336222991162332,1.1412605478678255,-0.4200136364901241,-0.7062161261607192,-0.7920372254082875,9.70602640342895,-1.3641928144210789,0.0761424800272224,-1.037893421050751
0.72,0.6450123105068442,2.291704138570067,2.5647005896480777,0.089019356072424,0.1179257854151078,0.0209979736290374,-0.4873667227305849,-0.60590018602605,-0.7108366223811947,0.6502978248141307,2.301208318399116,2.571692001249095,-0.6384359817007478,-0.716248957793394,-0.8736222997122797,1.262289219030506,-0.3482194933342813,-0.6728572007153266,-1.0096437215117993,9.47438924972448,-1.3536798843232127,0.078940706579596,-1.044719810424466
0.74,0.6352077998789367,2.279454805755108,2.5502506700081917,0.0857468546629402,0.1238985349158098,0.0208101359821018,-0.4926816070969663,-0.6184323711160301,-0.7331443724026723,0.6383291051920367,2.2876833392551688,2.5550195552667705,-0.6784359822967942,-0.7562489583894405,-0.913622300308326,1.3066554346673198,-0.2657442183190694,-0.6266092544990054,-1.115387501073878,9.18834990753021,-1.3445546968978304,0.0811264160754536,-1.050514906745848
0.76,0.6258035810345663,2.267584238009416,2.536096802890297,0.0828735049612023,0.1287277334171961,0.0205683592365213,-0.4969301504537901,-0.6303693936532877,-0.755612889749345,0.6253603855550415,2.2731583600963208,2.5373471092695445,-0.7184359828928406,-0.7962489589854869,-0.9536223009043724,1.289745032426509,-0.2124271678411921,-0.5968511268628796,-1.1234258673336384,9.18834990753021,-1.3354950820613696,0.0831852855811302,-1.05521611015698
0.78,0.6158240524126359,2.254849780467961,2.520723685485304,0.0798910643645904,0.1330054852203419,0.0202459503691781,-0.5007545436912577,-0.6423450105743775,-0.7805703822685287,0.6113916659031451,2.2576333809225715,2.5186746632574177,-0.7584359834888871,-0.8362489595815333,-0.993622301500419,1.397245340948208,-0.1912196618733791,-0.5987808460544919,-1.2478746259591833,9.125789863629509,-1.3272586726340356,0.0852150697137367,-1.0587979911985617
0.8,0.6057737034016695,2.2418811558854395,2.5048386207525497,0.0768832501287145,0.1365340133324693,0.0198606144523476,-0.5040669564062037,-0.653780730584955,-0.8066708488729624,0.5907863252280731,2.2227325299392424,2.4816951663718774,-0.6007545451813738,-0.7423450120644937,-0.8805703837586448,1.4343832534608858,-0.1656206357472989,-0.5717860005288733,-1.305023330221683,9.002070843811453,-1.320376652568818,0.0872037638280381,-1.0610674442226378
0.8200000000000001,0.5961902853987311,2.2293396600516022,2.489522490628279,0.0741259395791492,0.139773435807278,0.0194932729572078,-0.504376593977252,-0.6657684055933861,-0.8042552677062447,0.5907863252280731,2.2227325299392424,2.4816951663718774,-0.6007545451813738,-0.7423450120644937,-0.8805703837586448,0.6116274599504382,-0.0154818785524146,-0.599383750421556,0.1207790583358847,10.644822405855848,-1.3143718517937868,0.0898595316889352,-1.0498190029039456
0.84,0.5861128671935174,2.215911582344265,2.473422899224869,0.0717827271666283,0.1431320617990732,0.0191439372689115,-0.5033133550398706,-0.6765283183986444,-0.8062375259655346,0.5907863252280731,2.2227325299392424,2.4816951663718774,-0.6007545451813738,-0.7423450120644937,-0.8805703837586448,0.5496261193330583,0.053161946869068,-0.5379956402629116,-0.0991129129644941,10.644822405855848,-1.310870007801155,0.0914184330120877,-1.0559054446662235
0.86,0.5760634247587584,2.202272376619488,2.457217236423692,0.0700688670425648,0.145743985087585,0.0187892183684479,-0.5017207325865211,-0.6868839260460712,-0.8144744272048937,0.5847787797762594,2.215309079818597,2.4728894625342908,-0.620754545479397,-0.7623450123625168,-0.900570384056668,0.6663737653399078,0.0796311226674784,-0.5177803823713412,-0.4118450619679581,9.91857299606454,-1.3074180810527234,0.0923795606962673,-1.06023195740195
0.88,0.5660475897155895,2.18843355379433,2.440789700451432,0.0688644001148363,0.1472475503549404,0.0183990544826694,-0.5000527034213943,-0.6965313999309226,-0.8278322518625953,0.5727636888726318,2.200462179577308,2.455278054859118,-0.6607545460754435,-0.8023450129585633,-0.9405703846527144,0.8280814471422869,0.083401458256338,-0.4823736942425716,-0.6678912328850817,9.91857299606454,-1.304736051721179,0.092842428149286,-1.0623051398480328
0.9,0.5565620299765666,2.175114772477805,2.4249010562112794,0.0683008473284462,0.1475273121407832,0.0179973515247113,-0.4986074239334745,-0.7050292282206451,-0.8439709963232267,0.5607485979690043,2.1856152793360177,2.437666647183945,-0.70075454667149,-0.8423450135546098,-0.980570385248761,0.914823741500744,0.072263974395989,-0.4248914144861226,-0.8069372230315675,9.662788587201248,-1.3026193094016636,0.0927341280748251,-1.0623642582157515
0.92,0.546604940852342,2.1609271355975785,2.4078165504236946,0.0685372851281024,0.1464734589775137,0.0175478976347014,-0.4972382546954858,-0.7133538641367521,-0.8637470700313904,0.5467335070355746,2.1687683790649257,2.41805523947897,-0.7407545472675364,-0.8823450141506562,-1.0205703858448074,1.0750200914968011,0.0684584618994343,-0.4162317958053496,-0.988803685408185,9.469890556211794,-1.3014321496041874,0.0917790102622466,-1.0605235424436246
0.94,0.5366766674062291,2.146575762220282,2.390323585502969,0.0698460464668734,0.1437273276823133,0.0170613504096273,-0.4957786004905367,-0.7215153683893901,-0.884533004078257,0.5327184161021448,2.1519214787938337,2.3984438317739945,-0.7807545478635829,-0.9223450147467028,-1.060570386440854,1.1189233622824015,0.0729827102474545,-0.4080752126319031,-1.0392967023433286,9.31346672879954,-1.3015499447553978,0.089916278449472,-1.0560680702187777
0.96,0.5267704426784909,2.132047841399737,2.3724127252303178,0.0719694544909072,0.1391571891873826,0.0165008699028405,-0.4951678839881538,-0.7309208034597816,-0.905479604271239,0.5177033251538138,2.1340745785078403,2.377832424054118,-0.8207545484596293,-0.9623450153427492,-1.1005703870369004,1.1484720753617244,0.0305358251191462,-0.4702717535195744,-1.0473300096491,9.268897698018009,-1.303522235860625,0.0872120331412983,-1.0483257228389584
0.98,0.5173514006940678,2.118056042575652,2.355009505345634,0.0741435155064086,0.1335550443416854,0.0158794667672451,-0.4965950740311273,-0.7414307555377756,-0.9253581655716372,0.5016882341905817,2.1152276782069457,2.3562210163193407,-0.8607545490556757,-1.0023450159387954,-1.1405703876329467,1.1265579917099109,-0.071359502148674,-0.5254976038996995,-0.9939280650199168,9.256494087111603,-1.306956257097171,0.0843680760326892,-1.038120691968017
1.0,0.5073841811841752,2.1031020322793816,2.33628027590418,0.0760764794397307,0.1270537330034289,0.0151449919105949,-0.5002741257074624,-0.7533562141111081,-0.9465024885419712,0.4925216469925114,2.080984504798763,2.308741597067052,-0.5965950755212435,-0.8414307570278917,-1.0253581670617535,1.227634287252521,-0.1839525838167571,-0.5962729286666246,-1.057216148516693,9.250226905461204,-1.3105391342960324,0.0818832977841765,-1.0265444451408023
1.02,0.497286864970764,2.08784543485009,2.3174211417432584,0.0763598156661404,0.1227882616509719,0.0144629082083805,-0.5092684157963681,-0.7711390956474045,-0.9383068220284853,0.4925216469925114,2.080984504798763,2.308741597067052,-0.5965950755212435,-0.8414307570278917,-1.0253581670617535,1.0773776955385823,-0.449714504445281,-0.8891440768148184,0.4097833256742955,9.226500733391733,-1.314849282243972,0.0819917792801314,-1.0002531479083148
1.04,0.4875258598973908,2.0730420820121997,2.299630633912146,0.0748194428199287,0.1228092702095508,0.0140091074301971,-0.5172806967742031,-0.7860933563094953,-0.9348668450972172,0.4925216469925114,2.080984504798763,2.308741597067052,-0.5965950755212435,-0.8414307570278917,-1.0253581670617535,0.8655345165058261,-0.4006140488917509,-0.7477130331045412,0.1719988465633981,10.98962495671094,-1.3143625704231972,0.0827448010753965,-1.0023310573225612
1.06,0.4771117868460384,2.057167019572751,2.2809104482865945,0.0718187728229094,0.1253935222035409,0.0136361872277484,-0.52345470048504,-0.8002289700212449,-0.9375940613184812,0.486555696237299,2.0725701972284845,2.2984880153964347,-0.6165950758192666,-0.8614307573259149,-1.0453581673597767,0.7832170917867503,-0.3087001855418436,-0.7067806855874825,-0.1363608110632019,10.564996071994756,-1.3113414221829718,0.0848688370099145,-1.0072412511754676
1.08,0.4665937659444288,2.041038622089812,2.2620743432903683,0.0681956582433728,0.1292067203197486,0.0133120961677301,-0.5278662170561328,-0.8117159127679613,-0.9461035293378872,0.4746237947268741,2.0557415820879266,2.2779808520552,-0.6565950764153131,-0.9014307579219614,-1.0853581679558233,0.7480347219492153,-0.2205758285546422,-0.5743471373358178,-0.4254734009702887,10.171308243946442,-1.3065596022719228,0.0874382793412655,-1.0129759017254392
1.1,0.4565336669693955,2.0255222402215893,2.243971095271064,0.0647936345501103,0.1331073712576033,0.0130268321171778,-0.5307749639116067,-0.8209730574683435,-0.9590508371731372,0.4626918932164492,2.0389129669473687,2.2574736887139646,-0.6965950770113596,-0.9414307585180078,-1.1253581685518697,0.808993690416947,-0.1454373427736965,-0.4628572350191096,-0.6473653917625055,9.58806218999689,-1.299828778039969,0.0901104583329217,-1.0182787287502382
1.12,0.445895868576897,2.0090133739593865,2.22461018887567,0.061549024702895,0.1369347866353526,0.0127335128251246,-0.5327924871032756,-0.8294242754702978,-0.9765317816564494,0.4487599916762221,2.0200843517770086,2.234966525342927,-0.7365950776074061,-0.9814307591140544,-1.165358169147916,0.9760595596249768,-0.1008761595834462,-0.4225609000977182,-0.8740472241656083,9.58806218999689,-1.2929178846256275,0.0924958549656824,-1.022691241044903
1.14,0.4352278498898904,1.9923444791927152,2.204875452233993,0.0587714800732241,0.1401084531771877,0.0124368218689468,-0.5338873935183971,-0.8370737236822133,-0.996137391140176,0.4348280901359949,2.001255736606649,2.2124593619718897,-0.7765950782034525,-1.0214307597101009,-1.2053581697439626,1.053675473323068,-0.0547453207560721,-0.3824724105957744,-0.9802804741863236,9.376819418006562,-1.2864432478831402,0.0944938901998103,-1.025241695864365
1.16,0.4245413746660578,1.975520713467384,2.184733722576489,0.0562167299853701,0.1425470876577759,0.0121197232581749,-0.5347042490375303,-0.8448270839552977,-1.017094600746637,0.4198961885808665,1.981427121421387,2.1889521985859512,-0.8165950787994989,-1.0614307603061472,-1.245358170340009,1.118018876129257,-0.040842775956662,-0.3876680136542187,-1.0478604803230596,9.21240640529868,-1.2809034547796656,0.0962225709570764,-1.026280105557153
1.18,0.4143757729205745,1.9593973299735297,2.165198743884427,0.053753651238759,0.1442771695936056,0.0117917701443579,-0.5353296689435467,-0.8518614469867257,-1.0381529225146424,0.403964287010837,1.9605985062212248,2.1644450351851114,-0.8565950793955454,-1.1014307609021936,-1.2853581709360553,1.110547532753114,-0.0312709953008194,-0.3517181515714007,-1.0529160884002686,9.21240640529868,-1.275624743998885,0.0980871671515991,-1.0264219503463303
1.2,0.4036628335643193,1.942287674080606,2.144190847990182,0.0511195040128267,0.1455668889110381,0.0114262210321761,-0.5359435490008055,-0.858634302690695,-1.0615747344903403,0.3876092894733971,1.9168042576241933,2.113291097758695,-0.6353296704336628,-0.9518614484768418,-1.1381529240047583,1.2194565381107638,-0.0306940028629409,-0.3386427851984619,-1.1710905987848963,9.151861017456213,-1.2707114129635326,0.1000051797788465,-1.0253327633328753
1.22,0.3929463387231212,1.9250307084515,2.122996713876092,0.048366908368674,0.147467538845901,0.0110947565729843,-0.5353114078364075,-0.866628555918153,-1.0551767391781883,0.3876092894733971,1.9168042576241933,2.113291097758695,-0.6353296704336628,-0.9518614484768418,-1.1381529240047583,0.5129376939033785,0.0316070582199012,-0.3997126613729029,0.3198997656075897,9.07972536674606,-1.2706640673778058,0.1026422173849887,-1.010708968334311
1.24,0.38226356564936,1.9076354409672172,2.101926550753454,0.0459107252817325,0.1504886768502341,0.0108478992733406,-0.5328708971624845,-0.8726397402076179,-1.0523479805331912,0.3876092894733971,1.9168042576241933,2.113291097758695,-0.6353296704336628,-0.9518614484768418,-1.1381529240047583,0.3538795853927186,0.1220255336961517,-0.3005592144732449,0.141437932249866,10.908903310191818,-1.2677933120505822,0.1044660745712791,-1.0173095909013363
1.26,0.3721714835839535,1.8910051288332976,2.08189545426006,0.0440840405231313,0.153352785846563,0.010656481412748,-0.5295592415646416,-0.877712351561303,-1.0563217211076403,0.3812559927690604,1.9072856431394247,2.101909568518648,-0.655329670731686,-0.9718614487748652,-1.1581529243027815,0.3622466800996313,0.1655827798921427,-0.2536305676842543,-0.1986870287224551,10.093807004433074,-1.2638736223528764,0.105897751874052,-1.0234537452585726
1.28,0.3616226472103817,1.8734031685776515,2.0606734530427198,0.0427152297048224,0.1556984473369476,0.0104738036941336,-0.5255342020205127,-0.8822510648064088,-1.065902577265298,0.3685493993603872,1.8882484141698883,2.0791465100385524,-0.6953296713277325,-1.0118614493709115,-1.1981529248988283,0.5669957362424115,0.2012519772064458,-0.2269356622552898,-0.4790428078828901,10.093807004433074,-1.260147203027049,0.1068168666510615,-1.0274785727095583
1.3,0.3511568083824569,1.8557192705451917,2.0392082841060706,0.042139460453873,0.1569519451713932,0.0103111670417561,-0.5213699164972663,-0.8860227693642622,-1.0801020746179586,0.3558428059517139,1.8692111852003517,2.056383451558457,-0.735329671923779,-1.051861449966958,-1.2381529254948749,0.7635325046438153,0.2082142761623218,-0.188585227892668,-0.7099748676330231,9.79196708675954,-1.2571080433628297,0.107000432871669,-1.029190635796219
1.32,0.3412914000449147,1.838855817765537,2.018522348043306,0.042557633905123,0.1569467525798455,0.0101840860567659,-0.5173933230881889,-0.88902613692489,-1.096637309177192,0.3411362125132384,1.848173956201012,2.03162039304856,-0.7753296725198254,-1.0918614505630044,-1.278152926090921,0.8634921739283653,0.1988296704538705,-0.15016837803139,-0.8267617279616668,9.39468765487436,-1.254621839831458,0.1062408594907841,-1.0286308614757358
1.34,0.3309906383851483,1.8210468507812008,1.9963948062379568,0.0443038016299726,0.1554057087249551,0.0100835965372557,-0.5129453023045007,-0.8918584600046369,-1.11528513922357,0.3264296190747628,1.8271367272016728,2.006857334538662,-0.8153296731158719,-1.131861451159051,-1.3181529266869676,0.9689536990470494,0.2224010391844055,-0.141616153987345,-0.9323915023188968,9.39468765487436,-1.253272136165444,0.104224579849061,-1.0253515806293574
1.36,0.3207777669872754,1.8031665342131609,1.9738897117971443,0.0472053906596474,0.1520007922319659,0.0099801607894733,-0.5086694990568591,-0.8963715754750573,-1.1342912937865406,0.3107230256213861,1.8050994981874329,1.981094276013864,-0.8553296737119183,-1.1718614517550974,-1.358152927283014,0.9998557595141212,0.2137901623820826,-0.2256557735210218,-0.950307728148536,9.310408353345338,-1.2527449451099812,0.1010774704096639,-1.0199622044428884
1.38,0.3106427199786774,1.7851723530951384,1.951003740269838,0.0502583933571161,0.1466685080545409,0.009785850000372,-0.5054521339881061,-0.902848047356786,-1.1533074739561802,0.2940164321531082,1.7820622691582912,1.954331217474164,-0.8953296743079647,-1.2118614523511435,-1.3981529278790603,1.0172404266748434,0.1608682534376515,-0.3238235940864309,-0.9508090084819788,9.3041404840842,-1.2551024374657498,0.0980483095758564,-1.0116340470384768
1.4,0.301052509937774,1.7679468130404126,1.9289109918512817,0.0528409371920121,0.1403376213910212,0.009501719141346,-0.5044805431324981,-0.909985226130384,-1.1712553200564804,0.2853701132792721,1.7400299507272992,1.8933383665720287,-0.6054521354782222,-1.002848048846902,-1.2533074754462965,0.966964954480077,0.048579542780397,-0.3568589386799103,-0.8973923050150101,9.3041404840842,-1.2590171822867622,0.0951890220839701,-1.0013809462059182
1.42,0.2909235961949374,1.749609939464249,1.905570702181652,0.0539240452313871,0.1351707005210252,0.0091598739483613,-0.5086366175233425,-0.9229852771022518,-1.1603135237469644,0.2853701132792721,1.7400299507272992,1.8933383665720287,-0.6054521354782222,-1.002848048846902,-1.2533074754462965,0.8746387627076773,-0.2078037195422211,-0.6500025485933814,0.5470898154757986,9.297816157199122,-1.2691183267474428,0.0946248195547521,-0.9805633492820528
1.44,0.2807019547014421,1.7310337281167287,1.8824579112480788,0.0530807509982637,0.1340609083938637,0.0089103454916953,-0.5128998064137459,-0.9338510740558787,-1.1519881160525496,0.2853701132792721,1.7400299507272992,1.8933383665720287,-0.6054521354782222,-1.002848048846902,-1.2533074754462965,0.7168555228059065,-0.2131594445201667,-0.5432898476813552,0.4162703847207405,11.19721066299553,-1.269670427893693,0.095056190534248,-0.980525620619897
1.46,0.2704151262628884,1.7122512519253252,1.8594287234325384,0.0509960693998358,0.1353401752439396,0.0087130343619298,-0.5153545767488941,-0.9437247803567111,-1.1513115080644656,0.2793155919244898,1.7300014702388302,1.8808052918175664,-0.6254521357762454,-1.0228480491449252,-1.2733074757443197,0.5098376503431209,-0.1227385167574091,-0.4936853150416143,0.0338303994041999,10.763154298675545,-1.2671578185525696,0.0965646049345515,-0.9837646298414934
1.48,0.2606110569876929,1.6942409371939222,1.837504579137624,0.0481637124744332,0.1374834316602969,0.0085225677840224,-0.5164339367275188,-0.9513156607813472,-1.156495908989675,0.2672065492149254,1.709944509261892,1.85573914230864,-0.6654521363722918,-1.0628480497409718,-1.313307476340366,0.4627755842141242,-0.0539679989312369,-0.379544021231798,-0.2592200462604666,9.983372106406932,-1.2635870598997223,0.0989684745069008,-0.9868928961167776
1.5,0.2502788942146728,1.675149933270452,1.81427008286226,0.0451085303505676,0.1398673987920159,0.0083309811803137,-0.5166817856579661,-0.9573336198772702,-1.1669008845552855,0.255097506505361,1.689887548284954,1.8306729927997143,-0.7054521369683383,-1.1028480503370182,-1.3533074769364124,0.6011255636168811,-0.0123924465223634,-0.3008979547961532,-0.520248778280541,9.983372106406932,-1.259113748279238,0.101436985090723,-0.9904676326857308
1.52,0.2399481097822198,1.6559514040571424,1.7907779404527977,0.0423588291569864,0.1418384225361062,0.0081507907992613,-0.5164030733581461,-0.9622530716251014,-1.1817693188376184,0.2409884637659942,1.6678305872782135,1.803606843260986,-0.7454521375643848,-1.1428480509330643,-1.3933074775324588,0.7831810519499237,0.0139356149910008,-0.245972587391563,-0.7434217141166322,9.47967545530355,-1.2544767571478534,0.1036332822017596,-0.9932159857079688
1.54,0.2296281025169052,1.6366628379565178,1.7669658121421956,0.0400369883797349,0.1431002178863879,0.0079809456190449,-0.5156765902014202,-0.966437088877646,-1.1986899384594447,0.2268794210266274,1.6457736262714733,1.7765406937222576,-0.7854521381604312,-1.182848051529111,-1.4333074781285051,0.8722688039433895,0.0363241578362927,-0.2092008626272345,-0.8460309810913169,9.47967545530355,-1.2503810045986132,0.1053734656823916,-0.9942255666832226
1.56,0.2198361081055241,1.6182581362562651,1.7440179083902,0.0380129726910439,0.1436231587772606,0.0078165964924735,-0.5151478461281802,-0.97060323102284,-1.2160176366019466,0.2117703782723595,1.6227166652498315,1.7484745441686282,-0.8254521387564776,-1.2228480521251577,-1.4733074787245517,0.891467096401503,0.0264372036619997,-0.208307107259692,-0.8663849071250951,9.377112592023876,-1.2465184139055212,0.1070282483076376,-0.994296445399911
1.58,0.2095368462657327,1.5988028297642551,1.719493310097384,0.0358825838959002,0.1435962652969613,0.0076352356116293,-0.5148593089333722,-0.974623424813188,-1.2355806302011487,0.1956613355031904,1.598659704213289,1.7194083946000978,-0.8654521393525241,-1.2628480527212038,-1.513307479320598,0.9986940602446304,0.0144268597404018,-0.2010096895173951,-0.9781496799601052,9.309735241913586,-1.2430548991662165,0.1086879693926841,-0.9935082665504944
1.6,0.1992404011854074,1.579271062474469,1.6945649717888107,0.0337093218281386,0.1430721507634116,0.00744832652686,-0.514841312604771,-0.9782570523454606,-1.256309408569133,0.1837938808190641,1.5500716585235956,1.6577142785873265,-0.6148593104234883,-1.074623426303304,-1.3355806316912648,1.052242635446026,0.000899816430061,-0.1816813766136349,-1.0364389183992295,9.234086673261118,-1.2398159737985086,0.1103860634487203,-0.9919768144999516
1.62,0.1889406737339908,1.559648860383949,1.6695586615184232,0.0311233620709396,0.1436913110981852,0.0072854956812752,-0.5147177816222389,-0.9834052959635396,-1.2432848159490155,0.1837938808190641,1.5500716585235956,1.6577142785873265,-0.6148593104234883,-1.074623426303304,-1.3355806316912648,0.7002850940416311,0.0061765491266019,-0.2574121809039542,0.6512296310058785,9.171191057994292,-1.2432876055107944,0.1128237684719752,-0.9767636696207228
1.64,0.179176537852053,1.5409380477780177,1.6460071240093113,0.0287042246941995,0.1459038114799799,0.0071950118492679,-0.512947513149105,-0.9859954396310372,-1.2365827959677933,0.1837938808190641,1.5500716585235956,1.6577142785873265,-0.6148593104234883,-1.074623426303304,-1.3355806316912648,0.3699992111949525,0.0885134236566942,-0.1295071833748828,0.335100999061122,11.163022977193576,-1.2415207210967394,0.1151423658411128,-0.9825336632335944
1.66,0.1689483549614108,1.521199558536626,1.6212801152094785,0.0266770254646775,0.148651166956332,0.0071566684997095,-0.5099059548800086,-0.9877932675931878,-1.2368012262918169,0.1776452877148292,1.5393254242605623,1.644358472270414,-0.6348593107215115,-1.0946234266013273,-1.355580631989288,0.1769955782798836,0.1520779134548233,-0.0898913981075222,-0.0109215162011788,10.668501961504262,-1.2382055079283787,0.1169670957763546,-0.9888715329604726
1.68,0.1587889995281609,1.501433603215564,1.596475751152423,0.0253091977742458,0.150968064489038,0.0071620635522952,-0.5062129572474537,-0.9888303889406752,-1.2435948643793668,0.1653481015063594,1.5178329557344965,1.6176468596365885,-0.6748593113175579,-1.134623427197374,-1.3955806325853346,0.3900877166358834,0.1846498816277408,-0.0518560673743673,-0.3396819043774979,10.23881661609903,-1.234748878791571,0.1181402803523968,-0.9936684340413828
1.7,0.1492091278369568,1.4826443353459235,1.5727400995417984,0.0248123267037065,0.1523415537150319,0.0072117701226147,-0.5024648750610917,-0.9890597750336148,-1.2545411847306145,0.1530509152978897,1.4963404872084305,1.5909352470027631,-0.7148593119136044,-1.1746234277934202,-1.435580633181381,0.5786248078148137,0.1874041093181011,-0.0114693046469827,-0.5473160175623715,9.905068280933849,-1.2314728405324893,0.1186122096117728,-0.996752246705998
1.72,0.1392018453538029,1.462868664091011,1.5474941676370426,0.0254761940028405,0.1526780436890535,0.0073291721159981,-0.4985432687477407,-0.9886166112332442,-1.2696273449920477,0.1387537290596176,1.472848018652562,1.5622236343391356,-0.7548593125096509,-1.2146234283894666,-1.475580633777427,0.7796916404331349,0.1960803156675489,0.0221581900185285,-0.7543080130716695,9.655542359023457,-1.2287287877697577,0.1179616027078593,-0.9979881965304868
1.74,0.1292767641599144,1.4431069835813526,1.521928323739277,0.0277662779785456,0.1515802509333546,0.0075294741401316,-0.4942594649671245,-0.9878445297634184,-1.286178607259608,0.1244565428213455,1.4493555500966937,1.533512021675508,-0.7948593131056974,-1.2546234289855132,-1.515580634373474,0.8557034639354285,0.2141901890308134,0.0386040734912884,-0.8275631133780159,9.4594943142356,-1.226803933149765,0.1158065842552574,-0.9967347661036988
1.76,0.1194371339948452,1.4233377364591442,1.4960268375443098,0.0312623762492531,0.1487731576713266,0.0077630214235746,-0.4900412836243207,-0.989459345392852,-1.3031312333106324,0.1091593565681722,1.4248630815259242,1.5038004089969792,-0.8348593137017437,-1.2946234295815595,-1.5555806349695205,0.8772003952685385,0.2109090671401858,-0.080740781471672,-0.8476313025512217,9.396668439370842,-1.2259085322318743,0.1126985801814194,-0.9941527457280532
1.78,0.1101649004576048,1.4045071494296617,1.4711050109827537,0.0347183156536208,0.1443507822884212,0.0079270775905763,-0.4864339229515307,-0.9926917699948278,-1.319342285600637,0.0928621703000978,1.3993706129402534,1.4730887963035493,-0.8748593142977902,-1.334623430177606,-1.5955806355655666,0.8459607499469346,0.1803680336394997,-0.1616212300987962,-0.8105526145002262,9.376583541790753,-1.227592039228556,0.1093448676706811,-0.9879026233634232
1.8,0.1004597117790174,1.384608394754909,1.4445363834662657,0.038144945030945,0.13808050882347,0.0080091055586868,-0.4846051909478939,-0.9970605009898844,-1.3366533311805229,0.0858432043100283,1.3548725609299204,1.405137896702722,-0.5864339244416469,-1.0926917714849438,-1.3527484277460322,0.8973605327809641,0.0914366001818434,-0.2184365497528262,-0.865552278994286,9.36650830788858,-1.2311514058784971,0.1062169355541253,-0.9793271381125566
1.82,0.0908011859782441,1.3645323087909385,1.4181377247340472,0.0392658954710714,0.1319589159155948,0.0079212107324582,-0.4814841343502873,-1.009303837195956,-1.302283317395974,0.0858432043100283,1.3548725609299204,1.405137896702722,-0.5864339244416469,-1.0926917714849438,-1.3527484277460322,1.830941099059737,0.1560528298803293,-0.6121668103035827,1.7185006892274313,9.339910223307925,-1.2437783684519983,0.1059126017351599,-0.948848996145835
1.84,0.0816727134724088,1.345255509062132,1.3936839090779014,0.0376271729619911,0.1273291442871329,0.0077046619967792,-0.4796957937481447,-1.018927670035838,-1.2736293420574512,0.0858432043100283,1.3548725609299204,1.405137896702722,-0.5864339244416469,-1.0926917714849438,-1.3527484277460322,1.5139902768346485,0.0894170301071306,-0.4811916419941053,1.4326987669261435,12.083464867882869,-1.25272372416068,0.1076484419123804,-0.9455405292076524
1.86,0.0720917918826272,1.3247945378475716,1.3684620963625953,0.0340965949398684,0.1230024143177591,0.0073974106584195,-0.4786112021392472,-1.0261317649372454,-1.2503363088377348,0.0799788650656118,1.343945643215071,1.3916104124252615,-0.6064339247396701,-1.112691771782967,-1.3594296561751114,1.2202875879084638,0.0542295804448728,-0.3602047450703693,1.164651660985816,11.593766612820218,-1.261044818011558,0.1110032356834814,-0.9411169147829964
1.88,0.0625244889354788,1.30422494350987,1.343637381809298,0.0301317341793067,0.1184528535271554,0.0070866612180907,-0.4783064853853936,-1.0303442940215162,-1.233543666166302,0.0682501865767789,1.322091807785372,1.364555443870341,-0.6464339253357165,-1.1526917723790135,-1.3727921130332694,0.865781585442215,0.0152358376926786,-0.2106264542135361,0.8396321335716439,11.593766612820218,-1.267914614026598,0.1146367040577523,-0.937329311610983
1.9,0.0529546980453528,1.2835911323312164,1.3190866283462002,0.0264475066463443,0.1129944759937854,0.0068052332695773,-0.4789342592790954,-1.032845948032726,-1.2223197023311327,0.0565215080879459,1.3002379723556732,1.3375004753154205,-0.686433925931763,-1.19269177297506,-1.3861545698914275,0.5758249235370997,-0.031388694685086,-0.125082700560497,0.5611981917584608,11.179953123373709,-1.2744030772948471,0.1178373740274697,-0.9325289612597524
1.92,0.0438339219732243,1.2639543553391523,1.2959330253310903,0.0234469259470182,0.106774834906881,0.0065803568999135,-0.4814311933007244,-1.0341467148357033,-1.2154338295642824,0.0427928295693107,1.276384136896172,1.3097773839175917,-0.7264339265278095,-1.2326917735711065,-1.3995170267495856,0.3719607423685587,-0.1248467010814519,-0.0650383401488596,0.3442936383425188,10.860226110491569,-1.2819060514105822,0.1207628191787066,-0.9255067669604284
1.94,0.0341597977960354,1.2432659866348827,1.271690904270296,0.0209419703159957,0.0994003452692439,0.006404948844029,-0.4861561723090799,-1.0347219129363572,-1.2091610151668517,0.0290641510506754,1.2525303014366709,1.282054292519763,-0.7664339271238559,-1.2726917741671528,-1.4128794836077436,0.393714617295993,-0.236248950417775,-0.0287599050326936,0.313640719871544,10.622045011964474,-1.289736998954338,0.1231039626269501,-0.9160875600550736
1.96,0.0243629293826725,1.2225630991912215,1.2475677464089507,0.0188873453274982,0.0916095151557325,0.0062841453200806,-0.4935588046848219,-1.0355207717781787,-1.2034455618649056,0.014335472517139,1.2276764659622683,1.2539971397004808,-0.8064339277199023,-1.3126917747631992,-1.426241940465902,0.4693174511624953,-0.3701316187871006,-0.0399429420910757,0.2857726650972947,10.56223951291122,-1.297287399873029,0.1249712701667662,-0.9066228589279752
1.98,0.0148943113916015,1.2028821576291455,1.224751631940867,0.017099317688123,0.0843187676591426,0.0062102594800844,-0.5029384326059267,-1.0360805621830649,-1.1985224124321752,-0.0013932060312985,1.201822630472965,1.2256059254597442,-0.8464339283159488,-1.3526917753592456,-1.43960439732406,0.5303965157614752,-0.4689813960552402,-0.0279895202442981,0.2461574716365211,10.491781816698676,-1.304806002535303,0.1267816776224115,-0.896611104034858
2.0,0.0047121490167578,1.1821581660216411,1.200828892807643,0.0153517782673899,0.0771317624348051,0.0061769435578487,-0.5149561458643388,-1.0362606270096606,-1.1940366552783372,-0.0102526102386947,1.1510781295199923,1.164825511319258,-0.5690406393129275,-1.1360805636731808,-1.1546047341356092,0.6414434358273495,-0.6008856629206027,-0.0090032413297969,0.224287857691896,10.491781816698676,-1.3114858588700056,0.1284673434333228,-0.8872838679968233
2.02,-0.0058083779377583,1.1614025272088413,1.177378585025031,0.0129211851839926,0.0740934090230336,0.0061815295514501,-0.5364368010970237,-1.03883094507664,-1.1491826790476447,-0.0102526102386947,1.1510781295199923,1.164825511319258,-0.5690406393129275,-1.1360805636731808,-1.1546047341356092,2.489931860460466,-1.074032761634247,-0.1285159033489691,2.242698811534627,13.519232578224546,-1.3234879543806186,0.130972947930608,-0.8625896665185279
2.04,-0.0161854361252872,1.1416600876562488,1.1559692790596583,0.0099981610932124,0.0778192031320156,0.0062402787137568,-0.5539976544706264,-1.0390378770767197,-1.1068834902888642,-0.0102526102386947,1.1510781295199923,1.164825511319258,-0.5690406393129275,-1.1360805636731808,-1.1546047341356092,2.2900042367388598,-0.8780426686801346,-0.0103466000039742,2.1149594379390235,13.519232578224546,-1.3238813238942997,0.1338079833906392,-0.8707969559208618
2.06,-0.0274111323789171,1.1209008206152462,1.1342470334190338,0.0072754106223606,0.0857996630587282,0.0063627615734356,-0.5670639996340375,-1.0369776502561938,-1.0678317769193997,-0.015943016631824,1.1397173238832603,1.153279463977902,-0.5822610806543276,-1.156080563971204,-1.145821198476296,2.06155901417607,-0.6533172581705549,0.1030113410262822,1.952585668473239,13.046408184029133,-1.3208066835303272,0.1366008598149547,-0.8854800133321227
2.08,-0.038852026704343,1.100197797564042,1.1132411843339514,0.0055036623679119,0.0957980133421347,0.0065570760033429,-0.5758860792330172,-1.033697880612661,-1.034710379137499,-0.0273238294180825,1.116995712609797,1.1301873692951898,-0.6087019633371279,-1.1960805645672503,-1.1282541271576696,1.721636553103074,-0.4411039799489813,0.1639884821766357,1.6560698890950245,12.589631829956488,-1.3163633842006843,0.138637837628397,-0.9021349960129628
2.1,-0.0498506471272083,1.080600377980066,1.0938553278770995,0.00499613734728,0.1060494988106302,0.0068251802612585,-0.5810663505267717,-1.029576755670743,-1.0075849713075242,-0.0387046422043411,1.0942741013363333,1.1070952746124776,-0.6351428460199282,-1.236080565163297,-1.1106870558390431,1.3960718385941433,-0.2590135646877267,0.2060562470959093,1.3562703914987373,12.203028769620689,-1.3108702626187394,0.1398245853332044,-0.9197848370488726
2.12,-0.0615006065149129,1.0600645006901346,1.073973393811035,0.0061939382514168,0.1168914084966756,0.0072393086172516,-0.5833263171942135,-1.0244315680832736,-0.9822015962283211,-0.0514074991247396,1.0695524900330673,1.0848815334956967,-0.6615837287027285,-1.2760805657593433,-1.0931199845204167,1.2999001260286345,-0.1129983333720885,0.2572593793734645,1.2691687539601535,11.726977679605625,-1.3048855472384022,0.1395325321297164,-0.9369974404482876
2.14,-0.0731570201886176,1.0396320605707976,1.0545843952194325,0.0095853217759921,0.1270500232181072,0.0078319196523433,-0.5819527097007434,-1.0196873265891226,-0.9580339799291724,-0.0641103560451382,1.0448308787298013,1.0626677923789158,-0.6880246113855288,-1.3160805663553898,-1.0755529132017905,1.2333575135416204,0.068680374673502,0.237212074707549,1.2083808149574438,11.726977679605625,-1.2979045056397325,0.1372804093709711,-0.9534291536357647
2.16,-0.0847540305029889,1.0192569942486882,1.0356727217124913,0.0141761819407247,0.1358968265498918,0.0085384483802128,-0.5777198588962461,-1.0183662464639684,-0.9343835440288144,-0.0774742350326068,1.0191092674116342,1.0408932280451006,-0.714465494068329,-1.3560805669514362,-1.057985841883164,1.203126548733707,0.2116425402248656,0.0660540062577097,1.182521795017899,11.681861810052396,-1.2924264003785737,0.1341175400486816,-0.966864813613055
2.18,-0.0956700478915871,0.9999023315181792,1.018142405658097,0.0186013705553883,0.1428128814355904,0.0092297894035016,-0.5715392633215504,-1.0191183893827604,-0.912124528471391,-0.0914991360871454,0.992387656078566,1.0195578404942511,-0.7409063767511294,-1.3960805675474826,-1.0404187705645376,1.1556699942174762,0.3090297787347873,-0.0376071459395999,1.1129507778711634,11.681861810052396,-1.2880302648875002,0.1306477336067086,-0.9779778093386196
2.2,-0.1070162106428869,0.9794986849685966,1.000145446110678,0.0229478922242157,0.1483571345177083,0.0099316975131932,-0.563391860008162,-1.0212657229898254,-0.8887547397888877,-0.1242470110576646,0.9489464120490412,0.9725361792345274,-0.6020769766406135,-1.1191183908728766,-0.8121245269812749,1.242113365836529,0.4073701656694184,-0.1073666803532491,1.168489434125164,11.694196313672364,-1.28544243411754,0.1274114428059687,-0.9859687508814292
2.22,-0.1181885404631275,0.9589503392474028,0.9827825620254912,0.0240694922301197,0.1529568307619059,0.0104042087973407,-0.5540392454554762,-1.0325062112984034,-0.8477965628067308,-0.1242470110576646,0.9489464120490412,0.9725361792345274,-0.6020769766406135,-1.1191183908728766,-0.8121245269812749,2.1745069775055224,0.4676307276342883,-0.5620244154288967,2.047908849107849,11.712874233885486,-1.284572700487283,0.1268903511287688,-0.9807685996030076
2.24,-0.129148685989705,0.9382183263746856,0.9662712972804968,0.0210210117262371,0.1571451571835727,0.0105757737236977,-0.5423746854752255,-1.0395379027279403,-0.8055077453455897,-0.1242470110576646,0.9489464120490412,0.9725361792345274,-0.6020769766406135,-1.1191183908728766,-0.8121245269812749,2.2214019931986666,0.5832279990125366,-0.3515845714768484,2.114440873057055,13.079454479557173,-1.2858437103045703,0.1302399688551824,-0.9874775546232164
2.26,-0.1393278520681655,0.9184451772956176,0.951350292812718,0.0167486599043471,0.1599963337225501,0.0106141524291485,-0.5298157054325225,-1.0413184177875356,-0.7672431298153333,-0.1302677808240707,0.9377552281403124,0.9644149339647148,-0.6081845193044262,-1.1391183911708995,-0.7921245266832517,2.015613439668427,0.6279490021351475,-0.0890257529797655,1.91323077651282,13.022410153161218,-1.288042366230172,0.1350504678441741,-0.9947188941193426
2.28,-0.14977767975497,0.897629373117696,0.9364145721990244,0.0126363545979948,0.1613837512140257,0.0106550196440285,-0.5159610609876591,-1.0402495197551465,-0.7284078904066227,-0.142309320356883,0.9153728603228548,0.9481724434250892,-0.6203996046320515,-1.1791183917669463,-0.7521245260872053,2.0623224381926177,0.6927322222431698,0.0534449016194593,1.9417619704355291,12.881627215576373,-1.2917543900131174,0.1395704887014688,-0.9996754555851342
2.3000000000000003,-0.1599461697046166,0.8768536782652303,0.9222393164356056,0.0095940890897133,0.160801583100754,0.0107538875775401,-0.5017829477797631,-1.037675450149441,-0.6910532497360877,-0.1543508598896953,0.8929904925053972,0.9319299528854637,-0.6326146899596767,-1.219118392362993,-0.7121245254911588,2.0018828063199146,0.7089056603948041,0.1287034802852749,1.867732033526748,12.787946793528135,-1.296762971754704,0.1430081419054466,-1.0031442472167615
2.32,-0.1698297670761762,0.8561389075920053,0.9088031300093627,0.007779077808124,0.1578616971908964,0.0109283484047746,-0.4875028873603341,-1.034253831789939,-0.6544185049951723,-0.1670031536888888,0.8686081246581373,0.9176874623756404,-0.644829775287302,-1.259118392959039,-0.6721245248951123,1.973405761629279,0.7140030209714487,0.1710809179750971,1.831737237045772,12.653766520582394,-1.3041580795009509,0.1455738884928785,-1.0039133058103895
2.34,-0.1789581544284088,0.836531012388365,0.8967229846726895,0.0073833795652343,0.1524785528557295,0.0111764782318121,-0.4745553181059661,-1.0301594050459737,-0.6189657197757733,-0.1796554474880824,0.8442257568108775,0.9034449718658172,-0.6570448606149273,-1.2991183935550856,-0.6321245242990658,1.8982253947906125,0.6473784627183982,0.204721337198277,1.7726392609699493,12.701104144978672,-1.3155146825502326,0.1469264935280482,-1.000249659148455
2.36,-0.1883340495528146,0.8159712344167326,0.8847487232129584,0.0084721613846863,0.1445577667704509,0.0115256079560605,-0.4642074757844588,-1.0261747948322266,-0.5802286697640477,-0.1926131184204665,0.8188433889487164,0.8902024813708953,-0.6692599459425526,-1.339118394151132,-0.5921245237030195,2.014642649998506,0.5173921160753658,0.1992305106873426,1.936852500586278,12.701104144978672,-1.3300875892340376,0.1469330164924361,-0.9928026018295104
2.38,-0.1975425100523613,0.7954848311037659,0.8735631242090522,0.0110128029143995,0.135367136344806,0.011947398995368,-0.4575800871331257,-1.0228861819396111,-0.5401961300552813,-0.2058761664860413,0.7924610210716543,0.8779599908908745,-0.6814750312701778,-1.3791183947471783,-0.552124523106973,2.035522961444585,0.3313694325666527,0.1644306446307641,2.0016269854383206,12.786022561185746,-1.344924889893918,0.1456049877532246,-0.9841113496296496
2.4,-0.2066577060758342,0.7750402820522386,0.863192022682302,0.0144221394676444,0.1258068891344144,0.0123907848823972,-0.454619927457059,-1.0219977788070116,-0.4988954264870261,-0.2204215144090176,0.7443405220067854,0.8465533177062882,-0.4521653716307146,-1.1228861834297277,-0.4401961285651652,2.070808972760835,0.1480079838033388,0.0444201566299873,2.0650351784127605,12.8541914360394,-1.359336102252041,0.1436252581819744,-0.9749381394853608
2.42,-0.2154238051407401,0.7555463650868101,0.8540130784147941,0.0154390103655591,0.1207450953612034,0.0126909523614662,-0.467801391825728,-1.0288865704266703,-0.46939796826987,-0.2204215144090176,0.7443405220067854,0.8465533177062882,-0.4521653716307146,-1.1228861834297277,-0.4401961285651652,1.6517464198193674,-0.6590732184334536,-0.3444395809829359,1.4748729108578025,12.925523628749032,-1.3723601502173983,0.1436009182681243,-0.970141691498765
2.44,-0.2248900600188021,0.7349332278157182,0.8449638984937887,0.0137691575946832,0.1224271795611679,0.0129236582701079,-0.4773601292943262,-1.0319150266401278,-0.4369651339288242,-0.2204215144090176,0.7443405220067854,0.8465533177062882,-0.4521653716307146,-1.1228861834297277,-0.4401961285651652,1.6973727878873075,-0.4779368734299072,-0.1514228106728743,1.6216417170522912,12.37253795199831,-1.3725208729201734,0.1457251332755408,-0.9764894413732644
2.46,-0.2344897601645229,0.7142874880654687,0.8365708697712998,0.0110149126275639,0.1280721320349231,0.0131316022103344,-0.4816427993597547,-1.0322722626670422,-0.4039786911070787,-0.2249431681253247,0.7331116601724881,0.8421513564206365,-0.4510824285302324,-1.1428861837277506,-0.420196128267142,1.6632605707619392,-0.214133503271427,-0.0178618013457199,1.6493221410872785,12.37253795199831,-1.3697289125523089,0.1487472384617745,-0.988603101889027
2.48,-0.2441315923348029,0.6936671358481197,0.8288369132850337,0.0085656807433254,0.1356166596900397,0.0133694298566807,-0.4819343521673015,-1.0299653957275468,-0.3711209231219378,-0.233986475557939,0.7106539365038935,0.8333474338493332,-0.448916542329268,-1.1828861843237972,-0.3801961276710955,1.6469969300832616,-0.0145776403773389,0.1153433469747722,1.6428883992570449,12.373143004205303,-1.3643212708835386,0.1517290049243359,-1.0040891884763776
2.5,-0.2532653669172245,0.6741353557333838,0.8220963052235929,0.0072264497399395,0.1435062559304359,0.0136599108071096,-0.4792145809995918,-1.026394635389652,-0.3401108314019896,-0.2430297829905533,0.688196212835299,0.8245435112780299,-0.4467506561283035,-1.2228861849198436,-0.3401961270750491,1.5666630724847812,0.1359885583854858,0.1785380168947359,1.5505045859974058,12.372242341290985,-1.3581349690519622,0.1538579174048933,-1.0216074917237208
2.52,-0.2627950016228795,0.6536587565702627,0.8156396747827114,0.0073365958708163,0.1519723062991937,0.0140700091760228,-0.4735970213565574,-1.021630016682222,-0.3072079606569391,-0.2519647961131194,0.663738489136902,0.817739588736529,-0.444584769927339,-1.26288618551589,-0.3001961264790027,1.6858658539721827,0.2808779821517171,0.2382309353714973,1.6451435372525274,12.42417750214463,-1.3516929882924127,0.1546050309489894,-1.040205380626839
2.54,-0.2721773007614108,0.6332855078834866,0.8098387989624212,0.0095749694553318,0.1599827177225164,0.0146353363379982,-0.4647528576095167,-1.016298527806905,-0.2745816447904254,-0.2608998092356854,0.6392807654385052,0.810935666195028,-0.4424188837263746,-1.3028861861119363,-0.2601961258829561,1.7110818895026774,0.4422081873520389,0.2665744437658546,1.6313157933256828,12.42417750214463,-1.3455935683265805,0.153456329443269,-1.058442068197137
2.56,-0.2808964346905608,0.6140068006070786,0.8049321043281351,0.0133171772930303,0.1664823022457496,0.0152944959815101,-0.4534751614516128,-1.0137944308268256,-0.2435880402535884,-0.2697806752032274,0.6138230417252072,0.8051317436684281,-0.4402529975254101,-1.3428861867079829,-0.2201961252869097,1.6538292343085823,0.563884807895193,0.1252048490039681,1.54968022684185,12.434856612333531,-1.3396423635694867,0.1505127494079625,-1.0771855018725154
2.58,-0.2898193223295078,0.5937325082649366,0.8004096713516851,0.0175581420735767,0.1716417665783692,0.0160071351523027,-0.4393930022061739,-1.0138816680585845,-0.2102695931420802,-0.2786073940157452,0.587365317997008,0.8003278211567295,-0.4380871113244457,-1.3828861873040292,-0.1801961246908633,1.808613928724756,0.7041079622719465,-0.0043618615879315,1.6659223555754124,12.470520189468516,-1.3354060288979968,0.14712665872249,-1.093085716008321
2.6,-0.2984417640847698,0.5734360088065936,0.7965617275484553,0.0213977392277388,0.174751841999691,0.016666788549054,-0.4237448462320943,-1.0157103716311104,-0.1762104142088265,-0.3117889724398165,0.5430384248620074,0.789896191694581,-0.39616296406993,-1.1138816695487004,-0.1102695916519641,1.8763239404169303,0.7824077987039796,-0.091435178626309,1.702958946662686,12.639170430195009,-1.3340228422672262,0.1442196295918832,-1.1050914844221762
2.62,-0.3063948840264834,0.5540276367611665,0.7934020125094036,0.0217170784860965,0.176839029448859,0.0170447633051287,-0.4141015088595421,-1.0257555309231383,-0.1580863487876596,-0.3117889724398165,0.5430384248620074,0.789896191694581,-0.39616296406993,-1.1138816695487004,-0.1102695916519641,1.1427827093041478,0.4821668686276065,-0.5022579646013936,0.9062032710583436,11.602942447983878,-1.335922032823695,0.1445210819532904,-1.1080516013508128
2.64,-0.3145568894451918,0.533455781377573,0.7904644915505546,0.0182438466419354,0.1789723909642986,0.0171722401794661,-0.4025177074897185,-1.0303156376210003,-0.1364099579116905,-0.3117889724398165,0.5430384248620074,0.789896191694581,-0.39616296406993,-1.1138816695487004,-0.1102695916519641,1.2498449390616535,0.579190068491181,-0.228005334893111,1.0838195437984546,11.602942447983878,-1.3348258638189656,0.1486853567006538,-1.115710211156013
