t,x,y,z,roll,pitch,yaw,v_x,v_y,v_z,ref_x,ref_y,ref_z,ref_v_x,ref_v_y,ref_v_z,a_com,a_x,a_y,a_z,thrust,wind_x,wind_y,wind_z
0.0,-1.5198711096829778,1.9889430934710963,1.838875990723019,0.0233083371143913,0.150052007641436,0.0288729816547919,0.0018178803223975,0.003840341567264,-0.0005278226331049,-1.5198187820887392,1.9891250846772377,1.8388622050792591,0.014600401032426,-0.0945247381824163,-0.1004776330722759,0.2140765572863707,0.0908940161198774,0.1920170783632007,-0.0263911316552485,10.66056801733339,-1.4132546645837814,0.1679720615039129,-1.2817021037928928
0.02,-1.519933280664649,1.9892271353775524,1.838636631678279,0.0317444345094413,0.1518480999051174,0.0294992285834429,-0.0076591603466018,0.0211200429135252,-0.0247801233380477,-1.5198187820887392,1.9891250846772377,1.8388622050792591,0.014600401032426,-0.0945247381824163,-0.1004776330722759,1.5625111743126985,-0.4738520334499675,0.8639850673130627,-1.2126150352471396,10.66143499359714,-1.406964851318038,0.1576436518006401,-1.2784943062461764
0.04,-1.520175512708693,1.9896588707224776,1.8378259744369068,0.046315283986544,0.1567766882349308,0.0306780788243684,-0.0156372141878934,0.0205060794019407,-0.0551274818135053,-1.5198187820887392,1.9891250846772377,1.8388622050792591,0.014600401032426,-0.0945247381824163,-0.1004776330722759,1.569226290824583,-0.39890269206458,-0.030698175579228,-1.5173679237728788,9.13894538726663,-1.3975236516900855,0.140350121608938,-1.2832692888743065
0.06,-1.52053900483907,1.990005174684967,1.836406493362792,0.0612676073091053,0.1635908723813304,0.0320358165364158,-0.0199615532294893,0.013821731951006,-0.0853311136453966,-1.519672778078415,1.9881798372954136,1.8378574287485363,0.0171678193245908,-0.1145247384804395,-0.1204776333702991,1.5617616534125214,-0.2162169520797946,-0.3342173725467347,-1.5101815915945649,8.95457246912747,-1.386828788732312,0.1235326802387506,-1.288718150503979
0.08,-1.520934561925953,1.9901778589986,1.8345077590116463,0.0749693876000454,0.1707848905305227,0.0334118975792742,-0.0212225326067874,0.0044277850033228,-0.1130674544073143,-1.5193807700577664,1.9862893425317647,1.8358478760870909,0.0223026559089204,-0.154524739076486,-0.1604776339663456,1.4655552762580075,-0.0630489688649094,-0.4696973473841568,-1.3868170380958853,9.070208447714322,-1.3750691023416663,0.1065251941984065,-1.2938611060793712
0.1,-1.52135122553751,1.99013913308265,1.831946230242148,0.0887352906362637,0.1785258052483657,0.0349097325895143,-0.0201336875512218,-0.0080989554152465,-0.141628181236709,-1.5190887620371178,1.984398847768117,1.8338383234256448,0.02743749249325,-0.1945247396725325,-0.2004776345623921,1.5603043982606055,0.0544422527782818,-0.626337020928469,-1.4280363414697357,9.070208447714322,-1.363604552065399,0.090425350652449,-1.2978096957938805
0.12,-1.5217206047630591,1.9898229548033337,1.828822772332622,0.1018277122713261,0.186051964640971,0.0364183307598877,-0.0166799706292835,-0.023165102963264,-0.1693399605805447,-1.5185400121872528,1.9805083529746663,1.8298287707343972,0.0325723290775796,-0.2345247402685789,-0.2404776351584385,1.5865526125194802,0.1726858460969154,-0.7533073774008792,-1.3855889671917825,9.18735568419379,-1.3533318293792516,0.0752423461308028,-1.3010566053546713
0.14,-1.521996531381026,1.989180910534181,1.8251428561341088,0.1142643508044541,0.1929555734166267,0.0378807116279295,-0.0109890105862096,-0.0405455198471101,-0.1973111618131575,-1.517991262337388,1.976617858181216,1.8258192180431496,0.0377071656619092,-0.2745247408646254,-0.280477635754485,1.6709682938819237,0.2845480021536939,-0.869020844192305,-1.3985600616306408,9.18735568419379,-1.3442428223786016,0.0614486915639032,-1.304607622769885
0.16,-1.5221338520685908,1.9882279817546888,1.8211275180397375,0.125486413251303,0.198569351709235,0.0391620619760151,-0.0037353987768332,-0.0591100036155902,-0.2239864493340871,-1.5173141415729146,1.971727363372864,1.8208096653370007,0.0428420022462388,-0.3145247414606718,-0.3204776363505314,1.6649518808328556,0.3626805904688211,-0.9282241884240032,-1.3337643760464784,9.195857790482478,-1.3355300522690967,0.047662114816682,-1.3062537246404242
0.18,-1.5221156374940596,1.9868224428989607,1.8163515131326569,0.1366914177797207,0.2032731422863551,0.0403397300557614,0.0052039829648478,-0.0807067455539064,-0.2522316411465852,-1.5165086498938332,1.9658368685496108,1.8148001126159503,0.0479768388305684,-0.3545247420567182,-0.3604776369465778,1.8331139277187205,0.4469690870840566,-1.0798370969158109,-1.4122595906249078,9.214935957979831,-1.3276584708732335,0.0345963612192515,-1.3054235566810994
0.2,-1.5219057427024454,1.984942219475224,1.811010633718548,0.1466083689627257,0.206655143705448,0.0412476800134213,0.01526391110467,-0.1059894413813194,-0.280399221091733,-1.5218554383458172,1.9827871056212651,1.8037399310753277,0.0184612732014997,-0.1807067470440226,-0.3522316426367013,1.9582067194541544,0.5029964069911073,-1.2641347913706495,-1.4083789972573868,9.226914664955984,-1.322078062731679,0.0236579390780281,-1.3025246680095277
0.22,-1.5214728909056146,1.9825250161603716,1.8055352350511324,0.1503609398815011,0.208417559684353,0.0414771695086058,0.0295895213452437,-0.1444843496076179,-0.2941313716017155,-1.5218554383458172,1.9827871056212651,1.8037399310753277,0.0184612732014997,-0.1807067470440226,-0.3522316426367013,2.1654405012287854,0.7162805120286859,-1.9247454113149247,-0.6866075254991277,9.263240822933769,-1.3176982424115429,0.0192108296416448,-1.294335335570132
0.24,-1.5207278451433668,1.979280936647492,1.799502498006041,0.1483899224612918,0.2086936238476058,0.0410316602573151,0.0440451869172311,-0.1774069448607065,-0.3084557106601007,-1.5218554383458172,1.9827871056212651,1.8037399310753277,0.0184612732014997,-0.1807067470440226,-0.3522316426367013,1.9352326958194268,0.7227832785993705,-1.6461297626544271,-0.7162169529192602,10.194180598396088,-1.3178252307349807,0.0218126250118576,-1.2875039808915223
0.26,-1.5197004078830396,1.975430447380233,1.7931673536457589,0.1435169747950818,0.2074655878594826,0.0401364298321012,0.0578805192074495,-0.2053535461463397,-0.3243140986363892,-1.521670825613802,1.980980038150825,1.8002176146489604,0.0211127312488301,-0.2007067473420458,-0.3722316429347246,1.7492265520833812,0.6917666145109198,-1.39733006428166,-0.7929193988144234,10.06121754425294,-1.319248859579,0.0276191770807833,-1.2786707280040852
0.28,-1.5184049334766705,1.9710653649143048,1.786498941693022,0.1379096767142628,0.204656464977419,0.0389568307865262,0.0708514651230656,-0.2295692534557454,-0.3417624673262152,-1.521301600149772,1.9773659032099449,1.7931729817962263,0.0264156473434909,-0.2407067479380922,-0.412231643530771,1.6271842922489936,0.6485472957808057,-1.2107853654702865,-0.8724184344912983,9.789813449452597,-1.3221218328569553,0.0337507291407281,-1.268475260930259
0.3,-1.5169460115177458,1.966493666257516,1.7798237738868647,0.1327760829232819,0.2005260661841394,0.037655361696521,0.0819037282159114,-0.2504507200526238,-0.3599576407818509,-1.5209323746857422,1.973751768269064,1.7861283489434925,0.0317185634381516,-0.2807067485341387,-0.4522316441268175,1.4910168541893647,0.5526131546422869,-1.044073329843921,-0.9097586727817852,9.789813449452597,-1.326833712989672,0.0397963229516083,-1.2558130609092009
0.32,-1.515208429511594,1.961269492704364,1.7724101613236722,0.1279612607581556,0.1950535530782159,0.0361936586553202,0.0909888931310008,-0.2708966364278136,-0.3804818490110529,-1.520298003416979,1.968137633298381,1.7770837160609558,0.0370214795328124,-0.3207067491301851,-0.4922316447228639,1.5180734842154948,0.4542582457544692,-1.0222958187594888,-1.0262104114601016,9.66975753646784,-1.3331844324089328,0.045085710867404,-1.2410844331540505
0.34,-1.5133169392556658,1.9556467972340985,1.7645775980773206,0.123881465754904,0.1892205452444228,0.0347564536691257,0.097552390735706,-0.290450956190979,-0.4017065778783245,-1.5196636321482162,1.9625234983276985,1.7680390831784196,0.0423243956274732,-0.3607067497262316,-0.5322316453189104,1.4798142093657234,0.3281748802352602,-0.9777159881582675,-1.061236443363578,9.555016768913449,-1.3385688963458604,0.049128625451235,-1.2269715133160883
0.36,-1.5113154586252526,1.9496304540871063,1.756314894771695,0.1201779816844778,0.1835920465876064,0.0333883328037773,0.1021678422340905,-0.3100914631235664,-0.423447477779759,-1.5188966879770869,1.9559093633421143,1.757994450280982,0.0476273117221339,-0.400706750322278,-0.5722316459149568,1.4830025569997751,0.2307725749192253,-0.98202534662937,-1.0870449950717258,9.495268473460785,-1.3433394409981905,0.0528486867689491,-1.212258834593181
0.38,-1.5093453423349514,1.9435549149099272,1.7480578178843724,0.116729172107202,0.1787791759879087,0.0321729094806536,0.1049036454087102,-0.3283221752573032,-0.4445829250817729,-1.5179971709035904,1.9482952283416293,1.7469498173686433,0.0529302278167947,-0.4407067509183244,-0.6122316465110033,1.4022754869939476,0.1367901587309879,-0.911535606686842,-1.0567723651006944,9.447793874196575,-1.347193991714864,0.0564215059128371,-1.1981784418075685
0.4,-1.5072328376572588,1.9367937970313995,1.738925677969399,0.1131451793255318,0.1746552147098101,0.031021319955112,0.10607892271735,-0.3467138887350305,-0.4675233852636524,-1.504100160064516,1.927138806147062,1.7258286716302838,0.13004220050331,-0.4283221767474193,-0.4712387611126137,1.4713098881230102,0.0587638654319898,-0.919585673886364,-1.1470230090939753,9.33831130663748,-1.3497648413547805,0.059893148908762,-1.1854671573716595
0.42,-1.5050537441216731,1.9296150247570043,1.7297181568642763,0.109146557993566,0.1722958064640153,0.0300521183340128,0.1119427842729692,-0.3700659689423625,-0.4500033480528318,-1.504100160064516,1.927138806147062,1.7258286716302838,0.13004220050331,-0.4283221767474193,-0.4712387611126137,1.4888386633729611,0.293193077780958,-1.167604010366602,0.8760018605410286,11.994207668706622,-1.3497696596115247,0.0643757718944344,-1.16410204183477
0.44,-1.5028733020328646,1.9223791760724187,1.7213365090070416,0.1050480116628416,0.172302672589319,0.0293627628717302,0.1175416091501859,-0.3902556709168914,-0.4333875135497376,-1.504100160064516,1.927138806147062,1.7258286716302838,0.13004220050331,-0.4283221767474193,-0.4712387611126137,1.3370273576672371,0.2799412438608345,-1.0094850987264452,0.8307917251547114,11.994207668706622,-1.3500868037512284,0.068103054380266,-1.166490293934677
0.46,-1.5004518596272691,1.9143694317751208,1.7128082383707444,0.1009111932192204,0.1738039627959482,0.0288056597543324,0.1244399034717993,-0.409551324978845,-0.4205287009649696,-1.5027997380594829,1.922855584379588,1.7211162840191576,0.1350699115222299,-0.4483221770454426,-0.4765699283187819,1.2096050918754218,0.3449147160806721,-0.9647827030976802,0.6429406292384005,11.33693189343012,-1.3486371510760535,0.0717499160368197,-1.17031107647465
0.48,-1.497882491808472,1.9059897674710864,1.704492100412162,0.0971074306342727,0.1759432199483212,0.0283308571276971,0.1322306440873395,-0.4273817408122355,-0.4118966603784627,-1.5001988940494166,1.9142891408446396,1.7116915087969051,0.1451253335600698,-0.488322177641489,-0.4872322627311183,1.0643442732703463,0.3895370307770082,-0.8915207916695256,0.4316020293253453,11.33693189343012,-1.3463586059960213,0.0751321638383361,-1.174071077003948
0.5,-1.495149394864284,1.897266457219095,1.6963125022899688,0.0936757705672906,0.1780835226494186,0.027875995058095,0.1407201764229945,-0.4440173099813674,-0.4066246234223277,-1.4975980500393504,1.905722697309691,1.702266733574653,0.1551807555979097,-0.5283221782375355,-0.4978945971434546,0.9703204297111804,0.4244766167827485,-0.8317784584565946,0.2636018478067492,11.081025209757172,-1.3439886429356334,0.0781784332882444,-1.177006477612785
0.52,-1.4922414244523592,1.888222066450784,1.6882071699147785,0.0906538797507188,0.1798047609183868,0.0274058477342205,0.1496289677334558,-0.4596174456916355,-0.4041580714214897,-1.4944944349273923,1.89515625374494,1.692308841631784,0.1652361776357496,-0.5683221788335819,-0.508556931555791,0.9066623897087756,0.4454395655230675,-0.7800067855134041,0.1233276000419003,10.885408297031972,-1.342134896309094,0.0806960172050771,-1.1787187072032743
0.54,-1.4894675292751849,1.8798216563578956,1.6809498153297748,0.0883029371869438,0.1808092567639947,0.0269570678975173,0.1580863581433434,-0.4730313957787812,-0.402331466016354,-1.491390819815434,1.8845898101801892,1.6823509496889149,0.1752915996735895,-0.6083221794296284,-0.5192192659681273,0.7981196601885041,0.4228695204943802,-0.6706975043572844,0.0913302702567814,10.73150772493409,-1.3407910998030177,0.0828239361122576,-1.1789102260918614
0.56,-1.4862046533045827,1.8702039847224303,1.6729217711262407,0.0859239229460021,0.1812149018941965,0.0264120817065198,0.1676699969352945,-0.4879252725586928,-0.4005715641154457,-1.4880358191525298,1.8730233666005376,1.6721264993857374,0.1853470217114294,-0.6483221800256748,-0.5298816003804637,0.889903018214063,0.4791819395975519,-0.7446938389955804,0.087995095045415,10.71219968425521,-1.3403843877574222,0.0848070440233619,-1.1779908199475824
0.58,-1.4827496434471366,1.860289624988564,1.6649247982500628,0.0835241459951774,0.1808232843519762,0.0257997540012915,0.1772799674494425,-0.5026411784270856,-0.3992107314242628,-1.4844294329386796,1.8604569230059849,1.6616354907222517,0.1954024437492692,-0.6883221806217212,-0.5405439347928,0.8814211315023918,0.4804985257074026,-0.735795293419636,0.0680416345591489,10.670271193625922,-1.3408330979852023,0.0866872010280167,-1.1762520745820544
0.6,-1.47928999580096,1.850602310496801,1.657347466414641,0.0810992450482975,0.1796191449707859,0.0251438568043825,0.1863303060811817,-0.516190858978117,-0.3984420704059834,-1.4738856450746645,1.83515756606721,1.6449642616788496,0.2131019976062933,-0.6026411799172017,-0.4293618061764743,0.8156183423409097,0.4525169315869604,-0.6774840275515726,0.038433050913969,10.670271193625922,-1.342245895267813,0.0888035109414074,-1.1732256231043892
0.62,-1.475474906682168,1.840110705941048,1.6494977889971532,0.0779704660229878,0.1783213203250863,0.0244194505177787,0.1946595908818908,-0.5319211003453106,-0.3859502511758088,-1.4738856450746645,1.83515756606721,1.6449642616788496,0.2131019976062933,-0.6026411799172017,-0.4293618061764743,1.0872706958720657,0.4164642400354523,-0.7865120683596794,0.6245909615087281,11.41313858873218,-1.3453769580335522,0.0917949562386244,-1.1669162752694344
0.64,-1.471499139185273,1.8293363162876577,1.6418927288625955,0.0747430798676945,0.1779655583021483,0.0237726198251977,0.2025912755429387,-0.5447939161000162,-0.3752611533669814,-1.4738856450746645,1.83515756606721,1.6449642616788496,0.2131019976062933,-0.6026411799172017,-0.4293618061764743,0.9258480153129568,0.3965842330523952,-0.6436407877352779,0.5344548904413687,11.41313858873218,-1.3464449063518735,0.0944478098275242,-1.167896320701495
0.66,-1.4675741875624966,1.8188741542523736,1.6348365950090562,0.0721558755787729,0.1781078537815067,0.0232354867971271,0.2101966662806965,-0.5559319085315958,-0.3680266398386619,-1.4717546250986016,1.829131154268038,1.6406706436170848,0.2202664036376635,-0.6226411802152249,-0.4353920211269166,0.7652369398940059,0.3802695368878922,-0.5568996215789823,0.3617256764159776,11.195074108625704,-1.3467546841055924,0.0967440702602332,-1.1691527465147251
0.68,-1.4632860027212111,1.8076412746446595,1.6275342657476222,0.0700288086604716,0.1784353709033765,0.0227314187479343,0.2182258059975681,-0.5668557182390782,-0.3626947166638297,-1.4674925851464755,1.8170783306696936,1.6320834074935553,0.2345952157004038,-0.6626411808112713,-0.4474524510278013,0.728399114257842,0.4014569858435776,-0.5461904853741206,0.2665961587416082,11.006170057291456,-1.3466530709668958,0.0984174956373514,-1.1700885340922271
0.7000000000000001,-1.458837283077254,1.7961966444169082,1.6203153704696394,0.0685679398942814,0.1787241309950618,0.0222774904977708,0.2262356606009024,-0.5771633114130099,-0.3594559054756518,-1.4632305451943497,1.80502550707135,1.6234961713700258,0.2489240277631441,-0.7026411814073178,-0.4595128809286859,0.6724844714164511,0.4004927301667155,-0.5153796586965853,0.1619405594088935,10.863934345255984,-1.3464526262715777,0.0993657053628428,-1.1705609878586638
0.72,-1.4544632747816193,1.7851391824879432,1.6135028331064731,0.0678991227189541,0.1788376645802631,0.0218907677324052,0.2337629080833579,-0.5863574336137755,-0.3578135962263215,-1.4582520646390869,1.7909726834432036,1.614305913751452,0.2632528398258845,-0.7426411820033643,-0.4715733108295705,0.5997676995620441,0.3763623741227753,-0.4597061100382771,0.0821154624665171,10.747694079162102,-1.3463333445401322,0.0995817042187843,-1.1704955760801847
0.74,-1.449705715018015,1.7733160872074585,1.606358463425993,0.0681769313589226,0.1787414835611384,0.0215421298724184,0.2415695741565751,-0.5955559978319709,-0.3567383009551936,-1.453273584083824,1.7769198598150573,1.6051156561328783,0.2775816518886248,-0.7826411825994107,-0.4836337407304552,0.6056275232663557,0.3903333036608614,-0.4599282109097713,0.0537647635563937,10.6586335933971,-1.3463799528228726,0.0987382437079253,-1.1698925596817211
0.76,-1.444791386075414,1.761299369233041,1.5992292599332398,0.0693127871876794,0.1783599196487324,0.0212365597313488,0.2494305632753591,-0.6056868836596664,-0.356250464452202,-1.4479368832269923,1.7618670361720097,1.5956238877667823,0.2919104639513651,-0.8226411831954571,-0.4956941706313398,0.6416151144437999,0.393049455939197,-0.5065442913847751,0.0243918251495806,10.588344387415418,-1.346672529237901,0.096982578391575,-1.168880575127378
0.78,-1.439977564770585,1.7496858153235804,1.5924605130521172,0.0707239041142947,0.1776419475381576,0.0209454817509317,0.2568244082870872,-0.6162478744309482,-0.3562577273261408,-1.442241962068593,1.745814212514061,1.5858306086531644,0.3062392760141054,-0.8626411837915036,-0.5077546005322244,0.6445997263377753,0.369692250586405,-0.5280495385640904,-0.0003631436969381,10.588344387415418,-1.347288131546983,0.0949640668037275,-1.1672597772856763
0.8,-1.4347614062601042,1.737235843812627,1.585331083603417,0.0721964707345487,0.1764972067678136,0.0206101833028934,0.2643524799445903,-0.6281835202074085,-0.3566930985879708,-1.4271363443562306,1.718873421602033,1.5746476266858105,0.2723759548756272,-0.7162478759210643,-0.3666546502646665,0.705905537443334,0.3764035828751566,-0.5967822888230168,-0.0217685630915009,10.563157486451928,-1.348278712265942,0.0928527665101222,-1.1648237178719747
0.8200000000000001,-1.4293112751326025,1.7244693005778675,1.5783624752429797,0.0714504313900102,0.173259570084534,0.0199698376593744,0.2805420233149133,-0.6474316187108914,-0.3391583828778352,-1.4271363443562306,1.718873421602033,1.5746476266858105,0.2723759548756272,-0.7162478759210643,-0.3666546502646665,1.5330173397377354,0.8094771685161511,-0.9624049251741428,0.8767357855067798,10.536864991435325,-1.3472275768149544,0.0927160006373752,-1.1600081080213895
0.84,-1.423544471438841,1.7113441175573696,1.571759027889437,0.0674629654373902,0.166021819510723,0.0188431542128064,0.2945072902246762,-0.6633897007453973,-0.32201329092471,-1.4271363443562306,1.718873421602033,1.5746476266858105,0.2723759548756272,-0.7162478759210643,-0.3666546502646665,1.3634911442342197,0.6982633454881454,-0.7979041017252941,0.8572545976562596,11.828961788178276,-1.3576414684613636,0.0962228512812443,-1.1507996035230583
0.86,-1.4178600710678586,1.698626374289151,1.5657751390583077,0.062777430687621,0.1568369763893334,0.0176079994491857,0.3026995280605377,-0.6743963386941664,-0.3086517277633326,-1.4244125848074742,1.7117109428428223,1.5709810801831636,0.2754862641933353,-0.7362478762190875,-0.3687340348523716,0.957588389928161,0.4096118917930741,-0.5503318974384552,0.6680781580688716,11.608002917640988,-1.37118110754371,0.1008717820948998,-1.1380352634447777
0.88,-1.4117619754189437,1.6850423169478852,1.5597229748333574,0.0582350719016096,0.1462023251715247,0.016343475389155,0.3062456856382938,-0.6834663218599684,-0.297375307198619,-1.4189650657099615,1.6973859853244009,1.56364798717787,0.2817068828287513,-0.776247876815134,-0.3728928040277819,0.744979008003757,0.1773078788878057,-0.4534991582900993,0.5638210282356809,11.355344724950555,-1.3853613980406598,0.1050815273982277,-1.1235187231911747
0.9,-1.405644933825909,1.671293651416611,1.553862630879712,0.0545780113337031,0.1358092959407394,0.0152196681313349,0.3050603044432872,-0.6911401553425479,-0.2891887337955138,-1.4135175466124492,1.6830610278059797,1.5563148941725768,0.2879275014641673,-0.8162478774111804,-0.3770515732031921,0.5641649425927305,-0.0592690597503303,-0.3836916741289775,0.4093286701552595,11.137631611148208,-1.3985226903505723,0.1083483558820926,-1.1089418950351149
0.92,-1.3995936300760647,1.6574003724575912,1.5481402261806927,0.0518622994602852,0.1265675554107272,0.014275292569364,0.3000413050847109,-0.6980215355188485,-0.2834500748032286,-1.4077589965831658,1.666736070257756,1.548773862708513,0.2941481200995833,-0.8562478780072269,-0.3812103423786024,0.5135074359780678,-0.2509499679288152,-0.3440690088150289,0.2869329496142603,10.938510708527248,-1.4091182058232137,0.1105442095339786,-1.0961772440694928
0.94,-1.3939666839196272,1.6440792238838728,1.542798486842628,0.0501338668149651,0.1194296670649676,0.0135563688609554,0.29250239976422,-0.7040456108967534,-0.2791218729238761,-1.4020004465538825,1.6504111127095324,1.5412328312444492,0.3003687387349994,-0.8962478786032734,-0.3853691115540127,0.5288144974810118,-0.3769452660245476,-0.3012037688952473,0.2164100939676255,10.779937438328488,-1.4177553630599091,0.1119668038315827,-1.0846662852851363
0.96,-1.388222005233234,1.6299288716610307,1.537256441881326,0.0489795739955844,0.1141437928889405,0.0129812565446248,0.2822254195976479,-0.7106785203949293,-0.2753401527136309,-1.396086381058714,1.6330861551464075,1.533587830551,0.3065893573704154,-0.9362478791993196,-0.3895278807294229,0.6401429869640126,-0.5138490083286013,-0.3316454749087927,0.1890860105122599,10.706252362100711,-1.4238143172251208,0.1127416798780058,-1.0760165846383278
0.98,-1.3827062844728744,1.6156450492323722,1.5317823942949185,0.0482739380623976,0.1118213242124335,0.0125995807104962,0.2699221420837641,-0.7173575883922662,-0.2722851040172915,-1.3900168000976596,1.6147611975683818,1.5258388606281656,0.3128099760058315,-0.976247879795366,-0.3936866499048332,0.7164389531455119,-0.6151638756941941,-0.3339533998668431,0.1527524348169662,10.661257965411096,-1.4259767891502364,0.1130599666049456,-1.072045601706517
1.0,-1.3774343778627074,1.601227394246407,1.5263621981565738,0.0478888794419149,0.1125657988633049,0.0124013651459242,0.2582790238037459,-0.7240476515692239,-0.2698926633698275,-1.3692101773686862,1.579777169812759,1.5181681390940538,0.2997551254732609,-0.8173575898823823,-0.2810428358945589,0.6819877580386188,-0.5821559140009064,-0.3345031588478875,0.1196220323732039,10.618344862936285,-1.4240526180575004,0.1130309116356525,-1.073241238835042
1.02,-1.3726395148924062,1.5873605704243068,1.521360561975113,0.046436688745186,0.116198500151073,0.0122866428859667,0.2475851303006088,-0.7347015602489615,-0.256705187368579,-1.3692101773686862,1.579777169812759,1.5181681390940538,0.2997551254732609,-0.8173575898823823,-0.2810428358945589,1.002215859603271,-0.5346946751568562,-0.5326954339868795,0.6593738000624211,10.573894015577023,-1.419125257928047,0.1141466881450332,-1.0760157265680372
1.04,-1.3677793303935144,1.5725863524027193,1.5163578078910422,0.0437495674344306,0.1228342913477551,0.0122172588386454,0.2394385094023821,-0.7419778681077817,-0.2444312359124792,-1.3692101773686862,1.579777169812759,1.5181681390940538,0.2997551254732609,-0.8173575898823823,-0.2810428358945589,0.8215259771645166,-0.407331044911334,-0.3638153929410082,0.6136975728049887,11.321797959819378,-1.4113348472045546,0.1164364765593411,-1.0880244604771352
1.06,-1.3630462878096077,1.5576915858045397,1.511573891468322,0.0413697994133627,0.1310419529932327,0.0122332796948388,0.2346391384124912,-0.747223062622024,-0.2347078178324664,-1.3662126261139536,1.5716035939139352,1.5153577107351082,0.3057217221511602,-0.8373575901804055,-0.2827943822700124,0.6022683923085379,-0.2399685494945458,-0.2622597257121162,0.4861709040006406,11.150235579506443,-1.4026066157554171,0.1184319108641508,-1.1012098284927014
1.08,-1.3586076154516884,1.543456634332194,1.5071877234464957,0.0398570402427548,0.1392800104278498,0.0123156895563008,0.2330643933686348,-0.7511240706579457,-0.2275104463133183,-1.3602175236044884,1.5552564421162876,1.5097368540172171,0.3176549155069589,-0.8773575907764519,-0.2862974750209193,0.4168328275043861,-0.0787372521928203,-0.1950504017960874,0.3598685759574047,10.99911197442998,-1.39327983954989,0.1198597645206582,-1.1151935283958392
1.1,-1.3539383793920756,1.5284006323109554,1.5027037102944678,0.0393330810916384,0.1476254190223087,0.0124669254688631,0.2341530876638576,-0.7543767362448117,-0.2213591747863224,-1.354222421095023,1.53890929031864,1.504115997299326,0.3295881088627577,-0.9173575913724984,-0.2898005677718263,0.3521478030858082,0.0544347147611395,-0.1626332793432994,0.3075635763497994,10.891292756763503,-1.3842017774801096,0.1202246628127026,-1.128350784897776
1.12,-1.3492204469569933,1.5132871594323325,1.4983295955637002,0.0403055665012436,0.1550372880100182,0.0126978962620872,0.2376680240034838,-0.757042823116776,-0.2163932386784877,-1.347630658917768,1.5205621384911898,1.4983199859438894,0.3415213022185564,-0.9573575919685448,-0.2933036605227332,0.332126926443723,0.1757468169813134,-0.1333043435982117,0.2482968053917345,10.822606811361766,-1.376053464730396,0.1190745319750411,-1.140103127957803
1.14,-1.3444107702621149,1.4981195294052152,1.4940515826689555,0.0429884039506434,0.1611424352300267,0.0130157371238232,0.2431335476806458,-0.7599484985350851,-0.2116896637190423,-1.341038896740513,1.50221498666374,1.4925239745884529,0.3534544955743551,-0.9973575925645914,-0.2968067532736401,0.3887110626844377,0.2732761838580996,-0.1452837709154553,0.23517874797227,10.776391396114375,-1.369519488002111,0.1163253687493685,-1.1496430067516683
1.16,-1.3397246265402445,1.483626650744893,1.4900735097133382,0.0463724078276109,0.1655188839387953,0.0133358100514059,0.2498093597747702,-0.7656103977384947,-0.2073058257500953,-1.3341488047293626,1.4828678348213888,1.4866403859142436,0.3653876889301538,-1.0373575931606378,-0.3003098460245471,0.4894936287726562,0.3337906047062203,-0.2830949601704824,0.2191918984473462,10.781541738427222,-1.3641922148580627,0.1124528993709892,-1.157399241559398
1.18,-1.3346459613002863,1.4682335286486077,1.4859761033160606,0.0496959426978622,0.1685624889418833,0.0135999771954593,0.2576543436387438,-0.7733819833220879,-0.2026576714737972,-1.3269603828843175,1.4625206829641364,1.4806692199212617,0.3773208822859525,-1.0773575937566842,-0.303812938775454,0.599054781479511,0.3922491931986752,-0.3885792791796572,0.2324077138149055,10.799500555288432,-1.360882322351148,0.1088158671156282,-1.1622339740194745
1.2,-1.329404954470114,1.4526713726684226,1.4819713894879063,0.0523290667677991,0.1700419560674135,0.0137477462784623,0.2659007601956992,-0.7822663128343006,-0.1980303512810229,-1.3217632441183491,1.4295644294825034,1.4758432197423708,0.295252651814546,-0.873381984812204,-0.201264094040606,0.6487426089730415,0.4123208278477702,-0.444216475610637,0.2313660096387157,10.825208847271824,-1.3594700805688675,0.1060253494731426,-1.1645185954160124
1.22,-1.324236967080891,1.437641922007641,1.4783462337491653,0.0518163511157938,0.1695488070814852,0.0135836983348005,0.2775032533517116,-0.7982084513102656,-0.183719885626329,-1.3217632441183491,1.4295644294825034,1.4758432197423708,0.295252651814546,-0.873381984812204,-0.201264094040606,1.2181533707587229,0.5801246578006208,-0.797106923798252,0.715523282734698,10.825208847271824,-1.3578215701049068,0.1061493232203479,-1.162784401247514
1.24,-1.318566633878988,1.4215456919942029,1.4748240743083505,0.0476341204163433,0.1665406111408976,0.0130456833289508,0.2887173951019239,-0.8098132933139106,-0.1692940063875078,-1.3217632441183491,1.4295644294825034,1.4758432197423708,0.295252651814546,-0.873381984812204,-0.201264094040606,1.0822838409313762,0.5607070875106174,-0.5802421001822489,0.7212939619410565,11.543565367555855,-1.3637360870952957,0.1105168456804915,-1.159463338540203
1.26,-1.3126931717001653,1.4052762392531437,1.4715684952384265,0.0425982284145097,0.1612949916331525,0.0123800593030875,0.2976644638406562,-0.8164507760942843,-0.1570530914460363,-1.3188107176002035,1.4208306096343817,1.4738305788019648,0.3027723134497064,-0.8933819851102272,-0.2009853785539677,0.8275660325310874,0.4473534369366122,-0.3318741390186841,0.6120457470735765,11.41974463702718,-1.3716370317942512,0.1157411966279625,-1.1527375441119336
1.28,-1.3066801912667072,1.3889043834841903,1.468534795176465,0.0382116069846936,0.1547497178618407,0.0117525704267893,0.3028610584993645,-0.8205258959138095,-0.147006933792289,-1.3129056645639128,1.4033629699381374,1.4698052969211526,0.3178116367200274,-0.9333819857062736,-0.2004279475806912,0.6011166301025692,0.2598297329354154,-0.203755990976262,0.5023078826873625,11.248418509894693,-1.3803904435050525,0.1200708125785321,-1.144579831522046
1.3,-1.300906602224673,1.3732906172470656,1.4658181573977855,0.0351403148235316,0.1483696898900965,0.0112679147323884,0.3044900946739313,-0.8231261290336721,-0.1394395563491053,-1.3070006115276218,1.3858953302418933,1.4657800150403404,0.3328509599903482,-0.97338198630232,-0.1998705166074147,0.4082896413799977,0.0814518087283389,-0.1300116559931285,0.3783688721591849,11.090342425611198,-1.3894087280348983,0.1234294473098481,-1.135646598890521
1.32,-1.294825727775654,1.356807453686271,1.4630998979280825,0.0331094245202522,0.1423056105368125,0.0108970886161392,0.3033341114941603,-0.8252669908045878,-0.132845855936985,-1.3003435923278148,1.3664276905158468,1.461782604708192,0.3478902832606691,-1.0133819868983664,-0.1993130856341383,0.3514131164273663,-0.0577991589885473,-0.1070430885457829,0.3296850206060173,10.956942080279989,-1.3974278232950603,0.1255148786843006,-1.1273421052259949
1.34,-1.2887967826409583,1.3402868947222364,1.4605044995940617,0.0323856879308621,0.1376932434387833,0.0106866703800835,0.2994535077562231,-0.8268138164605315,-0.1270511150767661,-1.2936865731280078,1.3469600507898003,1.4577851943760438,0.36292960653099,-1.053381987494413,-0.1987556546608617,0.3571791448904473,-0.1940301868968624,-0.0773412827971886,0.289737043010943,10.816588037465408,-1.403765133351106,0.1262881343213847,-1.1206444546694594
1.36,-1.2828701195083685,1.323731469581183,1.458019161985572,0.0329472303389309,0.1354036829733816,0.0106520160962911,0.2934293144993108,-0.8287647962729662,-0.1217721748494386,-1.286653570846443,1.326492411048853,1.4538017198182274,0.3779689298013109,-1.0933819880904594,-0.1981982236875853,0.4122027309129917,-0.3012096628456112,-0.0975489906217319,0.2639470113663777,10.816588037465408,-1.4070080383552614,0.1258126631712134,-1.1176882463969091
1.38,-1.2773523238617022,1.3079620089011827,1.4557533245078211,0.0344327742422411,0.1356131651077163,0.0107704567347416,0.2879888543031866,-0.8311486618852625,-0.1170167695496245,-1.27924458548312,1.305024771293004,1.449832181034743,0.3930082530716318,-1.1333819886865055,-0.1976407927143088,0.3804448119261236,-0.2720230098062132,-0.1191932806148154,0.2377702649907054,10.789149972816633,-1.4068265236567434,0.1242678820362096,-1.119145690713994
1.4,-1.2716393966092556,1.2913057044547152,1.4534650111109273,0.0367854936194446,0.1376254466473241,0.0110199517438189,0.2838090527462203,-0.834506541701122,-0.1120813001424937,-1.262952881146543,1.2664045758069196,1.44990248603034,0.3251116999529058,-0.9311486633753786,-0.1155658240428208,0.3643657372136481,-0.2089900778483117,-0.1678939907929777,0.2467734703565385,10.766922982358665,-1.404481284991216,0.1219059058476033,-1.1233132845923497
1.42,-1.265970808646127,1.2745067842279592,1.451332100576974,0.0376141666603322,0.1403617920615565,0.0111995646045243,0.2834255468665401,-0.844702341191849,-0.1011295618814526,-1.262952881146543,1.2664045758069196,1.44990248603034,0.3251116999529058,-0.9311486633753786,-0.1155658240428208,0.7484015883087216,-0.0191752939840111,-0.5097899745363454,0.5475869130520526,11.1900612912641,-1.4002992975968367,0.1209899890882473,-1.1273857198188302
1.44,-1.2602990857010563,1.257532227601372,1.4494217466996469,0.0360374823834054,0.1430272945974888,0.0112163360293565,0.283825741648756,-0.8521134004599538,-0.0904949009045936,-1.262952881146543,1.2664045758069196,1.44990248603034,0.3251116999529058,-0.9311486633753786,-0.1155658240428208,0.6484211005045308,0.0200097391107961,-0.3705529634052407,0.53173304884295,11.121133790469685,-1.3982103146161535,0.1226299354348208,-1.1319170196295216
1.46,-1.2548985646468072,1.2412890449034797,1.4477891035758637,0.0335280763563522,0.145408210572984,0.0111616233931902,0.2846741205216308,-0.8572045074554425,-0.0818960562621144,-1.2597017641470138,1.2570930891731658,1.4487468277899118,0.3325362690828496,-0.9511486636734018,-0.11527563494146,0.5014460248544904,0.0424189436437377,-0.2545553497744379,0.4299422321239601,11.121133790469685,-1.396251753403524,0.1254474300428674,-1.136215284193287
1.48,-1.2491925507253403,1.224114372207593,1.4462336530973925,0.0309295921295189,0.1476807169749048,0.0111049189835246,0.2859213919743231,-0.8600593541304911,-0.0741740738087493,-1.2531995301479557,1.238470115905658,1.4464355113090552,0.3473854073427374,-0.9911486642694484,-0.1146952567387386,0.4163377493838873,0.0623635726346161,-0.1427423337524269,0.3860991226682576,11.023678555825429,-1.3944196103695856,0.1282614910719728,-1.140316979751254
1.5,-1.2434583323677366,1.2068988391605455,1.4448174988634748,0.0291884455624838,0.1496766425240814,0.0111064389351037,0.2874675952675314,-0.8616132078335441,-0.0678399529214872,-1.2466972961488976,1.2198471426381503,1.4441241948281989,0.3622345456026251,-1.0311486648654946,-0.1141148785360171,0.3351353956570018,0.0773101646604129,-0.0776926851526527,0.3167060443631062,10.941454722847084,-1.392810567359457,0.1302137344212959,-1.1442763760229335
1.52,-1.237690437569752,1.1896615079611634,1.443517821048109,0.0286424628777398,0.1513854669624027,0.0111908370057314,0.2892650706413139,-0.8622662167485876,-0.0624570147641198,-1.239452605236845,1.1992241693408408,1.4418418972574785,0.3770836838625128,-1.071148665461541,-0.1135345003332956,0.2856280867164621,0.0898737686891276,-0.0326504457521747,0.269146907868369,10.816463226981796,-1.3915520245722164,0.130940251061907,-1.1476245555792757
1.54,-1.23217506477347,1.1732799479627094,1.4423794463778408,0.029596873908128,0.1527499050795801,0.0113737034995988,0.2912222053569952,-0.8623116986023882,-0.0576514042226749,-1.2322079143247926,1.1786011960435308,1.439559599686758,0.3919328221224005,-1.1111486660575876,-0.1129541221305741,0.2594529705476304,0.0978567357840631,-0.0022740926900299,0.2402805270722428,10.816463226981796,-1.3904062551305492,0.1301122291658597,-1.1508333003256477
1.56,-1.226325196220015,1.156024810774593,1.441279091244253,0.0321204880260721,0.1538854824109344,0.0116698330093444,0.2936690066562399,-0.8633795495631077,-0.052643053773043,-1.224591994956243,1.1569782227313197,1.4372918115711055,0.4067819603822881,-1.151148666653634,-0.1123737439278527,0.2837724286229325,0.1223400649622341,-0.0533925480359742,0.2504175224815944,10.805522842600112,-1.3893585931503416,0.1276349680616023,-1.1539710552227584
1.58,-1.2204226938902925,1.1387225550352738,1.4402795195613358,0.0354107157695327,0.154653789282158,0.0120121315143708,0.2964496131343003,-0.8669757848871259,-0.0475639750096932,-1.216604847131196,1.1343552494042075,1.4350385329105215,0.4216310986421758,-1.1911486672496805,-0.1117933657251312,0.3408141794873669,0.1390303239030194,-0.1798117662009102,0.253953938167491,10.817966571943543,-1.3886439784921465,0.1245060720057993,-1.1563074779522833
1.6,-1.2144621378991511,1.1213265312117058,1.4393832733729408,0.038429091077798,0.1550242110108087,0.0123235715238652,0.2994239173946842,-0.8723567828913975,-0.0423117195832306,-1.2056002132335777,1.0953737657909175,1.437901320810851,0.3591266314787026,-0.966975786377242,-0.0725646608356372,0.4043136542961378,0.1487152130191987,-0.2690499002135804,0.2626127713231282,10.817966571943543,-1.388444500420332,0.1214685578031748,-1.1576931743760623
1.62,-1.2087840819057731,1.1046288166049454,1.438612081659056,0.0387028222095004,0.1562242649486974,0.0124738697509358,0.2984483781348214,-0.8839659622224417,-0.0391065060981999,-1.2056002132335777,1.0953737657909175,1.437901320810851,0.3591266314787026,-0.966975786377242,-0.0725646608356372,0.6041483987243964,-0.0487769629931439,-0.5804589665522109,0.1602606742515364,10.833790022616084,-1.3879465525423602,0.1212441256065721,-1.15862958135383
1.64,-1.20282020292614,1.0868638141814904,1.4378540704753209,0.0360176653686223,0.1593242902857385,0.0124984402591005,0.2982501397392214,-0.8916995580009588,-0.0369293621407192,-1.2056002132335777,1.0953737657909175,1.437901320810851,0.3591266314787026,-0.966975786377242,-0.0725646608356372,0.4018325457780319,-0.0099119197799979,-0.3866797889258533,0.1088571978740338,10.738855538555072,-1.3845909013030862,0.1242544963622156,-1.1621588340808575
1.66,-1.1968430490533732,1.0689846927461355,1.4371242890958689,0.0324094740563941,0.1637206627608656,0.0125026348290586,0.2997053370395441,-0.8956714579895747,-0.036238693438552,-1.2020089469187905,1.0857040079271452,1.4371756742024948,0.371662035147583,-0.9869757866752652,-0.0775647980008259,0.2143047593882763,0.0727598650161337,-0.1985949994307956,0.0345334351083598,10.651699705219473,-1.379784658460674,0.1280582253364779,-1.167718211006149
1.68,-1.1911212267743625,1.0519526144344722,1.436429688271234,0.0295164184020092,0.1685006291941986,0.0125581107659494,0.3026963708613732,-0.8972168564296568,-0.0369381238352342,-1.1948264142892164,1.0663644921996005,1.435724380985782,0.396732842485344,-1.0269757872713117,-0.0875650723312035,0.171928346570137,0.149551691091454,-0.0772699220041028,-0.0349715198341066,10.489068950548244,-1.373703189334893,0.1315162610575597,-1.1748077493689908
1.7,-1.1850196204314751,1.0340032261753789,1.435674198471181,0.0275072105075018,0.1736717535386826,0.0126891260098898,0.3074664300270435,-0.8978555207937373,-0.0386398799690385,-1.1876438816596424,1.0470249764720554,1.4342730877690693,0.4218036498231049,-1.0669757878673582,-0.0975653466615811,0.2552319070614151,0.2385029582835179,-0.0319332182040277,-0.0850878066902142,10.489068950548244,-1.367318404746524,0.1338685901557942,-1.182091390309288
1.72,-1.178805348387343,1.0160503702562171,1.4348771436787615,0.0268381407967723,0.1785879338113545,0.0129073585177636,0.3138214033621181,-0.8976509906971244,-0.0410064233339445,-1.1792078086631803,1.025685460714708,1.4323217808358375,0.4468744571608658,-1.1069757884634046,-0.1075656209919587,0.3392198628762419,0.317748666753731,0.010226504830646,-0.1183271682453,10.443723648402738,-1.3614898506119917,0.1347888484267093,-1.1886479909546446
1.74,-1.1727707595827457,0.9990048048280016,1.4340729410384674,0.0277521139799992,0.1827533242336691,0.0132147960316927,0.3211259754435162,-0.896876459605773,-0.0435481903765795,-1.1707717356667182,1.004345944957361,1.430370473902606,0.4719452644986268,-1.1469757890594512,-0.1175658953223363,0.3886426745830772,0.3652286040699004,0.0387265545675696,-0.1270883521317538,10.42148985212225,-1.3559350017225358,0.1340188102872712,-1.1949614628660687
1.76,-1.16625491564087,0.9810678219944394,1.433173199816668,0.0303125919839125,0.1863640737993588,0.0136379833219236,0.3301106258720849,-0.8970427384336692,-0.0463008974522366,-1.161708892486812,0.9820064291851128,1.4281691601111148,0.4970160718363877,-1.1869757896554975,-0.1275661696527139,0.4699175146144272,0.4492325214284387,-0.0083139413948107,-0.1376353537828542,10.416333461799695,-1.3510735420470734,0.1314365695544525,-1.2005500177838633
1.78,-1.159547696253434,0.963101854652154,1.4322199660722474,0.033724942936637,0.1889609298931237,0.0140991370431892,0.340149027412843,-0.8997532167083876,-0.04887738034893,-1.1520192791234618,0.9586669133979632,1.4257178394613643,0.5220868791741486,-1.226975790251544,-0.1375664439830914,0.5356175456614699,0.5019200770379012,-0.1355239137359187,-0.1288241448346674,10.42495401630913,-1.3474797269689949,0.1280787427221181,-1.2043832200132862
1.8,-1.152631814200178,0.9450591719105093,1.4312184449368912,0.036910734631958,0.1904237317947184,0.0145109309429213,0.3508305326364967,-0.9043064696831172,-0.051137893234029,-1.142540244882792,0.9181141938167346,1.429776097054801,0.4020202952680103,-0.9997532181985036,-0.0493639181630703,0.5914739744877335,0.5340752611826871,-0.2276626487364874,-0.1130256442549538,10.476097169821514,-1.3452258703903384,0.1247580679828956,-1.2063320116226266
1.82,-1.145781623829718,0.9277535499609146,1.430359138767343,0.0372200831725707,0.1891547342732353,0.014613745191782,0.36945515158057,-0.9159914896707368,-0.0391339803180121,-1.142540244882792,0.9181141938167346,1.429776097054801,0.4020202952680103,-0.9997532181985036,-0.0493639181630703,1.252507533129361,0.9312309472036652,-0.5842509993809752,0.600195645800845,10.476097169821514,-1.3396259659963428,0.1239969883925107,-1.2017097843290532
1.84,-1.138202682902317,0.9093421512182944,1.4297084978009842,0.0342020054211104,0.183509855037646,0.0143412381698126,0.3867272263623842,-0.9241463618565616,-0.0265681563044107,-1.142540244882792,0.9181141938167346,1.429776097054801,0.4020202952680103,-0.9997532181985036,-0.0493639181630703,1.1431605757466097,0.8636037390907125,-0.4077436092912445,0.6282912006800738,11.486484094288244,-1.350059048520347,0.1277040470837396,-1.196161209031014
1.86,-1.1303360470543409,0.890817453568987,1.4292866014078665,0.03011279141544,0.1751575859679023,0.0139402897930216,0.39859423512405,-0.9278190389154276,-0.016173081726204,-1.1385200419301118,0.9081166616347496,1.4292824578731702,0.4143945488390438,-1.019753218496527,-0.0494612257258984,0.8098951000201323,0.5933504380832871,-0.1836338529432879,0.5197537289103314,11.192070292046992,-1.362872177557761,0.1323180395962817,-1.1873713746477383
1.88,-1.1226939758687973,0.8731795094703081,1.4290565770544594,0.0267990495438263,0.1663649224972523,0.0136182841193202,0.4049912772612251,-0.9288753984269152,-0.0085251383907664,-1.1304796360247518,0.8881215972707796,1.4282951795099088,0.4391430559811108,-1.0597532190925734,-0.0496558408515545,0.5013209570334367,0.3198521068587534,-0.0528179755743818,0.3823971667718806,11.192070292046992,-1.3759157048280148,0.1364489878112861,-1.1754474946722893
1.9,-1.1145638277755223,0.8546031459945292,1.4289523076808883,0.0244327952548607,0.1575444379382106,0.0134077680293185,0.4074560405761177,-0.9289550254878318,-0.0023874196416286,-1.1224392301193915,0.8681265329068094,1.4273079011466474,0.4638915631231777,-1.09975321968862,-0.0498504559772106,0.3307302152464621,0.1232381657446296,-0.0039813530458343,0.3068859374568909,11.015727257991784,-1.3876918576695938,0.1393034492530221,-1.1636894579766122
1.92,-1.1064252047626877,0.8360340394694272,1.4289498848925897,0.0234448235790255,0.1502129992903295,0.0133532302627437,0.4062606744119431,-0.9282251793114864,0.0018505938756859,-1.113161398856928,0.846131468513037,1.4263108920271033,0.4886400702652447,-1.1397532202846663,-0.0500450711028667,0.2231722108626002,-0.0597683082087296,0.0364923088172652,0.2119006758657285,10.758558821668885,-1.3969813335902663,0.1406569000640391,-1.1542102234980065
1.94,-1.0987441989123106,0.8184128349769931,1.4290196788594065,0.0240615840749689,0.1453997554438482,0.0134671006333582,0.4022881837608281,-0.9269291476806938,0.005287265147585,-1.1038835675944645,0.8241364041192646,1.425313882907559,0.5133885774073116,-1.1797532208807129,-0.0502396862285229,0.2705138138446328,-0.1986245325557467,0.0648015815396363,0.1718335635949555,10.724635921301342,-1.404003063971545,0.1403910135149732,-1.1468629814309907
1.96,-1.090760174826705,0.7998810564305175,1.4291622436239442,0.0263282552144936,0.1433886727574984,0.0137703074239576,0.396462242599661,-0.9264524504878496,0.008770185475963,-1.0939870236534492,0.8011413397105911,1.4243120084098733,0.5381370845493786,-1.2197532214767592,-0.050434301354179,0.3402189171727373,-0.2912970580583568,0.0238348596422133,0.1741460164189011,10.724635921301342,-1.4065579687194112,0.138361039050526,-1.1450026661588846
1.98,-1.0828832549025085,0.7813372421511884,1.429374664399289,0.0296259803449742,0.144347420305698,0.0142209040676357,0.3918360753719442,-0.9282507841744556,0.0122789740314403,-1.0834717670338825,0.7771462752870164,1.4233052685340464,0.5628855916914455,-1.2597532220728056,-0.0506289164798351,0.303920320126146,-0.2313083613858374,-0.08991668433031,0.1754394277738652,10.711454865801898,-1.405047025552642,0.1352251058021357,-1.1480141790492835
2.0,-1.075077049471167,0.7627321938815299,1.4296603808340642,0.0328204910908019,0.1473018124239915,0.0147271982642205,0.389294298428765,-0.9321020007389216,0.0160931413914658,-1.063291451133911,0.7349247029424656,1.429988613100861,0.4741653485958212,-1.0265673120775358,0.00859160835237,0.299334143164368,-0.1270888471589626,-0.1925608282232982,0.1907083680012748,10.71158934957839,-1.4014712139951009,0.1323287114977066,-1.1535577072149714
2.02,-1.067698356441562,0.7449057155086387,1.4300434857158353,0.0331464296058158,0.15170811610115,0.0150773612341728,0.3878903604959405,-0.9430253630826092,0.024048778979736,-1.063291451133911,0.7349247029424656,1.429988613100861,0.4741653485958212,-1.0265673120775358,0.00859160835237,0.6793067349265232,-0.0701968966412253,-0.5461681171843813,0.3977818794135079,10.735246985417689,-1.395415996547251,0.1321029234657094,-1.1587857572394078
2.04,-1.0599360311087496,0.7259663046979774,1.4306072577588222,0.0302271696503104,0.1577947488640766,0.0152607853505888,0.3887216058626503,-0.9499802753897092,0.0318359166717986,-1.063291451133911,0.7349247029424656,1.429988613100861,0.4741653485958212,-1.0265673120775358,0.00859160835237,0.5236919120395759,0.0415622683354904,-0.3477456153549885,0.3893568846031311,11.04907185087268,-1.388558334616356,0.1355360687342325,-1.1694051519225717
2.06,-1.052130485291671,0.7069360121068258,1.431312679263279,0.0263330362229869,0.1645469678930474,0.0153789738888947,0.3920346684321949,-0.9525748278182956,0.0382286826747424,-1.0585497976479532,0.7246590298216903,1.4300745291843846,0.4906312032405966,-1.0462306176581515,0.0078541352165559,0.3826733040819423,0.1656531284772305,-0.1297276214293263,0.3196383001471917,10.907277354976031,-1.3809596834648876,0.1400695055948812,-1.181259621456635
2.08,-1.0446319416124918,0.6888376537317091,1.4320875414300038,0.0232529046409094,0.1709210966350814,0.0155163019037268,0.3972653186178934,-0.9526527851078066,0.0429839269384935,-1.0490664906760367,0.7041276835801396,1.430246361351432,0.5235629125301474,-1.0855572288193838,0.0063791889449277,0.3534760483826061,0.2615325092849258,-0.0038978644755494,0.237762213187552,10.907277354976031,-1.373732441414364,0.1437663960157106,-1.19218889008382
2.1,-1.0366119172514816,0.6697963018457412,1.4329916525154849,0.0211483705760912,0.1771389052717582,0.0157170801342281,0.4045997872672545,-0.9517214090446297,0.0471156660455395,-1.0395831837041205,0.6835963373385888,1.4304181935184794,0.5564946218196982,-1.1248838399806158,0.0049042426732996,0.4234771534221582,0.3667234324680551,0.0465688031588529,0.2065869553523017,10.844714248974014,-1.3665160346584904,0.1464529000787344,-1.2026534765848926
2.12,-1.0284272765371567,0.6507812894831516,1.43397197486122,0.0204189757561691,0.1825460581092444,0.0159924382250962,0.413582379328551,-0.949977151626518,0.0506724920232667,-1.0284532912677262,0.6610986605389765,1.4305162783719454,0.589426331109249,-1.1642104511418478,0.0034292964016715,0.4908676122849677,0.4491296030648239,0.087212870905573,0.1778412988863581,10.811492810660638,-1.360007427931777,0.1476410180137772,-1.2120005182141618
2.14,-1.0200477983287972,0.6318098884654799,1.435022710128253,0.0214959469880308,0.1869207411888693,0.0163755360313754,0.423915860133334,-0.947552845696658,0.054204163799036,-1.0173233988313324,0.6386009837393642,1.4306143632254114,0.6223580403987998,-1.20353706230308,0.0019543501300433,0.5593093739517945,0.5166740402391484,0.1212152964930102,0.1765835887884679,10.79820877776001,-1.354916774061433,0.1469223623468324,-1.2196697084016743
2.16,-1.0118824837512428,0.6138213969394657,1.436088475492293,0.0241171032848328,0.1899426985003119,0.0168326026344628,0.4350060021651084,-0.9463241506101632,0.0577977131812074,-1.0053702136626996,0.6151201416607212,1.4306755744220867,0.6552897496883505,-1.2428636734643117,0.0004794038584152,0.5861197383270131,0.5545071015887221,0.0614347543247351,0.1796774691085682,10.81532589316248,-1.3507320552795457,0.1442545916852742,-1.2261739783390453
2.18,-1.0030523551383976,0.594883946690072,1.4372881907673971,0.0276845701715879,0.1918179309747687,0.017342757866819,0.4473664042287353,-0.947690754390157,0.0620065986822473,-0.992593735761828,0.5906561343030472,1.4306999119619712,0.6882214589779013,-1.2821902846255435,-0.0009955424132129,0.6564332834090402,0.6180201031813437,-0.0683301889996934,0.2104442750519974,10.84521769384537,-1.3481828507312503,0.1406022966627538,-1.2304584231292055
2.2,-0.9962651633280968,0.5806495294125864,1.4382457495914478,0.030237719449945,0.192361316283136,0.0176925404349246,0.4569494155900881,-0.950140525895608,0.0654799541918221,-0.9806840349269608,0.5474994089705641,1.4403885207015097,0.5280210253530029,-0.9841174364153512,0.045985177503072,0.5241652546588502,0.4791505680676433,-0.1224885752725502,0.1736677754787363,10.884640341508202,-1.3472379125069007,0.1379732816846756,-1.23252488686913
2.22,-0.9869486054396568,0.5613526272509722,1.4396070666336274,0.0249304892958473,0.1907928490007966,0.0174843439173354,0.4740554503231057,-0.9755415864227414,0.070652079100223,-0.9806840349269608,0.5474994089705641,1.4403885207015097,0.5280210253530029,-0.9841174364153512,0.045985177503072,1.5528853597886705,0.8553017366508792,-1.2700530263566656,0.2586062454200462,10.9185706647786,-1.3450697658515052,0.143941230986906,-1.2281243682789158
2.24,-0.9773053269070816,0.5417495594068823,1.441070389447258,0.0107131473258562,0.1856727239607846,0.0166322914298962,0.4888651647919697,-0.9819296014435188,0.0755307512832069,-0.9806840349269608,0.5474994089705641,1.4403885207015097,0.5280210253530029,-0.9841174364153512,0.045985177503072,0.8425197636019842,0.7404857234431989,-0.3194007510388674,0.2439336091491967,10.912270902147611,-1.3533074302932795,0.1594471702592241,-1.2211426395495355
2.26,-0.9679196088085492,0.5231301056436768,1.4425231635415752,-0.003590492901205,0.1788992300881028,0.0158692370981203,0.4980627421467767,-0.9776812563888309,0.077182377624378,-0.9754038246734308,0.5376582346064106,1.4408483724765402,0.5441519495778564,-0.99140277282039,0.0427808932672369,0.5132536762464543,0.4598788677403487,0.2124172527343981,0.0825813170585561,10.912270902147611,-1.36292250790514,0.1766286440477276,-1.2095651883158658
2.28,-0.9579005189750556,0.5036805542748639,1.4440565459174224,-0.0167685758087468,0.1714049911351099,0.0153425269296005,0.5031010176341945,-0.9677227195588184,0.0759359429810296,-0.9648434041663708,0.5179758858781036,1.4417680760266016,0.5764137980275634,-1.005973445630468,0.0363723247955667,0.5614941562517957,0.2519137743708877,0.4979268415006177,-0.0623217321674245,10.675513656877229,-1.3723936828177532,0.1915816878185465,-1.1968521294752652
2.3000000000000003,-0.9478256639224992,0.4844688348754431,1.4455325168372966,-0.0270534873097663,0.1648843661627613,0.0151229891008645,0.5041014337167485,-0.9546142789005504,0.0717482182960782,-0.9542829836593107,0.4982935371497966,1.442687779576663,0.6086756464772705,-1.0205441184405455,0.0299637563238966,0.689871522217212,0.0500208041277039,0.6554220329133997,-0.2093862342475681,10.317031394587502,-1.380236634848663,0.2027707888791832,-1.185917778086118
2.32,-0.9382682316602124,0.466475332369508,1.4468400643184394,-0.0341845125323882,0.1606007658237308,0.0151220856883381,0.5018653242316555,-0.9407142858728031,0.0661201345270468,-0.9421094707297654,0.4778826547809857,1.443287054703141,0.6409374949269775,-1.0351147912506231,0.0235551878522264,0.7580984743289951,-0.1118054742546503,0.6949996513873624,-0.2814041884515714,10.224991027914257,-1.386533259670301,0.2115029919431604,-1.1766361877138447
2.34,-0.9282786636537004,0.447822683625185,1.448093368419169,-0.0393149997476155,0.1591682201149978,0.0152231807884143,0.4974054907556016,-0.925681157725816,0.0594706034201405,-0.92993595780022,0.4574717724121747,1.443886329829619,0.6731993433766845,-1.0496854640607007,0.0171466193805563,0.8516180488628449,-0.2229916738026943,0.7516564073493603,-0.3324765553453117,10.224991027914257,-1.3885649732434115,0.217616084239052,-1.1732095629461574
2.36,-0.9183667066361496,0.4294700085962885,1.4492104224223208,-0.0425291061706456,0.1608042390353197,0.0153553673886016,0.4943507169058145,-0.9106522424989902,0.0525534406020291,-0.9169558986594318,0.4366966232231118,1.444325390744305,0.7054611918263916,-1.0642561368707786,0.0107380509088861,0.8412001510055734,-0.152738692489357,0.751445761341285,-0.3458581409055708,10.181349341997702,-1.386302107409994,0.2217396194265308,-1.175715272089446
2.38,-0.9084919201599406,0.4114199043714336,1.4501918195657035,-0.0442033941276613,0.1644544013230195,0.0155167067886775,0.4935801920449633,-0.8954388952189454,0.0459170433295698,-0.9031692933074013,0.4155572072137971,1.4446042374471997,0.7377230402760986,-1.0788268096808562,0.004329482437216,0.8307848890993746,-0.0385262430425609,0.7606673640022432,-0.3318198636229671,10.193731599721104,-1.3818755407574836,0.2241454924121273,-1.1810943866549075
2.4,-0.8991010543803882,0.3945571322715223,1.4510064455456273,-0.0444671739670686,0.1688785239747592,0.0157264729140265,0.4951522792668722,-0.8805586925161164,0.0401490782294199,-0.8838129105576925,0.3666479596104863,1.452487671732182,0.5841432285463709,-0.8736511046373614,0.0439545673852593,0.8018124969516166,0.0786043610954467,0.7440101351414485,-0.288398255007492,10.193731599721104,-1.3759764987543728,0.2252215512415973,-1.1886265959798636
2.42,-0.8891243587584644,0.3769463501701034,1.45182996434352,-0.048733210357416,0.173143655462035,0.0156909596534265,0.5025209232763582,-0.8789133642157628,0.0428230417430325,-0.8838129105576925,0.3666479596104863,1.452487671732182,0.5841432285463709,-0.8736511046373614,0.0439545673852593,0.4004812749262111,0.3684322004743001,0.0822664150176788,0.1336981756806264,10.23782911503622,-1.3697186135939317,0.2304662224790223,-1.1937908515996103
2.44,-0.8789944246085325,0.3594898844607029,1.4527143326786818,-0.0575062108388433,0.1762354217589579,0.0153917370119205,0.5100543782677184,-0.866100426182445,0.0453879055065753,-0.8838129105576925,0.3666479596104863,1.452487671732182,0.5841432285463709,-0.8736511046373614,0.0439545673852593,0.7541598823824215,0.3766727495680078,0.6406469016658922,0.1282431881771399,10.780013884561413,-1.3661457789830307,0.2403187506208194,-1.1976127823365457
2.46,-0.8692336402874713,0.3432117672567993,1.4535859684740866,-0.0658688419980751,0.1784301872637823,0.0151477666571194,0.5170132404140043,-0.8481462787077629,0.0462273817430554,-0.8779714782722288,0.3579114485641127,1.4529272174060346,0.6022558358466524,-0.8692935465210446,0.0435620721963973,0.9636932788305338,0.3479431073142969,0.8977073737341024,0.0419738118240094,10.743546709227305,-1.363585855437912,0.2509649942185426,-1.201261845928874
2.48,-0.8588190654222043,0.3264780704130989,1.454509049525396,-0.0732810357136879,0.180227787720733,0.0150298019758291,0.5240842350152635,-0.8263675128884785,0.0459974131497524,-0.8662886137013014,0.3404384264713655,1.4538063087537396,0.6384810504472155,-0.860578430288411,0.0427770818186731,1.1449524999057517,0.3535497300629575,1.0889382909642198,-0.0114984296651521,10.67043657927752,-1.3618427183262134,0.2601030516845557,-1.2038289378877942
2.5,-0.8482642629801463,0.3101997275450575,1.4554194747313731,-0.0788406629914119,0.1817297784765638,0.0150760145507977,0.5310659389412606,-0.8028673976795391,0.0450455405261134,-0.854605749130374,0.3229654043786182,1.4546854001014449,0.6747062650477785,-0.8518633140557774,0.0419920914409489,1.2266882917385182,0.3490851962998587,1.1750057604469732,-0.0475936311819497,10.624086546869876,-1.3603961134298324,0.2672996455455128,-1.2065787571161493
2.52,-0.8375695146290945,0.2944026742658706,1.4563082993111989,-0.0824800678367049,0.1830876926944273,0.0152827878393464,0.5381051493460295,-0.7785106855119299,0.0439074771354854,-0.8411116238294185,0.3059281380975027,1.4555252419302638,0.7109314796483416,-0.8431481978231439,0.0412071010632247,1.2689514362451515,0.3519605202384424,1.2178356083804576,-0.0569031695314008,10.600116130427525,-1.359146961313795,0.2722321540498539,-1.2095052302081335
2.54,-0.8272767141278735,0.2798498631012998,1.4571365079841874,-0.084373359552094,0.1843278920756335,0.015606631984935,0.5450385492544889,-0.7549698339086636,0.0433460837185201,-0.8276174985284629,0.2888908718163872,1.4563650837590827,0.7471566942489046,-0.8344330815905102,0.0404221106855006,1.2273537500108165,0.3466699954229713,1.1770425801633178,-0.0280696708482668,10.603400775065891,-1.3580019930177143,0.2756749158732658,-1.2128873694316935
2.56,-0.8162927827641578,0.2650168865118488,1.458003106061869,-0.0847993303829604,0.1855075674278399,0.016081803808409,0.5530165529363863,-0.7297311623279298,0.0433810139180903,-0.8132177428624933,0.2720714834410874,1.4571853008284583,0.7833819088494677,-0.8257179653578767,0.0396371203077764,1.3234805495617885,0.3989001840948691,1.2619335790366892,0.0017465099785111,10.645986245946917,-1.3571802070301726,0.2774007255198883,-1.2166755920292665
2.58,-0.8051425769156471,0.2506960588472207,1.4588777796339405,-0.0832843527065603,0.1863674902774377,0.0167328554575783,0.5616053781130405,-0.7038308956984703,0.0441329293306388,-0.7979123568315096,0.2554699729716035,1.457985893138391,0.8196071234500307,-0.817002849125243,0.0388521299300522,1.364878296936989,0.4294412588327079,1.2950133314729717,0.037595770627424,10.695106937567289,-1.3565889417830257,0.2769527878531514,-1.2202275897025123
2.6,-0.793815042064318,0.2368909243348487,1.4597773223415824,-0.0795655387632282,0.186759182407187,0.0175862802012258,0.57067654348523,-0.6787378544400876,0.0458393706420647,-0.777062308009995,0.2155045140622971,1.4610844261004725,0.6278891554691882,-0.6550737300280755,0.0518137598763622,1.3368420837498445,0.4535582686094774,1.2546520629191371,0.0853220655712978,10.74734862801597,-1.3564400260745912,0.2743096730189105,-1.2241555475733668
2.62,-0.7827924764947046,0.2241384615048297,1.4606714586906573,-0.0773491041820285,0.1838463102324451,0.0185668878185441,0.588671790224127,-0.6637124343213884,0.0481658875813384,-0.777062308009995,0.2155045140622971,1.4610844261004725,0.6278891554691882,-0.6550737300280755,0.0518137598763622,1.1779270308532706,0.8997623369448482,0.7512710059349614,0.1163258469636836,10.872880713624909,-1.3562139362149697,0.2729947158392515,-1.226328593904521
2.64,-0.7708606089450861,0.2110528790626699,1.4616726674533416,-0.0775812963897944,0.1753293971032081,0.0198485869963306,0.6027268875411059,-0.6454577968218109,0.0519726786832718,-0.777062308009995,0.2155045140622971,1.4610844261004725,0.6278891554691882,-0.6550737300280755,0.0518137598763622,1.1675500089123465,0.702754865848948,0.9127318749788726,0.1903395550966701,10.907679762573023,-1.3691495040396864,0.2744962193807986,-1.2139426599587253
