t,x,y,z,roll,pitch,yaw,v_x,v_y,v_z,ref_x,ref_y,ref_z,ref_v_x,ref_v_y,ref_v_z,a_com,a_x,a_y,a_z,thrust,wind_x,wind_y,wind_z
0.0,0.080716908251971,-1.8048380428888733,2.2059818789923806,0.0191948802118609,0.1364113440045627,0.0262461898028257,0.0001997900663365,-0.006470780245592,-0.0004086709858197,0.0807198772629605,-1.805019246411925,2.205965448135259,0.0634112704293391,0.0945728451840705,-0.1004584504013259,0.3243374979554567,0.0099895033168298,-0.3235390122796038,-0.0204335492909898,10.547280861294894,-1.2833009279963663,0.1562600558903567,-1.161250504016852
0.02,0.0806806267775633,-1.8050590993273572,2.2059290983799023,0.0135986784117421,0.1375035800557694,0.025871196269681,-0.0055446649565771,-0.023453218957328,-0.0075758183331938,0.0807198772629605,-1.805019246411925,2.205965448135259,0.0634112704293391,0.0945728451840705,-0.1004584504013259,0.9653626121918112,-0.2872227511456878,-0.8491219355867997,-0.3583573673687013,10.547280861294894,-1.2927539920879194,0.1628600735239865,-1.1524768809885275
0.04,0.0805719937356946,-1.8054031022949215,2.2057516461278945,0.0037769153039803,0.1404353602289491,0.0252176295801935,-0.0105769272308404,-0.027730622570856,-0.0194632931235502,0.0807198772629605,-1.805019246411925,2.205965448135259,0.0634112704293391,0.0945728451840705,-0.1004584504013259,0.6799483475995718,-0.2516131137131632,-0.2138701806763992,-0.5943737395178216,9.443273641617452,-1.2892387353241097,0.1722764392096861,-1.153151360415814
0.06,0.0803485636817808,-1.8058602474290415,2.2052565310795,-0.0105279156688336,0.1459691490834076,0.0242224707143731,-0.0150347973329585,-0.0252576752574436,-0.0379260420280584,0.0813539899672538,-1.8040735179600844,2.204960863631246,0.0760722268120906,0.1145728454820937,-0.1204584506993491,0.957681016013668,-0.2228935051059037,0.1236473656706192,-0.9231374452254072,9.443273641617452,-1.2795841536701855,0.1875135236787122,-1.1464066889140927
0.08,0.08001873729018,-1.8062878465274803,2.2042615707683963,-0.0272688702309919,0.1537713506532993,0.0229520282867152,-0.0173587518453037,-0.0172213315670533,-0.0605409569361553,0.0826222153758406,-1.802182061056403,2.202951694623219,0.1013941395775935,0.1545728460781402,-0.1604584512953955,1.2056304997655718,-0.1161977256172641,0.4018171845195151,-1.1307457454048488,9.251768503837411,-1.2700087088551282,0.2042840039024882,-1.1402956379194726
0.1,0.0799139707272872,-1.8063802997303235,2.2038748071552505,-0.0321660862432631,0.1562439832040752,0.0225549150783664,-0.0174991140355454,-0.0140711379314483,-0.0672425832518391,0.0838904407844274,-1.8002906041527216,2.2009425256151927,0.1267160523430965,0.1945728466741866,-0.200458451891442,0.3703215385355051,-0.0070181095120811,0.1575096817802511,-0.33508131578419,9.28022047426566,-1.2674033286338635,0.2082907863965335,-1.138459553542276
0.12,0.0798438708917529,-1.806430986248862,2.2035938768732373,-0.0353936401693647,0.1579091622385862,0.0222866164399389,-0.0175439515332981,-0.0118186781662848,-0.0721090893319933,0.0864247618312893,-1.7963991472192378,2.196933356577364,0.1520379651085994,0.2345728472702331,-0.2404584524874884,0.2681346062291406,-0.0022418748876353,0.1126229882581755,-0.2433253040077077,9.138352927250708,-1.266910656776138,0.2125334551774394,-1.138744228108864
0.14,0.0798263240899002,-1.80644222300778,2.203520516102997,-0.0361957891745684,0.1583270682878165,0.0222191165633822,-0.0175468018526896,-0.0112367589180554,-0.0733607702403717,0.0889590828781513,-1.7925076902857542,2.192924187539535,0.1773598778741024,0.2745728478662796,-0.2804584530835349,0.0690170854241811,-0.0001425159695761,0.0290959624114697,-0.0625840454189202,9.138277941812705,-1.266494095663934,0.2133236265144882,-1.1384025126872517
0.16,0.0795033462773652,-1.8065392218382088,2.201917191262537,-0.0503068567214669,0.1659210938754261,0.0209769899733139,-0.0181431658175187,0.0001840448546162,-0.1037792791532844,0.0921264517441508,-1.7876162333373693,2.187915018486805,0.2026817906396053,0.314572848462326,-0.3204584536795813,1.624866220091188,-0.0298181982414536,0.5710401886335849,-1.5209254456456365,8.649134102889093,-1.26554173210927,0.2269768914728964,-1.1349641966398991
0.18,0.0793061145391726,-1.8064892886230663,2.2006647757527418,-0.0586261133641666,0.1705553762533922,0.0201970150441792,-0.0176561741296731,0.0082970528409988,-0.1222039827961349,0.0959268684292879,-1.781724776374083,2.1819058494191736,0.2280037034051082,0.3545728490583724,-0.3604584542756278,1.0068859962999843,0.0243495843922792,0.4056503993191313,-0.9212351821425212,8.714869888402063,-1.2610257185163616,0.2354223521207588,-1.1275985709486038
0.2,0.0790847059573285,-1.8063081857598555,2.1989235519207595,-0.0681666855240131,0.1759474643506649,0.0192616992736125,-0.0164024613417429,0.0189259719978306,-0.1440866092566135,0.0784233058326889,-1.8060744359810168,2.194554576612935,0.0531704159315146,0.108297054331115,-0.2099972063559913,1.217985076885106,0.0626856393965084,0.5314459578415902,-1.0941313230239336,8.686997316988254,-1.2581879706363124,0.2443974129519073,-1.121342733131876
0.22,0.0789935339907259,-1.8061609123899716,2.19804639216519,-0.0720293647578016,0.1783817629899259,0.0188584921090128,-0.0140918321687013,0.0290611187027598,-0.1465881855845806,0.0784233058326889,-1.8060744359810168,2.194554576612935,0.0531704159315146,0.108297054331115,-0.2099972063559913,0.5345981903036914,0.115531458652078,0.5067573352464589,-0.1250788163983537,10.462441632917944,-1.2407038790879144,0.2459125096800773,-1.1103729773244555
0.24,0.0788022816852475,-1.8052412435815013,2.1949000508674668,-0.0814718400534513,0.1864867177895214,0.0177246569061778,-0.0043656978919837,0.0558242092159756,-0.1530684135462339,0.0784233058326889,-1.8060744359810168,2.194554576612935,0.0531704159315146,0.108297054331115,-0.2099972063559913,1.4601832558127052,0.4863067138358821,1.3381545256607907,-0.3240113980826631,10.201810606800793,-1.242102155756665,0.2558483025351163,-1.117433411850711
0.26,0.0787876445611733,-1.804942714593887,2.194128233406212,-0.0832964837387601,0.18832865886389,0.0174851838720548,-0.0019812873836401,0.0623938263692143,-0.155329152421472,0.0789550099920041,-1.8049914654377053,2.192454604549375,0.0673357339437521,0.1282970546291382,-0.2275558510679625,0.3672744997765289,0.1192205254171803,0.3284808576619314,-0.1130369437619085,10.201810606800793,-1.2438750329961197,0.2587587546676322,-1.1223839481668878
0.28,0.0787846005690361,-1.8047477686326765,2.1936593603817536,-0.0842878989532148,0.1894193846707125,0.0173491841512329,-0.0005276320303555,0.066260520642005,-0.156771440767326,0.0800184183106344,-1.8028255243510831,2.1882546604222552,0.0956663699682272,0.1682970552251846,-0.2626731404919051,0.2187729082744929,0.0726827676642309,0.1933347136395362,-0.0721144172926999,10.055426876408092,-1.243915114804418,0.2594870032354197,-1.1229075379911415
0.3,0.0787846005690361,-1.8047477686326765,2.1936593603817536,-0.0842878989532148,0.1894193846707125,0.0173491841512329,-0.0005276320303555,0.066260520642005,-0.156771440767326,0.0810818266292647,-1.8006595832644607,2.184054716295136,0.1239970059927023,0.2082970558212311,-0.2977904299158477,0.0,0.0,0.0,0.0,10.054005020581826,-1.2439375528073937,0.2598423186117455,-1.1231846938910457
0.32,0.0788173949564998,-1.8037404937303327,2.191352093888945,-0.0897069197019294,0.1943931099452269,0.0166612789401886,0.0047832122287821,0.0772011535907388,-0.1724280797683383,0.0835617667491187,-1.7964936421480362,2.1780989076968185,0.1523276420171774,0.2482970564172775,-0.3329077193397902,0.9912528195063972,0.2655422129568836,0.5470316474366895,-0.7828319500506122,10.054005020581826,-1.251493966901971,0.2666321151310937,-1.1299207981471466
0.34,0.0789261429115772,-1.8025558887120332,2.188812245676212,-0.0960534858682043,0.199182011180168,0.0159093510563358,0.0104312940907425,0.0914231680324173,-0.1892678036393248,0.0860417068689728,-1.7923277010316117,2.1721430990985016,0.1806582780416525,0.2882970570133241,-0.3680250087637328,1.1376981404900324,0.2824040930980202,0.7111007220839238,-0.8419861935493267,9.264703757252391,-1.2519668736651242,0.2729962121056352,-1.1291039778006402
0.36,0.0789721406298922,-1.8021784727546364,2.1880431256875563,-0.0978846607543851,0.2005152992679579,0.0156936554844989,0.0121474463394979,0.0961830898448481,-0.1940788701677128,0.0892299128894387,-1.7871617599002858,2.1653093582645857,0.2089889140661276,0.3282970576093705,-0.4031422981876754,0.3491002554494148,0.0858076124377699,0.2379960906215443,-0.2405533264193987,9.250630628731416,-1.2516888937546695,0.274839924791075,-1.1291344958592169
0.38,0.0791512376518362,-1.8009369183908428,2.1856132172525955,-0.103367098998266,0.2044232847081977,0.0150495098118268,0.0173124940334693,0.1097081129070756,-0.2097275081487714,0.0931263848105165,-1.7809958187540589,2.157597685195072,0.2373195500906027,0.3682970582054169,-0.4382595876116179,1.0659313265602672,0.258252384698568,0.6762511531113721,-0.7824318990529294,9.27925656212301,-1.252552872804839,0.2804851371761088,-1.1292779188157411
0.4,0.0793714300343233,-1.7996482906372813,2.183218214808729,-0.1083102677080963,0.2078855444312901,0.0144688047213424,0.0223132807148204,0.1234959095031951,-0.2244262748348568,0.0800168623535097,-1.795451512745489,2.175126841845157,0.0936306909858123,0.2097081143971917,-0.2899105298729955,1.0382255830265352,0.2500393340675552,0.6893898298059732,-0.7349383343042692,9.143092008476742,-1.2529055791637185,0.2854492210732599,-1.1287070400410195
0.42,0.0797565004376517,-1.797710905054492,2.180032295470712,-0.1122858656865468,0.2120875948220867,0.0139084901247966,0.0325654900671543,0.1515633967767349,-0.228185742292187,0.0800168623535097,-1.795451512745489,2.175126841845157,0.0936306909858123,0.2097081143971917,-0.2899105298729955,1.5058429815365284,0.5126104676166976,1.4033743636769909,-0.1879733728665122,10.649639607077006,-1.245431551213423,0.2880300727057641,-1.1237974028305306
0.44,0.0798589996080342,-1.797245380964822,2.1793473693436365,-0.112666013363073,0.2129525482935638,0.0138259410628579,0.0349697258072901,0.1569523125607552,-0.2283679399366642,0.0800168623535097,-1.795451512745489,2.175126841845157,0.0936306909858123,0.2097081143971917,-0.2899105298729955,0.2951862073465774,0.1202117870067867,0.2694457892010171,-0.009109882223858,10.640726219126918,-1.246615618788527,0.288894945675557,-1.1257960615782456
0.46,0.0800454755157574,-1.7964355650903552,2.178202524954388,-0.1131092882666316,0.2143690816165547,0.0137054125057778,0.0387957493005979,0.1650554802646641,-0.2296096562477042,0.0809531692633678,-1.793354431601517,2.172227736546427,0.1088943303762808,0.2297081146952149,-0.3059471342178403,0.4523318527533718,0.1913011746653935,0.4051583851954463,-0.0620858155520001,10.28356929121128,-1.2511289765626754,0.2902729391387015,-1.1304814444632303
0.48,0.0803376377908655,-1.795241367365692,2.176583470650985,-0.1136462842961531,0.216305763682387,0.0135498018000954,0.0439109872443445,0.1745088095206587,-0.232758619248796,0.0828257830830841,-1.7891602693135733,2.166429525948967,0.139421609157218,0.2697081152912614,-0.3380203429075299,0.5600157614425547,0.2557618971873301,0.4726664627997298,-0.1574481500545926,10.080849850976849,-1.255073576188867,0.2918619553643211,-1.136304542066264
0.5,0.08086762259805,-1.7932419926826355,2.1739836361946407,-0.1148795809517752,0.2192509211167123,0.01329335475987,0.0510089018781855,0.1865068685313791,-0.2389262662898916,0.0846983969028003,-1.7849661070256295,2.160631315351507,0.1699488879381552,0.3097081158873078,-0.3700935515972195,0.7621903997649747,0.3548957316920474,0.5999029505360187,-0.3083823520547785,9.907217902501545,-1.2578435822606353,0.294090278111185,-1.1430571626365895
0.52,0.0813063424743588,-1.79169761330149,2.172039372051744,-0.1161879751524296,0.221324741670371,0.0130883787219219,0.0572797365648197,0.1973353864737126,-0.2457407401854933,0.0880973746615634,-1.7787719447078834,2.1532294443195625,0.2004761667190924,0.3497081164833542,-0.4021667602869092,0.7124205621828477,0.3135417343317088,0.5414258971166735,-0.3407236947800873,9.780812865174994,-1.2596862784814036,0.2964761233335883,-1.1484380549540156
0.54,0.08185335187074,-1.789866472740686,2.169791145030994,-0.1179962435659296,0.2235941357490938,0.0128436541696341,0.0635818713441349,0.2083756833538665,-0.2531414317566265,0.0914963524203265,-1.7725777823901372,2.145827573287618,0.2310034455000296,0.3897081170794008,-0.4342399689765989,0.7354850333447175,0.3151067389657605,0.552014844007695,-0.3700345785566591,9.71847990443257,-1.261501793329232,0.2990707434666713,-1.1524501472496014
0.56,0.0823182637009239,-1.7883714632826824,2.1679954251505618,-0.119599823233702,0.2253142630133187,0.01264605168216,0.0685527287622329,0.2175444508601261,-0.2590871520371199,0.0956585121486131,-1.76538362005749,2.1376238720384317,0.2615307242809668,0.4297081176754472,-0.4663131776662885,0.6002651720464329,0.2485428709049025,0.458438375312982,-0.2972860140246697,9.71847990443257,-1.2620787178162916,0.3009801181774437,-1.155290286032111
0.58,0.084439033600961,-1.7819853840654318,2.1606404795391985,-0.1265058563197665,0.2315705979218747,0.0118894038707618,0.0892134434117801,0.2572861586012334,-0.2822929940492862,0.0873860198232265,-1.7730768650847488,2.150315324196629,0.1147376894004361,0.3374868535519174,-0.343748740386644,2.5222904112647413,1.0330357324773602,1.987085387055364,-1.160292100608315,9.59703858417106,-1.2528175695849464,0.3070673161498926,-1.14975356792922
0.6,0.0857058192230393,-1.7784531508223531,2.1569774880494337,-0.1276992626305988,0.2336761289536873,0.0118016852775034,0.1043900375760948,0.2832984135376502,-0.2812753529605835,0.0873860198232265,-1.7730768650847488,2.150315324196629,0.1147376894004361,0.3374868535519174,-0.343748740386644,1.5066535855090115,0.7588297082157358,1.3006127468208366,0.0508820544351362,10.988591052807353,-1.2625282207521895,0.311171704598587,-1.1628856038356137
0.62,0.0874063185023181,-1.7739856931103066,2.1527612695237104,-0.1272890731937573,0.2350933289054575,0.0119725831038576,0.1210816617789888,0.3103545570627375,-0.2813576476527446,0.0873860198232265,-1.7730768650847488,2.150315324196629,0.1147376894004361,0.3374868535519174,-0.343748740386644,1.5895376634395304,0.8345812101446963,1.3528071762543696,-0.0041147346080544,10.748036778721143,-1.270325025497224,0.3147556898600082,-1.1821212836261277
0.64,0.0890792926375344,-1.7697872400906642,2.1490881816585943,-0.1256734892676862,0.2355103019368355,0.0123272531546928,0.1351370046560077,0.3336006793863716,-0.2836617019306182,0.0885333967172308,-1.7697019965492296,2.1468778367927626,0.1218637905068414,0.3574868538499406,-0.35778320683209,1.363124657351,0.7027671438509485,1.162306116181702,-0.1152027138936806,10.748036778721143,-1.275805548713932,0.3162400857760596,-1.197177040385595
0.66,0.0907822702684205,-1.7656523343545223,2.145662578060123,-0.123307564192159,0.2352418897913227,0.0128081185864881,0.1475817428326392,0.3535476478199522,-0.2870585018047856,0.0908281505052396,-1.7629522594781912,2.14000286198503,0.1361159927196519,0.397486854445987,-0.385852139722982,1.18774082543322,0.6222369088315749,0.9973484216790311,-0.1698399937083677,10.607800408655748,-1.2822269811788671,0.3162578060589369,-1.2081151313858929
0.68,0.0913826758093838,-1.7642225650864647,2.1445111755309267,-0.1224292930040818,0.2350250436870279,0.0129920238927972,0.1515889624999178,0.3597252307448181,-0.2884151439564409,0.0931229042932483,-1.756202522407153,2.133127887177297,0.1503681949324624,0.4374868550420335,-0.413921072613874,0.3743688628313897,0.2003609833639286,0.308879146243296,-0.0678321075827659,10.472748279133157,-1.284713361256764,0.3163534383782839,-1.2128162196337424
0.7000000000000001,0.0927900605960311,-1.7609201377425288,2.141897079296829,-0.1205065051504077,0.2343471194370643,0.0134271985360865,0.1600112311250359,0.3722302361932006,-0.2922194699691828,0.0961302681918975,-1.7474527853063122,2.12484946572502,0.1646203971452729,0.4774868556380799,-0.4419900055047661,0.7774681126402383,0.4211134312559039,0.6252502724191256,-0.1902163006370971,10.227189141482086,-1.292187854507541,0.315963086165173,-1.2197558069463732
0.72,0.0947765991294638,-1.75635184953381,2.138349555414921,-0.1185458338597556,0.2332582527683102,0.0139907864001348,0.1701332326426836,0.3879899624158301,-0.2986574442465611,0.0991376320905468,-1.7387030482054715,2.116571044272742,0.1788725993580835,0.5174868562341264,-0.4700589383956581,0.9902921262583072,0.5061000758823833,0.7879863111314722,-0.3218987138689122,10.133214777025389,-1.2972726653717968,0.3157971771489797,-1.2270001460240971
0.74,0.0977915137252433,-1.7495467998767704,2.1331809178194154,-0.1163766041519566,0.2315100119251557,0.0147787522048404,0.1836361851496732,0.4113162537979077,-0.3089156001861535,0.1025013010445163,-1.7289533110897295,2.107590899498192,0.193124801570894,0.5574868568301727,-0.4981278712865502,1.441939110476411,0.67514762534948,1.1663145691038823,-0.5129077969796197,10.07735736853465,-1.3041344531202346,0.3158072547079239,-1.2338177623046116
0.76,0.1002497952250716,-1.7440670998863106,2.129107392114166,-0.1146735943881802,0.2300128645550682,0.0154095372152362,0.1937435553433597,0.4301686236293567,-0.3171505738206728,0.106973322982727,-1.728980987186875,2.117735137810108,0.1723894145293271,0.5113162552880239,-0.3682554028983555,1.1460645392550752,0.5053685096843286,0.9426184915724471,-0.411748681725968,10.07735736853465,-1.3088569351266672,0.3157215168827254,-1.239097268346434
0.78,0.1042321680681944,-1.735549369528523,2.123172124514753,-0.1102178488463713,0.2242264463250528,0.0168828776303072,0.2236619075318682,0.4636968846874112,-0.3067149746493884,0.106973322982727,-1.728980987186875,2.117735137810108,0.1723894145293271,0.5113162552880239,-0.3682554028983555,2.306595877758172,1.495917609425422,1.676413052902728,0.5217799585642197,10.063423129014154,-1.3079189681415242,0.3111073601684886,-1.2318141787298478
0.8,0.1087364930075314,-1.7264377969639688,2.1174325181617197,-0.1039684109213036,0.2127600838081389,0.019068414511498,0.2479049439332876,0.4930996916687157,-0.2978904302510579,0.106973322982727,-1.728980987186875,2.117735137810108,0.1723894145293271,0.5113162552880239,-0.3682554028983555,1.9558389863294607,1.2121518200709738,1.4701403490652214,0.4412272199165262,11.68544665821628,-1.3384201648869376,0.3106653520667999,-1.25009808412304
0.8200000000000001,0.1138899233111196,-1.7162774630987736,2.1115386013564463,-0.0966674667764747,0.1969213681459506,0.0217094206394946,0.2652811445702611,0.5209641797457464,-0.2920312410064309,0.1086972171280202,-1.723867824633995,2.1140525837811244,0.1701400604052579,0.5313162555860471,-0.380123363440796,1.667852019047024,0.8688100318486727,1.393224403851534,0.2929594622313486,11.387792259533851,-1.3706423638917846,0.3084144986791962,-1.2594718966724303
0.84,0.1193025349598234,-1.705588406079123,2.105717724892308,-0.089080735435175,0.1793560872450001,0.024395772664594,0.2744632864577149,0.5461595969794658,-0.2902221982214736,0.1121450054186068,-1.7136414995282343,2.1066874757231573,0.1656413521571194,0.5713162561820936,-0.4038592845256768,1.3438688691799,0.4591070943726877,1.2597708616859715,0.0904521392478679,11.088809992438655,-1.401112722412812,0.304945617925596,-1.26109577600534
0.86,0.1245439241292173,-1.6949920489769763,2.100191728937665,-0.081921874272511,0.1626946477709963,0.0267989367435924,0.27633097086563,0.5677407710931713,-0.2916780328451768,0.1155927937091933,-1.703415174422474,2.09932236766519,0.161142643908981,0.61131625677814,-0.4275952056105576,1.0855353237288223,0.0933842203957563,1.0790587056852765,-0.0727917311851594,10.807236605294747,-1.4300027237037054,0.3000392524429238,-1.2553985429573062
0.88,0.1300360267432382,-1.6834205338720214,2.0943136261632147,-0.0746902985337975,0.1464874070470357,0.0290547834726305,0.272308037301524,0.5880634806823405,-0.296311425229311,0.118815646587373,-1.6911888492869112,2.090770463552979,0.1566439356608426,0.6513162573741865,-0.4513311266954384,1.0614434093396965,-0.2011466782053023,1.0161354794584576,-0.2316696192067091,10.563588230398636,-1.4525698654626369,0.2945844808345385,-1.2450381962910566
0.9,0.1351267194262407,-1.6720707192246909,2.0886184774419285,-0.0682687593420319,0.1333245919216098,0.0308822547526739,0.2637329383040158,0.6055392279152685,-0.3029065747996214,0.1220384994655526,-1.6789625241513484,2.082218559440768,0.1521452274127042,0.691316257970233,-0.4750670477803193,1.0276551732232742,-0.4287549498754095,0.8737873616463998,-0.3297574785155244,10.355556641723524,-1.4709417467221713,0.2885469933121359,-1.2318827514176178
0.92,0.1402752778871807,-1.6597752147908778,2.082473202698285,-0.0618173191438121,0.1222964612561317,0.0324936105818055,0.2515207945028299,0.6228707656280413,-0.3113245010815597,0.1251488846375287,-1.6657361990008843,2.0730732573014348,0.1476465191645657,0.7313162585662794,-0.4988029688652001,1.1405921034689137,-0.6106071900592924,0.8665768856386424,-0.4208963140969135,10.234418649606596,-1.483650409882613,0.2824931335169876,-1.2209747029760694
0.94,0.1451517913525087,-1.6471467674797584,2.076144773810097,-0.0554791177760551,0.1144182750956921,0.0338248077239411,0.2366772216609236,0.6388687975325374,-0.3211367853015856,0.1281468021033014,-1.6515098738355192,2.0633345571349797,0.1431478109164273,0.7713162591623258,-0.5225388899500809,1.1964004358332794,-0.7421786420953175,0.7999015952248056,-0.4906142110012945,10.140783297320922,-1.4920271009057644,0.2763409737494989,-1.2129081191344115
0.96,0.1497040158429744,-1.6342142261360002,2.069605827039444,-0.0492130539564473,0.1102356157427704,0.0348921027092885,0.2193538295582557,0.6533466718294821,-0.3322392859779337,0.1569856524355549,-1.6152033276031317,2.0600879345450176,0.1909589317491766,0.7388687990226536,-0.3777465239197211,1.2579490046989368,-0.8661696051333947,0.7238937148472346,-0.5551250338174052,10.061691659561802,-1.495485209457909,0.2703425379359256,-1.208314723239056
0.98,0.1537496891506374,-1.621696860246615,2.06340553338637,-0.0444902482946709,0.1093426784098561,0.0356399290242372,0.2076265555223251,0.6641480911309179,-0.3199206643203302,0.1569856524355549,-1.6152033276031317,2.0600879345450176,0.1909589317491766,0.7388687990226536,-0.3777465239197211,1.0074076319723042,-0.5863637017965259,0.5400709650717872,0.6159310828801778,11.435087145273428,-1.4849838914835505,0.2629327765195134,-1.188395354926266
1.0,0.1577824729834393,-1.6082945429976656,2.057105800688553,-0.0410890171907878,0.1102149673830129,0.0362259743198943,0.1964051106425629,0.6757026867305854,-0.3110538525374403,0.1569856524355549,-1.6152033276031317,2.0600879345450176,0.1909589317491766,0.7388687990226536,-0.3777465239197211,0.9193066080674498,-0.5610722439881102,0.5777297799833769,0.4433405891444919,11.435087145273428,-1.484894281019378,0.2607478080499341,-1.2009958890561572
1.02,0.1615988342131129,-1.5946581212685365,2.0509237309798314,-0.0386144291430111,0.112175396112413,0.0366980427301906,0.1859498474533846,0.6874649405600733,-0.3075834975009663,0.1588952417530467,-1.607814639612905,2.0563104693058203,0.1818152737668272,0.7588687993206767,-0.3890684716433482,0.8057706056680641,-0.5227631594589179,0.5881126914743962,0.1735177518236985,10.783197831630789,-1.4829629882365427,0.2592992760704263,-1.2116837168338264
1.04,0.1650392431713358,-1.581486156911364,2.045077705506453,-0.0367030449366015,0.1145235570462553,0.0370944550335986,0.1768190813087382,0.6985026853658337,-0.3079591852338777,0.1627144203880302,-1.593037263632452,2.048755538827426,0.1635279578021284,0.7988687999167232,-0.4117123670906023,0.7164911759016466,-0.4565383072323167,0.5518872402880182,-0.0187843866455678,10.783197831630789,-1.4790261180625996,0.2579051736877709,-1.220527698496972
1.06,0.1684821458647432,-1.567398169175521,2.03888650537916,-0.0350224921901494,0.117101083273863,0.0374819983659391,0.1680225966031625,0.7097229910809187,-0.3112731262913099,0.1665335990230138,-1.5782598876519989,2.0412006083490315,0.1452406418374296,0.8388688005127697,-0.4343562625378565,0.7318736380816221,-0.4398242352787851,0.5610152857542516,-0.1656970528716078,10.56806278028671,-1.4747905944220356,0.2567378680184145,-1.22792956781509
1.08,0.1717563105224119,-1.553089427503627,2.032602313963864,-0.0336610047417944,0.1195004659744894,0.0378500261649105,0.1598771900569092,0.7205729372119591,-0.317078008875345,0.1694384118597623,-1.5614825116417437,2.0325134830982745,0.1269533258727308,0.8788688011088162,-0.4570001579851107,0.7378442258780966,-0.4072703273126657,0.54249730655202,-0.2902441292017554,10.40121078440825,-1.4705407499194034,0.2557986396243832,-1.233760608059723
1.1,0.1748746086876283,-1.5385680717484465,2.0261885709560388,-0.0326723946521881,0.1215305447892361,0.0382000087047955,0.1523683064286029,0.7310293227752392,-0.323998839841068,0.1723432246965109,-1.544705135631488,2.023826357847517,0.108666009908032,0.9188688017048626,-0.4796440534323649,0.7307825149241225,-0.3754441814153159,0.5228192781640051,-0.3460415482861523,10.2201411185315,-1.4666484422603292,0.255138383747295,-1.237002156042375
1.12,0.1777004371062061,-1.524571826662201,2.0199600043286554,-0.0318213080519841,0.1230763069736063,0.0385339129942814,0.1454699448255461,0.7416183620206905,-0.3312906944375175,0.1747908546341421,-1.5269277596063315,2.0145731352105787,0.0903786939433332,0.958868802300909,-0.502287948879619,0.7295311652081724,-0.3449180801528395,0.5294519622725646,-0.3645927298224743,10.2201411185315,-1.4630061678062096,0.2545417559205017,-1.2397065968032173
1.14,0.1805349690921738,-1.5096196351588045,2.01324567732008,-0.0306435386812263,0.124344035687645,0.0389105620761839,0.1383535198232923,0.75294386472367,-0.3397930391933604,0.1767813016726557,-1.508150383566274,2.0047538151874598,0.0720913779786344,0.9988688028969552,-0.5249318443268732,0.7924651137985657,-0.3558212501126923,0.5662751351489748,-0.4251172377921469,10.182462695569484,-1.4599210518028984,0.2536202875313309,-1.2419785397443486
1.16,0.1830963608534092,-1.4952034962846823,2.006701544265108,-0.0289997633126512,0.125260097108607,0.0393073254171407,0.1316267674186823,0.7638601932204883,-0.3486670797341313,0.1874526450833384,-1.4719724419226208,1.996256025360412,0.0950896448752675,0.8529438662137862,-0.389792883476226,0.779685868287058,-0.3363376202304993,0.5458164248409114,-0.443702027038545,10.136410668834287,-1.457361878295587,0.2521303648460703,-1.2437156582407505
1.18,0.1856681996631516,-1.479785321757865,1.99982949195096,-0.0260117605121977,0.1264036702942576,0.0397996067428783,0.1261329256305973,0.7768269629768259,-0.3370255378726599,0.1874526450833384,-1.4719724419226208,1.996256025360412,0.0950896448752675,0.8529438662137862,-0.389792883476226,0.913571169119806,-0.2746920894042493,0.6483384878168796,0.5820770930735714,10.091546215910055,-1.44835315140247,0.2476610443136262,-1.2313377538546453
1.2,0.1881412365471331,-1.4641461898401795,1.9931873039365011,-0.0224580701745037,0.1279016220353732,0.0403133701895308,0.1214831472201436,0.7864058792222807,-0.3279127213851871,0.1874526450833384,-1.4719724419226208,1.996256025360412,0.0950896448752675,0.8529438662137862,-0.389792883476226,0.700748706809574,-0.2324889205226867,0.4789458122727408,0.4556408243736404,11.452410718812644,-1.4499795035558931,0.2452932236004026,-1.24550835380267
1.22,0.1905244232193553,-1.4483327345483583,1.98667592174886,-0.0192676772021367,0.1293009042123069,0.0407953732335853,0.1170731118968364,0.794524548805809,-0.3236820120906357,0.1884035415320911,-1.4634430032604828,1.9923580965256495,0.0864368698856626,0.8729438665118093,-0.3997928523327991,0.5080849055382589,-0.2205017661653562,0.405933479176418,0.2115354647275691,11.146522965019358,-1.4499281983586132,0.242709986717525,-1.2564531253813118
1.24,0.1927077422823127,-1.4331687279188825,1.9805310390275075,-0.0167659348422864,0.1303184471017422,0.0412134826332883,0.1129462893387958,0.8013887110248005,-0.3233548209867917,0.1903053344295965,-1.4463841259362071,1.9845622388561253,0.0691313199064527,0.9129438671078558,-0.4197927900459453,0.4007943406930092,-0.2063411279020335,0.3432081109495721,0.0163595551922024,10.865857900884292,-1.4493766355791124,0.2404728445715054,-1.2640238735465088
1.26,0.194920742634807,-1.417071821073786,1.9740397293413428,-0.0147475957789962,0.1309531879042706,0.0416075537535386,0.1085296040274757,0.8080351641758435,-0.3259199744216275,0.1922071273271018,-1.4293252486119314,1.9767663811866008,0.0518257699272428,0.9529438677039024,-0.4397927277590915,0.4191135310762791,-0.2208342655660042,0.3323226575521532,-0.128257671741791,10.648424802472618,-1.4482453615729347,0.2387016034537898,-1.268615788013943
1.28,0.1970432275144315,-1.4008474349332836,1.967468857781087,-0.0134042724373459,0.1311095851749939,0.0419503034841963,0.1038832751016594,0.8141624459191315,-0.3310223094420818,0.1932436427256467,-1.4102663712578534,1.967970526631419,0.0345202199480329,0.9929438682999489,-0.4597926654722377,0.4614265291177463,-0.2323164462908124,0.3063640871643958,-0.2551167510227131,10.480360071362156,-1.4475371155633183,0.2376268878498105,-1.2707681544422564
1.3,0.1989717710062916,-1.3853258690668326,1.9611225621041428,-0.0128787200993389,0.1308552511138357,0.042218819436208,0.0992989646697589,0.8194720224115024,-0.3367444023403629,0.1942801581241915,-1.3912074939037753,1.959174672076237,0.0172146699688229,1.032943868895995,-0.4797926031853839,0.4526307871790476,-0.2292155215950268,0.265478824618548,-0.2861046449140564,10.348799693220826,-1.44702082348755,0.237256498074719,-1.2702559072099149
1.32,0.200903275981654,-1.3688724183398258,1.954318394243041,-0.0130025164521115,0.1302720828810941,0.0424489269463753,0.094047013104865,0.825597303421109,-0.3433936175205936,0.1948840347732561,-1.371148616534796,1.9498788190782264,-9.088001038689944e-05,1.0729438694920417,-0.4997925408985301,0.5227669777244222,-0.2625975782446964,0.3062640504803315,-0.332460759011538,10.30048501264082,-1.4466927906002114,0.2376514403167202,-1.2689113560105652
1.34,0.2027247849873712,-1.3522897568523884,1.9473748705853449,-0.0134583915619301,0.1295174948624542,0.0426496937281455,0.0883377639955154,0.8323115964234244,-0.3506160040772244,0.1950552726728405,-1.3500897391509157,1.9400829676373876,-0.0173964299895967,1.112943870088088,-0.5197924786116763,0.5697370522595275,-0.2854624554674771,0.3357146501157704,-0.3611193278315355,10.2631583436023,-1.4464478642264094,0.2383523884208406,-1.2671940500160126
1.36,0.204427476235842,-1.3355666283202816,1.9402812712189168,-0.0139300373054991,0.1287246404772341,0.0428420495765923,0.0825139667759655,0.8392337094615357,-0.3579863471724616,0.207141673187147,-1.3106741770312171,1.929844070381484,0.0415810084348789,0.9323115979135406,-0.3630050986460134,0.5834257028712807,-0.2911898609774949,0.3461056519055649,-0.3685171547618632,10.200107187369213,-1.4461143216181878,0.2390897565626389,-1.2652118911775934
1.38,0.2059517932692715,-1.3194984743915632,1.9336160814896768,-0.0129168288670722,0.1281895216213122,0.043114885897062,0.0786179643632256,0.8508334050738005,-0.3428565474849261,0.207141673187147,-1.3106741770312171,1.929844070381484,0.0415810084348789,0.9323115979135406,-0.3630050986460134,0.9729370633322308,-0.1948001206369939,0.5799847806132352,0.7564899843767764,10.200107187369213,-1.4355096632860742,0.2365534334277905,-1.2512545361299252
1.4,0.2074880947037664,-1.3023822637362126,1.9269125237500688,-0.0099257787713548,0.1278402982420196,0.043519138074221,0.0751859182954781,0.8597885522436604,-0.3285580173492308,0.207141673187147,-1.3106741770312171,1.929844070381484,0.0415810084348789,0.9323115979135406,-0.3630050986460134,0.8608448830747283,-0.1716023033873789,0.447757358492995,0.7149265067847632,11.708810003638972,-1.4388041684098796,0.2342500004106426,-1.2630983748582314
1.42,0.208882994161078,-1.285988385122874,1.9207684686073565,-0.0067315889666162,0.1274001981453788,0.0439126932868435,0.0717704303270239,0.865436980585686,-0.3188919728132656,0.2075574832714958,-1.3013510610520818,1.9262140193950237,0.0322296573227516,0.9523115982115636,-0.3654829175597712,0.5852408003739055,-0.1707743984227058,0.2824214171012806,0.48330222679826,11.47953819241593,-1.4419263669423237,0.2314529511446742,-1.2718930195551217
1.44,0.2102781382334852,-1.268634169965622,1.9144686345941069,-0.0038893046613097,0.126669811250692,0.0442749365568018,0.0678507439151073,0.8697893547367191,-0.3117333734024055,0.2083891034401934,-1.2827048290938108,1.9189539174221035,0.013526955098497,0.9923115988076102,-0.3704385553872867,0.4624733717834818,-0.1959843205958308,0.2176187075516589,0.3579299705430083,11.242489618023685,-1.444448771455097,0.2288141446443212,-1.2777471563029448
1.46,0.2115899228276175,-1.2512022719689484,1.908281826631308,-0.0018783843654405,0.1255956173454368,0.0445632727639266,0.0634446160975731,0.8734011295641263,-0.3072917207889256,0.209220723608891,-1.26405859713554,1.911693815449183,-0.0051757471257575,1.032311599403657,-0.3753941932148024,0.3612033972956697,-0.2203063908767094,0.1805887413703577,0.2220826306739948,11.060298860512376,-1.4467479004866195,0.2269594469762335,-1.2810745073087788
1.48,0.2128084864242022,-1.2337045562872448,1.9021635825015,-0.0007769002573866,0.1241653119232389,0.0447732457170718,0.0585642765299504,0.8763394221592872,-0.3047464946723622,0.2091172086663758,-1.243412365147467,1.9041859315848868,-0.0238784493500121,1.072311599999703,-0.380349831042318,0.3119673606906563,-0.2440169783811369,0.1469146297580437,0.127261305828169,10.912957424928209,-1.4485162450053972,0.22602078330734,-1.2822535436914873
1.5,0.2138724818397466,-1.217033542724445,1.8963936458389563,-0.0008290063949335,0.1224600017058599,0.0448848323528689,0.0536133694285046,0.8785192938823062,-0.3027338577735347,0.2090136937238607,-1.2227661331593938,1.896678047720591,-0.0425811515742668,1.1123116005957496,-0.3853054688698336,0.2885915328907197,-0.2475453550722893,0.1089935861509516,0.1006318449413734,10.783836760996564,-1.4499962885281816,0.2262095010269685,-1.2811209754568067
1.52,0.2148841647850006,-1.1994331822814963,1.8903603786263037,-0.0019944251685443,0.1203568487067347,0.0449176136835793,0.047735644006413,0.8814678309281044,-0.30069796519359,0.2084426112257391,-1.2011199011564195,1.8890462729106068,-0.0612838537985214,1.152311601191796,-0.3902611066973492,0.3441888487626419,-0.2938862711045826,0.1474268522899113,0.1017946289972371,10.783836760996564,-1.451704770096016,0.22770052458802,-1.279134146505272
1.54,0.2157692877433273,-1.181764774875823,1.8843674121673215,-0.003965397060125,0.1181218131079436,0.0448913150715354,0.0409864784677605,0.8852755362194108,-0.29869930527762,0.2074039611720113,-1.1784736691385442,1.8812906071549351,-0.079986556022776,1.1923116017878423,-0.3952167445248647,0.4001390274432184,-0.3374582769326242,0.1903852645653181,0.099932995798499,10.777956322746832,-1.4534956842133055,0.2301166938353858,-1.2769127219865166
1.56,0.2165088014986944,-1.164006148740374,1.8784139550457768,-0.0062811992207835,0.1160222401087021,0.0448402408673252,0.0332359941484079,0.8904954466522759,-0.2967452858915232,0.2178186116667153,-1.1375009980648525,1.869432446903441,0.0102302731474022,0.9852755377095268,-0.2957531892474038,0.4773250042500027,-0.3875242159676301,0.2609955216432535,0.0977009693048369,10.772176122752173,-1.4548410231647873,0.232775545869276,-1.2751227087611905
1.58,0.2170140571597402,-1.1469713831383197,1.8728902009992328,-0.00644073520136,0.1161442648739011,0.0449173083468515,0.020942208923841,0.9015125723973751,-0.2848222709952105,0.2178186116667153,-1.1375009980648525,1.869432446903441,0.0102302731474022,0.9852755377095268,-0.2957531892474038,1.0181754503139484,-0.6146892612283427,0.5508562872549694,0.596150744815635,10.772176122752173,-1.4480761097919128,0.2326244217246395,-1.2761477956362322
1.6,0.2173224287422113,-1.128849551598041,1.8673163288731756,-0.0039071746625318,0.1194328479042612,0.0451594953151213,0.0109349207263549,0.9099263531647964,-0.2733158027904918,0.2178186116667153,-1.1375009980648525,1.869432446903441,0.0102302731474022,0.9852755377095268,-0.2957531892474038,0.8708276729869887,-0.5003644098743036,0.4206890383710582,0.5753234102359367,11.485483820219995,-1.4420470969395516,0.2298376592870684,-1.2872498122399405
1.62,0.2174623299431058,-1.1105931705816388,1.8619473177831063,-0.0002633723711228,0.1244587196183157,0.0454721861546732,0.003861304115802,0.915080871029226,-0.2641774429273857,0.2179209143981893,-1.1276482426877572,1.8664749150109667,0.0040790320833305,1.0052755380075502,-0.2951639660413605,0.6326822412464341,-0.3536808305276483,0.2577258932214832,0.4569179931553063,11.359773513883738,-1.4354188707710107,0.2259708006098529,-1.2992923940593948
1.64,0.2174905558085851,-1.0922618447275938,1.8567395734287255,0.0030280706973455,0.130079071092641,0.0457647232952374,-0.0005055822460938,0.9179689397942908,-0.2570756188432113,0.2181255198611374,-1.1079427319335666,1.8605598512260184,-0.0082234500448127,1.0452755386035966,-0.293985519629274,0.4411534398936899,-0.218344318094795,0.1444034382532377,0.3550912042087184,11.218733692014212,-1.4277417244518027,0.2221631254244008,-1.311180753168117
1.66,0.2174591020055484,-1.0748042347927549,1.851908450280149,0.0053442120846969,0.135192794699037,0.0459875330841199,-0.0025240348270877,0.9197746052037612,-0.2518347778560295,0.2183301253240854,-1.088237221179376,1.8546447874410703,-0.020525932172956,1.085275539199643,-0.2928070732171876,0.2949618307747791,-0.1009226290496918,0.0902832704735179,0.262042049359093,11.105501815103707,-1.4206270132640424,0.2193344594485535,-1.3216954405082333
1.68,0.2174028785808293,-1.0563963987903369,1.846919777357072,0.0067659688600366,0.1397920085815588,0.0461440545627381,-0.0029404593323394,0.921048206446216,-0.2473626687770007,0.2179196066806263,-1.0665317103953833,1.8487886459767269,-0.0328284143010993,1.1252755397956893,-0.2916286268051011,0.2334268038812581,-0.020821225262589,0.063680062122734,0.2236054539514378,11.024068792030448,-1.41451861545879,0.2177131482351247,-1.3303074497981728
1.7,0.2173540560477025,-1.0379703087755154,1.842015620798988,0.0068445550656391,0.1432146220778416,0.0461908526103043,-0.0019970864253091,0.9217147480419644,-0.2432835450128729,0.2175090880371672,-1.0448261996113903,1.842932504512383,-0.0451308964292426,1.165275540391736,-0.2904501803930146,0.2119757110122176,0.0471686453515153,0.0333270797874207,0.2039561882063917,10.974123393973969,-1.4101360130509029,0.2177105217419078,-1.3365923661086403
1.72,0.2173312133653435,-1.0195224638568068,1.837193161426169,0.0056744790582112,0.1453504799028633,0.0461310659491339,-0.0004400987595024,0.9231248336583756,-0.2391728250978093,0.2167910073405045,-1.0221206888124963,1.8371058242083411,-0.0574333785573859,1.2052755409877822,-0.2892717339809281,0.2308168660279449,0.0778493832903369,0.0705042808205713,0.2055359957531782,10.967310424964126,-1.40762899999157,0.2191353856942979,-1.3409708997063268
1.74,0.2173404734323294,-1.001962422245638,1.8326897787060128,0.003708545801931,0.1462400784156421,0.0459994135483498,0.0012216786591034,0.925277084855976,-0.2350760067396739,0.2157653645906382,-0.9984151779987012,1.831308605064602,-0.0697358606855292,1.2452755415838286,-0.2880932875688416,0.2458536661619871,0.0830888709302965,0.1076125598800159,0.2048409179067706,10.977880662770986,-1.4067161555347485,0.2217741981423666,-1.3442577828883748
1.76,0.2173822670723944,-0.9834198397252792,1.828035789101077,0.0011599112548954,0.1461087165750314,0.0458177898893777,0.0027773112116514,0.9290470844955152,-0.2305293207750601,0.2174015573652845,-0.9556985680028393,1.8209359783690289,-0.0277072177531499,1.025277086346092,-0.2365652988714107,0.3053900914465338,0.0777816276273998,0.1884999819769639,0.2273342982306872,11.0132725845433,-1.4070957276116656,0.2250350976327517,-1.3465375607715049
1.78,0.2174337937682038,-0.9647285658530036,1.823499113826322,0.0006546487062938,0.1456012239607199,0.0457733446455124,0.0022964239845253,0.939298135585612,-0.2232499379059979,0.2174015573652845,-0.9556985680028393,1.8209359783690289,-0.0277072177531499,1.025277086346092,-0.2365652988714107,0.6290960100242671,-0.0240443613563068,0.5125525545048304,0.3639691434531134,11.0132725845433,-1.4072928743760065,0.2257776308769242,-1.3507394017393135
1.8,0.2174759195592814,-0.946811633166968,1.8193217455835973,0.0027413742310391,0.1452838205603644,0.0459003703601642,0.0021691653219495,0.946041303416278,-0.2168985698937518,0.2174015573652845,-0.9556985680028393,1.8209359783690289,-0.0277072177531499,1.025277086346092,-0.2365652988714107,0.4632126476757593,-0.0063629331287908,0.3371583915333098,0.3175684006123044,11.204819460822364,-1.4081428785506012,0.2233915756939142,-1.3562324149068703
1.82,0.2175194630325458,-0.9278419966762936,1.8150409287248028,0.0060376955689221,0.1448415078922881,0.046095808698483,0.0021656619171553,0.9502568888941368,-0.2115794191741755,0.217124485187753,-0.9454457971393784,1.8185703253803147,-0.0334929970356005,1.0452770866441152,-0.2368631572977581,0.3393543044243979,-0.0001751702397062,0.2107792738929359,0.2659575359788113,11.147353037361428,-1.4096702802392873,0.2194779569944698,-1.3611605718041224
1.84,0.2175623973762305,-0.9088179968602031,1.8108520334112448,0.009053571009311,0.1441631271681223,0.0462535200054256,0.0020693755580275,0.9520323356996956,-0.2076297283761875,0.21657034083269,-0.9249402554124564,1.8138390194028864,-0.0450645556005019,1.0852770872401618,-0.2374588741504529,0.216572965891607,-0.004814317956391,0.0887723402779427,0.1974845398994035,11.065810271175906,-1.4111871140700123,0.2157856365442231,-1.364188459912429
1.86,0.2176010367925377,-0.889772333063516,1.806729709977761,0.0111706985105009,0.1431906166932494,0.0463297506248616,0.0017145459608649,0.9527248264246084,-0.2047888117262485,0.216016196477627,-0.9044347136855346,1.8091077134254585,-0.0566361141654032,1.1252770878362082,-0.2380545910031476,0.1472774156058305,-0.017741479858131,0.034624536245631,0.1420458324969481,10.98815644255319,-1.4127684277802155,0.2132405109206188,-1.365575606022058
1.88,0.2176282768230098,-0.8716733007588083,1.8028596980476443,0.0121691233579099,0.1419885079216639,0.0463153712445104,0.0011090954665587,0.9525898238576548,-0.2027147682378695,0.214883474194319,-0.8819291719288105,1.8043466216053956,-0.0682076727303046,1.1652770884322543,-0.2386503078558424,0.1082410779906031,-0.0302725247153119,-0.0067501283476711,0.1037021744189514,10.92947089318477,-1.4145827538861488,0.2118101812282409,-1.3657142692529862
1.9,0.2176417514201425,-0.8526315275121111,1.7988262947230595,0.0117972340365262,0.1404067144112512,0.0461871951177831,0.0002093631976859,0.9517439333658418,-0.2007341355120986,0.2137507519110109,-0.8594236301720863,1.7995855297853325,-0.0797792312952059,1.205277089028301,-0.2392460247085371,0.1167042723530877,-0.0449866134436394,-0.0422945245906525,0.0990316362885462,10.881100104634244,-1.416602332127237,0.2121482061686727,-1.364388414290525
1.92,0.2176319968689681,-0.8335992018429667,1.7948333906324616,0.0099456130108259,0.13851534627464,0.0459479779407962,-0.0012126994672629,0.9516425645426344,-0.1986423701318877,0.2123287406635803,-0.835918088400461,1.794809545043952,-0.0913507898601073,1.2452770896243477,-0.2398417415612319,0.126570338816098,-0.0711031332474435,-0.0050684411603718,0.1045882690105443,10.885871086921725,-1.4189288552752428,0.2143134185454524,-1.362216872192612
1.94,0.2175870157613131,-0.814554900433943,1.7908859522459262,0.0070606328134029,0.1364165805789226,0.0456366081274201,-0.0033007628791419,0.9531023024240208,-0.1961980468256953,0.2106174404520272,-0.8114125466139346,1.7900186673812544,-0.1029223484250086,1.2852770902203938,-0.2404374584139266,0.1765329991784645,-0.104403170593948,0.0729868940693212,0.1222161653096201,10.902443897935882,-1.4211160793015951,0.2175543400916122,-1.3598713016366502
1.96,0.2174979965280135,-0.7964132636563735,1.7871849206963997,0.0042505862312282,0.1343687837984233,0.0453406390346746,-0.0060273637606703,0.9564424707093234,-0.1935067922144421,0.217421977617356,-0.7668997853127419,1.7810760499046414,-0.0351005374960986,1.0503189607182215,-0.2070592526941183,0.2541354359582913,-0.1363300440764217,0.1670084142651295,0.1345627305626581,10.902443897935882,-1.4236119662535576,0.2211158053488237,-1.358197588251517
1.98,0.2173149554069823,-0.777168854871113,1.7833696564123998,0.0039585125898049,0.1331418835697422,0.0452201824586194,-0.0120775632217062,0.9670963247169564,-0.1880551125257207,0.217421977617356,-0.7668997853127419,1.7810760499046414,-0.0351005374960986,1.0503189607182215,-0.2070592526941183,0.6705041576356771,-0.302509973051795,0.5326927003816428,0.2725839844360714,11.1093827805189,-1.424390829424751,0.2213558009038671,-1.3601434728889592
2.0,0.2170169747588129,-0.7577524867850817,1.779657502081914,0.0070524402551767,0.1335044376718745,0.0453331506173669,-0.017240821494738,0.973613114781586,-0.1835136981643056,0.217421977617356,-0.7668997853127419,1.7810760499046414,-0.0351005374960986,1.0503189607182215,-0.2070592526941183,0.4736882760385662,-0.2581629136515896,0.3258395032314898,0.2270707180707515,11.1093827805189,-1.423179772531414,0.2176261337418185,-1.365439505166928
2.02,0.2166274902371397,-0.7382527383572378,1.776015058208432,0.0110916040459049,0.1347557973672667,0.0455082646412712,-0.0213326846605424,0.9759544830927736,-0.1809632033372757,0.217070972242395,-0.7563965957055597,1.7790054573777003,-0.0414604924194899,1.069762292377062,-0.2092314938678028,0.2680036081800332,-0.2045931582902227,0.1170684155593737,0.1275247413514979,10.912427542314616,-1.4209734171563495,0.2123912728324733,-1.3708616943181713
2.04,0.2161913019564525,-0.7197102598204744,1.7725856870760577,0.014384284968502,0.1362901792611414,0.0456329743281268,-0.0243293163691167,0.9759959179112496,-0.1801493862942211,0.216368961492473,-0.7353902164911953,1.774864272323818,-0.0541804022662726,1.1086489556947423,-0.213575976215172,0.155272475189431,-0.1498315854287127,0.002071740923798,0.0406908521527318,10.818191295996256,-1.4182581918218695,0.2077529970511961,-1.3747903776549255
2.06,0.2156790464653003,-0.7002014911087003,1.768980556299644,0.0168099460209239,0.1378947866508042,0.0456841174982141,-0.0267095146965633,0.975104550619158,-0.1804524250089871,0.215666950742551,-0.7143838372768309,1.7707230872699355,-0.0669003121130553,1.1475356190124226,-0.2179204585625412,0.1279815630280156,-0.1190099163723319,-0.0445683646045802,-0.0151519357383042,10.818191295996256,-1.4156294914244478,0.2044144827475793,-1.3772773087532608
2.08,0.2151262805584823,-0.6807185924900347,1.7653596687687352,0.01796283139311,0.1392103712820666,0.0456336288023432,-0.0284709552576615,0.973487210590442,-0.1816102581773775,0.2143289445002899,-0.6914331248965824,1.7663646780986848,-0.079620221959838,1.186422282330103,-0.2222649409099104,0.1328442628098232,-0.0880720280549099,-0.0808670014358026,-0.0578916584195204,10.752675288798857,-1.4137096299117415,0.2027254194363258,-1.3783572188943278
2.1,0.2145431982749608,-0.6612744937242598,1.7617124758213956,0.0175725702755649,0.1400775738890334,0.0454597114234472,-0.0297996304216421,0.9712579853178752,-0.1830396520579055,0.2129909382580288,-0.6684824125163339,1.762006268927434,-0.0923401318066207,1.2253089456477837,-0.2266094232572796,0.1481383633037015,-0.0664337581990271,-0.1114612636283374,-0.0714696940263978,10.710460347764638,-1.4122897889776391,0.2028055033123263,-1.3780112902605
2.12,0.2139656628523537,-0.6428361174542528,1.758222328810042,0.0157997058145868,0.1404522356975429,0.0451833911214967,-0.0309755292289785,0.969857595042868,-0.1842646268532375,0.2113349342695981,-0.6445595335531434,1.757539247697499,-0.1050600416534034,1.2641956089654638,-0.2309539056046488,0.1100499224968888,-0.0587949403668229,-0.0700195137503578,-0.0612487397665978,10.69790597095198,-1.4115176483657783,0.2048007927423855,-1.3766569553972834
2.14,0.2133328981756945,-0.6234429604500932,1.7545262664633408,0.0128424299375692,0.1404203670112375,0.0448072678140897,-0.0322915735099623,0.9698801933281668,-0.1852553763823543,0.2093609325349979,-0.619664488007011,1.7529636144088796,-0.117779951500186,1.303082272283144,-0.235298387952018,0.082372141247114,-0.0658022140491877,0.0011299142649412,-0.0495374764558437,10.704959051126025,-1.411162010798363,0.2081983224898756,-1.3747970648326917
2.16,0.2126716794804576,-0.6040236102698782,1.7508147536708012,0.0097274747229476,0.1400169364715466,0.0444160056800534,-0.0338094467665405,0.9720826649212222,-0.1858291948965265,0.2117183195001964,-0.5749489507836848,1.745263497644223,-0.0735423798117945,0.9915929696016558,-0.1749365914078389,0.1367853064884726,-0.0758936628289103,0.110123579652771,-0.0286909257086076,10.741381388721493,-1.411444945361198,0.2118239991901018,-1.373405611323386
2.18,0.2120292713982471,-0.5852451076798832,1.747356164705563,0.0160858603716055,0.1388615069785281,0.0446777987401877,-0.0336212669193113,0.9986537316352124,-0.178205330407473,0.2117183195001964,-0.5749489507836848,1.745263497644223,-0.0735423798117945,0.9915929696016558,-0.1749365914078389,1.3821905690982583,0.009408992361462,1.328553335699506,0.3811932244526722,10.741381388721493,-1.4061335202347844,0.2029721978026122,-1.3786395165213363
2.2,0.211364807495245,-0.5652127370544866,1.7438642099730357,0.0308489955826324,0.136276618305541,0.0454379308749886,-0.0329189513268218,1.002235047586018,-0.1715245785684288,0.2117183195001964,-0.5749489507836848,1.745263497644223,-0.0735423798117945,0.9915929696016558,-0.1749365914078389,0.3806294663640807,0.0351157796244713,0.1790657975402843,0.3340375919522118,11.299381926584829,-1.41169208065374,0.1841694157590592,-1.3864737638545654
2.22,0.2107057906577291,-0.5452072324503178,1.7404715615652615,0.0463574700501366,0.1322682790000959,0.0461121904832507,-0.0331651769065167,0.99770537395529,-0.1682260063232439,0.2109828957020785,-0.5650330210876683,1.7435141317301446,-0.0817925410721609,0.9959355248563536,-0.1728728344129358,0.2804422805753077,-0.0123112789847449,-0.2264836815363935,0.1649286122592463,11.15021053350756,-1.4185232688251412,0.1640780796618068,-1.3876285292892396
2.24,0.2100253502094851,-0.52533770067599,1.7371141996631343,0.0613032518929528,0.126981053008349,0.0465694618914459,-0.0351155837582031,0.9890830810368946,-0.167657355884299,0.2095120481058426,-0.5452011616956352,1.7400153999019878,-0.0982928635928938,1.0046206353657492,-0.1687453204231296,0.4429203804845506,-0.0975203425843201,-0.4311146459197779,0.0284325219472428,10.947998434447072,-1.4265265244699818,0.1455659179900826,-1.383582241469143
2.26,0.209318947635402,-0.506681232890677,1.7339158456918595,0.0739073557273269,0.1213247297008508,0.046734810209344,-0.0393463153333558,0.9755149750613178,-0.1690006917868722,0.2080412005096067,-0.525369302303602,1.736516668073831,-0.1147931861136267,1.0133057458751449,-0.1646178064333235,0.7137876798681415,-0.2115365787576314,-0.6784052987788391,-0.0671667951286564,10.805156469596112,-1.4351524107776834,0.128180460783011,-1.3742987436306544
2.28,0.2084648469622727,-0.4873553982654239,1.7305098698366077,0.0847001238604795,0.1154093922593211,0.0466243123444143,-0.0460213141464295,0.9580884633063856,-0.1715269435327815,0.2057453367873342,-0.5051031873860992,1.733224311945165,-0.1312935086343596,1.0219908563845403,-0.1604902924435173,0.941568995059626,-0.3337499406536853,-0.8713255877466131,-0.1263125872954656,10.705825135573832,-1.4423166911297944,0.1140655472155051,-1.361832357128381
2.3000000000000003,0.2074549177273219,-0.4684050361225077,1.7270495020520396,0.0927190797904114,0.1101100018943888,0.046278965377095,-0.0547753975064422,0.938454892230026,-0.1743020564219308,0.2034494730650616,-0.4848370724685962,1.7299319558164985,-0.1477938311550925,1.0306759668939358,-0.1563627784537111,1.0837577453379876,-0.4377041680006344,-0.9816785538179718,-0.1387556444574653,10.648706569278149,-1.4477721550180052,0.1035635718212842,-1.347743681622003
2.32,0.2062469020676926,-0.4498572219052805,1.7235381796826048,0.0983020374316143,0.106096851804839,0.0458172253050271,-0.065691467793923,0.9178655744545204,-0.1766165189398087,0.2007411012797708,-0.4643538297883584,1.726742787537577,-0.1642941536758254,1.0393610774033315,-0.1522352644639049,1.1709369472015152,-0.5458035143740418,-1.0294658887752883,-0.1157231258938962,10.673870287389036,-1.4510340098772618,0.0965313308920112,-1.334768554168803
2.34,0.2048795163531307,-0.4326235390842158,1.7201660387643034,0.1017110709643349,0.1041895801482366,0.045394752163736,-0.0777052953083299,0.8977138646971448,-0.1781656073903198,0.1976202214314616,-0.4436534593453857,1.7236568071084006,-0.1807944761965582,1.048046187912727,-0.1481077504740988,1.1756095575476289,-0.6006913757203448,-1.0075854878687784,-0.0774544225255538,10.673870287389036,-1.4506831334397523,0.0915697951477648,-1.323112760757419
2.36,0.2031951560247833,-0.4148965345000903,1.7165922973821954,0.1036437323023033,0.1044461764162262,0.0450403021470675,-0.089821942600035,0.8763265668293884,-0.1790565754586456,0.2009942515877142,-0.3877378458493586,1.7112577583947874,-0.1131361215550683,0.8617104836832745,-0.1574448051427955,1.229861248042332,-0.6058323645852528,-1.0693648933878197,-0.0445484034162918,10.71232653943116,-1.44443249989434,0.0884416754071422,-1.3148991779646424
2.38,0.2012507813408793,-0.3974552442237765,1.7129884995558244,0.1085662242584216,0.1071476102120828,0.0451344588589596,-0.1036281459365319,0.8668271776176207,-0.1816179111300878,0.2009942515877142,-0.3877378458493586,1.7112577583947874,-0.1131361215550683,0.8617104836832745,-0.1574448051427955,0.8476586671342842,-0.6903101668248465,-0.4749694605883814,-0.1280667835721102,10.742585854107348,-1.438938593495587,0.0818325104232344,-1.3148071618581598
2.4,0.1990645773272812,-0.3803095539288,1.7093271171718052,0.1167301669183217,0.1120589133980439,0.0456977336431947,-0.1139170484700031,0.847786778471395,-0.1843681391829664,0.2009942515877142,-0.3877378458493586,1.7112577583947874,-0.1131361215550683,0.8617104836832745,-0.1574448051427955,1.0908277468666885,-0.5144451266735607,-0.9520199573112842,-0.1375114026439292,10.60302690692788,-1.426431415581277,0.0717936433014314,-1.313425962719624
2.42,0.1968310047166909,-0.3644286880151538,1.7058016896869606,0.1241963735043794,0.1175808102028035,0.0463278607002142,-0.1204821335380631,0.8250079713883066,-0.1865766989832819,0.1998628903721635,-0.3791207410125258,1.7096833103433595,-0.120222286804416,0.8545098074805004,-0.1533006446932907,1.1904328314430366,-0.328254253403,-1.138940354154422,-0.1104279900157753,10.60302690692788,-1.411577541065096,0.0617387682323477,-1.3109897371864236
2.44,0.1943764239949603,-0.3482057591698961,1.702051881532759,0.1307000084549108,0.1233738762564078,0.0469083324122883,-0.1244523019555233,0.7986788916610981,-0.1882246148640896,0.1976001679410621,-0.3618865313388604,1.7065344142405034,-0.1343946173031114,0.8401084550749524,-0.145012323794281,1.333883712411731,-0.19850842087301,-1.3164539863604274,-0.0823957940403866,10.64852519869146,-1.3973337280006437,0.0534414649013014,-1.30853395708105
2.46,0.1918700210893637,-0.3325272112828967,1.6982786661531537,0.1354903313095675,0.1284539794229072,0.0472795118454998,-0.1259028208519599,0.770786425122048,-0.1889283756553094,0.1953374455099608,-0.3446523216651949,1.7033855181376476,-0.1485669478018068,0.8257071026694043,-0.1367240028952712,1.3969511211493824,-0.0725259448218273,-1.3946233269525043,-0.0351880395609863,10.705764529382575,-1.38509865015387,0.0476133502696413,-1.3042825353678236
2.48,0.1893572134300904,-0.3174175784529824,1.694504723595764,0.1384910839022567,0.132323970447397,0.0473522856745404,-0.1253775749062521,0.7420474870576556,-0.188367313344867,0.1923661065539246,-0.3281381796118068,1.7006510380797422,-0.1627392783005021,0.8113057502638562,-0.1284356819962616,1.4374606388425608,0.0262622972853857,-1.4369469032196214,0.0280531155221197,10.772982287325249,-1.3742633718530033,0.0434927771571622,-1.2991726688751093
2.5,0.1869925396193459,-0.3036014811390415,1.6909410461505865,0.1397786955235102,0.1346619426484133,0.0471096132918195,-0.1236791293042872,0.7140466616186341,-0.186730210796457,0.1893947675978885,-0.3116240375584187,1.6979165580218367,-0.1769116087991975,0.7969043978583081,-0.1201473610972518,1.405000931924422,0.0849222800982464,-1.4000412719510746,0.0818551274204965,10.849645442401195,-1.366279578341399,0.0413904910608415,-1.2924086961561994
2.52,0.1845428465931454,-0.2896400712341903,1.687235378274816,0.1392630351714212,0.1357284374108868,0.0465069093732431,-0.121468293997522,0.6837690030768645,-0.1838206940015912,0.186069120379385,-0.2954699293151693,1.6953892859864066,-0.1910839392978929,0.78250304545276,-0.1118590401982421,1.524868590653992,0.1105417653382588,-1.513882927088478,0.1454758397432906,10.921208377541916,-1.3605235057423062,0.0415333927480175,-1.2836642284918869
2.54,0.1821398728970825,-0.2762918277098779,1.6836022353198328,0.136339495088956,0.1354967882970648,0.0455365051688876,-0.1190084497122359,0.6529927248882806,-0.1795022372477704,0.182389164898414,-0.2796758548820586,1.6930692219734518,-0.2052562697965883,0.7681016930472119,-0.1035707192992324,1.5587488586872953,0.1229922142643072,-1.538813909429193,0.2159228376910404,10.995580356623575,-1.3555385821419896,0.0442822741939659,-1.2735393970880795
2.56,0.1797880559724538,-0.2635358530860869,1.6800758753552103,0.1314041472365695,0.1339502682101782,0.0442391087797336,-0.1164282632553899,0.6247903039921759,-0.1732463773835833,0.1761894504114708,-0.2436421914654639,1.6746271234574444,-0.1229937974041593,0.614581845216707,-0.1550561745041066,1.450146276409281,0.1290093228422981,-1.4101210448052348,0.3127929932093543,11.14867908764245,-1.3524061187797944,0.0487620400365435,-1.2646159430690092
2.58,0.1775013546665786,-0.2518792227216712,1.6767599206888444,0.1268497442208755,0.1337198593657646,0.0431774008119401,-0.1239223193164944,0.6033843826803424,-0.1761441312975255,0.1761894504114708,-0.2436421914654639,1.6746271234574444,-0.1229937974041593,0.614581845216707,-0.1550561745041066,1.1432096496281328,-0.3747028030552233,-1.070296065591675,-0.1448876956971073,11.14867908764245,-1.3630708165695582,0.0545363419748344,-1.2599446686864595
2.6,0.174966129416587,-0.2400490409777195,1.6732255510661287,0.122761364484199,0.1366131841317535,0.0424985400474202,-0.1287689792152707,0.5807972351060081,-0.1769680729638967,0.1761894504114708,-0.2436421914654639,1.6746271234574444,-0.1229937974041593,0.614581845216707,-0.1550561745041066,1.1557986714700206,-0.2423329949388132,-1.1293573787167166,-0.0411970833185587,10.529567821770796,-1.348464606211335,0.058207935594406,-1.251018756328389
2.62,0.1723729140424439,-0.2286687283707758,1.6697064555942922,0.1190261439135915,0.1412069610751448,0.0420338630893497,-0.1300339456204258,0.558459694263987,-0.1749089354647721,0.1749595124374292,-0.2374963730132968,1.6730765617124033,-0.1237908669425439,0.6068996692823923,-0.1501669619553739,1.1233943187005098,-0.0632483202577555,-1.1168770421010554,0.1029568749562268,10.687992598148412,-1.3341679261508932,0.0614689543457779,-1.2467251037731466
2.64,0.1697897097092757,-0.2177302392822419,1.6662511471352268,0.1154790461612853,0.1463192328173342,0.0416211205625543,-0.1280671378343879,0.5366184244994722,-0.170726966019447,0.172499636489346,-0.2252047361089627,1.6699754382223213,-0.1253850060193133,0.5915353174137629,-0.1403885368579084,1.1162417594714444,0.0983403893018944,-1.0920634882257418,0.2090984722662572,10.835523999018733,-1.3219919929539978,0.0643625000665969,-1.2452338895196338
