t,x,y,z,roll,pitch,yaw,v_x,v_y,v_z,ref_x,ref_y,ref_z,ref_v_x,ref_v_y,ref_v_z,a_com,a_x,a_y,a_z,thrust,wind_x,wind_y,wind_z
0.0,-1.8438006257819035,0.7214603231256329,1.9273085103800829,0.012252562047884,0.1498544605176192,0.0280546992669607,0.0019884859903473,-0.0001511475423381,-0.0033941455499583,-1.8437358136316149,0.7213514555387938,1.9272059804485329,0.102115328027619,-0.1027132658665682,-0.1034108640241711,0.1968320739086008,0.0994242995173656,-0.007557377116909,-0.1697072774979167,10.659329584745135,-1.4134905125095,0.1806953362100944,-1.2777944503754846
0.02,-1.8438705812670528,0.7217159283688477,1.9270307501328896,0.0201428228077425,0.1519819762789755,0.0286471842841593,-0.0085154088841264,0.0216862135569895,-0.0259124800611605,-1.8437358136316149,0.7213514555387938,1.9272059804485329,0.102115328027619,-0.1027132658665682,-0.1034108640241711,1.653993301433555,-0.5251947437236866,1.0918680549663882,-1.125916725560109,10.658892007829309,-1.4077561820504487,0.1711679853137574,-1.2761684328531062
0.04,-1.8441313389241605,0.7221905095347755,1.9261687220702617,0.0350950473588452,0.1574844498433553,0.0298351746405507,-0.016595536185978,0.0239045314728171,-0.0594862562941093,-1.8437358136316149,0.7213514555387938,1.9272059804485329,0.102115328027619,-0.1027132658665682,-0.1034108640241711,1.7301790674160942,-0.4040063650925828,0.1109158957913769,-1.678688811647442,8.753789463078647,-1.3958857282048436,0.1532993058227077,-1.281968863738573
0.06,-1.8445138156751637,0.7226286342134107,1.9246339465231672,0.0505794570963094,0.1646103057675823,0.0311943201166352,-0.0208968363885145,0.0194474988941221,-0.0922024909608133,-1.8427146603513385,0.720324322880128,1.926171871808291,0.1221153283256422,-0.1227132661645914,-0.1234108643221943,1.6648711163380885,-0.2150650101268261,-0.2228516289347462,-1.6358117333352,8.871995664796941,-1.3844024764130094,0.1349856719272628,-1.2883238829639283
0.08,-1.8449473224557469,0.722938989517287,1.92247253944606,0.0655184222591113,0.1723408378494529,0.0326387137336518,-0.0219780243037227,0.0114972985265194,-0.1223581100413823,-1.840672353790786,0.7182700575627967,1.9241036545278076,0.1621153289216887,-0.1627132667606378,-0.1634108649182408,1.560237173737858,-0.0540593957604093,-0.3975100183801349,-1.50778095402845,8.871995664796941,-1.3733067208426808,0.1182406769382203,-1.2935577403382774
0.1,-1.8453734252757448,0.7230594293181546,1.9197325785893156,0.0797604052589555,0.1801276842654814,0.0341294744230075,-0.0203564283399016,0.0006456713281918,-0.1501828187235698,-1.8386300472302337,0.7162157922454654,1.922035437247324,0.2021153295177351,-0.2027132673566843,-0.2034108655142873,1.4954947338338955,0.0810797981910554,-0.5425813599163821,-1.3912354341093751,9.017253362619158,-1.3620489914634697,0.1014964103358298,-1.2981694467087483
0.12,-1.8457256484426643,0.7229469098829282,1.916633550707908,0.0926449276397091,0.1873161133254332,0.0355604171350164,-0.0166318328660572,-0.0121961714709394,-0.1746846858265476,-1.834587740639879,0.7121615268983317,1.9179672199370383,0.2421153301137815,-0.2427132679527307,-0.2434108661103337,1.3956423516192864,0.1862297736922192,-0.6420921399565633,-1.2250933551488874,9.158382830629307,-1.3518154679173662,0.0857270246405491,-1.3010522237899262
0.14,-1.846001414885404,0.7225395118553735,1.91287290435008,0.1055519877838857,0.1945343673579615,0.0370574947556093,-0.0109591088185977,-0.0281448986057191,-0.2001184258801988,-1.830545434049524,0.708107261551198,1.9138990026267528,0.2821153307098281,-0.2827132685487772,-0.2834108667063802,1.5275935556087772,0.2836362023729783,-0.7974363567389879,-1.2716870026825589,9.284531909638645,-1.3428833489399097,0.0713989670440688,-1.3056341745196187
0.16,-1.8461460631003948,0.7217878493378194,1.9086079197578456,0.1178142386123373,0.2013441013867328,0.0385246581965967,-0.0036198023777341,-0.0464862534316374,-0.2251227596055258,-1.8255031274442683,0.7030529961891632,1.9088307853015656,0.3221153313058745,-0.3227132691448237,-0.3234108673024267,1.5933356684411024,0.3669653220431769,-0.9170677412959134,-1.2502166862663504,9.369316818345396,-1.3333446333606194,0.057040417102475,-1.3090788078451
0.18,-1.8461319182825768,0.7207119192027864,1.9040999525966933,0.1288913426479189,0.2074197017727182,0.0398747507736896,0.0048717654436248,-0.0660666893572818,-0.2481985910849017,-1.8194608208241116,0.6969987308122271,1.9027625679614772,0.3621153319019209,-0.3627132697408701,-0.3634108678984731,1.5716187463627782,0.4245783910679533,-0.9790217962822194,-1.1537915739687974,9.369316818345396,-1.3235067174208748,0.0433692956126188,-1.311401398167249
0.2,-1.8459277583175,0.7191551503453523,1.8988852605198172,0.1399751454745341,0.213405870915844,0.0412364284187164,0.0152472796003331,-0.0888216961185755,-0.2720703032687901,-1.845888330010396,0.7174085847349223,1.8916900230424485,0.1048717669337409,-0.1660666908473979,-0.3481985925750178,1.728655741691346,0.5187757078354135,-1.1377503380646852,-1.193585609194421,9.428941988167026,-1.3143574158037987,0.0304214446988407,-1.3129472192921685
0.22,-1.845478678782524,0.7169772254419956,1.8932680782387452,0.1461929457343621,0.2189909959196053,0.0422145935899526,0.0293634809467194,-0.1258858463422865,-0.2876982786222583,-1.845888330010396,0.7174085847349223,1.8916900230424485,0.1048717669337409,-0.1660666908473979,-0.3481985925750178,2.131461931343216,0.7058100673193137,-1.85320751118555,-0.7813987676734052,9.476045972247448,-1.305944047863808,0.023556192642755,-1.311475008555342
0.24,-1.8447335421017048,0.7141247081703622,1.8873606679350048,0.1470977340563563,0.2241922225446274,0.0427439262579049,0.044543458775448,-0.1569387180533522,-0.3022447459037256,-1.845888330010396,0.7174085847349223,1.8916900230424485,0.1048717669337409,-0.1660666908473979,-0.3481985925750178,1.8750415187105856,0.758998891436433,-1.5526435855532872,-0.7273233640733651,10.114980683042631,-1.2995084328741715,0.0228301456688954,-1.3118116359527423
0.26,-1.8437380510301924,0.7108614384417512,1.8814701960113251,0.1453614699128298,0.2288166536982928,0.0429862667896934,0.0595811841814348,-0.1847251085169667,-0.3170407132324211,-1.8448396123410584,0.7157479178264483,1.888208037116698,0.1248717672317642,-0.1860666911454211,-0.3681985928730411,1.7443747659076367,0.7518862702993401,-1.389319523180721,-0.7397983664347768,10.067216023512628,-1.2936247101213962,0.0252676179011394,-1.3122266000337384
0.28,-1.8423752252004613,0.7068824648094332,1.87495701985054,0.1416846155968812,0.233384861870222,0.043028063270046,0.0760006071201219,-0.2111664842568777,-0.3334804338527421,-1.8427421770023835,0.7124265840095004,1.8812440652651976,0.1648717678278106,-0.2260666917414676,-0.4081985934690875,1.7599774250916165,0.8209711469343514,-1.3220687869955532,-0.8219860310160504,9.927802170371251,-1.287295520626094,0.0299621707791958,-1.3110545417439172
0.3,-1.8406774735908933,0.7024080918295548,1.868108227024432,0.1375455476206661,0.2376616238646875,0.0429549136371135,0.0930439447324417,-0.2348225700144323,-0.3506078222560733,-1.8406447416637088,0.7091052501925524,1.8742800934136972,0.2048717684238571,-0.266066692337514,-0.4481985940651339,1.6907344438548413,0.8521668806159933,-1.1828042878777285,-0.8563694201665584,9.87369657394629,-1.28067921241697,0.0350026792035727,-1.3101023350440228
0.32,-1.83863260173866,0.6974790963995702,1.8609085017811684,0.133621582768811,0.2416639618890058,0.0428210025669405,0.1106864425929032,-0.2568842432990118,-0.3685119326755424,-1.836547306295232,0.7037839163458022,1.8653161215323948,0.2448717690199035,-0.3060666929335605,-0.4881985946611804,1.6722233170127576,0.882124893023073,-1.1030836642289752,-0.8952055209734577,9.82649732002119,-1.274464737983105,0.039692186151248,-1.3089793765070137
0.34,-1.8362274955931268,0.6921204883519215,1.8533477053614795,0.1301419444705578,0.2454069269648119,0.0426492217105161,0.1290305017734377,-0.27791545833484,-0.3866858056955183,-1.8324498709267545,0.6984625824990519,1.856352149651092,0.28487176961595,-0.346066693529607,-0.5281985952572269,1.6651622846200345,0.9172029590267244,-1.051560751791411,-0.9086936509987932,9.810233126389903,-1.2687534645887673,0.0435552745377429,-1.307827047732214
0.36,-1.8335959918687248,0.6866385524757797,1.8458264706052103,0.1270170604579443,0.2487366106734671,0.0424401488519118,0.1471236138938077,-0.2979395326038294,-0.4041012457098477,-1.827352435543376,0.6921412486374005,1.846388177754888,0.3248717702119965,-0.3860666941256534,-0.5681985958532733,1.6059434979343068,0.904655606018502,-1.0012037134494691,-0.8707720007164715,9.810233126389903,-1.263142053688144,0.0473251256609821,-1.306290070365791
0.38,-1.830448298694944,0.6804633642159913,1.8375495247396296,0.1237096802496919,0.2520184015937776,0.042161831437131,0.1667669074332757,-0.3183926311834542,-0.4226787908108032,-1.8212550001450964,0.6848199147608478,1.835424205843783,0.3648717708080429,-0.4260666947216998,-0.6081985964493197,1.695076255337491,0.9821646769734002,-1.022654928981237,-0.9288772550477749,9.806434451873429,-1.2578626967073256,0.0510552841974167,-1.304446337154913
0.4,-1.826901394757395,0.6738851569511298,1.828899481936357,0.1203230802021549,0.2550854729161749,0.0418239801632976,0.1870107994461469,-0.3382522595362209,-0.4413870739496416,-1.82210995332328,0.6645437326568185,1.8164155851990893,0.2667669089233919,-0.4183926326735703,-0.5226787923009193,1.6986905693369772,1.012194600643561,-0.992981417638336,-0.9354141569419216,9.790196276035203,-1.2529107823101044,0.0548230284109823,-1.3022957895984175
0.42,-1.8228872844173032,0.6669032737041156,1.8200729422249264,0.1170949178193909,0.2578503699257674,0.0414358531014248,0.2134236810487136,-0.3589459597043594,-0.4403443705019575,-1.82210995332328,0.6645437326568185,1.8164155851990893,0.2667669089233919,-0.4183926326735703,-0.5226787923009193,1.678508840965567,1.3206440801283303,-1.034685008406924,0.0521351723842045,10.9949915026109,-1.2470669578213782,0.0583637912383981,-1.295305698438387
0.44,-1.8185861042065172,0.6599040613515,1.811690798691126,0.1146108049362992,0.2601873228261442,0.0410538278645209,0.2380419006302594,-0.3769651332914937,-0.4421222923447394,-1.82210995332328,0.6645437326568185,1.8164155851990893,0.2667669089233919,-0.4183926326735703,-0.5226787923009193,1.5279957118784142,1.2309109790772932,-0.900958679356717,-0.0888960921390902,10.9949915026109,-1.2449059166297314,0.0609492204844322,-1.29738186311793
0.46,-1.8135592238164284,0.6521692866169597,1.8027948139872267,0.1125876251236106,0.2624482062388357,0.0406517858094662,0.2633598253654458,-0.3955908283690459,-0.4475467210518177,-1.819442284234046,0.6603598063300828,1.8111887972760805,0.2867669092214151,-0.4383926329715935,-0.5426787925989425,1.594787020903332,1.2658962367593187,-0.9312847538776092,-0.2712214353539188,10.7363150848214,-1.2427721843458903,0.0627912179932975,-1.298685354892131
0.48,-1.8080313004247768,0.644066281382546,1.7937557846939982,0.1109326073729272,0.2645649531763983,0.0402419173984903,0.2882246626823536,-0.4137884073369218,-0.4560741704139217,-1.8141069460555783,0.6519919536766114,1.800735221430062,0.3267669098174615,-0.4783926335676399,-0.5826787931949889,1.5985379317610957,1.2432418658453903,-0.909878948393794,-0.4263724681051961,10.520778488697944,-1.2405821993683983,0.0641272450980896,-1.299003499367138
0.5,-1.8023213922424512,0.6360365735962753,1.7849889923720117,0.10963469737045,0.2664681601958082,0.0398449494047334,0.3116216255278592,-0.4305308876650148,-0.4663164070057934,-1.8087716078771103,0.64362410102314,1.7902816455840436,0.366766910413508,-0.5183926341636864,-0.6226787937910354,1.5269511520792247,1.169848142275279,-0.8371240164046528,-0.5121118295935895,10.354079676250876,-1.238144882356594,0.0651817182738089,-1.2985610581072995
0.52,-1.795831999615571,0.6272482533099564,1.775532026426519,0.1086811533859899,0.2683704201885695,0.0394305862862676,0.3361116422157261,-0.4474196432652788,-0.4789264517094899,-1.8014362696688404,0.6332562483398663,1.777828069708223,0.4067669110095544,-0.5583926347597329,-0.6626787943870819,1.6155526999502907,1.224500834393344,-0.8444377800131991,-0.6305022351848238,10.225026931553655,-1.2356617501834417,0.0657181285102593,-1.2976042487488717
0.54,-1.788851229529633,0.6181259220512737,1.765813711568141,0.108283925920706,0.2701715096424125,0.0390306978995433,0.3607805699291759,-0.4639866241609272,-0.4922977733784861,-1.7941009314605705,0.6228883956565926,1.765374493832402,0.4467669116056009,-0.5983926353557794,-0.7026787949831284,1.6292736830440433,1.233446385672493,-0.8283490447824199,-0.6685660834498092,10.113992437366504,-1.2331244853256402,0.0655841744439343,-1.2960347738776845
0.56,-1.7813743944148075,0.6086623770396948,1.7558220527361663,0.1081225910168765,0.2718716938681781,0.0386233625266768,0.3857117241580821,-0.4814328426293196,-0.5061859916462119,-1.785765593237399,0.6115205429584177,1.75192091794168,0.4867669122016473,-0.6383926359518257,-0.7426787955791747,1.6724350485776531,1.246557711445309,-0.8723109234196197,-0.6944109133862897,10.057256177427917,-1.2310253602752372,0.0651970760603866,-1.294248714102652
0.58,-1.7738020983360392,0.5993423242524265,1.74606748221676,0.1076966781020032,0.2732341499398719,0.0381775524567993,0.41010761289007,-0.4986118481720458,-0.5198904355505853,-1.7764302549993265,0.5991526902453417,1.7374673420360571,0.5267669127976938,-0.6783926365478722,-0.7826787961752212,1.6417135873749933,1.2197944365993945,-0.8589502771363083,-0.685222195218671,10.057256177427917,-1.2288486036021768,0.0650595652102477,-1.2919962333236907
0.6,-1.7653229400299095,0.58917749354033,1.735511283375457,0.1066269412855485,0.2740515768658762,0.0375851632096995,0.4364783362460463,-0.5168579806192765,-0.5350060521330376,-1.7532967176915355,0.5744117318438242,1.7200729604392306,0.5101076143801861,-0.598611849662162,-0.6198904370407015,1.7725816372363672,1.3185361677988143,-0.9123066223615334,-0.7557808291226153,10.035429399697932,-1.22695752937377,0.065597673162491,-1.2887228691693369
0.62,-1.7562322051119887,0.5785989549016457,1.7249078040156145,0.1039462995493009,0.2738026841111568,0.0367540894433886,0.4715869952321763,-0.5396539324812719,-0.523143835683459,-1.7532967176915355,0.5744117318438242,1.7200729604392306,0.5101076143801861,-0.598611849662162,-0.6198904370407015,2.1754226808803367,1.7554329493065013,-1.1397975930997728,0.5931108224789317,9.999377265180556,-1.2234031639338256,0.0680254791217708,-1.2786382290576948
0.64,-1.7464398494723403,0.5676033539615173,1.7145467087996324,0.1001068050567292,0.2721907282199858,0.035696858900796,0.5057186775161285,-0.5585745832639601,-0.5136638155123868,-1.7532967176915355,0.5744117318438242,1.7200729604392306,0.5101076143801861,-0.598611849662162,-0.6198904370407015,2.008004945223637,1.7065841141976097,-0.9460325391344117,0.4740010085536095,11.864763374149334,-1.2269220422080922,0.071326231697459,-1.2790605532236594
0.66,-1.7365179827183344,0.5568281174083656,1.704824871395319,0.0964100440096571,0.2691315828200487,0.0345426625552664,0.5368534083467946,-0.5746411557486661,-0.5101017824692229,-1.7481956415477338,0.5684256133472025,1.7138740560688237,0.5301076146782093,-0.6186118499601851,-0.6398904373387246,1.7608196207341436,1.5567365415333043,-0.8033286242352999,0.1781016521581968,11.46077765584232,-1.231847502342566,0.0747971999238473,-1.2767247719467396
0.68,-1.725454030193433,0.5451731047635003,1.6946192965035856,0.0927605139667828,0.2639124432006486,0.0331677295633101,0.5675259039328988,-0.5899840861102243,-0.5107697281822998,-1.73799348926013,0.5564533763539593,1.7014762473280096,0.5701076152742558,-0.6586118505562316,-0.6798904379347711,1.7151192735745984,1.5336247793052094,-0.7671465180779102,-0.0333972856538467,11.08783234452858,-1.239842584928159,0.0780535730444389,-1.2699243525361634
0.7000000000000001,-1.7138155934791532,0.5332233154957702,1.6843548820214376,0.0895014933181024,0.2569976382147487,0.0316868701676394,0.5944064857886908,-0.6042613301655516,-0.515521284866376,-1.7277913369725264,0.5444811393607161,1.6890784385871955,0.6101076158703023,-0.6986118511522781,-0.7198904385308176,1.5402781158311163,1.3440290927896004,-0.7138622027663633,-0.2375778342038115,10.7827438229142,-1.2493439770417647,0.0807186520410148,-1.2603023835420248
0.72,-1.7022988334184292,0.5216149273134023,1.6744841560905102,0.0867964831076341,0.2496138299253005,0.0302609687429458,0.6162866555876044,-0.6170092987198379,-0.5231915812923017,-1.7155891846551203,0.5305089023376706,1.674680629816579,0.6501076164663487,-0.7386118517483246,-0.759890439126864,1.3229568964557488,1.0940084899456803,-0.6373984277143141,-0.3835148212962824,10.514729542690477,-1.2606125019463954,0.0830646609705216,-1.2484103778658877
0.74,-1.689762474918565,0.5091414186149986,1.6639182419048422,0.0844231991180085,0.2417104128118031,0.0288096313949184,0.6359394079731443,-0.6297229082556606,-0.5330429688190886,-1.7033870323377145,0.5165366653146249,1.6602828210459628,0.6901076170623952,-0.778611852344371,-0.7998904397229105,1.2697601938551604,0.9826376192769936,-0.6356804767911339,-0.4925693763393468,10.28052242321155,-1.2714798522701387,0.0848415506541779,-1.2353673596718286
0.76,-1.676859441242403,0.4964093780041211,1.6531358418244837,0.0822533738395221,0.2340926103423757,0.027422446923071,0.6531715296324084,-0.6427427632377342,-0.5447327962747139,-1.6901848800054071,0.5015644282766782,1.6448850122604453,0.7301076176584416,-0.8186118529404174,-0.8398904403189569,1.2279196905500351,0.8616060829632066,-0.6509927491036793,-0.5844913727812651,10.009681158045169,-1.281186989360504,0.08633930024374,-1.2224156507307296
0.78,-1.66363621965914,0.4834189575382124,1.6420993362917955,0.0799519743490124,0.2268864510891174,0.0260860334155758,0.6681334077830945,-0.6554813712082345,-0.5582610019587496,-1.675982727658199,0.4855921912238303,1.6284872034600266,0.770107618254488,-0.8586118535364639,-0.8798904409150033,1.1928351519087266,0.7480939075343029,-0.6369303985250152,-0.6764102842017838,9.88709828577612,-1.2895643328788022,0.0878931009366881,-1.210131766404909
0.8,-1.6508170002152325,0.4708470184109399,1.6313480418309163,0.0775948963312571,0.220533353663774,0.0248696807468625,0.680403405673041,-0.6670909969177563,-0.5727247605310847,-1.6302295492699852,0.4506448889778007,1.6141862861938585,0.7681334092732106,-0.7554813726983506,-0.6332846903346995,1.1119089096833414,0.6134998944973269,-0.5804812854760921,-0.7231879286167531,9.88709828577612,-1.297384027560667,0.0897172984601196,-1.1974066052390313
0.8200000000000001,-1.637006036033988,0.4573369622405931,1.6201189965239593,0.0744591878851214,0.2146942865107439,0.0236385287038687,0.7002803202050832,-0.6830299773061665,-0.5473364388144074,-1.6302295492699852,0.4506448889778007,1.6141862861938585,0.7681334092732106,-0.7554813726983506,-0.6332846903346995,1.7984088152626363,0.9938457266021106,-0.796949019420512,1.2694160858338632,9.768322218223148,-1.2966959422599365,0.0920478985941759,-1.176497595311636
0.84,-1.6228199912076982,0.4435336865195141,1.6094048826347926,0.0709331582287762,0.2103078110660254,0.0225216309424362,0.7171740233121724,-0.6963800696719641,-0.5255504175882367,-1.6302295492699852,0.4506448889778007,1.6141862861938585,0.7681334092732106,-0.7554813726983506,-0.6332846903346995,1.5315456993777228,0.8446851553544577,-0.667504618289877,1.089301061308534,12.545887128448156,-1.3053147881095206,0.0948361914599583,-1.176356329524901
0.86,-1.6090598693953952,0.4301920714930408,1.5995543225605942,0.067812913130943,0.2077759798603964,0.0216195943033751,0.7303784972111005,-0.7073362907839575,-0.5124143539349204,-1.622548215177253,0.4430900752508172,1.6078534392905113,0.7881334095712338,-0.7754813729963738,-0.6482894280098894,1.080454858273059,0.6602236949464046,-0.5478110555996729,0.656803182665816,11.413211390812648,-1.3114367969640846,0.0975608309197846,-1.1771601361781123
0.88,-1.5943225237672487,0.415938070480425,1.5893931683246216,0.0650020913393414,0.2068932760952816,0.0208451848560523,0.7427980792274836,-0.7175083619299711,-0.5046859141569175,-1.6071855469917888,0.4279804477968502,1.5951877454838173,0.8281334101672803,-0.8154813735924202,-0.6782989033602694,0.8908504788451415,0.6209791008191579,-0.5086035573006797,0.386421988900143,11.413211390812648,-1.3140158447237658,0.0997648062694295,-1.1793356451867036
0.9,-1.579339297030792,0.4014904503582935,1.5793289430880988,0.0627481125426773,0.2073329002061302,0.0202113095157427,0.754981849149741,-0.7267901892455572,-0.5023438148629957,-1.591822878806325,0.4128708203428831,1.5825220516771232,0.8681334107633267,-0.8554813741884667,-0.7083083787106493,0.7747289799301599,0.6091884961128669,-0.4640913657793011,0.1171049646960908,11.010766044178126,-1.3145643290172522,0.101431227087591,-1.181835181667714
0.92,-1.5641133109201604,0.3868656561141929,1.569263025463919,0.0610669594484362,0.2085805106234882,0.0196804140955693,0.7671236787446241,-0.7353215615548899,-0.5043594688053538,-1.574460210591058,0.3957611928591138,1.5683558841029102,0.9081334113593732,-0.8954813747845132,-0.7383178540610292,0.7487843484725291,0.607091479744154,-0.4265686154666381,-0.1007826971179015,10.696316608058623,-1.3130710841178492,0.1024297803916308,-1.1840662324136797
0.94,-1.5494187184271164,0.3728203299778939,1.5596481696158837,0.0600879457671345,0.2101684568407636,0.0192539280029216,0.7791438847595207,-0.7427872026617027,-0.5076353278904466,-1.5570975423757916,0.3786515653753444,1.5541897165286973,0.9481334119554196,-0.9354813753805596,-0.7683273294114092,0.7262100290578398,0.6010103007448309,-0.3732820553406402,-0.1637929542546434,10.46276946953185,-1.3108578050371371,0.1028395314889922,-1.185742737032739
0.96,-1.533694033631461,0.3578789348069032,1.5494489339490998,0.0596215760289797,0.2118684207710766,0.0188562825854811,0.7927296107537651,-0.7509492155269771,-0.5121608322960455,-1.538734874145624,0.3605419378766739,1.5392733120707247,0.988133412551466,-0.975481375976606,-0.7983368047617891,0.8241216459490204,0.6792862997122229,-0.4081006432637202,-0.2262752202799423,10.39065036910597,-1.308510147930467,0.1026351796467152,-1.1873968867818874
0.98,-1.5176893506480276,0.3427709544338823,1.5391479801396424,0.0594467152800985,0.2131651167788427,0.0184651212474279,0.8070444915123798,-0.7594109779508571,-0.5177414858375291,-1.519372205900555,0.3414323103631023,1.5236066707289928,1.0281334131475124,-1.0154813765726525,-0.828346280112169,0.8770132957966152,0.7157440379307323,-0.4230881211939985,-0.2790326770741813,10.335176823200529,-1.306751750128773,0.1021649470284477,-1.1882868002300684
1.0,-1.5013939396112808,0.3274903859325916,1.5287229913949525,0.0593072007040246,0.2137528491895983,0.0180442739277068,0.8216885977453293,-0.7681535066563436,-0.5244546839810067,-1.4773371260724086,0.3048004055363394,1.513260905847766,0.907044493002496,-0.8580590566905002,-0.5471756061200599,0.9164451495340004,0.7322053116474769,-0.4371264352743265,-0.3356599071738797,10.281978630843696,-1.3057696176716331,0.1016411714139965,-1.1880146489063916
1.02,-1.4855024670282584,0.3127345063786497,1.5190874234158347,0.0573037475265795,0.2120071521937778,0.0173879995279029,0.850107914208277,-0.7837858242272271,-0.489400044574207,-1.4773371260724086,0.3048004055363394,1.513260905847766,0.907044493002496,-0.8580590566905002,-0.5471756061200599,2.387914699480949,1.4209658231473854,-0.7816158785441729,1.752731970339985,10.224039982930664,-1.2992505393585887,0.1026757734469481,-1.178654304411875
1.04,-1.4682020913920393,0.2969295640177208,1.509654880562196,0.0530221760206371,0.2060089295014083,0.0163381809844971,0.8776381878104128,-0.7954197304728027,-0.4560186863016327,-1.4773371260724086,0.3048004055363394,1.513260905847766,0.907044493002496,-0.8580590566905002,-0.5471756061200599,2.240300660213524,1.376513680106789,-0.5816953122787794,1.6690679136287134,13.279683319353351,-1.3116420400074782,0.1067663691358064,-1.177982367976811
1.06,-1.4504170620285874,0.2809336349692389,1.5008060845250384,0.0485077449057945,0.1969018291727211,0.0151647187491116,0.8988892140799282,-0.8035615250965108,-0.4303998000302115,-1.4682666811423837,0.2962198149694344,1.5077891497865654,0.9270444933005192,-0.8777886724384288,-0.5530624301765661,1.7133463390323986,1.062551313475768,-0.407089731185406,1.2809443135710612,12.7479023440128,-1.3247169188862111,0.1107863689586224,-1.1724467359054005
1.08,-1.4331884513608315,0.2656081777820588,1.4928098647432078,0.0447501342349609,0.1868012601109501,0.0140798276374836,0.9131973109785104,-0.8093604207436803,-0.4125147828579508,-1.4501257912823338,0.2790586338356244,1.496845637664164,0.9670444938965655,-0.917247903934286,-0.5648360782895784,1.1813368135697362,0.7154048449291128,-0.2899447823584755,0.8942508586130327,12.174715230576112,-1.339180711342372,0.1144133810328555,-1.1627343986135454
1.1,-1.4148181545445264,0.2493704473800849,1.4847050370965194,0.0416372745945748,0.1759402791044703,0.0130486909334434,0.9226800438779926,-0.8142301768022283,-0.3991316135016323,-1.431984901422284,0.2618974527018144,1.485902125541763,1.007044494492612,-0.9567071354301432,-0.5766097264025907,0.8554910422274906,0.4741366449741102,-0.2434878029274001,0.6691584678159279,11.29124345400578,-1.3533920274384532,0.1171374661541403,-1.1510535966042983
1.12,-1.3963134962027433,0.2330443388833984,1.4768072427126815,0.0394697222908115,0.1659323677893301,0.0121703130024321,0.9271750748918424,-0.8183690948857771,-0.391271906344574,-1.4118440115324316,0.2427633099932115,1.4743699310137113,1.0470444950886584,-0.9961663669260006,-0.588383374515603,0.4977723960619756,0.2247515506924924,-0.2069459041774413,0.3929853578529124,11.29124345400578,-1.3659889354088115,0.1188769491089213,-1.1392944353527097
1.14,-1.3777579650995588,0.216641749935839,1.4690399229078226,0.0382470651322325,0.1575243206223197,0.0114579531269147,0.9281399857919208,-0.8218387855732389,-0.385836769317781,-1.3917031216425793,0.2236291672846087,1.4628377364856593,1.087044495684705,-1.035625598421858,-0.6001570226286153,0.3260004640018375,0.0482455450039165,-0.1734845343730862,0.2717568513396523,10.951043986394325,-1.3756528331604818,0.1196302616402078,-1.1287760475773394
1.16,-1.360134588774127,0.2009916847703616,1.461744546929414,0.0378753277894947,0.1513517379656707,0.0109282523801641,0.9268477111742016,-0.8253941404168967,-0.3823545845292478,-1.370562231737826,0.2035085437886094,1.4510112007547822,1.127044496280751,-1.075084829917715,-0.6119306707416277,0.2570803991624702,-0.064613730885954,-0.1777677421828938,0.1741092394266563,10.79837622089235,-1.3834081503915368,0.1195943127099168,-1.1198503038008232
1.18,-1.341631735187098,0.1844436900853749,1.4541241948980694,0.0381422994949147,0.1471155024040298,0.0105184549914758,0.9233901531696752,-0.8292436631534632,-0.3799138779524139,-1.3484213418181714,0.1824014395052136,1.4388903238210795,1.1670444968767977,-1.1145440614135722,-0.62370431885464,0.2860532347667441,-0.1728779002263203,-0.1924761368283234,0.1220353288416964,10.688305163514997,-1.3884797052985036,0.1189116515040536,-1.1135634613847036
1.2,-1.323215965572646,0.1678150570312837,1.4465397191387237,0.0389602180859648,0.1456985869939387,0.0102679648752717,0.918638983537241,-0.8334415888368129,-0.3786640110458231,-1.295462227528614,0.1429815069277017,1.4351285010004486,1.0233901546597914,-0.8865585135434206,-0.3711875241953305,0.3231035445615042,-0.2375584816217135,-0.2098962841674823,0.0624933453295423,10.61131240346822,-1.3895922208264326,0.1177327792504544,-1.1117767545003308
1.22,-1.3057284698939935,0.1517416085596178,1.439656348963352,0.0341986748682344,0.1458986791269891,0.0097190274486106,0.9224001889995396,-0.8546225074666091,-0.3458012428996417,-1.295462227528614,0.1429815069277017,1.4351285010004486,1.0233901546597914,-0.8865585135434206,-0.3711875241953305,1.9638861415324864,0.1880602731149261,-1.0590459314898104,1.6431384073090665,10.53886997333666,-1.3854306267805048,0.1218653117596981,-1.105832438325608
1.24,-1.2872402598052766,0.1345493388624752,1.4330855897987127,0.0235827560894177,0.1465453368836944,0.0087920389825283,0.9262236766286258,-0.8625373509166351,-0.313310193365221,-1.295462227528614,0.1429815069277017,1.4351285010004486,1.0233901546597914,-0.8865585135434206,-0.3711875241953305,1.682952839755455,0.1911743814543121,-0.395742172501301,1.6245524767210389,12.46992559778937,-1.384987090482867,0.1322133819519134,-1.1116797044847546
1.26,-1.2686838345157674,0.1172902071400245,1.42710154272933,0.0123247380591242,0.1476094655857755,0.007857831923745,0.9292573241070884,-0.8627517452467939,-0.2870039192673427,-1.285228325982016,0.1341159217922675,1.4314166257584953,1.0433901549578146,-0.8980214836214121,-0.3694422534439138,1.3240742415600115,0.1516823739231287,-0.0107197165079397,1.315313704893914,12.46992559778937,-1.384955910684037,0.1434476503538753,-1.117769666359092
1.28,-1.2500741065407042,0.1000799416570771,1.4215797825967147,0.0023356538379003,0.1491012819760632,0.0070412906497906,0.931674760784055,-0.8584844301793206,-0.2664893179911696,-1.2647605228888203,0.1163847515213991,1.4239928752745887,1.0833901555538612,-0.9209474237773952,-0.3659517119410804,1.0546360076971917,0.1208718338483294,0.2133657533736621,1.0257300638086524,12.038831718925394,-1.38457492089234,0.1530732356422391,-1.1226863082146477
1.3,-1.23235231822104,0.0838370463963321,1.416673401889776,-0.0054010317532408,0.150895681060794,0.0064076336825964,0.9337574716004216,-0.8518693079290596,-0.2510122206057835,-1.2442927197956244,0.0986535812505307,1.4165691247906822,1.1233901561499076,-0.943873363933378,-0.3624611704382471,0.8479947968697044,0.1041355408183286,0.3307561125130531,0.7738548692693081,11.694589474685928,-1.38364994773518,0.1614706161014808,-1.1280237231350467
1.32,-1.2136540830275235,0.0668902599431418,1.4117975913323015,-0.0116234466045516,0.1531457754581786,0.0058905476553372,0.9360419061483386,-0.8434343664752304,-0.237518030292391,-1.2218249166726265,0.0797761139718631,1.409319901381917,1.163390156745954,-0.966799304089361,-0.3589706289354137,0.8038346390074543,0.1142217273958523,0.4217470726914585,0.6747095156696233,11.442894217192588,-1.3822019221394404,0.1679185351212767,-1.1331935576215022
1.34,-1.1949047159407893,0.0501253727311501,1.4071784222192243,-0.0158937606289903,0.1556928279370737,0.0055242537862622,0.9388961731139664,-0.8339596173015451,-0.2250822713239142,-1.1993571135496282,0.0608986466931955,1.4020706779731524,1.2033901573420005,-0.989725244245344,-0.3554800874325803,0.7946159653212606,0.1427133482813869,0.4737374586842646,0.6217879484238409,11.238543297364233,-1.380332960863009,0.1724274530256006,-1.1385981242391818
1.36,-1.1770279889240494,0.0343733082505146,1.4030164901859516,-0.0185185819282274,0.1581117178023926,0.0052940208921725,0.9427600777231498,-0.8249347881290475,-0.2136489987306322,-1.175889310411729,0.0414480309106284,1.3949087181019582,1.2433901579380469,-1.012651184401327,-0.351989545929747,0.7534869318938535,0.1931952304591755,0.4512414586248792,0.5716636296640972,11.22596057309056,-1.378394023147606,0.1752950044128474,-1.1440231066776123
1.38,-1.1581213582157508,0.0179773811482968,1.398868256158529,-0.020117943239309,0.1603217514118116,0.0051594723796282,0.9477298643656809,-0.8152775217443429,-0.2017887011327137,-1.1514215072589284,0.0214242666241617,1.387834021768335,1.2833901585340932,-1.03557712455731,-0.3484990044269136,0.804096126729598,0.2484893321265446,0.4828633192352327,0.5930148798959256,11.22596057309056,-1.37685266837602,0.1771574956017058,-1.1491698638222054
1.4,-1.1391076299695817,0.0017794957259199,1.3949537773922498,-0.0204907586551025,0.161968177821915,0.0051439307207539,0.9533841032305816,-0.8051103460984509,-0.1902701282374328,-1.1107348649974669,-0.0227864949389203,1.3887788211018934,1.0477298658557967,-0.8462219343185149,-0.1783147417165627,0.8185649016719356,0.2827119432450453,0.508358782294599,0.575928644764044,11.225878039737836,-1.3760343692796773,0.1777956518089748,-1.153771743851527
1.42,-1.1198931671966592,-0.0143158477245352,1.391414324856874,-0.0228911180768193,0.1610693007886953,0.0050645712805079,0.9674696535038496,-0.8032804974301123,-0.1642546742711124,-1.1107348649974669,-0.0227864949389203,1.3887788211018934,1.0477298658557967,-0.8462219343185149,-0.1783147417165627,1.4820213542013414,0.7042775136633928,0.0914924334169287,1.3007726983160188,11.212978758104327,-1.3753572001091436,0.1804657858306426,-1.1590246266807505
1.44,-1.1013921007469285,-0.0295019100266894,1.388525206937377,-0.0271647355343038,0.1564342719069965,0.0049764461086078,0.9787748583209596,-0.795164692006075,-0.1411603500761822,-1.1107348649974669,-0.0227864949389203,1.3887788211018934,1.0477298658557967,-0.8462219343185149,-0.1783147417165627,1.3481670553553304,0.565260240855503,0.4057902712018668,1.154716209746515,12.03722679913517,-1.383979465511625,0.1857864121235035,-1.156428275982959
1.46,-1.0817383491912445,-0.045282391015859,1.3859282528944394,-0.0313172474247418,0.1491027408059714,0.0050332283489055,0.9855235282499522,-0.7834264104100656,-0.1198624496564423,-1.1002575663389087,-0.0312487142821054,1.3869956736847278,1.06772986615382,-0.8524108168333493,-0.1736199498333324,1.261875947673597,0.3374334964496295,0.5869140798004713,1.0648950209869903,12.03722679913517,-1.3958523334233763,0.1908451259327687,-1.1501627517586046
1.48,-1.0620042208820522,-0.0608104468898199,1.3837216319094805,-0.0343045098790714,0.1410464219586696,0.0052532759859743,0.9872297888287312,-0.7702269100826313,-0.1019872331614955,-1.0793029690217928,-0.0481731529684757,1.3834293788503966,1.1077298667498665,-0.8647885818630181,-0.164230366066872,1.1142951794720426,0.0853130289389547,0.6599750163717111,0.8937608247473438,11.809111685355674,-1.408088459832686,0.194698360432864,-1.1427513282909934
1.5,-1.0422838158719017,-0.0760647824234501,1.3818377083016553,-0.0358136771572476,0.1336774665692397,0.0055982926224572,0.984664677316368,-0.7562372649413139,-0.0872661368861087,-1.0583483717046769,-0.065097591654846,1.3798630840160653,1.1477298673459129,-0.8771663468926869,-0.1548407823004116,1.0234752608148996,-0.1282555756181636,0.6994822570658699,0.7360548137693392,11.577618413049096,-1.417804377987495,0.1968508251778556,-1.1359504886387264
1.52,-1.0236315774541045,-0.0902916959410064,1.3802997313207173,-0.0356683919056572,0.1282826666870004,0.0060047895851721,0.9787832029141872,-0.7423193340743607,-0.0753456238675665,-1.0353937743577586,-0.0826409185926997,1.376766268370057,1.1877298679419592,-0.8895441119223557,-0.1454511985339512,0.9622878615388838,-0.2940737201090393,0.6958965433476627,0.596025650927108,11.388196971472098,-1.4259516987532574,0.1973646434903574,-1.1301784589738963
1.54,-1.004149641949938,-0.1049804516743182,1.3789191402787098,-0.0335266549222389,0.1254388799983782,0.0064840326453519,0.9696541019986687,-0.7275207696836622,-0.0633561715320551,-1.0124391770108403,-0.1001842455305535,1.3736694527240487,1.2277298685380058,-0.9019218769520244,-0.1360616147674908,1.0560361722697615,-0.4564550457759164,0.7399282195349244,0.5994726167755725,11.240173556292577,-1.4303411760836031,0.1957621045004976,-1.128617742896768
1.56,-0.9848511511192496,-0.1193920824941815,1.377777491881157,-0.0295732846502752,0.1259395440071372,0.0069877770876212,0.9610301607281664,-0.7149582364397448,-0.0514102382645239,-0.9884845796490208,-0.118037016594149,1.370807376672202,1.2677298691340522,-0.9142996419816932,-0.1266720310010304,0.96811017732218,-0.4311970635251183,0.6281266621958714,0.5972966633765598,11.240173556292577,-1.4297889635193417,0.1923835316778419,-1.1346476856041363
1.58,-0.96570291411292,-0.1335838761943344,1.3768810071130455,-0.0250883597504059,0.1288290634128596,0.0074755558785615,0.9545517359764,-0.7050371297385762,-0.038857411181074,-0.9635299822723004,-0.1361992317834861,1.3681800402145168,1.3077298697300983,-0.926677407011362,-0.1172824472345699,0.8630930037186961,-0.323921237588326,0.4960553350584262,0.627641354172493,11.225109934294778,-1.4268013406587872,0.1886011607299414,-1.143274857598064
1.6,-0.947608196774781,-0.1468996372330715,1.3762694618954527,-0.0209546594403561,0.1328589314976726,0.0079211915283091,0.950693945749074,-0.6971654169753526,-0.0261694400263132,-0.9179753273140998,-0.1688357326812632,1.374938136553992,1.054551737466516,-0.681263034858949,0.0049179014214459,0.7710885475883961,-0.1928895113663009,0.3935856381611813,0.6343985577380418,11.31330650945165,-1.422006326215511,0.1846966960789569,-1.1542309234680408
1.62,-0.9285558068649896,-0.1609791227418758,1.37598036911757,-0.023894731361905,0.1361582932396293,0.0079229185719899,0.954760659058387,-0.7082641396487457,-0.0029611389335664,-0.9179753273140998,-0.1688357326812632,1.374938136553992,1.054551737466516,-0.681263034858949,0.0049179014214459,1.3022528956894492,0.2033356654656537,-0.5549361336696534,1.1604150546373362,11.31330650945165,-1.417211343834876,0.1885361075680522,-1.1655509002143565
1.64,-0.9094246007505,-0.1751138239923776,1.376167665842559,-0.0345815394849044,0.137132755007192,0.0074555298900977,0.9579414747745782,-0.7034191682599403,0.020422495702524,-0.9179753273140998,-0.1688357326812632,1.374938136553992,1.054551737466516,-0.681263034858949,0.0049179014214459,1.2045597797254466,0.159040785809561,0.2422485694402676,1.169181731804529,12.030134296684082,-1.416680204291066,0.2003788442508353,-1.1656096228176185
1.66,-0.8902492882010096,-0.1890421596793784,1.376795597042377,-0.0461951258286301,0.1368209775741017,0.0070006947419071,0.9593217778534736,-0.6895462914846154,0.041189085248902,-0.9074298099394348,-0.1756483630298527,1.3749873155682066,1.0745517377645393,-0.6765082158830236,0.0136729639419499,1.2506130376746158,0.069015153944768,0.6936438387662447,1.038329477318899,11.796293739846988,-1.4177188035039392,0.2127195890522457,-1.1647380652331871
1.68,-0.872023923924442,-0.2019648234696612,1.377753725105197,-0.0558412402850885,0.136082633690159,0.0067263539445738,0.9590469435630372,-0.6717742254317408,0.0586338150569966,-0.8863387751901043,-0.1892736237270317,1.3750856735966357,1.114551738360586,-0.6669985779311727,0.0311830889829579,1.245231367811182,-0.0137417145218199,0.8886033026437312,0.8722364904047302,11.796293739846988,-1.4194580299227784,0.2243180835453164,-1.1636210580535051
1.7,-0.852858127503956,-0.2151773011976317,1.379105288401452,-0.0638691748979583,0.1354407830458992,0.0066199187589763,0.9575399004756407,-0.650706518309759,0.0755538965601743,-0.865247740440774,-0.2028988844242106,1.3751840316250643,1.1545517389566322,-0.6574889399793218,0.0486932140239659,1.3531524492080025,-0.0753521543698176,1.0533853560990902,0.8460040751588818,11.66338730741336,-1.4211137953123674,0.2337001236594589,-1.163206664477869
1.72,-0.8337320118134758,-0.2279487207446685,1.380782151374232,-0.0695453509851499,0.1353631895017664,0.0066768168742385,0.9552499359037432,-0.6280694550330741,0.0913089527364359,-0.8421567056616414,-0.2160486632237971,1.3761578959055436,1.1945517395526786,-0.6479793020274709,0.0662033390649739,1.3837470565915797,-0.1144982285948836,1.1318531638342455,0.7877528088130837,11.5873052547513,-1.4217661819763718,0.2403958041004565,-1.164510344186624
1.74,-0.8146536429808162,-0.2402603187550329,1.3827728092530112,-0.0731039865790676,0.1360344299981209,0.0068567270711506,0.9528358546922032,-0.6047758823545304,0.1069891732143032,-0.8190656708825087,-0.2291984420233835,1.377131760186023,1.2345517401487252,-0.63846966407562,0.0837134641059819,1.4091554478312858,-0.1207040605770037,1.1646786339271853,0.7840110238933634,11.532925956900726,-1.4214442336301023,0.2453794261601969,-1.16796070935236
1.76,-0.7965666619533079,-0.2515203138410058,1.384956432791428,-0.0747044891560538,0.1372427593578455,0.0071307916286425,0.9512635080217962,-0.5820753338857877,0.1220961694142694,-0.7949746360884749,-0.2421104798741737,1.378543377592527,1.2745517407447715,-0.6289600261237691,0.1012235891469899,1.3656578167859892,-0.0786173335203477,1.135027423437135,0.7553498099983104,11.542143109404606,-1.4201308680071854,0.2484181358432047,-1.173188807178551
1.78,-0.7775512382116776,-0.2629046228354046,1.387570407777486,-0.074491749880258,0.1388177571375051,0.0075484067148694,0.9504401175974964,-0.5577589660482446,0.1385385101175269,-0.7698836012795399,-0.2547847767761675,1.380392748125057,1.314551741340818,-0.6194503881719182,0.1187337141879979,1.4682594154333946,-0.0411695212149842,1.2158183918771548,0.8221170351628726,11.567283549635247,-1.4181173087980257,0.2494180078045684,-1.1795338492619818
1.8,-0.7585429569009339,-0.2737958118957479,1.3905187658272595,-0.0719271684744329,0.1404402413126558,0.0081452659043623,0.9504707525913466,-0.5330126543485597,0.1554908569757319,-0.7300292323318027,-0.2907925711378168,1.3944973332833623,1.0504401190876127,-0.4883698165016213,0.1701314528918227,1.4998024413582816,0.0015317496925071,1.2373155849842443,0.8476173429102535,11.655358388755303,-1.4161000081781825,0.2480662537027363,-1.1863540478789718
1.82,-0.739487969517272,-0.284346865876096,1.3937487915518527,-0.0714561091873895,0.140412615709298,0.0087310072432521,0.9547524537323788,-0.521733942532261,0.1665599714893386,-0.7300292323318027,-0.2907925711378168,1.3944973332833623,1.0504401190876127,-0.4883698165016213,0.1701314528918227,0.8186385054032872,0.2140850570516161,0.5639355908149346,0.5534557256803337,11.655358388755303,-1.415668050270264,0.2485049338344203,-1.1904723849955
1.84,-0.7213227419111632,-0.2941218674712895,1.3970207228675433,-0.0748935524680547,0.1379805806292174,0.0092118598127763,0.9569782397626688,-0.5069980661753826,0.1772809949257221,-0.7300292323318027,-0.2907925711378168,1.3944973332833623,1.0504401190876127,-0.4883698165016213,0.1701314528918227,0.9179331661146772,0.1112893015144944,0.7367938178439226,0.5360511718191726,11.2265788611503,-1.4183676864867234,0.253353966614516,-1.187256643664423
1.86,-0.7021818166189939,-0.3040490281059152,1.4006836054971872,-0.0798818962626715,0.1340141423657347,0.0097688824353,0.9567648907634836,-0.4862675228930755,0.1884417378186728,-0.7195248311409266,-0.2956762693028331,1.3961986478122803,1.070440119385636,-0.4744919865922967,0.1764500414466818,1.1772458584526966,-0.0106674499592562,1.0365271641153528,0.5580371446475385,11.266202476986107,-1.4233587716986902,0.2598775412431242,-1.1817452526390229
1.88,-0.6830781398359036,-0.3135261017225296,1.4045649145365915,-0.0844597024453708,0.1298010892468763,0.0104220029771095,0.9533865013683844,-0.4625703903902258,0.1991235007924597,-0.6985160287591744,-0.3054436656328655,1.3996012768701172,1.1104401199816825,-0.4467363267736474,0.1890872185564002,1.3105987791756684,-0.1689194697549689,1.1848566251424857,0.5340881486893447,11.252296335183928,-1.4297986403407337,0.2663074463077848,-1.1780257247340302
1.9,-0.6640785941780858,-0.3225108982039235,1.4086554472533197,-0.0879158558696043,0.1267702342823877,0.0110936859110133,0.9466583254255152,-0.4374116420284131,0.2094191620959248,-0.6775072263774221,-0.3152110619628979,1.4030039059279535,1.1504401205777288,-0.4189806669549981,0.2017243956661185,1.4002067814495138,-0.3364087971434559,1.2579374180906349,0.5147830651732507,11.252296335183928,-1.4350251096772262,0.2713942026876907,-1.176576897440699
1.92,-0.6461767307337736,-0.3305741067504437,1.4127321628708451,-0.0900871308984707,0.1261580218269356,0.011635529983317,0.9384085583965004,-0.4129075347673819,0.2192022206368658,-0.6544984239658675,-0.3235906753019979,1.407038393841276,1.1904401211737752,-0.3912250071363488,0.2143615727758368,1.3822248036305629,-0.4124883514507349,1.2252053630515596,0.4891529270470526,11.248584443875188,-1.436560521684891,0.2755085259703489,-1.1791799805608152
1.94,-0.6274937229460184,-0.3385569588663648,1.417227015472856,-0.0913028930507597,0.127975477537106,0.0120758448185051,0.9306168685885324,-0.3867754549043906,0.2297761483570581,-0.6314896215543129,-0.3319702886410978,1.4110728817545983,1.2304401217698218,-0.3634693473176995,0.2269987498855551,1.462364502664431,-0.389584490398398,1.3066039931495632,0.5286963860096124,11.256387152711795,-1.43433070371491,0.2784529783134479,-1.1861172309407793
1.96,-0.6089446140782786,-0.3460034120633399,1.4219374478595264,-0.0910409095961899,0.1316110246673918,0.012467607712349,0.9249573816882358,-0.3593514909907707,0.2407572976213109,-0.6074808191278572,-0.3396560104847316,1.4154232990956637,1.270440122365868,-0.3357136874990502,0.2396359269952735,1.5039026130986315,-0.2829743450148358,1.3711981956809949,0.5490574632126418,11.281598920429133,-1.4291724494185187,0.2798900153893648,-1.1970768280540351
1.98,-0.5904827648389958,-0.3528919221451724,1.4268766814502072,-0.0886438591289162,0.1361733814953445,0.0129416489078638,0.921721619109339,-0.3312435615802622,0.2526183776949638,-0.5824720166865004,-0.346647840832899,1.420089645864472,1.3104401229619145,-0.307958027680401,0.2522731041049918,1.5339581771732913,-0.1617881289448397,1.4053964705254245,0.5930540036826443,11.390061358365529,-1.4233694620260324,0.2791358980158803,-1.20951154677753
2.0,-0.572980623253411,-0.3589323555707159,1.431799957263063,-0.08457842625804,0.1406592415703724,0.0135257209059422,0.9208859645502316,-0.3065907755971395,0.2650529857287069,-0.5443966838835288,-0.3694541002241855,1.4395076003349554,1.0217216205994553,-0.2312435600901461,0.293921170422911,1.3811930098873224,-0.041782727955375,1.232639299156138,0.6217304016871567,11.390061358365529,-1.4177446489664665,0.2762091388894191,-1.222881921487384
2.02,-0.5544961515601209,-0.3648708853908545,1.437230581148868,-0.0814296988446563,0.1431119650871701,0.0142731377579206,0.9275783574081632,-0.287856918995246,0.2772044136159992,-0.5443966838835288,-0.3694541002241855,1.4395076003349554,1.0217216205994553,-0.2312435600901461,0.293921170422911,1.165549982889265,0.3346196428965886,0.9366928300946707,0.6075713943646144,11.46605672423084,-1.4115391140627385,0.2742445219774627,-1.2326784878949246
2.04,-0.5358825737272767,-0.3704209563243786,1.4429121427566622,-0.080380361813129,0.1414920195285443,0.0152166289050927,0.9331599170145768,-0.2679078996078024,0.2904143783141231,-0.5443966838835288,-0.3694541002241855,1.4395076003349554,1.0217216205994553,-0.2312435600901461,0.293921170422911,1.228434318030709,0.27907798032068,0.9974509693721824,0.6604982349061927,11.392117375448834,-1.415192462693362,0.2750442307179633,-1.236527529903827
2.06,-0.5171854372618766,-0.3755661401663362,1.4488648346068975,-0.0808128818960968,0.1370569390713064,0.0162930082897269,0.9358599967398236,-0.2474604960991841,0.3041967692290369,-0.5341794676775342,-0.3717665358250869,1.4424468120391845,1.0417216208974784,-0.2112435597921229,0.3021817289685005,1.2403034307160925,0.1350039862623331,1.0223701754309145,0.6891195457456922,11.484257899064689,-1.4224921214013515,0.2773974159971351,-1.2356724090924054
2.08,-0.4994139212243274,-0.3800690993004634,1.4547743497595975,-0.0823346182714441,0.1317694766936366,0.0173408625693234,0.9345194415815572,-0.2274694839922063,0.3171674505456898,-0.5137450352655452,-0.3763914070268899,1.4483252354476428,1.081721621493525,-0.1712435591960764,0.3187028460596794,1.193394556519195,-0.0670277579133238,0.9995506053488924,0.6485340658326455,11.506893908996062,-1.4314345199926173,0.2812238607335472,-1.23278996004209
2.1,-0.4807736735938301,-0.3843883426341806,1.461258562708183,-0.0848095292814734,0.1266310565587416,0.0183717118610755,0.92933409699864,-0.2052431646405491,0.3305354723759544,-0.493310602853556,-0.3810162782286928,1.454203658856101,1.1217216220895714,-0.13124355860003,0.3352239631508583,1.3224986559727283,-0.2592672291458542,1.11131596758286,0.6684010915132294,11.493921472075272,-1.4398609563917717,0.2861572746267353,-1.2307994295980544
2.12,-0.4622793623304678,-0.3882394276390699,1.4680039885194336,-0.087317912911676,0.1235488356977129,0.0192499680547789,0.9203015802389412,-0.1810405704602827,0.3433307379329469,-0.4708761704117646,-0.3836411494006934,1.460908138119118,1.1617216226856175,-0.0912435580039835,0.3517450802420371,1.4414148819327317,-0.4516258379849369,1.2101297090133176,0.6397632778496254,11.481817349097582,-1.4459980715538094,0.290981105983452,-1.2319722860097355
2.14,-0.4448959147960477,-0.3914384994696405,1.4746471150619986,-0.0892133400457033,0.123646560993625,0.0198685942441994,0.9104594476983788,-0.1570629209342812,0.3552895376062967,-0.4484417379699731,-0.386266020572694,1.467612617382135,1.2017216232816643,-0.051243557407937,0.3682661973332161,1.427242217849747,-0.492106627028116,1.198882476300074,0.5979399836674892,11.481817349097582,-1.446407980325054,0.2954874000965724,-1.2390934332070644
2.16,-0.4267783892431548,-0.3943003618412136,1.481888143023126,-0.0903102363665142,0.1264458477079621,0.0203493055667514,0.9021440602821992,-0.1305028312557921,0.368194021987879,-0.4250073055132806,-0.3878908917297934,1.4747301245724318,1.241721623877711,-0.0112435568118906,0.3847873144243949,1.5338756050972986,-0.4157693708089827,1.328004483924454,0.645224219079113,11.475903550198382,-1.4425268771567183,0.2989890677999752,-1.2511845085080806
2.18,-0.4087998481647158,-0.3966172029956126,1.4893942055988303,-0.0898792794546927,0.1309769843598992,0.0207863593186257,0.8964195117392603,-0.1026825507092144,0.3817929468926321,-0.4005728730416868,-0.3885157628719917,1.482260659690008,1.281721624473757,0.0287564437841557,0.4013084315155738,1.5745389994184606,-0.2862274271469511,1.3910140273288885,0.6799462452376587,11.576970534718384,-1.4361682574315802,0.3007213181727791,-1.2661629533076106
2.2,-0.3909059403844566,-0.3983694644771651,1.4971834246573874,-0.0873396564618877,0.1362593301222795,0.021314604334428,0.8934690444105853,-0.0743148657593549,0.3964440856781187,-0.3639788725777528,-0.4017513305310733,1.508483852943462,0.9964195132293764,-0.0026825492190982,0.4048673745122086,1.6031895354134271,-0.1475233664337494,1.4183842474929722,0.7325569392743259,11.65872155292891,-1.429112128565035,0.2999088411226372,-1.2805858030948432
2.22,-0.3739057258291462,-0.3994909694024363,1.504748515182914,-0.0817791512785092,0.139771654556727,0.0221824534129909,0.8958575117426252,-0.0467307888314308,0.3992768743554853,-0.3639788725777528,-0.4017513305310733,1.508483852943462,0.9964195132293764,-0.0026825492190982,0.4048673745122086,1.3915915060215005,0.119423366601995,1.3792038463962069,0.1416394338683319,11.65872155292891,-1.4203102447578968,0.2942984472807393,-1.2888921458379663
2.24,-0.3559731824197523,-0.4001940130231207,1.512787356842206,-0.074598192026196,0.1408599737756491,0.0234108585984109,0.8970991778880438,-0.025141201566604,0.4046173882538094,-0.3639788725777528,-0.4017513305310733,1.508483852943462,0.9964195132293764,-0.0026825492190982,0.4048673745122086,1.1137471681001487,0.0620833072709325,1.0794793632413364,0.2670256949162064,11.07865229935851,-1.4203792126079933,0.2875744313501736,-1.2955567629322535
2.26,-0.3380302996117912,-0.4005034063630431,1.5209521959005656,-0.0682469961776655,0.1405511953257856,0.0246783600667593,0.8970017211414995,-0.0067506598879904,0.4116342947317969,-0.354014677445459,-0.4017781560232643,1.5125325266885845,1.0164195135273997,0.0173174510789249,0.4094822600361239,0.9841982747026838,-0.0048728373272188,0.919527083930682,0.3508453238993764,11.161083693436922,-1.421108283897658,0.2815486502426583,-1.298568782377672
2.28,-0.3201065103501392,-0.4004652987377726,1.5292679096957107,-0.06334001404641,0.1398598168551267,0.0258578726356511,0.8953406893852374,0.0099847337673485,0.4195523310664926,-0.3340862871808715,-0.4018318070076462,1.5206298741788284,1.056419514123446,0.0573174516749713,0.4187120310839545,0.9294188058835916,-0.0830515878131044,0.8367696827669506,0.3959018167347811,11.161083693436922,-1.4222196478278228,0.277379172184564,-1.3005027086052574
2.3000000000000003,-0.3031202730540907,-0.4001262848673461,1.5373186939862216,-0.0599927690742253,0.1395632583495308,0.0268528687480541,0.8928411760450939,0.0251713638321158,0.4274727904993139,-0.314157896916284,-0.4018854579920282,1.5287272216690726,1.0964195147194924,0.0973174522710178,0.427941802131785,0.86546949294677,-0.1249756670071711,0.7593315032383624,0.3960229716410662,11.207009313770868,-1.422614845744327,0.2745901860057566,-1.3029577319655914
2.32,-0.2852954408405443,-0.3994596481753125,1.5459598170311408,-0.0576660752070768,0.1400011856173428,0.0277638275365692,0.8898596231126717,0.0409044450133138,0.4362183157684011,-0.2922295066218942,-0.3999391089466079,1.5372860577117082,1.1364195153155388,0.1373174528670642,0.4371715731796156,0.912282458418508,-0.1490776466211096,0.7866540590599036,0.4372762634543586,11.232515991412583,-1.4219099763347605,0.273255748958253,-1.306420703381957
2.34,-0.2675298791597224,-0.3984800120421983,1.554775344954389,-0.0564047583462646,0.1413682082008935,0.0285414867124899,0.8869741117122579,0.0563592065355226,0.4448703219306907,-0.2703011163275043,-0.3979927599011875,1.545844893754344,1.1764195159115851,0.1773174534631107,0.4464013442274462,0.8972639527788929,-0.144275570020691,0.7727380761104401,0.4326003081144808,11.262808169986783,-1.4201086028559564,0.2731541848671469,-1.310827409217178
2.36,-0.249811993831742,-0.3971857875524848,1.5637630198592365,-0.0559958495711254,0.1434885029003401,0.0292127816122343,0.8850968973847582,0.0723171220273908,0.453444640501297,-0.2473727260182132,-0.395046410840866,1.5546344740731757,1.2164195165076317,0.2173174540591572,0.4556311152752768,0.9106288204137046,-0.0938607163749882,0.797895774593409,0.4287159285303182,11.258340525195308,-1.4167549071413623,0.2740222662806568,-1.3165614498551452
2.38,-0.2330034269716009,-0.3956546534500526,1.5724614623714683,-0.0560491029670856,0.1458255027639108,0.0297973520643498,0.8844037987027566,0.0880268160642672,0.4617371709282354,-0.2234443356940211,-0.3911000617656433,1.5636547986682026,1.256419517103678,0.2573174546552036,0.4648608863231074,0.8888770069545066,-0.0346549341000756,0.7854847018438207,0.4146265213469169,11.2615098236447,-1.4129591189539623,0.2754980033681711,-1.3229544265914368
2.4,-0.2153134230655357,-0.3937155255906928,1.5817909429839507,-0.0563066332441992,0.1483093652463355,0.0303923828394967,0.8847129463674369,0.1050422047581391,0.4707805364143491,-0.1887832370364631,-0.3912533126468392,1.59554832091788,0.9844038001928728,0.1880268175543833,0.4580559715359316,0.9635889735742504,0.0154573832340132,0.8507694346935907,0.4521682743056865,11.28151876939046,-1.4091156597746255,0.2772164595484678,-1.3292639785042144
2.42,-0.1975798298635697,-0.3913766603301058,1.5912081010090096,-0.0546503576022229,0.1492370381396431,0.031202660502968,0.8885850481071492,0.1274474152699651,0.4700487474399134,-0.1887832370364631,-0.3912533126468392,1.59554832091788,0.9844038001928728,0.1880268175543833,0.4580559715359316,1.1374556530531497,0.1936050869856154,1.1202605255912996,-0.0365894487217882,11.31357106258747,-1.403901341636954,0.2761469722377805,-1.3319830642997232
2.44,-0.1806740670660062,-0.3887841147435992,1.6001331947026385,-0.0509334124465646,0.1477392564513256,0.0322396156623855,0.8906172882601241,0.1439873104510814,0.4695543484904542,-0.1887832370364631,-0.3912533126468392,1.59554832091788,0.9844038001928728,0.1880268175543833,0.4580559715359316,0.8335804744637815,0.1016120076487436,0.8269947590558171,-0.0247199474729564,10.698996963024,-1.407242387927946,0.272955435956142,-1.331882011789832
2.46,-0.1628604547773397,-0.3857545159904937,1.6095226801158102,-0.0471229161591963,0.1449627254063126,0.033362032038917,0.8904377457779681,0.1581713451991973,0.4694303129785044,-0.1789391990345343,-0.3893730444712954,1.6001288806332394,1.004403800490896,0.2080268178524066,0.4573197316574708,0.7092856653825761,-0.0089771241078007,0.709201737405793,-0.0062017755974891,10.752419143519546,-1.411714404765548,0.269592713516107,-1.3293001940485074
2.48,-0.1450812746620048,-0.382460014653771,1.6189092926550963,-0.0442493332684138,0.1422784337619564,0.0343903389549327,0.887382526488324,0.1708512961146049,0.4692303089617648,-0.1592511230306769,-0.3856125081202077,1.609290000063958,1.0444038010869423,0.248026818448453,0.4558472519005493,0.6522183716587423,-0.1527609644822014,0.633997545770383,-0.010000200836982,10.752419143519546,-1.416188101640636,0.2673424719684923,-1.3263104325813997
2.5,-0.1273920199053674,-0.3789198585565109,1.6282899549610443,-0.0424717743665918,0.1410547361000949,0.0352588253510644,0.8817809093740308,0.182783510858608,0.4688284082755073,-0.1395630470268194,-0.3818519717691201,1.618451119494677,1.0844038016829889,0.2880268190444995,0.4543747721436277,0.6593887077319447,-0.280080855714665,0.5966107372001525,-0.0200950343128725,10.740145562221189,-1.4185418146412718,0.2664543412185607,-1.3257216830171896
2.52,-0.1106960429098227,-0.3753406661261519,1.637193361520375,-0.0419138402827495,0.1418835498813975,0.0359084838662071,0.8762552558211646,0.1935643700958268,0.4683666932288872,-0.1178749709931596,-0.3760914353882301,1.6275386149375493,1.1244038022790352,0.3280268196405459,0.4529022923867062,0.606162011889775,-0.276282677643308,0.5390429618609401,-0.023085752331009,10.72673082555957,-1.4175498631679233,0.2669559043687559,-1.3291016542997471
2.54,-0.093224322243797,-0.3713542524262809,1.646554728611806,-0.0427341996959374,0.1446005545763639,0.0364063607693355,0.8714544809224659,0.2046578404280819,0.4677676390891999,-0.0961868949594998,-0.3703308990073402,1.6366261103804218,1.1644038028750818,0.3680268202365924,0.4514298126297847,0.6051268245229188,-0.2400387449349339,0.5546735166127567,-0.0299527069843624,10.72132705878721,-1.4138101509785517,0.2691688938123452,-1.33480412605795
2.56,-0.0758274290704048,-0.3671317963081674,1.655905349230398,-0.0447913443490169,0.1486058463489128,0.0367496685773193,0.8687064115283635,0.2171040646079478,0.4672968243881654,-0.0734988189109389,-0.363570362611549,1.6456767938293713,1.2044038034711282,0.4080268208326388,0.4499573328728631,0.6377343651807351,-0.1374034697051218,0.6223112089932925,-0.0235407350517247,10.717919540256844,-1.4080306313209925,0.272607908372471,-1.341495636368896
2.58,-0.0593301454316011,-0.3628698212490607,1.664783552332335,-0.0471927450709493,0.1528650913628337,0.0370089486886209,0.868112583899949,0.230984674185681,0.4672479750100511,-0.0498107428474768,-0.3558098262008566,1.6546906652843978,1.2444038040671743,0.4480268214286853,0.4484848531159416,0.694669597296926,-0.0296913814207211,0.6940304788866605,-0.0024424689057167,10.73514943590544,-1.4009535965616844,0.2767856981655346,-1.348769610698725
2.6,-0.0419575429634176,-0.3580796749534971,1.6741324559622082,-0.0493185664771299,0.1572310162659103,0.0372993897110829,0.8693029439796094,0.2471984289547728,0.4676581820920145,-0.0159245162366037,-0.3513205875397766,1.6881459510828376,0.9383820046429376,0.3309846756757971,0.4512125616405147,0.8131283273284552,0.0595180039830167,0.8106877384545893,0.0205103540981715,10.775410166547772,-1.394309146462247,0.280545481811109,-1.3564248121478306
2.62,-0.0244377485021454,-0.3528803461351218,1.6834728054112122,-0.0483529183364796,0.1575449815687056,0.0379932086055501,0.882691388848861,0.2712373589961045,0.4663565994207405,-0.0159245162366037,-0.3513205875397766,1.6881459510828376,0.9383820046429376,0.3309846756757971,0.4512125616405147,1.3773296001676527,0.6694222434625807,1.2019465020665892,-0.0650791335637029,10.821668068584586,-1.3872612133735107,0.2803517323998841,-1.3619667461145477
2.64,-0.0066768802763634,-0.3472484493707719,1.6927922161755913,-0.0435272493959244,0.1508027981789111,0.0392652924648679,0.891777265107479,0.2898362323290492,0.4657970977024261,-0.0159245162366037,-0.3513205875397766,1.6881459510828376,0.9383820046429376,0.3309846756757971,0.4512125616405147,1.03535534819529,0.4542938129309004,0.9299436666472344,-0.0279750859157157,10.796696564062586,-1.3994918840081771,0.2758965289881614,-1.3546951578775908
