t,x,y,z,roll,pitch,yaw,v_x,v_y,v_z,ref_x,ref_y,ref_z,ref_v_x,ref_v_y,ref_v_z,a_com,a_x,a_y,a_z,thrust,wind_x,wind_y,wind_z
0.0,-2.0199957549790404,-1.106507728463727,1.700128433264908,0.0166015100301896,0.1499934524384454,0.0283397955351957,0.0024669853062542,-0.0061901540867018,-0.0005520329792173,-2.019919260572151,-1.106726622586578,1.7001084653172465,0.1024681728056403,0.0931478548148711,-0.0636618267793812,0.3343230642975814,0.1233492653127117,-0.3095077043350941,-0.0276016489608669,10.663806963457318,-1.4132984640360933,0.1755858369006172,-1.2784305616276768
0.02,-2.020022758697758,-1.106863340161085,1.7000111219356058,0.0068039350302661,0.1520500900879906,0.0276864289131989,-0.0050252793402122,-0.0251487984401544,-0.0116209065266415,-2.019919260572151,-1.106726622586578,1.7001084653172465,0.1024681728056403,0.0931478548148711,-0.0636618267793812,1.1598320857588165,-0.3746132323233266,-0.9479322176726298,-0.5534436773712084,10.662965449956571,-1.4112492985941911,0.1868240232654978,-1.2702757877668198
0.04,-2.0201855201946453,-1.107373324116954,1.6996043243072358,-0.0095450522205076,0.1574002445578902,0.0265654346311625,-0.0104686182740365,-0.024092896525193,-0.0287319615914256,-2.019919260572151,-1.106726622586578,1.7001084653172465,0.1024681728056403,0.0931478548148711,-0.0636618267793812,0.8993512565074087,-0.2721669466912121,0.0527950957480712,-0.8555527532392083,9.972307085222385,-1.4010460389629589,0.2054940051782491,-1.27282880833539
0.06,-2.0204092443376758,-1.1077613642637607,1.6989019771706582,-0.0254476271807075,0.1639513052903527,0.0253893531754604,-0.0125400271948766,-0.0164511537461716,-0.0443572869766664,-2.018894578844095,-1.1057951440384293,1.6994718470494528,0.1224681731036635,0.1131478551128944,-0.0762698944707073,0.8758392561034147,-0.1035704460420069,0.3820871389510717,-0.7812662692620405,9.634074025026166,-1.391657953075659,0.2238878127866135,-1.2770306593884204
0.08,-2.020657755549284,-1.1079705063912817,1.6978568352232095,-0.0415862096532473,0.1714423458346263,0.0240865806460389,-0.0119351698338736,-0.0044741576983569,-0.0593024694089963,-2.016845215387982,-1.1039321869421317,1.6981986105138651,0.16246817369971,0.1531478557089408,-0.1014860298533596,0.9580876325944172,0.0302428680501501,0.5988498023907337,-0.7472591216164948,9.713596299776327,-1.3817469166326817,0.2427112828388491,-1.28257947585003
0.1,-2.020867977485077,-1.1078983742715849,1.6965302069425854,-0.0567924496258331,0.1790135533429654,0.0227531015082378,-0.0088898645679811,0.011360112112,-0.0725845082349486,-2.0147958519318694,-1.1020692298458343,1.6969253739782777,0.2024681742957564,0.1931478563049873,-0.1267021652360119,1.0445220676986218,0.1522652632946243,0.7917134905178524,-0.6641019412976155,9.821877530976051,-1.3721208580171669,0.2606573309293415,-1.2891788933051005
0.12,-2.0209948122803163,-1.107454263784339,1.6949544090100277,-0.0702441767016658,0.1863842617662782,0.0214735141839565,-0.0037485472027301,0.0319907566567548,-0.0843824198927676,-2.010746488445954,-1.0982062727197346,1.6943913306735572,0.2424681748918029,0.2331478569010337,-0.1519183006186641,1.2157789252861224,0.2570658682625514,1.0315322272377387,-0.5898955828909466,9.941833386402324,-1.3633926743571456,0.27601496584521,-1.2962869603087472
0.14,-2.021002862685788,-1.10662009329013,1.6932463483939952,-0.0809247843033786,0.1930816128655809,0.0203703261244324,0.002804404481813,0.0544280221662203,-0.094851312681174,-2.006697124960039,-1.0943433155936348,1.691857287368837,0.2824681754878494,0.2731478574970802,-0.1771344360013165,1.2805953454715455,0.3276475842271598,1.1218632754732747,-0.5234446394203202,10.056008263152762,-1.3546133033452843,0.2898873760625758,-1.305090432735171
0.16,-2.0208607798533884,-1.105257341653126,1.6912368847089412,-0.0898275783627081,0.1997612022353158,0.0193649095994801,0.0112385142866491,0.0803433421865744,-0.1055289140487754,-2.001647761459223,-1.0894803584526338,1.6886928406795505,0.3224681760838958,0.3131478580931267,-0.2023505713839687,1.4635139142854103,0.4217054902418082,1.295766001017704,-0.5338800683800687,10.134494711703155,-1.3462683536545907,0.3011830002515252,-1.315057355498013
0.18,-2.020534026460925,-1.1033572670502203,1.689019375480648,-0.0962656721238546,0.2060481869753098,0.0185484220871302,0.0211854810834477,0.1079576642544912,-0.1156523887421379,-1.9955983979435052,-1.083617401296732,1.6848979906056976,0.3624681766799422,0.3531478586891731,-0.227566706766621,1.5523994907838667,0.4973483398399296,1.3807161033958404,-0.5061737346681291,10.191317322834038,-1.338806365342046,0.309364095868043,-1.325113540790639
0.2,-2.0199928315268054,-1.1008931583051906,1.6866071454049498,-0.1003197301742403,0.2119460260285335,0.0179352516824749,0.0325932136380756,0.1364516157419135,-0.1250548453880323,-2.0194747524067527,-1.0979593838374957,1.683236756043541,0.1211854825735639,0.2079576657446074,-0.1486401509846936,1.6050294579722002,0.5703866277313948,1.4246975743711137,-0.4701228322947171,10.323390736448346,-1.331398476538116,0.3153267766829803,-1.3361638211008091
0.22,-2.0192502638955125,-1.0979007482877283,1.6841738221800195,-0.098470217847906,0.2172067678453785,0.0178051592053412,0.0451902509111948,0.1749158059995418,-0.1304346665832439,-2.0194747524067527,-1.0979593838374957,1.683236756043541,0.1211854825735639,0.2079576657446074,-0.1486401509846936,2.0415201176622246,0.6298518636559579,1.9232095128814173,-0.2689910597605829,10.323390736448346,-1.3249718409709157,0.3147747233779102,-1.352463116623471
0.24,-2.018192293644779,-1.09407637898809,1.681521778272328,-0.090852727869745,0.2223866588551467,0.0181497836392926,0.0601051242886842,0.2044745262505281,-0.1344071986297163,-2.0194747524067527,-1.0979593838374957,1.683236756043541,0.1211854825735639,0.2079576657446074,-0.1486401509846936,1.667297515144538,0.7457436688744725,1.4779360125493148,-0.1986266023236163,10.659505886456827,-1.3183558308952918,0.3064426852574894,-1.367544076856687
0.26,-2.016822161389692,-1.0897357349285082,1.6787966770341065,-0.0821074743202528,0.2272003888502135,0.0186626507622331,0.0762768445309346,0.2278574573018361,-0.1379313095127917,-2.018262897581017,-1.0958798071800495,1.681750354533694,0.1411854828715871,0.2279576660426306,-0.1552377034332047,1.432397777906022,0.8085860121125166,1.1691465525654003,-0.1762055441537693,10.686157520476629,-1.312340400790372,0.2971071437921751,-1.3820695941154235
0.28,-2.015210978455873,-1.085215711656946,1.6761424462154235,-0.0743061070786158,0.231456203921109,0.0191869955008335,0.0925961333210248,0.246817207983522,-0.141329084243431,-2.015839187929546,-1.0917206538651574,1.6787775515140002,0.1811854834676335,0.267957666638677,-0.1684328083302269,1.2622759262996193,0.8159644395045115,0.9479875340842948,-0.1698887365319673,10.694816274448383,-1.3065321056929098,0.287740236291588,-1.3961841774007626
0.3,-2.013170806400184,-1.0800917882708174,1.6732763418197831,-0.0671944824967611,0.2356291089754068,0.0197255885385024,0.110653196485941,0.2646542381095593,-0.1451529352227361,-2.0134154782780747,-1.0875615005502652,1.6758047484943064,0.22118548406368,0.3079576672347235,-0.1816279132272492,1.2833929738888097,0.90285315824581,0.8918515063018606,-0.1911925489652535,10.696498849274576,-1.3006297735883752,0.2795948155761738,-1.4088082808362656
0.32,-2.010760295903205,-1.0746270538263545,1.6703318755094925,-0.0613653619546488,0.239512402022111,0.0202278729773569,0.1295773898213868,0.2811307287021953,-0.1491531642730473,-2.008991768596801,-1.0814023472055707,1.6721721902297615,0.2611854846597264,0.3479576678307699,-0.1948230181242714,1.2704346383241316,0.9462096667722888,0.8238245296318003,-0.200011452515561,10.69369634321265,-1.294383354601503,0.2728758963024551,-1.4196429990594588
0.34,-2.0079620759013967,-1.0688422401655877,1.667308116541144,-0.0566938558199315,0.2431271872460524,0.0206929312509179,0.1493752226896138,0.2967212796751177,-0.1530683748499955,-2.0045680589155275,-1.0752431938608764,1.6685396319652164,0.3011854852557729,0.3879576684268164,-0.2080181230212937,1.2750964079035232,0.9898916434113488,0.7795275486461195,-0.195760528847412,10.698630628211504,-1.2887554918119453,0.2677982486921998,-1.4287316375224834
0.36,-2.00492924569703,-1.0630562543438349,1.6643643668648582,-0.0529512504637943,0.2463293301676221,0.0211200484977762,0.1689479789591175,0.3115478843666834,-0.156631245516179,-1.9991443492193528,-1.0680840405012808,1.6645771960782458,0.3411854858518193,0.4279576690228628,-0.2212132279183159,1.240579544053207,0.9786378134751846,0.7413302345782857,-0.1781435333091732,10.719717153948295,-1.2831348544427683,0.2633584886965643,-1.4374103291815998
0.38,-2.001327098310132,-1.0566655170772083,1.6611942724645623,-0.0494184856356178,0.2494718480108982,0.0215719593789037,0.1903171827972443,0.3267017430982769,-0.1601931844177479,-1.9927206395082768,-1.059924887126784,1.66028488256885,0.3811854864478657,0.4679576696189093,-0.2344083328153382,1.3219017700561322,1.0684601919063397,0.7576929365796736,-0.1780969450784431,10.746163971328317,-1.2781446232970666,0.2592769834732922,-1.443444872236
0.4,-1.9972894316246272,-1.049976495421355,1.6579563301796476,-0.0461565750610857,0.2523947573485612,0.0220323236811525,0.2124508959654569,0.3413769748930755,-0.1634405741761788,-1.9918112391702696,-1.0403304299222944,1.6531846132436752,0.2903171842873604,0.426701744588393,-0.1764452345940107,1.337730566189378,1.106685658410632,0.7337615897399341,-0.1623694879215459,10.798192965324231,-1.2739479184188938,0.2556615581245549,-1.4478433118027585
0.42,-1.9927322107246752,-1.0429862630818214,1.654733907976126,-0.0428086517917795,0.253577545905073,0.022591086280965,0.2418846724836293,0.3566502206688721,-0.1585897156328737,-1.9918112391702696,-1.0403304299222944,1.6531846132436752,0.2903171842873604,0.426701744588393,-0.1764452345940107,1.67567155586705,1.4716888259086207,0.7636622887898264,0.2425429271652526,10.798192965324231,-1.2717458001880555,0.2521541592048004,-1.4548607507584452
0.44,-1.9878588951115763,-1.0360853504220386,1.6517692156937835,-0.0399041845571214,0.2519683485650448,0.0232232662843951,0.2694257081120741,0.3691435841839118,-0.1537203756235012,-1.9918112391702696,-1.0403304299222944,1.6531846132436752,0.2903171842873604,0.426701744588393,-0.1764452345940107,1.5315867976816275,1.377051781422238,0.6246681757519856,0.2434670004686265,11.380849318211403,-1.2747194311170025,0.2488025943548227,-1.454675437122663
0.46,-1.9821758265353315,-1.0285728335749296,1.6487457408251611,-0.0375298674948758,0.2477216814095383,0.0239375377920149,0.2971444615264082,0.3815556882667414,-0.1488525858923992,-1.988908067327396,-1.0360634124764103,1.651420160897735,0.3103171845853836,0.4467017448864162,-0.1796956446292633,1.53792473440175,1.3859376707167053,0.6206052041414833,0.2433894865550998,11.320839778323716,-1.2818092044781857,0.2464072628777264,-1.4503751965872675
0.48,-1.975967500158346,-1.0208174780874286,1.64581822265138,-0.0358806084689516,0.2415014448013968,0.0246667386796598,0.3219145456070121,0.3934120205494609,-0.1440975080016112,-1.9831017236416488,-1.0275293775846426,1.647891256205855,0.35031718518143,0.4867017454824626,-0.1861964646997684,1.3935031811103824,1.238504204030194,0.5928166141359714,0.2377538945394025,11.277538000405912,-1.2917786602576995,0.2449860993115031,-1.44290403741848
0.5,-1.9692997259397191,-1.0128322999559818,1.6429830627388942,-0.0350948057764623,0.2343952133404665,0.0253610703052963,0.3433495474039107,0.4046184797924653,-0.1396002650174745,-1.9772953799559017,-1.0189953426928748,1.6443623515139747,0.3903171857774765,0.5267017460785091,-0.1926972847702736,1.2301109962687635,1.0717500898449306,0.5603229621502198,0.224862149206835,11.226222287512428,-1.3022279524107705,0.2447078361706062,-1.4345242150400683
0.52,-1.9625983104752056,-1.0050430259535392,1.640369627814648,-0.0353060469302349,0.2276445754772552,0.0259545094001868,0.3608403790832414,0.4148572916713169,-0.1356939436565506,-1.969489036240352,-1.0084613077713047,1.6405084058185693,0.4303171863735229,0.5667017466745555,-0.1991981048407787,1.0320147868368976,0.8745415839665371,0.5119405939425808,0.1953160680461932,11.171612620416454,-1.3123962501319892,0.2457067036617959,-1.4256946846228125
0.54,-1.9552118447801985,-0.9966347242803189,1.637698184928918,-0.0366873215145614,0.2211871236159956,0.0264854600697007,0.376724960821746,0.425545828693526,-0.1316511042745212,-1.9616826925248023,-0.9979272728497344,1.6366544601231636,0.4703171869695695,0.606701747270602,-0.2056989249112839,0.9784034328323572,0.79422908692523,0.5344268511104561,0.2021419691014686,11.171612620416454,-1.3216387502938534,0.2482875180037302,-1.4176605634570965
0.56,-1.9475273473451364,-0.9879975217601884,1.6351049368315669,-0.0389574709146546,0.2157680970054496,0.0269351596016883,0.3907768010275267,0.4377745438233482,-0.127878163559644,-1.952876348794352,-0.9863932379132632,1.6326379939259956,0.5103171875656158,0.6467017478666484,-0.212199744981789,0.9503035942964668,0.7025920102890326,0.6114357564911077,0.1886470357438635,11.14438403796794,-1.3291720646110965,0.2520913975568934,-1.4118248616197304
0.58,-1.939580485191988,-0.9790928029892676,1.6325844478065654,-0.0411700604382596,0.2116436184278602,0.0273585494356948,0.4031124691433244,0.4519739207871118,-0.1243416451944822,-1.943070005049,-0.9738592029618908,1.6284590072270648,0.5503171881616623,0.6867017484626948,-0.2187005650522941,0.9569456308606268,0.6167834057898863,0.7099688481881833,0.1768259182580868,11.115305190095569,-1.3347411922691652,0.2556895349008104,-1.408319689234249
0.6,-1.9318155018001837,-0.970358901316788,1.6302537651493962,-0.0426343987277633,0.2091892231212141,0.0277584824004192,0.4135954908988464,0.4664839546910753,-0.1211591089905568,-1.9194248617348215,-0.956494106949912,1.6263673655468414,0.5031124706334406,0.551973922277228,-0.1555139151497597,0.9090700821584298,0.5241510877761008,0.7255016951981746,0.1591268101962688,11.097374192864663,-1.3383175523433848,0.2585825268863143,-1.406429590914848
0.62,-1.9234341667139625,-0.9608004430454272,1.627892395160489,-0.0412922515399192,0.2084879912347411,0.0283073824625968,0.4242451237977426,0.4880210340420286,-0.1150052889569192,-1.9194248617348215,-0.956494106949912,1.6263673655468414,0.5031124706334406,0.551973922277228,-0.1555139151497597,1.240090691095726,0.53248164494481,1.076853967547664,0.3076910016818812,11.08357301756405,-1.3388453131251468,0.2577526760384238,-1.4088413920880154
0.64,-1.9148364924640493,-0.9508558445780662,1.62564407724183,-0.0364471605860128,0.2096238018635783,0.0290246277346531,0.4352697619584554,0.5045181202977596,-0.1101568031165626,-1.9194248617348215,-0.956494106949912,1.6263673655468414,0.5031124706334406,0.551973922277228,-0.1555139151497597,1.021278997688448,0.5512319080356376,0.8248543127865465,0.242424292017828,11.295763738675303,-1.336797193457544,0.2527387371428315,-1.4155536754172726
0.66,-1.906451605593396,-0.9411544504781586,1.6235813160347854,-0.0312960524422163,0.2119006975713445,0.029702129608439,0.4469656674244033,0.5158370308568877,-0.1072438702772744,-1.9143937370284876,-0.9509743677271398,1.6248122263953435,0.5231124709314637,0.5719739225752511,-0.1617483691408152,0.826736231575913,0.5847952732973949,0.5659455279564074,0.1456466419644142,11.171710037143384,-1.3325151716807506,0.2464525303709028,-1.423043915084517
0.68,-1.897372782501331,-0.9307369720474692,1.6214555374153097,-0.026540678325454,0.2149841064026945,0.0303527123062556,0.4604383349277715,0.525419043479364,-0.105573885021441,-1.9043314876158184,-0.9399348892815952,1.621701948092349,0.5631124715275102,0.6119739231712976,-0.1742172771229261,0.8308378095457442,0.6736333751684087,0.4791006311238133,0.0834992627916669,11.062227375750808,-1.327284888810761,0.2409300371660491,-1.4305202615761656
0.7000000000000001,-1.8880112356132284,-0.9201412286293644,1.6193501801121768,-0.0228557822015182,0.2183303099481224,0.0309270480086321,0.4751479653008841,0.5338444580965781,-0.105112072664117,-1.8942692382031496,-0.9288954108360508,1.6185916697893534,0.6031124721235567,0.6519739237673441,-0.1866861851050371,0.8479005068976846,0.7354815186556313,0.4212707308607066,0.023090617866199,10.984415428285502,-1.321783048853317,0.2367450915915391,-1.4375712338253053
0.72,-1.878343041122108,-0.909384333721204,1.6172441627553964,-0.0202856779821589,0.221548874134892,0.0314293498466583,0.490987566462921,0.5416985730194893,-0.1055330500252545,-1.8822069887606785,-0.9158559323607038,1.6148579460872527,0.6431124727196031,0.6919739243633906,-0.1991550930871481,0.8842472902606039,0.791980058101846,0.3927057461455607,-0.0210488680568741,10.927022814622433,-1.3175109584972498,0.2341672148821542,-1.4436604723078668
0.74,-1.868855301783088,-0.8990231462795326,1.6152315338868004,-0.0187937006285901,0.2242439835185375,0.0318473854438766,0.5069421941580747,0.5487405274750188,-0.1063142958603646,-1.8701447393182076,-0.902816453885357,1.611124222385152,0.6831124733156496,0.731973924959437,-0.2116240010692591,0.8728539575719325,0.7977313847576856,0.3520977227764732,-0.0390622917555039,10.892009276720271,-1.3136786203484532,0.2327438823145675,-1.4490436057925085
0.76,-1.8585295420346648,-0.8879672826407291,1.61309377194268,-0.0180451432161424,0.2264208869267623,0.0322397555281232,0.5247908039269735,0.5565018957661818,-0.1074310840464253,-1.8570824898608351,-0.8887769753951089,1.6070787759834986,0.723112473911696,0.7719739255554834,-0.22409290905137,0.9747550003539674,0.8924304884449397,0.3880684145581514,-0.0558394093030371,10.881662759895336,-1.3108060506630392,0.2324425066035373,-1.453261009878945
0.78,-1.8478382405624256,-0.8767533416738285,1.6109315983135692,-0.0179071133301554,0.2276142171230253,0.0326033153142153,0.5433851099544786,0.5645121466537806,-0.1087261987015128,-1.8430202403885616,-0.8737374968899597,1.6027216068822925,0.7631124745077424,0.8119739261515299,-0.236561817033481,1.0143836279936356,0.9297153013752556,0.4005125443799384,-0.0647557327543749,10.877054236054391,-1.3094543730602046,0.2329463107377518,-1.4557616670417477
0.8,-1.8367704229183328,-0.8653754757017191,1.6087417027958002,-0.0181936272517673,0.2276149668393205,0.032954657660219,0.5623328818643746,0.5728594482614238,-0.1101796330381913,-1.820668985064702,-0.8485277343411395,1.6054952883784936,0.6433851114445948,0.6645121481438967,-0.136273975400579,1.037795711893049,0.9473885954947968,0.4173650803821593,-0.0726717168339226,10.871287174636564,-1.309780410469125,0.2339501565815195,-1.4565059641337947
0.8200000000000001,-1.82584803819166,-0.8543507265485135,1.6067453699118392,-0.0169663851408301,0.225392256314034,0.0334291592420676,0.5862873521032054,0.5864725659322169,-0.0998492820455397,-1.820668985064702,-0.8485277343411395,1.6054952883784936,0.6433851114445948,0.6645121481438967,-0.136273975400579,1.4712662647981725,1.1977235119415397,0.6806558835396548,0.516517549632578,11.726697574761602,-1.3125632477514644,0.2330655604255777,-1.4566011167715065
0.84,-1.8138747861028297,-0.8425089529762992,1.60485191495931,-0.0137415502594226,0.2197540182846988,0.0340993135472217,0.6091951040587428,0.5965692594385469,-0.0900858728120062,-1.820668985064702,-0.8485277343411395,1.6054952883784936,0.6433851114445948,0.6645121481438967,-0.136273975400579,1.3435331027543045,1.1453875977768702,0.5048346753165012,0.4881704616766791,11.55906041351318,-1.322298537529274,0.2295951149986544,-1.4519688813098135
0.86,-1.8014928297499744,-0.830502434055395,1.6031286287485411,-0.0104997294587719,0.2121260229644728,0.0347615285254335,0.6274299460710248,0.6036074170831182,-0.0827958946529618,-1.814235133950256,-0.8418826128597006,1.604132548624488,0.6633851117426179,0.6845121484419199,-0.1417835307403923,1.0430590920485583,0.9117421006140992,0.3519078822285637,0.3644989079522195,11.55906041351318,-1.333959141884399,0.2259236458891547,-1.4428547576133115
0.88,-1.788795612971687,-0.8183739900496232,1.6015219304736377,-0.008032889654552,0.2039605260556067,0.0353375722542918,0.6411376068375018,0.6091212710334337,-0.0781792657142442,-1.8013674317213642,-0.8285923698968226,1.6014070691164763,0.7033851123386644,0.7245121490379663,-0.1528026414200187,0.7739764399386257,0.6853830383238502,0.2756926975157781,0.2308314469358773,11.353056413126067,-1.345483904093281,0.2233479876854827,-1.4328093746839812
0.9,-1.7765171574134817,-0.8067591552528243,1.6000595461699365,-0.0066328583320156,0.1967158953807117,0.0357878141169467,0.6505564556743952,0.6134137954617234,-0.0759611670910402,-1.7884997294924725,-0.8153021269339447,1.5986815896084647,0.7433851129347109,0.7645121496340128,-0.1638217520996452,0.5292930211186719,0.4709424418446739,0.2146262214144823,0.1109049311601988,11.161696748383292,-1.356696604175787,0.2219093436495416,-1.4225339054753745
0.92,-1.763431449550203,-0.7944531146766978,1.5985480803144452,-0.0064396804415114,0.1904186400695754,0.0361472878140699,0.6573391010872802,0.6170891969866231,-0.0753708904198848,-1.773632027233778,-0.8000118839412644,1.5954051545664718,0.7833851135307573,0.8045121502300593,-0.1748408627792717,0.3868503642064833,0.339132270644249,0.1837700762449878,0.0295138335577732,10.99677680007153,-1.3659572905119777,0.2221614936073297,-1.4133176328228545
0.94,-1.750240378605998,-0.782078478628552,1.59703710791502,-0.0078930321134949,0.186315525704006,0.0363734311755514,0.6612857814160196,0.6203576894142796,-0.0757843769075478,-1.7587643249750835,-0.7847216409485841,1.5921287195244789,0.8233851141268038,0.8445121508261058,-0.1858599734588981,0.2570520348216767,0.1973340164369674,0.1634246213828238,-0.0206743243831533,10.871075158015628,-1.3721124337001065,0.2245268911320529,-1.406430735435343
0.96,-1.7369874230354343,-0.7696246101323605,1.595511169326536,-0.0108056313200206,0.185084660229362,0.0364772293938742,0.664092358672025,0.6252411130897839,-0.0768148888310254,-1.7428966227014884,-0.7684313979410027,1.5885768067154955,0.8633851147228502,0.8845121514221521,-0.1968790841385246,0.2862981728584395,0.1403288628002708,0.2441711837752158,-0.0515255961738771,10.808617722483175,-1.3735750435526224,0.2285506882373474,-1.404882274459954
0.98,-1.7243326093601354,-0.7576753131424261,1.594039518118824,-0.0138654133981034,0.1860876122985585,0.0365314958386092,0.6680796843167475,0.6323512100385823,-0.0780709894322875,-1.726028920412992,-0.7511411549185202,1.5847494161395212,0.9033851153188966,0.9245121520181986,-0.207898194818151,0.4124016038367961,0.1993662822361241,0.3555048474399191,-0.0628050300631052,10.76389966158149,-1.3719943587884038,0.233278337759805,-1.4074224967061748
1.0,-1.7109115035214235,-0.744936111050668,1.592463602963508,-0.01669355548589,0.1884914627650523,0.0365913629754296,0.6740074620579403,0.6411539814398075,-0.0794734115220117,-1.690928625144298,-0.726057752640497,1.5901359686472096,0.7680796858068636,0.7143449910687604,-0.1110855216109279,0.5352432181003219,0.2963888870596398,0.4401385700612603,-0.0701211044862093,10.750351643069736,-1.3686436041493242,0.2375298395770102,-1.4121208399241525
1.02,-1.6973208982844896,-0.7318737515549848,1.5909630508096575,-0.0145487592682732,0.1909833283399124,0.0369913556348015,0.6849658791138428,0.6631936366099602,-0.0699391848544251,-1.690928625144298,-0.726057752640497,1.5901359686472096,0.7680796858068636,0.7143449910687604,-0.1110855216109279,1.3197867086571733,0.5479208527951251,1.1019827585076358,0.4767113333793302,10.755993215027956,-1.3639361176444196,0.2352746547512367,-1.4192859297177436
1.04,-1.6835031677036074,-0.7184733478428273,1.589657260769447,-0.0067706105901268,0.1928017610976633,0.0377918144636418,0.6962532337387256,0.6747342694674122,-0.0612761938504499,-1.690928625144298,-0.726057752640497,1.5901359686472096,0.7680796858068636,0.7143449910687604,-0.1110855216109279,0.916021280202212,0.564367731244142,0.5770316428725997,0.4331495501987598,11.54814570326016,-1.362734630592291,0.2263040931678163,-1.425409060146952
1.06,-1.6701699673041066,-0.7056045239508788,1.588543980503421,0.0012504176334588,0.1941215622128419,0.0385920070933518,0.706680923854054,0.6792933836978652,-0.0563419494740831,-1.6832478282862295,-0.7189143027298094,1.5890251134311004,0.7880796861048868,0.730743747274796,-0.1176884280466559,0.6202197418523193,0.5213845057664201,0.2279557115226482,0.2467122188183363,11.377854872672287,-1.3607094559608566,0.2156469423010899,-1.429938957574565
1.08,-1.655925273048018,-0.692004017739053,1.587445324650189,0.0086010905932518,0.1952437761299174,0.0393451126373008,0.7172234444159624,0.6806711370812497,-0.0539111939844363,-1.6678862345700922,-0.7046274029084342,1.5868034029988818,0.8280796867009332,0.7635412596868673,-0.1308942409181121,0.5453244823821352,0.5271260280954204,0.0688876691692264,0.1215377744823432,11.165952870604997,-1.3590408343168092,0.2063385828418953,-1.4329689205748295
1.1,-1.641473734927677,-0.6783989687361741,1.5863668602440066,0.0142129208928827,0.1962377564020345,0.0399602049931182,0.7274149682639842,0.6801861558921465,-0.0540479740368503,-1.652524640853955,-0.690340503087059,1.5845816925666631,0.8680796872969797,0.7963387720989384,-0.1441000537895682,0.5101986717968782,0.50957619240109,-0.0242490594551614,-0.0068390026207024,10.996210749291096,-1.357614710357215,0.199565177293586,-1.434740444759274
1.12,-1.6275580667038556,-0.6654918255338154,1.5853229070368395,0.0179487794596401,0.1971400746805637,0.0404176314395555,0.736897319428662,0.6788805704908027,-0.0558293751574258,-1.6351630471080152,-0.6744137276450802,1.581699691490872,0.9080796878930262,0.8291362845110096,-0.1573058666610244,0.4868082959514333,0.4741175582338885,-0.0652792700671867,-0.0890700560287737,10.856912056575313,-1.3562352586037696,0.1945924836720305,-1.4357555953263772
1.14,-1.6127160875280218,-0.6519339756966737,1.58417975661884,0.0204002553593244,0.1981231604418585,0.0407810164814715,0.7468211445932603,0.6772551938051147,-0.0584172405153271,-1.6178014533620757,-0.6584869522031014,1.5788176904150806,0.9480796884890726,0.8619337969230809,-0.1705116795324805,0.5191849438748183,0.4961912582299166,-0.0812688342844036,-0.1293932678950667,10.75872799854551,-1.3549005533253744,0.1916170709518398,-1.4362190934051822
1.16,-1.5976689429289417,-0.6384053506497867,1.58297920177309,0.0216546557994387,0.1990045606730438,0.0410436069466841,0.7573802336058041,0.6758390852574794,-0.0615004144518271,-1.599439859601235,-0.6417402389508209,1.5756055440175027,0.988079689085119,0.8947313093351521,-0.1837174924039367,0.5545396417665308,0.5279544506271883,-0.0708054273817648,-0.1541586968249984,10.719628392518644,-1.353668227134852,0.1901935126675838,-1.4362496653082022
1.18,-1.5824059238990915,-0.6249051805581355,1.5817140107765182,0.0218900692824088,0.1995251157408935,0.0412127566983126,0.7683683727052392,0.674315753740059,-0.0648682908293497,-1.5800782658254928,-0.6241735878882385,1.5720632522981386,1.0280796896811657,0.9275288217472232,-0.1969233052753928,0.5796600966833385,0.549406954971754,-0.0761665758710172,-0.1683938188761304,10.696378319874384,-1.3530561248771809,0.1900691574761324,-1.4354227507857116
1.2,-1.5677000566413837,-0.6121089099599131,1.5804469978572837,0.0211040432380436,0.1995309721484485,0.0412801283169503,0.7789937831359676,0.6728443569660746,-0.0683171699608526,-1.5439875052638294,-0.5911893928711325,1.5784705962350507,0.8683683741953553,0.7120066279291974,-0.1047827870723498,0.5633806940063705,0.53127052153642,-0.0735698386992222,-0.1724439565751447,10.680923710141542,-1.3531862046083163,0.1913124374628531,-1.4334652168952704
1.22,-1.5519605444532043,-0.5984815002716773,1.579156704917972,0.0252016857129169,0.198172109405858,0.0416504569081451,0.7946053735723012,0.6875122531439781,-0.0599672515985463,-1.5439875052638294,-0.5911893928711325,1.5784705962350507,0.8683683741953553,0.7120066279291974,-0.1047827870723498,1.1495543385316351,0.7805795218166822,0.7333948088951769,0.4174959181153174,10.665733021465712,-1.3518473644050475,0.1857750873504019,-1.431790229516868
1.24,-1.5359140081193845,-0.5846942290021582,1.578029625562957,0.034911569473899,0.1946831187309071,0.0423088316577899,0.809055656255657,0.6895879186839396,-0.053361907665487,-1.5439875052638294,-0.5911893928711325,1.5784705962350507,0.8683683741953553,0.7120066279291974,-0.1047827870723498,0.8011704337041515,0.7225141341677899,0.1037832769980762,0.3302671966529644,11.477958712774123,-1.3583970605090303,0.1732476868733874,-1.4289071864817977
1.26,-1.5196050836248247,-0.5709529500460211,1.5769863856213189,0.0449778118376186,0.1896976234931028,0.0428573682655892,0.8208994814733486,0.6844379257775564,-0.0512411155351433,-1.535303821521876,-0.5840693265918405,1.5774227683643272,0.8883683744933785,0.7195448027670251,-0.1127656863209498,0.6544012186402784,0.5921912608845781,-0.2574996453191647,0.1060396065171848,11.24879796047935,-1.3657640474982984,0.1607603512059132,-1.422766738963995
1.28,-1.5039249899097986,-0.5580351555300618,1.575999144902606,0.0531470509914643,0.1843612477413228,0.0431706370293672,0.8288785546991535,0.6759299877208339,-0.0527342680236859,-1.5179364540379687,-0.5698291940332565,1.5753271126228805,0.9283683750894248,0.7346211524426804,-0.1287314848181498,0.5879628471974749,0.3989536612902467,-0.4253969028361226,-0.0746576244271324,10.976172022994431,-1.3741954702152224,0.1494780091389577,-1.4140176803242972
1.3,-1.4872895432585471,-0.5446313278788125,1.5749014274717956,0.059824881511215,0.1791283118714412,0.0433096962319982,0.8340318683729423,0.6651869800824818,-0.0570474264620749,-1.5005690865540615,-0.5555890614746726,1.5732314568814332,0.9683683756854714,0.7496975021183359,-0.1446972833153498,0.6335854138409368,0.2576656836894397,-0.537150381917606,-0.215657921919448,10.747898997027733,-1.381918527725628,0.1407867969717417,-1.4048597059523806
1.32,-1.4705854960980504,-0.5314562794187025,1.5736905647112929,0.0644772009018073,0.175343138676462,0.0433356606643624,0.8360307226556362,0.6533562818969555,-0.0637657877515048,-1.4812017190403524,-0.5405951114323059,1.570337511215126,1.008368376281518,0.7647738517939913,-0.1606630818125498,0.6875631178585887,0.0999427141346931,-0.5915349092763145,-0.3359180644714972,10.572053923856402,-1.387440290695235,0.1350087533091814,-1.397465877800062
1.34,-1.454702486362032,-0.5191631347942028,1.5724062557512402,0.0672611435528717,0.1740107639867204,0.0433571743893502,0.8358986645420055,0.6416856831777055,-0.0710643547084976,-1.461834351526643,-0.5256011613899392,1.567443565548819,1.0483683768775645,0.7798502014696466,-0.1766288803097498,0.6882757322411613,-0.0066029056815353,-0.5835299359625012,-0.3649283478496384,10.37797219075037,-1.3894114239253323,0.1310912612436459,-1.3929404621764088
1.36,-1.4379771242452837,-0.5064587572244954,1.5708997062808696,0.0688136563170922,0.1750006806892869,0.0434212992729794,0.8369051581679017,0.6295472879449884,-0.0792277236354643,-1.4414669839980323,-0.510230302605681,1.564150474920082,1.0883683774736108,0.794926551145302,-0.1925946788069498,0.7331341290691368,0.050324681294811,-0.6069197616358546,-0.4081684463483365,10.37797219075037,-1.3872729692815249,0.1289429083302145,-1.391902459084336
1.38,-1.4212113237396529,-0.4940002979194935,1.56922864584175,0.068969144767444,0.1774965141181821,0.0434726931799631,0.8398183788715393,0.6170491129620062,-0.0874667836367158,-1.4200996164545203,-0.4944825350795315,1.5604582393289153,1.1283683780696572,0.8100029008209573,-0.2085604773041498,0.7625177743462235,0.1456610351818821,-0.6249087491491112,-0.4119530000625724,10.3464771878198,-1.38323886079507,0.1286003128842705,-1.3925330724871463
1.4,-1.4043663712343484,-0.4817950481069473,1.5673954487830974,0.067465099479567,0.180653661332477,0.0434345162057827,0.8446503443905772,0.6043516266593472,-0.0954337817025015,-1.379220404796076,-0.4631478422713932,1.5648553066599142,0.9103382881341964,0.6328190658701645,-0.1224390340982942,0.7874755668648014,0.2415982759518931,-0.6348743151329495,-0.3983499032892835,10.34896958067202,-1.3786071006295244,0.1302371365663685,-1.3935488082758258
1.42,-1.388145323871994,-0.4703417561915442,1.565649336563807,0.0674248225703573,0.1808451422683175,0.0432879108955815,0.8622390297886554,0.6008180506673511,-0.0880087329546771,-1.379220404796076,-0.4631478422713932,1.5648553066599142,0.9103382881341964,0.6328190658701645,-0.1224390340982942,0.970797819104666,0.8794342699039115,-0.1766787995998053,0.3712524373912201,11.405115948350613,-1.3723244851762293,0.1296923546217536,-1.3916116923414446
1.44,-1.370727606118532,-0.4583959402859784,1.563959505886261,0.0702767225725357,0.1754018796320939,0.0429254113908459,0.8777512121616671,0.5934901607908069,-0.0814419790425818,-1.379220404796076,-0.4631478422713932,1.5648553066599142,0.9103382881341964,0.6328190658701645,-0.1224390340982942,0.9184879271911404,0.7756091186505831,-0.3663944938272101,0.3283376956047627,11.405115948350613,-1.38209634343958,0.1259462334565482,-1.3822980747173208
1.46,-1.3530644377086345,-0.4466439692697928,1.562361276547927,0.0739222819284406,0.1664666887239011,0.0423207365447217,0.8872328898880972,0.5820169782421253,-0.0786152723835418,-1.3701170219147338,-0.4568196516126915,1.5636309163189313,0.924442269986728,0.6359730564517961,-0.1294334841906098,0.7575064370015517,0.474083886321508,-0.5736591274340785,0.1413353329520007,11.222578759438877,-1.3949547023734876,0.1213149456815297,-1.3683681992297176
1.48,-1.336166163222014,-0.435716397435396,1.5608610921817982,0.0767543417541448,0.1567028362496979,0.0415532506422665,0.8907485085879369,0.5690742183701957,-0.0793620263225258,-1.35191025615205,-0.4441632702952883,1.5611821356369655,0.9526502336917908,0.6422810376150594,-0.1434223843752412,0.6716253594647867,0.1757809349919814,-0.6471379935964805,-0.0373376969492016,10.965380446965357,-1.4093898615916134,0.1171954659296316,-1.3507399248061234
1.5,-1.3183585580600723,-0.4244875275832305,1.559237087093629,0.0786771743170362,0.1466725564326932,0.0406434264515427,0.8895400047420129,0.55471084722499,-0.0830930049775841,-1.333703490389366,-0.431506888977885,1.5587333549549995,0.9808581973968536,0.6485890187783228,-0.1574112845598725,0.7444580477183406,-0.0604251922961984,-0.7181685572602847,-0.1865489327529147,10.722629290303304,-1.4230531373957718,0.1144228088147554,-1.333162468589831
1.52,-1.3006211303016626,-0.413554712063742,1.557506729365702,0.0792585670766018,0.1381044398910541,0.0397243684043234,0.8842597690781734,0.5395543345269108,-0.0897014396206246,-1.314086326441429,-0.4185351086023185,1.555585129263802,1.0090661611019165,0.6548969999415861,-0.1714001847445039,0.8678596866199849,-0.2640117831919752,-0.757825634903958,-0.3304217321520253,10.521227745088254,-1.434670689561147,0.1133095573867127,-1.3176235883697232
1.54,-1.2830222565903189,-0.4029315611380163,1.5556298628326646,0.0781273803037841,0.1318087409994059,0.0388541382295478,0.8758636671096386,0.5238070460718018,-0.0976119045360148,-1.294469162493492,-0.405563328226752,1.5524369035726049,1.0372741248069792,0.6612049811048494,-0.1853890849291352,0.9760213587981336,-0.4198050984267398,-0.7873644227554488,-0.3955232457695113,10.354770454702702,-1.443196076908877,0.1142031888927783,-1.3057365252322315
1.56,-1.26648081732281,-0.3931294615923831,1.5536952752409137,0.0752495180528885,0.1286298800143235,0.0381222407121074,0.8657579814241081,0.5092257818554717,-0.1055892520426661,-1.2741467994529283,-0.392433848322104,1.5489389553767914,1.0654820885120422,0.6675129622681127,-0.1993779851137666,0.9725947544623084,-0.5052842842765248,-0.7290632108165052,-0.3988673753325608,10.281538811357676,-1.4478116897987696,0.1173331471101608,-1.2978133808862802
1.58,-1.249280753313215,-0.3830817143361376,1.551496230356595,0.0710668077870725,0.1285327638690471,0.0375185743536673,0.8551579030081594,0.4966450596555362,-0.1138864662283509,-1.2531192373197382,-0.3791466688883744,1.5450912846763625,1.093690052217105,0.673820943431376,-0.2133668852983979,0.921249147542811,-0.5300039207974339,-0.6290361099967778,-0.4148607092842427,10.251051142719916,-1.4473785386491849,0.1218062916929415,-1.2954194726559545
1.6,-1.2322728183819347,-0.373262927103192,1.5491353125179463,0.0666663621541799,0.130918871283466,0.0370701047034578,0.8464434780707446,0.4860144723043257,-0.1217739250591279,-1.2065228581628071,-0.3582494613533608,1.5458019070451772,0.9089629525169696,0.4945711181360522,-0.1220686454111188,0.7924055089232334,-0.4357212468707405,-0.5315293675605237,-0.3943729415388501,10.23121092513793,-1.4441080609064203,0.1265760030466648,-1.2969279384154608
1.62,-1.215335290110686,-0.3635561115226153,1.5468270764360668,0.0655254767974418,0.133032183412468,0.0368214762701809,0.8474609663756203,0.4835934474676502,-0.1087798603018375,-1.2065228581628071,-0.3582494613533608,1.5458019070451772,0.9089629525169696,0.4945711181360522,-0.1220686454111188,0.6628392765727887,0.0508744152437845,-0.121051241833775,0.6497032378645206,11.522397154636565,-1.439033569656021,0.1273407042263311,-1.2991694601209585
1.64,-1.1992294149321736,-0.354423893882341,1.5448713172565736,0.0680843994137837,0.1332997216758168,0.0367163436083153,0.8477124982364448,0.477406010243142,-0.0978122155182962,-1.2065228581628071,-0.3582494613533608,1.5458019070451772,0.9089629525169696,0.4945711181360522,-0.1220686454111188,0.6297556664734719,0.0125765930412247,-0.3093718612254076,0.5483822391770629,11.522397154636565,-1.4394921811314652,0.123752746423165,-1.3016591146471947
1.66,-1.1822834430817253,-0.3449874147194792,1.5430080937773465,0.0722639450084852,0.1324015637362808,0.0366133368616121,0.8467591168739459,0.4663064145440436,-0.0892189689787884,-1.1974332286376377,-0.3533037501720003,1.544581220591066,0.9197239624187314,0.4941563298321554,-0.1237050812476724,0.7034803600573502,-0.0476690681249447,-0.5549797849549204,0.429662326975392,11.19749838147709,-1.4412732578887135,0.1182826566485192,-1.3011705938773457
1.68,-1.1653708561522,-0.3358067686341076,1.541286616166448,0.076066417717523,0.1308107144871037,0.0364128558834856,0.8444336729045441,0.452435795058806,-0.0834438063415028,-1.179253969587298,-0.3434123278092792,1.5421398476828436,0.9412459822222556,0.4933267532243619,-0.1269779529207795,0.7601879340764696,-0.1162721984700909,-0.69353097426188,0.288758131864282,11.19749838147709,-1.4433551776512894,0.1132463413669367,-1.2979112215942727
1.7,-1.148521027524738,-0.326919069405412,1.5396545219853237,0.0787657146768136,0.1290517585585276,0.0361023116298614,0.8405947698467171,0.4373626966984175,-0.0800017576380936,-1.1610747105369588,-0.3335209054465581,1.5396984747746212,0.9627680020257796,0.4924971766165683,-0.1302508245938867,0.79652867202942,-0.1919451528913485,-0.7536549180194252,0.1721024351704583,11.037277169077242,-1.445343558874043,0.1096909061307882,-1.293528764654619
1.72,-1.1325987023765074,-0.3187611117776026,1.53815238201491,0.0801635941172278,0.1277209965884421,0.0357380274111908,0.8356105908938979,0.4223934751720075,-0.078255380960618,-1.1418193504964431,-0.3236709619142268,1.5370934582827436,0.9842900218293036,0.4916676000087747,-0.1335236962669938,0.7936773028758183,-0.2492089476409609,-0.7484610763205002,0.0873188338737784,10.909140838470194,-1.446942140172959,0.1073897855021209,-1.2889594412164505
1.74,-1.1159472823225054,-0.3104849981838548,1.5366032813097492,0.0802396655561753,0.127039202679892,0.0353047009543984,0.8298503570302797,0.40615285742495,-0.0767392656079393,-1.1225639904559277,-0.3138210183818954,1.5344884417908655,1.0058120416328276,0.4908380234009812,-0.136796567940101,0.8649227779580109,-0.2880116931809118,-0.8120308873528742,0.0758057676339379,10.814778400979776,-1.4475628282838409,0.1067933010604239,-1.2848716971960867
1.76,-1.0994088541287796,-0.3025380676512739,1.5350833971019473,0.0785673537194043,0.1270384781358777,0.0347982813646297,0.824337392011468,0.3895478947938685,-0.0753060943857969,-1.1027705799203238,-0.3039918142647588,1.5318016035071604,1.0273340614363518,0.4900084467931876,-0.1400694396132081,0.8777407747026355,-0.27564825094058,-0.8302481315540788,0.0716585611071192,10.79643995690185,-1.4472685295673302,0.1082185794914117,-1.282000437717207
1.78,-1.082976802926465,-0.2949155450178335,1.5335934491067336,0.0750590850085536,0.12750628253846,0.0341983291476673,0.8191870479402849,0.3741315126343406,-0.0737072088606016,-1.082439118889632,-0.2941833495628171,1.5290329434316272,1.0488560812398755,0.4891788701853941,-0.1433423112863153,0.8166200430170376,-0.2575172035591599,-0.7708191079763921,0.0799442762597656,10.790586468357104,-1.4457277691182395,0.1115050045749802,-1.2798216495584291
1.8,-1.067458170531696,-0.2879325367683452,1.5322106616146098,0.0709343977386005,0.1282062772532224,0.0335920831870281,0.814646481057856,0.3619357999629965,-0.0719109710482864,-1.0420174505294508,-0.2762089693861165,1.5299080886637035,0.8488179175672838,0.3848534438683427,-0.0819483007154719,0.6568459207724902,-0.2270283441214438,-0.6097856335672058,0.0898118906157589,10.792731880922474,-1.4441548396669943,0.1159554499912353,-1.2784409712685658
1.82,-1.051139541048187,-0.2808289785754194,1.5308516686182536,0.0660315452870239,0.127017573295768,0.0327858350682178,0.817596366555271,0.3494274999869347,-0.0637233052526937,-1.0420174505294508,-0.2762089693861165,1.5299080886637035,0.8488179175672838,0.3848534438683427,-0.0819483007154719,0.7619010170608211,0.1474942748707519,-0.6254149988030894,0.4093832897796349,10.792731880922474,-1.4436631808406126,0.1207913185420253,-1.278325909948166
1.84,-1.034767137407694,-0.2739524181722479,1.5296605052565175,0.0607944763040986,0.1216777899349861,0.0317077968327557,0.8188116027128757,0.3390396164429136,-0.0558423903096505,-1.0420174505294508,-0.2762089693861165,1.5299080886637035,0.8488179175672838,0.3848534438683427,-0.0819483007154719,0.654778099401575,0.060761807880233,-0.5193941772010546,0.39404574715216,11.225842673704392,-1.4509730991429148,0.1263338775364954,-1.2675396019312846
1.86,-1.0184240439660972,-0.2672655855598365,1.5286069870118202,0.0556956922591972,0.1138723674861148,0.030535672110576,0.8150127175113183,0.3302648499117127,-0.0498506789618332,-1.033529271353778,-0.272360434947433,1.529088605656549,0.8547440914926835,0.3869978301151431,-0.083596519086446,0.5642000118026812,-0.1899442600778678,-0.4387383265600481,0.2995855673908632,11.125791165660305,-1.4610014681775665,0.1314048159899584,-1.2540796921540271
1.88,-1.0030149857937212,-0.2610629761903477,1.5276983949277445,0.0511689895783127,0.1058233661219853,0.0294592170985385,0.8069811001858962,0.3231260187850991,-0.0460615644840249,-1.0165529130024322,-0.2646633660700662,1.5274496396422397,0.8665964393434831,0.391286602608744,-0.0868929558283941,0.5697086431726818,-0.4015808662711062,-0.3569415563306755,0.1894557238904151,10.986682790956364,-1.4721953511045196,0.13629223476202,-1.2393320371976917
1.9,-0.9869997341774231,-0.254669698837178,1.5268026357229036,0.0468074194704253,0.0979609662456188,0.0284360246688446,0.7947887078989814,0.3166335458747383,-0.0437827641582853,-0.9995765546510866,-0.2569662971926993,1.52581067362793,0.8784487871942827,0.3955753751023448,-0.0901893925703422,0.6999992233823904,-0.6096196143457411,-0.3246236455180407,0.1139400162869792,10.735201208812214,-1.4822768598633431,0.1406505382074271,-1.2258372786676992
1.92,-0.9712658383502444,-0.2483962286224526,1.525933617302589,0.0428855986882128,0.0917610119477096,0.0275646603781522,0.7791638022764724,0.3110523339341914,-0.0432168338077901,-0.9820075789072008,-0.2490547896906524,1.5240068857765232,0.8903011350450822,0.3998641475959457,-0.0934858293122903,0.8300721046981805,-0.7812452811254478,-0.2790605970273446,0.0282965175247614,10.735201208812214,-1.490385672154635,0.1445142714472662,-1.2147514726554642
1.94,-0.9558762524146928,-0.2422263271731651,1.5250662158357606,0.0393893274456236,0.0882632508278411,0.0268700798901022,0.7605617489973419,0.3062211615201731,-0.0435475187058807,-0.9644386031633152,-0.2411432821886055,1.5222030979251164,0.9021534828958818,0.4041529200895465,-0.0967822660542385,0.9611008864778564,-0.930102663956528,-0.2415586207009157,-0.0165342449045282,10.641736266162296,-1.4952215080509514,0.1477625303393252,-1.2079538156247611
1.96,-0.9416118261999856,-0.2364470345956625,1.5242319597683702,0.036472099694536,0.0881194641462547,0.0263808118872937,0.7423326033527096,0.3023492456677464,-0.0442543206511801,-0.9465733187231596,-0.2331245553742186,1.5203168991551608,0.9140058307466812,0.4084416925831474,-0.1000787027961866,0.932460525024208,-0.9114572822316148,-0.1935957926213344,-0.0353400972649707,10.601428120064156,-1.494851549849764,0.1506013063623156,-1.2081951549570802
1.98,-0.9269513558241422,-0.2304368806490811,1.5233391105163938,0.033814309817294,0.0906511132062015,0.025999965564524,0.7249894763190382,0.2988710094537315,-0.0449971823479636,-0.928411725586734,-0.2249986092474917,1.518348289466657,0.9258581785974808,0.4127304650767482,-0.1033751395381347,0.885203403132714,-0.8671563516835679,-0.173911810700747,-0.0371430848391734,10.5675060323656,-1.49111692196626,0.153009750423225,-1.2128770839478138
2.0,-0.9126152072254242,-0.2244902306492827,1.522434093917956,0.0315631481406947,0.0950363139719693,0.0257120796387657,0.7098110340925049,0.2959328898019531,-0.0454807474253816,-0.8907018820081903,-0.2154933301763945,1.5210892513989955,0.7492131001163357,0.301383040921363,-0.043566594854149,0.7733878242778235,-0.7589221113266653,-0.1469059825889213,-0.0241782538709017,10.561374004743811,-1.4852521947104074,0.155023108956713,-1.220485188162609
2.02,-0.8985169866337077,-0.2185339361525176,1.5216171197787325,0.0317883750878908,0.0994023099601674,0.0255989106579695,0.7007064012398511,0.2988899297636885,-0.0362512653850562,-0.8907018820081903,-0.2154933301763945,1.5210892513989955,0.7492131001163357,0.301383040921363,-0.043566594854149,0.6648717234354553,-0.4552316426326919,0.1478519980867731,0.4614741020162696,10.574288426480052,-1.478587579669223,0.1543573965075471,-1.2300849421941948
2.04,-0.885285560004734,-0.2128470735913273,1.5210098234841136,0.0349908940495764,0.1025042501873312,0.0256758502388331,0.6925206306758991,0.2990629789672158,-0.0281882976222411,-0.8907018820081903,-0.2154933301763945,1.5210892513989955,0.7492131001163357,0.301383040921363,-0.043566594854149,0.5745612127891582,-0.4092885281975988,0.0086524601763615,0.4031483881407541,11.16904583685846,-1.4753237374203605,0.1502989542456802,-1.2383663509946443
2.06,-0.8715241116532142,-0.2069049567818889,1.5205210024237483,0.0395750276597969,0.1049649637276169,0.0258243107956905,0.6840607929377276,0.2949147114075769,-0.0211929691612381,-0.883209751007027,-0.2124794997671809,1.520653585450454,0.7540578248757952,0.3018854472148892,-0.0432804773553861,0.5867529262386779,-0.4229918869085747,-0.2074133779819409,0.3497664230501485,11.10113701499813,-1.472703811626023,0.1447339812600182,-1.2443435040767608
2.08,-0.8579315312370234,-0.2010771572302336,1.5201554033507547,0.0438014209086166,0.1068465145852902,0.0259328850602145,0.675626574892113,0.2882026542516996,-0.0157136430665184,-0.8682254890047003,-0.2064518389487536,1.5197822535533712,0.7637472743947141,0.3028902598019418,-0.0427082423578603,0.604588206461662,-0.4217109022807308,-0.3356028577938652,0.2739663047359872,11.021992564351422,-1.470450121775491,0.139758432991221,-1.2484239202110194
2.1,-0.8451751118248775,-0.195678736078231,1.5198984868888124,0.0469819429165159,0.1082987124894109,0.0259675876918877,0.6675918396540866,0.2806064925159454,-0.011597327064236,-0.8532412270023736,-0.2004241781303263,1.5189109216562882,0.7734367239136332,0.3038950723889944,-0.0421360073603345,0.5899209711723387,-0.4017367619013168,-0.379808086787714,0.2058158001141219,10.88821285586164,-1.4684234061040162,0.1354791809811044,-1.2516896510415978
2.12,-0.8319121866201324,-0.1901571219247605,1.5197044888070008,0.0493849064251207,0.1096413417558256,0.0259324664656071,0.6591457193396898,0.2721174221135015,-0.0080467718835422,-0.8377724925241009,-0.1943462766825464,1.5180682015090814,0.7831261734325522,0.304899884976047,-0.0415637723628087,0.6245152255030846,-0.4223060157198421,-0.4244535201221949,0.1775277590346887,10.88821285586164,-1.4665777493983954,0.1322988771703974,-1.2542197484220632
2.14,-0.8188172151374913,-0.1848103784349443,1.5195775913430911,0.0508251497650163,0.1109172522678222,0.0258294082587264,0.650807841788838,0.2630964738768619,-0.0048248090305211,-0.8223037580458282,-0.1882683752347665,1.5172254813618749,0.7928156229514711,0.3059046975630996,-0.0409915373652829,0.6349778613608815,-0.4168938775425901,-0.4510474118319757,0.1610981426510523,10.845879184376829,-1.4649311217307377,0.1302289583768043,-1.2561800538967798
2.16,-0.8058859056165621,-0.1796504253014907,1.519512773049252,0.0511167248346338,0.1121672523452107,0.0256475164323045,0.6427750629380053,0.2535277992960706,-0.001811076643061,-0.8065927873295826,-0.1821653534723104,1.5163970670896063,0.8025050724703902,0.3069095101501521,-0.0404193023677571,0.642587838747927,-0.4016389425416322,-0.4784337290395679,0.1506866193730042,10.82630138958848,-1.463317403899791,0.1294805625770695,-1.257559791997758
2.18,-0.7937470584360924,-0.1749280462626631,1.519505715274702,0.0501526850761153,0.113309582839468,0.0253887881067587,0.6354255572493106,0.2442140725401856,0.0009251663801888,-0.790639580375364,-0.1760372113951779,1.5155829586922758,0.8121945219893091,0.3079143227372047,-0.0398470673702313,0.6087851957663871,-0.3674752844347373,-0.4656863377942466,0.1368121511624973,10.82630138958848,-1.4616433435456673,0.130183069493789,-1.258660270712712
2.2,-0.7811173760754728,-0.1701444313049831,1.5195538898823218,0.0477443392444444,0.1144471065957922,0.0250201033727497,0.6279558180633795,0.2348308637931093,0.0037548515807019,-0.7619757805736269,-0.1627173426356538,1.5195519735937115,0.6519975502575666,0.2381497623359479,-0.0100838711144705,0.6161345799235883,-0.3734869592965539,-0.4691604373538161,0.1414842600256542,10.820617904942992,-1.459819656566558,0.13251838632011,-1.259496453684327
2.22,-0.7686039384768371,-0.1654938161238224,1.5196649009900196,0.0454527264914342,0.1145303555322314,0.0246160939319118,0.6235769647315909,0.230220326870769,0.0071819541957678,-0.7619757805736269,-0.1627173426356538,1.5195519735937115,0.6519975502575666,0.2381497623359479,-0.0100838711144705,0.3611663036184714,-0.2189426665894334,-0.2305268461170156,0.1713551307532979,10.816401400589712,-1.4580690759065766,0.1345249187055825,-1.2604418042906098
2.24,-0.7568063607337191,-0.1611664777017618,1.5198257552105732,0.0441122312830083,0.1130601657890528,0.0242278686402942,0.6183718955308197,0.2254514632178086,0.0095822172458376,-0.7619757805736269,-0.1627173426356538,1.5195519735937115,0.6519975502575666,0.2381497623359479,-0.0100838711144705,0.3728138564849521,-0.2602534600385564,-0.2384431826480182,0.1200131525034894,10.839523816258406,-1.4605896745790423,0.1358197618281909,-1.2579268505118235
2.26,-0.7445100431018888,-0.1567100059170236,1.520034665014912,0.0432886664247181,0.1104639759695073,0.0238224607821454,0.6113876322762576,0.2204359032368353,0.0111470582650374,-0.7554558050710513,-0.1603358450122943,1.5194511348825668,0.6553119488592177,0.2369369002951004,-0.0122856786134024,0.4369911399191583,-0.349213162728107,-0.2507779990486652,0.0782420509599899,10.782563419589678,-1.4644743388854211,0.1364258492243764,-1.2534230064442635
2.28,-0.7323728874231948,-0.1523535244944432,1.5202643438790435,0.0429925479941901,0.1074251112415121,0.0234419550706042,0.6025273593915401,0.2154521924072879,0.0117089603080087,-0.7424158540658999,-0.1555728497655754,1.5192494574602775,0.6619407460625202,0.2345111762134053,-0.0166892936112662,0.5090617426454845,-0.4430136442358734,-0.2491855414773702,0.0280951021485656,10.719823750965588,-1.4688268359266348,0.1364616570459964,-1.2483368980207343
2.3000000000000003,-0.7204355869369276,-0.1480979831370456,1.5204945859339425,0.0431562205864829,0.104730717065278,0.023113463138959,0.591566060601484,0.210341336670755,0.0113000446330572,-0.7293759030607486,-0.1508098545188564,1.519047780037988,0.6685695432658225,0.2320854521317102,-0.02109290860913,0.6050581161214165,-0.548064939502807,-0.2555427868266471,-0.0204457837475796,10.658134778937892,-1.4731334264295348,0.13600816495604,-1.2432898319809909
2.32,-0.7093167683572692,-0.1441526938156367,1.5206985887750115,0.0436369325850038,0.1032478718810625,0.0228738548424838,0.5793919009411036,0.2052112012121218,0.0101997909103036,-0.7160045121954322,-0.1461681454762222,1.5186259218658054,0.6751983404691249,0.2296597280500152,-0.0254965236069937,0.662832956925784,-0.608707983019019,-0.2565067729316583,-0.0550126861376777,10.604836084146882,-1.4758316797489934,0.1351514051526772,-1.2399458464575404
2.34,-0.6978670999371008,-0.1401085915355662,1.5208857247995116,0.0443526654131007,0.1032404469977139,0.0227073189090617,0.5663865903445728,0.1994673459182207,0.0085507696519515,-0.7026331213301157,-0.141526436433588,1.5182040636936227,0.6818271376724273,0.2272340039683201,-0.0299001386048575,0.7156277811474485,-0.6502655298265381,-0.2871927646950545,-0.0824510629176071,10.56290981571874,-1.475719188325599,0.1339997441748334,-1.2391426606362117
2.36,-0.686670426485294,-0.1361848704744636,1.5210363931741258,0.045085462237749,0.1045578529252673,0.0226048293193376,0.5540873908496337,0.193206950624117,0.0065875757593693,-0.6890960105347167,-0.1369453704929962,1.5176721151464936,0.6884559348757296,0.224808279886625,-0.0343037536027213,0.6969881414246238,-0.6149599747469592,-0.3130197647051871,-0.0981596946291098,10.530948227981751,-1.4739352132573444,0.1328414474233105,-1.2402120494930522
2.38,-0.6762524873181772,-0.1325785907520017,1.5211414939623662,0.0455622573476883,0.106706463408474,0.0225371496566987,0.5433037149024381,0.1867772435889619,0.0045740903536536,-0.6753931798092352,-0.1324249476544467,1.5170300762244178,0.6950847320790321,0.2223825558049299,-0.038707368600585,0.635772999920327,-0.5391837973597768,-0.3214853517577568,-0.1006742702857813,10.50576925740279,-1.4711383928336106,0.1320011844392669,-1.2424474735039557
2.4,-0.6654956061236764,-0.1289174344858711,1.521210094401062,0.0456506151705259,0.1095462905385393,0.0224683298309962,0.533087755053481,0.179722209967386,0.0023880059839546,-0.6490873015730553,-0.1232397285725536,1.521370198480049,0.5658585576576366,0.1772248085708397,0.0111654993328013,0.6303140088648481,-0.5107979924478534,-0.3527516810787903,-0.1093042184849506,10.503307596903142,-1.4674394450440331,0.1315930395393039,-1.2455123510627946
2.42,-0.6549100414672652,-0.1253934001569032,1.5213269080958407,0.0454720167433509,0.1123068879506581,0.0223818857308302,0.5260950997998656,0.1729968346324701,0.00987557677932,-0.6490873015730553,-0.1232397285725536,1.521370198480049,0.5658585576576366,0.1772248085708397,0.0111654993328013,0.6127634480511635,-0.3496327626807738,-0.3362687667457995,0.3743785397682667,11.13617890464866,-1.465225676132976,0.1315846004391599,-1.249535036089654
2.44,-0.6444568977464291,-0.1220070855494596,1.52160539490432,0.045122778409497,0.1145375467111235,0.0222638810056158,0.5195737908951769,0.1660122614229538,0.017538783952254,-0.6490873015730553,-0.1232397285725536,1.521370198480049,0.5658585576576366,0.1772248085708397,0.0111654993328013,0.6124468893805672,-0.3260654452344358,-0.3492286604758143,0.3831603586467032,11.13617890464866,-1.4628249586389777,0.131678971897189,-1.2534143698274474
2.46,-0.634645742203246,-0.1189203537227158,1.5220018882251365,0.0444746430649173,0.1162919889904647,0.0221173743432801,0.5135218231372569,0.15931822315255,0.0238140172282953,-0.6434287159964789,-0.1214674804868452,1.521481853473377,0.5703695262086763,0.1753143215672152,0.0124837811286308,0.5495794182310435,-0.302598387895997,-0.3347019135201898,0.3137616638020639,11.085481169842751,-1.460669690538645,0.1321579878677101,-1.2566084813751983
2.48,-0.6244413219895705,-0.1158064198179,1.5225399466103855,0.0433994318665646,0.1178622710160876,0.0219280031970573,0.5072589124823752,0.1524856968239579,0.0296267934651905,-0.6321115448433262,-0.1179229843154284,1.521705163460033,0.5793914633107556,0.1714933475599663,0.0151203447202899,0.5470279551406588,-0.3131455327440857,-0.3416263164296051,0.2906388118447581,11.025848557901554,-1.4588503248256857,0.133111253118985,-1.2591095172497226
2.5,-0.614361336866433,-0.1128256501618779,1.5231858325613317,0.0419253812365406,0.1192479542609094,0.0217079110834168,0.501081948966887,0.1460060220522038,0.0346740095369098,-0.6207943736901734,-0.1143784881440116,1.521928473446689,0.5884134004128351,0.1676723735527175,0.017756908311949,0.5138468971736638,-0.3088481757744121,-0.323983738587702,0.2523608035859674,10.979722746775224,-1.4572314357022194,0.1345346076510551,-1.2611446567692537
2.52,-0.6044038852933203,-0.1099686001506646,1.5239265552257784,0.0401275608517292,0.1205306661563701,0.021466581380855,0.4950066790285864,0.1400945129679504,0.0391464457529662,-0.6090261056819167,-0.1110250406729573,1.522283611612928,0.5974353375149145,0.1638513995454686,0.020393471903608,0.4792116708280443,-0.3037634969150271,-0.2955754542126723,0.2236218108028209,10.938467850844065,-1.4557627279144056,0.1362441512314086,-1.2628482800789596
2.54,-0.5950552062282481,-0.1073551914625104,1.5247122745109485,0.0383216778194342,0.1217060657229943,0.0212344574272975,0.4894022765665158,0.135343819845736,0.0433360205523097,-0.59725783767366,-0.1076715932019029,1.522638749779167,0.6064572746169938,0.1600304255382197,0.0230300354952671,0.4228798561577864,-0.2802201231035306,-0.2375346561107189,0.2094787399671737,10.905598456162808,-1.45431741738291,0.1381890784191324,-1.264662721130195
2.56,-0.5853262252409894,-0.1046946034075512,1.5256249599635878,0.0365600762593097,0.1228943450123254,0.0210043123549076,0.4838220780516041,0.1309773013623444,0.0477064881278343,-0.5852640212378514,-0.1044136700810298,1.5230598020351973,0.6154792117190733,0.1562094515309708,0.0256665990869262,0.4162513842629683,-0.2790099257455852,-0.2183259241695795,0.2185233787762291,10.903509378838862,-1.4529504631397168,0.1399904827455836,-1.2665550321114527
2.58,-0.5757058517917204,-0.1021162899864807,1.5266237446248767,0.0350243601775324,0.123994826094141,0.0207935099063533,0.4785183656345427,0.1270833751738004,0.0519439322192459,-0.5730446563744906,-0.1012512713103379,1.523546768381019,0.6245011488211526,0.1523884775237219,0.0283031626785853,0.3913053762490346,-0.2651856208530673,-0.194696309427203,0.2118722045705821,10.895091806169148,-1.451684731545112,0.1415473543774492,-1.268405540685598
2.6,-0.5661890888030021,-0.0996107350151006,1.5277054030896775,0.0337959743555382,0.1249865716445156,0.0206073495284207,0.473440478576407,0.1236616667048817,0.0560060126730354,-0.5517799335099932,-0.0957621212277907,1.529220941235839,0.4925170827041686,0.1284448853081024,0.0426015551451831,0.3674014270335338,-0.2538943529067861,-0.1710854234459338,0.2031040226894754,10.895091806169148,-1.4505879005116666,0.1427112652386941,-1.2700984416989365
2.62,-0.5572167995772428,-0.0973173727824153,1.528781445756383,0.0320793597964827,0.1249981259674673,0.0203685595870126,0.4710976576674213,0.1184021000730429,0.0570843875878008,-0.5517799335099932,-0.0957621212277907,1.529220941235839,0.4925170827041686,0.1284448853081024,0.0426015551451831,0.292893937386589,-0.1171410454492843,-0.2629783315919391,0.0539187457382669,10.886465228418274,-1.4488200326845622,0.1444329889033963,-1.2701155062258151
2.64,-0.5478297317979618,-0.0949881977218494,1.5299302228470042,0.0296193089515364,0.1234275254665678,0.0200334965502173,0.4675924600248867,0.1149271960703069,0.0577365598122159,-0.5517799335099932,-0.0957621212277907,1.529220941235839,0.4925170827041686,0.1284448853081024,0.0426015551451831,0.2489312000923113,-0.1752598821267298,-0.1737452001368003,0.0326086112207541,10.68171258543589,-1.451132850682139,0.1471085456891091,-1.2668062202316135
