t,x,y,z,roll,pitch,yaw,v_x,v_y,v_z,ref_x,ref_y,ref_z,ref_v_x,ref_v_y,ref_v_z,a_com,a_x,a_y,a_z,thrust,wind_x,wind_y,wind_z
0.0,-0.0412337075219657,-0.1113210080628749,2.6355709106270764,0.0123657838498537,0.1361495633876344,0.0257043251706922,-0.0001901914858332,0.0055105348388242,-0.0217875894439021,-0.0412336628140751,-0.1112558258090521,2.634912312786143,0.0230764933919822,0.1030591350519272,-0.121909621266208,1.1237228537179622,-0.0095095742916623,0.2755267419412148,-1.0893794721951076,10.534514047473747,-1.2869960713366313,0.1634808209195816,-1.1503473645232984
0.02,-0.0413445658642641,-0.1114666239031766,2.6348733722707447,0.0055133805251004,0.1384551594265241,0.0252652286982356,-0.0108093466799882,-0.0160041036725758,-0.0492180885262238,-0.0412336628140751,-0.1112558258090521,2.634912312786143,0.0230764933919822,0.1030591350519272,-0.121909621266208,1.8221405044747645,-0.5309577597077482,-1.075731925570007,-1.3715249541160826,10.53472793328001,-1.302492336682128,0.1718338294494191,-1.1414969768981162
0.04,-0.0416506688028859,-0.1118275921596868,2.633559171854656,-0.0098139013757564,0.1444070656389293,0.0242185465514965,-0.0187753030598563,-0.0178087201034864,-0.0807295244577783,-0.0412336628140751,-0.1112558258090521,2.634912312786143,0.0230764933919822,0.1030591350519272,-0.121909621266208,1.6276391614675705,-0.3982978189934051,-0.0902308215455314,-1.5755717965777285,8.773147004045313,-1.2906287481191945,0.1858220323898359,-1.128490246991563
0.06,-0.0420539540551994,-0.1121084878034144,2.631731006268997,-0.0255375555900798,0.1517279347629991,0.0230451788633621,-0.0229801520940553,-0.0113161140506754,-0.110126075286388,-0.0410028978801552,-0.1102252344585328,2.633693216573481,0.0277014960592901,0.1230591353499504,-0.1419096215642312,1.519861744844277,-0.2102424517099523,0.3246303026405492,-1.469827541430485,8.773147004045313,-1.278447708430782,0.2014849236722257,-1.115234183824726
0.08,-0.0425339976946515,-0.1122264944196288,2.629213064669138,-0.0416354514106306,0.1601194528634517,0.0217166510604175,-0.0245221406421166,-0.0004680576920809,-0.1400859214469453,-0.0405413680123156,-0.1081640517574942,2.631255024148157,0.0369515013939058,0.1630591359459969,-0.1819096221602776,1.595031690442115,-0.0770994274030639,0.5424028179297264,-1.4979923080278623,8.799488937493152,-1.2687964350458734,0.2165341627130254,-1.1043575087105015
0.1,-0.0430180644501872,-0.1120937456812861,2.626110119455373,-0.0570057177132865,0.1686162021908111,0.0203238935509154,-0.023592171624262,0.013527923733025,-0.1687423240324281,-0.0400798381444759,-0.1061028690564557,2.628816831722833,0.0462015067285215,0.2030591365420433,-0.2219096227563241,1.595259969070364,0.0464984508927297,0.6997990712553023,-1.4328201292741427,8.852930626736907,-1.262157295758955,0.2302322169194114,-1.0974707149593836
0.12,-0.0434415833499182,-0.1116651231121839,2.622639792712962,-0.0704035205993893,0.176494094852676,0.0190026772122316,-0.020867481212176,0.0308004085386503,-0.1951381894068827,-0.0391558080099055,-0.1020416863256148,2.6243786392677064,0.0554515120631372,0.2430591371380898,-0.2619096233523705,1.5831174767437513,0.1362345206042985,0.8636242402812643,-1.3197932687227298,8.986368674060941,-1.2580370734115895,0.2436601339488772,-1.0935750927209158
0.14,-0.0438163518127642,-0.1108293565781669,2.6184395161897736,-0.0827586694739789,0.1844406789904323,0.0176784244407462,-0.01658032977635,0.05177974806883,-0.2235327958455552,-0.0382317778753351,-0.097980503594774,2.61994044681258,0.0647015173977529,0.2830591377341363,-0.3019096239484171,1.7781774583568457,0.2143575717913032,1.0489669765089829,-1.4197303219336237,8.968549390279804,-1.255481324098531,0.2554195970515368,-1.0914024371188755
0.16,-0.0440909674880836,-0.1095409538620125,2.613667654409324,-0.0928952462573632,0.1919758903934332,0.0164828725129012,-0.0109315971980966,0.0756966461998063,-0.2522145598429823,-0.0370764976073993,-0.0929193208490319,2.614502254342552,0.0739515227323686,0.3230591383301827,-0.3419096245444635,1.8884979361599967,0.2824366289126692,1.1958449065488173,-1.4340881998713555,8.9793136408598,-1.2537458020329115,0.2649978268355063,-1.089984619362313
0.18,-0.0442326231762293,-0.1077536739645216,2.608321608560477,-0.1005484501008316,0.1988871484617323,0.0154832052857795,-0.0034250649046504,0.1012710362159559,-0.2809112094079845,-0.035689967206098,-0.0868581380883888,2.608064061857623,0.0832015280669843,0.3630591389262291,-0.3819096251405099,1.9582486742158292,0.3753266146723091,1.2787195008074792,-1.4348324782501087,8.9793136408598,-1.2530967936357298,0.2718422661444851,-1.0889339976301078
0.2,-0.0442119894532086,-0.1055738126632564,2.602712346482007,-0.1057360255310583,0.2045695997364431,0.0147557726927218,0.0052394426875577,0.1264175557600312,-0.3080568945997733,-0.0444038764214618,-0.1026901221537238,2.594276048090078,0.0180037492531931,0.1710844292723486,-0.3809112108981006,1.900203516421133,0.4332253796104089,1.257325977203766,-1.357284259589439,8.997958610447313,-1.2535469099106795,0.2771930547709482,-1.08936116730759
0.22,-0.0439649247044476,-0.1025770468769212,2.59636481148918,-0.1038026793810313,0.209054070900696,0.0146800578181064,0.0191835420315227,0.1696506283427953,-0.3242859912938048,-0.0444038764214618,-0.1026901221537238,2.594276048090078,0.0180037492531931,0.1710844292723486,-0.3809112108981006,2.411907984856144,0.6972049671982479,2.161653629138201,-0.8114548347015749,9.888196400397646,-1.2531627111840324,0.275482054349865,-1.0927944861111514
0.24,-0.043432556986966,-0.0988451320516166,2.589720227275197,-0.0941083671039797,0.211779094222055,0.0153695709974327,0.0332524264934054,0.2000035649426089,-0.3393777134601819,-0.0444038764214618,-0.1026901221537238,2.594276048090078,0.0180037492531931,0.1710844292723486,-0.3809112108981006,1.8350710804906396,0.7034442230941389,1.5176468299906831,-0.7545861083188554,9.888196400397646,-1.2616244050243344,0.2673735822808507,-1.1017994958526292
0.26,-0.0426246980431152,-0.0946000298295373,2.5827522038665776,-0.0824608932703999,0.213102472105659,0.0163542118963549,0.0467049827560637,0.2224766839244006,-0.3566034376497062,-0.0442238389289299,-0.1009792778610003,2.590466935981097,0.0222895120847618,0.1850471078836271,-0.4009112111961239,1.5674325508800333,0.672627813132913,1.123655949089586,-0.8612862094762141,9.759175154923469,-1.2686394090043736,0.2576134017129726,-1.1091831081617594
0.28,-0.0416165946539955,-0.0902001140583421,2.575792972460911,-0.07160522666729,0.2133137338934019,0.017367940805703,0.058643933328767,0.239456241620953,-0.3750673108596096,-0.0438637639438661,-0.0975575892755533,2.582848711763135,0.0308610377478993,0.2129724651061842,-0.4409112117921703,1.389027118399235,0.5969475286351652,0.8489778848276175,-0.9231936604951724,9.60389888195732,-1.2754814179363403,0.2471866001392433,-1.114020908814305
0.3,-0.040321090207622,-0.0852532069383004,2.5680676409500074,-0.0611952597416617,0.2126984975005018,0.0184165287652561,0.0701852751191217,0.2543071202496341,-0.3965923946521092,-0.0435036889588022,-0.0941359006901064,2.575230487545173,0.0394325634110367,0.2408978223287413,-0.4809112123882167,1.4292309108745636,0.5770670895177351,0.7425439314340532,-1.076254189624981,9.464561858343586,-1.28110513161338,0.2375253955842965,-1.1165483100731963
0.32,-0.0388048686798349,-0.0800328987214843,2.5598925560070938,-0.052077826870573,0.211445929801353,0.0193981674909966,0.0807747886783383,0.2670114659712618,-0.4199079991299891,-0.0427150376905815,-0.0893179442435315,2.5656122632974085,0.0480040890741741,0.2688231795512983,-0.5209112129842632,1.429296688763748,0.5294756779608313,0.6352172860813854,-1.1657802238939945,9.334721189576156,-1.2863696610867903,0.2289605942629813,-1.1165967674667672
0.34,-0.0370859932282401,-0.0745759904415137,2.551241016824388,-0.0442565653181343,0.2097506556271423,0.0202930850840195,0.090502243800115,0.2781060576601056,-0.4441050753251511,-0.0419263864223607,-0.0844999877969567,2.555994039049644,0.0565756147373116,0.2967485367738554,-0.5609112135803097,1.4170496147654963,0.4863727560888334,0.5547295844421929,-1.209853809758099,9.233206840681303,-1.291174163346515,0.2219042548343934,-1.114600900756067
0.36,-0.0352793438680451,-0.0691940276964795,2.5425676456157214,-0.0378089318680505,0.2078661883763052,0.0210682897402413,0.0991283818542192,0.2878893226881384,-0.4676539171112607,-0.0409234470125615,-0.0789838974198179,2.5453758147869787,0.065147140400449,0.3246738939964125,-0.6009112141763561,1.3459852170477349,0.4313069027052106,0.4891632514016364,-1.1774420893054804,9.146507151517651,-1.2947106352291975,0.2153737872449076,-1.1113020230677466
0.38,-0.0332084703502477,-0.0633372647369149,2.5329476976807883,-0.0317783692845536,0.2057000872953376,0.0218191018795072,0.1074275040853267,0.2972410274892403,-0.4931209278314151,-0.0397062194611839,-0.0727696731121153,2.533757590509412,0.0737186660635864,0.3525992512189695,-0.6409112147724025,1.4185366117184577,0.4149561115553764,0.4675852400550989,-1.2733505360077169,9.146507151517651,-1.2982577843326706,0.2096084842754698,-1.1070543573245162
0.4,-0.0309800416068299,-0.0573035295893338,2.5228123613037168,-0.0264063219460841,0.2034948482736145,0.0225062129643888,0.1149395186845107,0.3056609370593766,-0.5191139210669733,-0.0278370951459814,-0.0484752133624529,2.508291651289217,0.0782643036771064,0.2911317437178745,-0.5931209293215312,1.4168282692791307,0.3756007299591982,0.4209954785068109,-1.29964966177791,9.098385595015316,-1.301444230201518,0.2044420489852041,-1.1016307009037083
0.42,-0.0286103070815033,-0.0512326060502582,2.51288089135592,-0.0158779604518594,0.1988498712837876,0.0235642105215542,0.1336350715978043,0.3287498726780674,-0.5247322207143131,-0.0278370951459814,-0.0484752133624529,2.508291651289217,0.0782643036771064,0.2911317437178745,-0.5931209293215312,1.5117770484310076,0.9347776456646792,1.1544467809345398,-0.2809149823669921,9.063185210086884,-1.3006498456785185,0.1937798324627792,-1.095472999327239
0.44,-0.0257670238174703,-0.0445342331299355,2.502297231100392,0.0004702274098539,0.1892645428110033,0.0249775864826405,0.1489112141425128,0.3387396022919585,-0.5335199468943279,-0.0278370951459814,-0.0484752133624529,2.508291651289217,0.0782643036771064,0.2911317437178745,-0.5931209293215312,1.0128911099173294,0.763807127235426,0.4994864806945553,-0.4393863090007388,9.943299198063867,-1.3200639098931002,0.1788046174157397,-1.0898898787620854
0.46,-0.0226836165525566,-0.0377318403745423,2.4914902312183376,0.0175928535263888,0.1767353432909122,0.0262014661700558,0.158035838756925,0.3405334315942335,-0.5468773812310843,-0.0270544521092103,-0.0455638959252742,2.5023604419960024,0.0724316635954624,0.2899098869636013,-0.6131209296195543,0.8137838318318873,0.4562312307206079,0.0896914651137531,-0.6678717168378201,9.645401359221978,-1.3398728033725875,0.1628162140877721,-1.0796329623935736
0.48,-0.0194807009182522,-0.030949650103939,2.480369097838236,0.0337597663196544,0.1629101342596627,0.0270558555583082,0.1613440490437961,0.3374217941248812,-0.5644791712693139,-0.0254891660356682,-0.0397412610509167,2.490498023409572,0.0607663834321743,0.2874661734550549,-0.6531209302156008,0.9089135761896676,0.1654105143435585,-0.1555818734676167,-0.8800895019114796,9.645401359221978,-1.3564745132862237,0.1482188439919982,-1.062804826531221
0.5,-0.0164262830765865,-0.0246039208869178,2.4694460432980536,0.0476021622839391,0.1497764359291767,0.0275101890611462,0.1597446513411627,0.330795629169083,-0.5843813365381024,-0.023923879962126,-0.0339186261765592,2.478635604823141,0.0491011032688862,0.2850224599465086,-0.6931209308116473,1.0518558805972524,-0.0799698851316713,-0.3313082477899076,-0.995108263439426,9.403237617297236,-1.3705770005693028,0.1343276693514785,-1.0419279494657154
0.52,-0.0132868699227333,-0.0180874433743365,2.4575119815437767,0.0603729956819307,0.1368559515042317,0.0276761354902525,0.1540178889029776,0.3212410348118325,-0.6080675673642696,-0.0229418578967483,-0.028218176977629,2.464773186206908,0.037435823105598,0.2825787464379622,-0.7331209314076937,1.308743301898317,-0.2863381219092575,-0.4777297178625267,-1.1843115413083585,9.047369569336295,-1.3809917740591415,0.1222849056588985,-1.019299768054224
0.54,-0.0102986559976529,-0.0117884361164157,2.445086520262872,0.0712278274343608,0.1255227809763134,0.0276148551912774,0.1450262005593056,0.3093844720881871,-0.6332321320469626,-0.0219598358313706,-0.0225177277786988,2.450910767590675,0.0257705429423099,0.2801350329294159,-0.7731209320037402,1.461748828081371,-0.4495844171836002,-0.592828136182269,-1.258228234134651,9.047369569336295,-1.387460074091698,0.1126839002690422,-0.9969030848705964
0.56,-0.0076502174092305,-0.006041600501687,2.4328087396906115,0.0798345225050029,0.1165839449302713,0.0274358853242424,0.134230344250295,0.2964125565024121,-0.6578656732014805,-0.0212694457700751,-0.0168783714174823,2.436048348959541,0.0141052627790218,0.2776913194208695,-0.8131209325997866,1.4930107645464252,-0.5397928154505266,-0.6485957792887492,-1.231677057725894,8.973437593730523,-1.3913332505283371,0.1043539433718355,-0.9758879928857468
0.58,-0.0051011054781537,-0.0002694934204386,2.419370679775505,0.0872684616705803,0.1092663896338438,0.0272034610725548,0.121208098829055,0.2816440846245198,-0.6846499789277682,-0.0208706877128617,-0.0113001078939795,2.420185930313506,0.0024399826157337,0.2752476059123231,-0.853120933195833,1.6621414430324164,-0.6511122710619994,-0.738423593894616,-1.339215286314388,8.928142236374242,-1.3921336992684512,0.09767081819791,-0.9568686722943048
0.6,-0.0028299600499355,0.0051953649283133,2.4053903296214494,0.0931668980627321,0.1043342118110332,0.0270059259181849,0.1064856349021257,0.2657799233100249,-0.7120291654600313,0.0009592994632989,0.0138127108107873,2.385138180829116,0.0663215975466015,0.251434405467978,-0.7846499804178844,1.7450232186567782,-0.7361231963464665,-0.7932080657247459,-1.3689593266131506,8.874654063698472,-1.3902723722337516,0.0924851823851316,-0.9402866643036554
0.62,-0.0008354106774786,0.0103456314157927,2.3911028022306877,0.0987199359342518,0.1020503083953174,0.0269909681734312,0.0937449586255205,0.2495676448756552,-0.7153825052325564,0.0009592994632989,0.0138127108107873,2.385138180829116,0.0663215975466015,0.251434405467978,-0.7846499804178844,1.0445186590587756,-0.6370338138302588,-0.8106139217184838,-0.1676669886262582,10.172681118231594,-1.382171983335836,0.0881668842728258,-0.9202370630783406
0.64,0.0008271102002846,0.0149162421929995,2.377441813704638,0.1039205171517083,0.1020808008750265,0.0271655895638715,0.0821486073847585,0.2323411481104073,-0.722502481945445,0.0009592994632989,0.0138127108107873,2.385138180829116,0.0663215975466015,0.251434405467978,-0.7846499804178844,1.0976356650709458,-0.5798175620380999,-0.8613248382623964,-0.3559988356444277,9.857584760989994,-1.376733189938401,0.083228864262958,-0.9168093721843568
0.66,0.0023511116384149,0.0193566816927596,2.362868254596048,0.1086585068440536,0.103614870983306,0.0274416681846904,0.0710288355622655,0.2127464251889235,-0.734653664585953,0.0016225154387649,0.0163270548654671,2.3772916810249374,0.0553442972901108,0.2453924696366696,-0.8046499807159075,1.279896217781951,-0.5559885911246503,-0.9797361460741908,-0.6075591320254037,9.857584760989994,-1.3696736755247902,0.079048086598865,-0.9135717487501588
0.68,0.0036632777448528,0.0233951186040018,2.3480075342600557,0.1122291642849898,0.1060599705811106,0.0277285508993428,0.0609084184669042,0.1923914354441308,-0.7507450285376487,0.002948947389697,0.0213557429748267,2.3615986814165795,0.0333896967771294,0.2333085979740529,-0.844649981311954,1.3925520129609408,-0.506020854768064,-1.0177494872396358,-0.8045681975847818,9.5980729690109,-1.3615793096256592,0.0758459366056354,-0.9111109794892316
0.7000000000000001,0.0047838758804758,0.0270241567496093,2.3327952009048887,0.1146051552376114,0.10895450607074,0.0279773080982527,0.0517861467606969,0.1718579364767145,-0.7696275493378588,0.004275379340629,0.0263844310841862,2.345905681808222,0.011435096264148,0.2212247263114362,-0.8846499819080005,1.4674723274197758,-0.4561135853103668,-1.0266749483708149,-0.9441260400105068,9.40429133043017,-1.3531346418892445,0.073679797663512,-0.9092609409437316
0.72,0.0056885941249956,0.0300893362186705,2.317972540303097,0.11574808551961,0.1118173028076475,0.0281430805613256,0.0439853445672753,0.1520357090077101,-0.7896702122155996,0.004504081265912,0.0308089256104149,2.328212682170062,-0.0105195042488334,0.2091408546488194,-0.924649982504047,1.462430811974203,-0.390040109671081,-0.9911113734502166,-1.002133143887041,9.2579305885738,-1.344359196951115,0.0723034021054819,-0.9079427507758216
0.74,0.0064906127434663,0.0329063150777344,2.301947711958812,0.1155685498204774,0.1147134635451931,0.0281994962606652,0.0367005118316003,0.1308459946167607,-0.811771894649959,0.0047327831911949,0.0352334201366437,2.310519682531902,-0.0324741047618148,0.1970569829862027,-0.9646499831000934,1.5736558950307729,-0.3642416367837495,-1.0594857195474705,-1.1050841217179697,9.143579430186035,-1.3359378659195442,0.0721096328342573,-0.9059932727771524
0.76,0.0071538836181022,0.0352910463120189,2.285474931949804,0.1134903841815035,0.1173807855184253,0.0280866698643817,0.0300481175870916,0.1089137236004965,-0.8343799800509925,0.0044126201036534,0.039355817871307,2.2918266828788405,-0.0544287052747962,0.184973111323586,-1.0046499836961398,1.6096617553197765,-0.3326197122254347,-1.0966135508132115,-1.1304042700516714,9.091808195169506,-1.3285857956789626,0.073438191605123,-0.9042555576267076
0.78,0.0076898215209437,0.0372466693566997,2.26854630403186,0.1093218233147165,0.1198121760327246,0.0277895569296627,0.0239188042379455,0.0885275324208147,-0.8572519898214717,0.0035435920032872,0.0431761188144049,2.2721336832108783,-0.0763833057877776,0.1728892396609692,-1.044649984292186,1.5622852683548656,-0.3064656674573047,-1.019309558984091,-1.1436004885239603,9.04361168563537,-1.3219206159842345,0.0762431691557873,-0.9023453458457468
0.8,0.0080896173747473,0.0387513109461565,2.2520381937790104,0.10436187992181,0.1218897543534956,0.0274020042875556,0.0185026529394218,0.0712660662628379,-0.8792493256482972,0.008885761732841,0.0416730459777405,2.2256837045407862,0.0139471958301501,0.0778058908281332,-0.8822510476955552,1.424057313005358,-0.2708075649261849,-0.8630733078988352,-1.0998667913412752,9.04361168563537,-1.315477017552941,0.0800105805669267,-0.9002870093005827
0.8200000000000001,0.0083939866459828,0.0399279419848228,2.234609600794281,0.0976564717304353,0.1258015519242024,0.0270530837581193,0.0128420480156221,0.0479680483653668,-0.8602807895373045,0.008885761732841,0.0416730459777405,2.2256837045407862,0.0139471958301501,0.0778058908281332,-0.8822510476955552,1.528598580602726,-0.2830302461899862,-1.1649008948735595,0.9484268055496348,9.012448492901058,-1.299540732280529,0.0851698810175407,-0.8876123485989996
0.84,0.0086242732688946,0.0406727382975839,2.2176112368700847,0.0896050695640071,0.1326050395464762,0.026857155775241,0.01089250883932,0.0282556967936404,-0.8409455591648586,0.008885761732841,0.0416730459777405,2.2256837045407862,0.0139471958301501,0.0778058908281332,-0.8822510476955552,1.384041763317525,-0.0974769588151036,-0.9856175785863184,0.9667615186222944,11.364697098805664,-1.2919787778515526,0.0905696742102286,-0.898835775096958
0.86,0.0088342878762518,0.0410429656534355,2.201768617040695,0.0813010691874762,0.1403437549116903,0.0266859344847226,0.011624365092342,0.0122241422711355,-0.827628231060729,0.0090252336911425,0.0424511048860218,2.2168611940638305,0.011952874148591,0.075661562509597,-0.8872508592703718,1.0427099091024477,0.0365928126510982,-0.8015777261252455,0.6658664052064778,11.364697098805664,-1.2843652942211692,0.0971526693224391,-0.9109339957442876
0.88,0.0091011476775821,0.0411353655480776,2.185325976447689,0.072216718136454,0.148797982909257,0.0264396991185532,0.0152679304321858,-0.0017198207399391,-0.8175063459842976,0.0093041776077455,0.0440072227025845,2.19921617310992,0.0079642307854728,0.0713729058725244,-0.8972504824200053,0.880571164558002,0.1821782669921892,-0.6971981505537332,0.5060942538215707,11.047884225076814,-1.2768469630399464,0.1042389442454853,-0.9225609818437052
0.9,0.0094683306198415,0.0409779599635911,2.169048900999791,0.0630472110078745,0.1566776245567777,0.0260779159103352,0.0214106535825262,-0.0129705210050899,-0.8108424815712555,0.0095831215243485,0.0455633405191471,2.1815711521560086,0.0039755874223546,0.0670842492354518,-0.9072501055696388,0.7223544716297567,0.3071361575170204,-0.5625350132575412,0.333193220652106,10.810186273667568,-1.2705764240479132,0.1115963923818542,-0.9326284693654306
0.92,0.009980073707937,0.040622957838245,2.152872773795329,0.0540053338312026,0.1633244031058421,0.0255894179305058,0.0294596443442961,-0.0216751453127849,-0.8070911887713489,0.0096626332727956,0.0469050255038562,2.163426150044616,-1.3055940763482404e-05,0.0627955925983793,-0.917249728719272,0.6217494155441606,0.402449538088496,-0.4352312153847466,0.1875646399953301,10.620828874306426,-1.2660957280827532,0.1190022609491232,-0.9404370474471953
0.94,0.0106705134387433,0.040119600869136,2.1367653901209653,0.045331392896332,0.1683677134013732,0.0249987377383882,0.0391016059540647,-0.0280373110503438,-0.8038295712143294,0.0097421450212427,0.0482467104885652,2.1452811479332228,-0.0040016993038816,0.0585069359613067,-0.9272493518689056,0.600172320347828,0.4820980804884305,-0.318108286877947,0.163080877850974,10.474459563468372,-1.2631215348529146,0.1258081574695319,-0.945343969126956
0.96,0.0115148763969776,0.0395431980320887,2.121521379295149,0.037577158900175,0.1715107332892379,0.0243758526454793,0.0491653157900346,-0.0322064052584034,-0.8009598947388894,0.0097219406856118,0.0494811790573474,2.1268861552430893,-0.0079903426669998,0.0542182793242341,-0.9372489750185388,0.5632376169343787,0.5031854917984944,-0.2084547104029813,0.1434838237720004,10.46230303347511,-1.2622750714254796,0.132625786637505,-0.948268445565999
0.98,0.0126128603392289,0.0388697875934311,2.105530150367238,0.0300162191389214,0.1730938611890867,0.0236934589475408,0.0599770660235649,-0.0348063471025914,-0.7983221628572127,0.009602020265903,0.0506084312102029,2.108241171974215,-0.0119789860301179,0.0499296226871616,-0.9472485981681724,0.5714264392400307,0.5405875116765154,-0.1299970922094002,0.1318865940838354,10.45553865212878,-1.2636136541937515,0.1389774726944541,-0.949091524331388
1.0,0.0139287595902658,0.0381628249988779,2.089585739064742,0.0231619876517519,0.1729000899329743,0.0230188428188997,0.0709197589442927,-0.0357368065762484,-0.7962350444147783,0.0156117136404071,0.0371294702383016,2.0656140422243774,0.0448807676046258,-0.0125876298404426,-0.7622051791156909,0.55893726522351,0.5471346460363915,-0.046522973682846,0.1043559221217182,10.4344497479633,-1.266429394265772,0.1447275418619098,-0.948161846957754
1.02,0.0155442504840963,0.037409934493054,2.073968890247388,0.0158094628790878,0.1699176408460178,0.0222769153296225,0.089795763896758,-0.0386185547260704,-0.7655051325875636,0.0156117136404071,0.0371294702383016,2.0656140422243774,0.0448807676046258,-0.0125876298404426,-0.7622051791156909,1.8089606935149871,0.9438002476232644,-0.1440874074911033,1.536495591360737,10.403880425753414,-1.2607414572963471,0.1496893877509429,-0.93935985627165
1.04,0.0174194856192176,0.0366816932428691,2.0597047405434386,0.0084666678788694,0.1635626169175739,0.0215486779340461,0.1059345806477519,-0.0377038051554639,-0.7375190775188848,0.0156117136404071,0.0371294702383016,2.0656140422243774,0.0448807676046258,-0.0125876298404426,-0.7622051791156909,1.615949760362468,0.8069408375496933,0.0457374785303266,1.3993027534339395,12.290547078318014,-1.275467860190245,0.1566581220493591,-0.9334588416903647
1.06,0.0196791916261488,0.0359599776575464,2.0452417388284494,0.0011293357883119,0.1540493902598008,0.0208735629669207,0.1185840551062748,-0.0343818870371396,-0.7103066150256812,0.0160605213164534,0.0370035939398971,2.0579919904332207,0.041861507920838,-0.0081438863880128,-0.7549817823673864,1.5096046328473636,0.6324737229261453,0.1660959059162137,1.360623124660182,12.071027857195077,-1.2915132575600032,0.1632021147363234,-0.9236653171060004
1.08,0.0221429178220605,0.0353267031835048,2.0312963175320844,-0.0054962401764943,0.1426374576928482,0.0203490108897334,0.1265720491998068,-0.0291128422484575,-0.6855243531801527,0.0169581366685459,0.0367518413430883,2.042747886850907,0.0358229885532623,0.0007436005168466,-0.7405349888707777,1.3282802648573215,0.3993997046765986,0.2634522394341032,1.2391130922764226,11.885199943191765,-1.3076416611318824,0.1688516313921526,-0.9128119113731142
1.1,0.024715391545197,0.0348158263074126,2.0178258484836777,-0.0112667513902592,0.130293276028138,0.0199921370903196,0.1297904115458825,-0.0223094326986871,-0.6627123877191007,0.0178557520206384,0.0365000887462794,2.027503783268593,0.0297844691856867,0.0096310874217062,-0.726088195374169,1.201072443577797,0.1609181173037877,0.3401704774885223,1.140598273052601,11.709766365584072,-1.3240776101171643,0.1740316536974041,-0.9001069864986434
1.12,0.0271746387976721,0.0344686894606064,2.005435280604261,-0.0158969975813681,0.118488010017653,0.0197997542557823,0.1285898576956624,-0.0146909137287385,-0.6426681596934697,0.0184514414043521,0.0366927104947136,2.0129820193611097,0.023745949818111,0.0185185743265657,-0.7116414018775603,1.0738415129643624,-0.0600276925110068,0.3809259484974313,1.0022114012815495,11.443471246351692,-1.3389663734024602,0.1783557676029624,-0.886955408571792
1.14,0.0296977564652729,0.0342683944183407,1.992801457460356,-0.0198925179867325,0.1066598105965608,0.0197251527526716,0.1234637015061214,-0.0058203442390637,-0.6217615453307591,0.0190471307880659,0.0368853322431477,1.9984602554536264,0.0177074304505354,0.0274060612314253,-0.6971946083809515,1.1640994421244846,-0.2563078094770486,0.4435284744837396,1.0453307181355287,11.427823645723947,-1.3512896571292958,0.181804601176621,-0.8741687685872559
1.16,0.0320779253932547,0.0342564780389329,1.98058106783472,-0.022916022894546,0.0960625383621436,0.0197545183486692,0.1146584412236751,0.003952544437229,-0.601312922146032,0.0194918571875902,0.0373001411642033,1.984299661383558,0.0116689110829597,0.0362935481362848,-0.6827478148843428,1.2157180510626164,-0.4402630141223135,0.4886444338146388,1.0224311592363533,11.427823645723947,-1.361301837376978,0.1843584191730406,-0.8640089660389528
1.18,0.0341464140327035,0.0344312674968405,1.9693453515870123,-0.0248885644893143,0.0875651965503883,0.0198489064250153,0.1034843639055432,0.013721543047334,-0.5824119299024789,0.0197856206029252,0.0379371372578804,1.970500237150905,0.0056303917153841,0.0451810350411444,-0.6683010213877341,1.2016039754705776,-0.558703865906597,0.4884499305052476,0.9450496121776564,11.397886592563736,-1.369472695704789,0.1862960765865903,-0.8560504756270685
1.2,0.0360696843966056,0.0348189114452845,1.957901836306192,-0.0260312429272074,0.0805975118831289,0.019990857417821,0.0892756358240014,0.0244382956015897,-0.5629589703056037,0.0393206322279806,0.0351173446492072,1.9402247550918883,0.0605929770091713,0.0105510446333688,-0.5607084519535749,1.3182890199819624,-0.7104364040770889,0.5358376277127894,0.9726479798437604,11.365673281515228,-1.3755395211254318,0.1875575894283299,-0.8521539834649892
1.22,0.0376901634986639,0.0355235986410629,1.946817796598902,-0.0228644839211108,0.0758471267497288,0.0203828132594655,0.0734184735092843,0.0442273968806249,-0.5465067857837871,0.0393206322279806,0.0351173446492072,1.9402247550918883,0.0605929770091713,0.0105510446333688,-0.5607084519535749,1.5114004281188185,-0.7928581157358546,0.9894550639517596,0.8226092260908313,11.184728058447943,-1.380159230881714,0.1858377692696801,-0.8564068516329113
1.24,0.0389219394001428,0.0364894732806532,1.936581580568748,-0.0153234584621895,0.0735054875529892,0.0209987885170272,0.0570574135512911,0.0555470654218006,-0.5318223934348271,0.0393206322279806,0.0351173446492072,1.9402247550918883,0.0605929770091713,0.0105510446333688,-0.5607084519535749,1.23637631557844,-0.8180529978996622,0.5659834270587829,0.7342196174480009,11.184728058447943,-1.3811916827623307,0.1803169160782545,-0.8585116975101749
1.26,0.0398851569633197,0.0376731726513656,1.9261021491659087,-0.0061409266975099,0.0733481815039061,0.0216779058087859,0.0403804894517478,0.06182922400108,-0.5169161745873361,0.0399265619980723,0.0352228550955409,1.9346176705723528,0.052014699629897,0.0099169449505758,-0.5563677563637941,1.1616590228703476,-0.8338462049771622,0.314107928963972,0.7453109423745496,11.11419941818167,-1.377774135560749,0.173268259844717,-0.8637083067354365
1.28,0.0405280014192132,0.0389422670362013,1.9159142635427235,0.0028718644440832,0.0749197827271358,0.0223301832201835,0.0249463654775386,0.0645871217910659,-0.5026540104136122,0.0411384215382558,0.0354338759882083,1.923403501533281,0.0348581448713482,0.0086487455849898,-0.5476863651842324,1.0597493925328754,-0.7717061987104591,0.1378948894992952,0.7131082086861917,11.070078622776236,-1.3729429763281085,0.1662299048315577,-0.8706453224665386
1.3,0.0408767964957865,0.040237642548129,1.906004889889332,0.0111113194411067,0.0776659146756165,0.0229407118959156,0.0109221298940146,0.0648050621419907,-0.4890122472576719,0.0423502810784392,0.0356448968808756,1.9121893324942096,0.0177015901127995,0.0073805462194037,-0.5390049740046708,0.9782949244751225,-0.7012117791762038,0.0108970175462394,0.6820881577970145,11.029576951218589,-1.3665731348555163,0.1599346219476788,-0.8788176958392676
1.32,0.0409631655816905,0.0414528522702221,1.896838538572494,0.0180163321282533,0.0809087006513844,0.0234774014445382,-0.0009745057404771,0.0631766860681493,-0.4765662335477036,0.0427043128806952,0.0357925078052637,1.901409233014116,0.0005450353542508,0.0061123468538177,-0.5303235828251093,0.8647034250632363,-0.5948317817245875,-0.0814188036920737,0.6223006854984142,10.99793974046588,-1.3586009914641195,0.1539003633306413,-0.8884047102888295
1.34,0.0408257997119244,0.0426837642159635,1.88744049869599,0.0242695948880251,0.0845839055502293,0.0239919588657144,-0.0119930986852635,0.0600387698192205,-0.463925728950645,0.0430583446829512,0.0359401187296518,1.8906291335340228,-0.0166115194042979,0.0048441474882317,-0.5216421916455476,0.8529921824619033,-0.5509296472393214,-0.1568958124464368,0.6320252298529311,10.97366649858759,-1.350799109070612,0.1486199170259547,-0.8977724421217711
1.36,0.0404805673932948,0.0438370903696008,1.8782888712536383,0.029440257511152,0.0882658789265438,0.0244449849809139,-0.0218614551986408,0.0556179592343397,-0.4518854062367125,0.0429834626162435,0.0360560246699002,1.8800660688334183,-0.0337680741628466,0.0035759481226456,-0.512960800465986,0.8091622172935238,-0.4934178256688621,-0.2210405292440414,0.6020161356966258,10.955175258012789,-1.3440813012251436,0.1443878214916602,-0.9062303976741172
1.38,0.039980218304371,0.0448415914943403,1.8698129935706589,0.0333884590094033,0.0916477726329157,0.0248142065013615,-0.030229615045535,0.0505172218698899,-0.4409258251752954,0.042479666680572,0.036140225626009,1.869720038912303,-0.0509246289213953,0.0023077487570596,-0.5042794092864243,0.7351123008187923,-0.4184079923447135,-0.2550368682224874,0.5479790530708545,10.93174811380868,-1.337269880898655,0.1406968512440987,-0.9144110956220728
1.4,0.0392923049949747,0.0457885875098878,1.8611124400074095,0.0366189151609812,0.0949697235059623,0.0251367398808542,-0.0380364839906821,0.0445684744821287,-0.4297274056445544,0.0384687375520943,0.0473674525878348,1.8477667023118944,-0.0293562021086091,0.0298148206937949,-0.4233095420267683,0.7445458316930201,-0.390343447257354,-0.2974373693880636,0.5599209765370511,10.912935188347548,-1.3308268769871243,0.1377516212251032,-0.9217978033035068
1.42,0.0383900345440732,0.0466251414253171,1.8526369534048124,0.0394819820050118,0.1000856579143673,0.0255069981060167,-0.0513873745331269,0.0392544929809764,-0.4183813874195869,0.0384687375520943,0.0473674525878348,1.8477667023118944,-0.0293562021086091,0.0298148206937949,-0.4233095420267683,0.9154463491000208,-0.667544527122238,-0.2656990750576127,0.5673009112483723,10.902735721104364,-1.3249444480170145,0.1352608399586207,-0.9307487916741304
1.44,0.0372573301097361,0.0473436349706484,1.8443833630044568,0.0421588915812983,0.1082844263576394,0.0259987955628275,-0.0606639228850978,0.0328747515917819,-0.4075925768450941,0.0384687375520943,0.0473674525878348,1.8477667023118944,-0.0293562021086091,0.0298148206937949,-0.4233095420267683,0.7796696145351324,-0.4638274175985484,-0.3189870694597245,0.5394405287246412,10.951733391526432,-1.3120951530973386,0.1326388996926051,-0.9439191919633082
1.46,0.0360499404005137,0.0479004277375164,1.836737224868063,0.0442803535132229,0.1174320267431848,0.0265094478517501,-0.0656065689799028,0.0261562282108194,-0.3978285617388731,0.0381751755310082,0.0476656007947727,1.8435336068916264,-0.029181519521224,0.0256743404585759,-0.4197862853970628,0.6420753418282481,-0.2471323047402499,-0.3359261690481285,0.4882007553110523,10.906820964484725,-1.2989423004347556,0.1303711166923509,-0.9586660738055732
1.48,0.0347190432657757,0.0483454954463107,1.8288854948230744,0.0460284426998226,0.1273600639021941,0.0270406101529785,-0.0668981613432555,0.0187603832621983,-0.3878967033291785,0.037588051488836,0.0482618972086486,1.8350674160510911,-0.0288321543464536,0.0173933799881379,-0.412739772137652,0.6225121380490012,-0.0645796181676337,-0.3697922474310534,0.4965929204847286,10.880532222446163,-1.2867772146720808,0.1286240289243927,-0.9731088982044112
1.5,0.0334005418308275,0.0486378273228333,1.821228166339309,0.0471930032239016,0.1366671748664216,0.0275116792975684,-0.0646732635479661,0.0108797187513717,-0.3783722219354985,0.0370009274466638,0.0488581936225245,1.826601225210556,-0.0284827891716833,0.0091124195176999,-0.4056932588782411,0.6280342131409766,0.1112448897644731,-0.3940332255413296,0.4762240696840003,10.880532222446163,-1.2762547087961609,0.1274578163947045,-0.9863842494786972
1.52,0.0321577427970467,0.0487677419784652,1.813757671448729,0.0475626729818492,0.1446853057659991,0.0278683244432934,-0.0596040417883926,0.0025664236293792,-0.3691809803659485,0.0364312716632302,0.0490404420128785,1.8184873600329912,-0.0281334239969129,0.0008314590472619,-0.3986467456188303,0.6694901168480777,0.2534610879786729,-0.4156647560996256,0.4595620784774989,10.878027892241334,-1.2682449711680928,0.1270592511378655,-0.9971143015237856
1.54,0.0310397206068854,0.0487292756412619,1.8064688265436768,0.0469451925086923,0.1510058295771661,0.0280700673752102,-0.0524265365696616,-0.0059110668738176,-0.3601752462819544,0.0358616158797965,0.0492226904032325,1.8103734948554264,-0.0277840588221425,-0.007449501423176,-0.3916002323594194,0.714995931436531,0.3588752609365506,-0.4238745251598443,0.4502867041997038,10.8820976642819,-1.2624162546108568,0.1275725367687998,-1.0058525300516576
1.56,0.0301256435104896,0.0485349298594884,1.7997103268710006,0.0452712271062185,0.1552289815846032,0.0280932646192508,-0.0442690753119152,-0.0139719439864205,-0.3516948278403252,0.0353006942257321,0.0491979147818256,1.8024357925093468,-0.0274346936473722,-0.015730461893614,-0.3845537191000086,0.7131609407091143,0.4078730628873171,-0.4030438556301443,0.4240209220814639,10.891690098557774,-1.259297909346221,0.1292028402905691,-1.0118068547345147
1.58,0.0293366622899739,0.0481743988218674,1.792770909106585,0.0424316019345284,0.1578377697153822,0.0279500977170817,-0.0351625743234659,-0.02128565707943,-0.3426716459510194,0.0347485067010369,0.0489661151486576,1.7946742529947526,-0.0270853284726018,-0.024011422364052,-0.3775072058405977,0.7379643806901907,0.4553250494224662,-0.3656856546504735,0.4511590944652893,10.912747337307335,-1.2585321371236802,0.1318756300005374,-1.0157124713491157
1.6,0.0287310253973744,0.0476892537386185,1.7860130060916202,0.0392220526522602,0.1587007906650241,0.0277021809968605,-0.0259843433332816,-0.0267442058354971,-0.3335584739747766,0.0275785335738006,0.0471101159678959,1.7756373268090342,-0.0204149071971084,-0.0242246594349906,-0.3150661961701976,0.7019358626329744,0.4589115495092177,-0.2729274378033557,0.4556585988121392,10.912747337307335,-1.2598538698256312,0.1349116334166108,-1.0175746792320328
1.62,0.0282951371293173,0.0470628938817913,1.779453645413189,0.0346767417449362,0.1584408235573826,0.0273187738808808,-0.0181720499500687,-0.0345631992112859,-0.3227893558459015,0.0275785335738006,0.0471101159678959,1.7756373268090342,-0.0204149071971084,-0.0242246594349906,-0.3150661961701976,0.7715933038033823,0.3906146691606439,-0.3909496687894408,0.538455906443755,10.91762666235536,-1.2617996216611502,0.1389011817957586,-1.0168919543453
1.64,0.02801126529339,0.0463281154673716,1.7731152340260283,0.0292445890519223,0.1576389532457259,0.0268644378714765,-0.0106804767526242,-0.0383269989299569,-0.311577043081664,0.0275785335738006,0.0471101159678959,1.7756373268090342,-0.0204149071971084,-0.0242246594349906,-0.3150661961701976,0.7000103835265903,0.3745786598722219,-0.188189985933548,0.5606156382118727,11.023517536154031,-1.2639238564314537,0.1439181476363098,-1.0176182268481315
1.66,0.0278778269259331,0.0455839973250099,1.7673038053957688,0.0243067047950562,0.1563752282124297,0.0264469565379883,-0.0038180494683378,-0.0398058928677715,-0.3007124361666293,0.0273743845018295,0.046867869373546,1.7724866648473323,-0.0174653737718368,-0.0248124599061028,-0.3095451062140332,0.6467606182538579,0.3431213642143208,-0.0739446968907341,0.5432303457517385,11.037837723856684,-1.2667566219220765,0.1487808957059544,-1.018028621315565
1.68,0.0278740192647601,0.0447854279633941,1.7614115539135702,0.0196999108585764,0.1545163533595274,0.0260523467081498,0.0030006069828704,-0.0399824919469785,-0.28907554478847,0.0269660863578874,0.0463833761848462,1.7661853409239283,-0.0115663069212938,-0.025988060848327,-0.2985029263017045,0.6744303225342455,0.3409328225604144,-0.0088299539603479,0.5818445689079632,11.047673485719317,-1.2700718547680696,0.1531167180031471,-1.0183907677818231
1.7,0.0280009875109398,0.0439948941572495,1.7557527391480163,0.0158164851448392,0.152120463301727,0.0257153476599618,0.0092674022788658,-0.0391141817386645,-0.2773901804366726,0.0265577882139452,0.0458988829961463,1.7598840170005243,-0.0056672400707508,-0.0271636617905513,-0.2874607463893758,0.6644065508670688,0.3133397647997704,0.0434155104156987,0.58426821758987,11.059093278909131,-1.2732426324551591,0.1566355396455012,-1.0199135017964291
1.72,0.0282454927017976,0.0432306525410259,1.7503276946962036,0.0126913243121631,0.1492304689060821,0.025440695460063,0.014760754671448,-0.0374847709071456,-0.2657004388869291,0.0264444434125302,0.0453556097603353,1.7541348020727368,0.0002318267797921,-0.0283392627327756,-0.2764185664770471,0.6509261818108859,0.274667619629109,0.0814705415759488,0.5844870774871752,11.061237746740517,-1.2774676575749708,0.1597348711533433,-1.0215433621369718
1.74,0.028570087725981,0.0425398263653679,1.745390858925984,0.0103713744344553,0.1461467013924959,0.0252352823699795,0.0190320005197868,-0.0354417144446823,-0.2545525627842254,0.0263310986111152,0.0448123365245243,1.7483855871449492,0.0061308936303352,-0.0295148636749998,-0.2653763865647183,0.6055839380445083,0.2135622924169425,0.1021528231231649,0.5573938051351868,11.062385280461058,-1.2821626660340717,0.1622346059603407,-1.0232022265958152
1.76,0.0289878997319935,0.0418570137812381,1.740423835019275,0.0085222458088906,0.1427412859299157,0.0250717961618073,0.0223996655486495,-0.0330245307081523,-0.242733821048912,0.0263652304809637,0.0442396732651577,1.74291242671497,0.0120299604808782,-0.0306904646172241,-0.2543342066523896,0.6262319881018674,0.1683832514431353,0.1208591868264979,0.5909370867656666,11.066282709764891,-1.2867819004530094,0.1641743199249685,-1.0247751149353643
1.78,0.029459410656934,0.0412267045656482,1.7356928752453833,0.0072595070651328,0.1394392200794809,0.0249606443601615,0.0244599248378952,-0.0301589266011776,-0.2309586588666871,0.0265468390220759,0.0436376199822354,1.737715320782799,0.0179290273314212,-0.0318660655594483,-0.2432920267400609,0.6146356637361127,0.1030129644622854,0.1432802053487371,0.5887581091112439,11.073192519953407,-1.291162012453704,0.1655840148287619,-1.026724690792061
1.8,0.0299574843925115,0.0406594906750464,1.731196613054918,0.0067589565260793,0.1365927531762688,0.0249127646576495,0.0251588084128027,-0.0268007381277434,-0.2192616898704373,0.0306824068988287,0.0397187582355893,1.724144942302049,0.0283232762574633,-0.0263259179039211,-0.2049459159747794,0.6094771361044088,0.034944178745375,0.1679094236717087,0.5848484498124945,11.072062564079715,-1.294580423514991,0.1662529653088485,-1.0290908646725911
1.82,0.0304397620145259,0.040167663055657,1.7271051916423348,0.0065548116091261,0.1342576583365189,0.0248919295723005,0.0255015545910641,-0.02499528101879,-0.21199821584835,0.0306824068988287,0.0397187582355893,1.724144942302049,0.0283232762574633,-0.0263259179039211,-0.2049459159747794,0.3746171551881971,0.0171373089130689,0.0902728554476667,0.363173701104362,11.0713836616369,-1.298679129748192,0.1667238888160815,-1.031301675171452
1.84,0.0309457559587093,0.0396931450502188,1.7229488650220153,0.0063914108586368,0.1320303442636493,0.0248781618842845,0.0249965201304701,-0.0225490604356807,-0.2039783158856223,0.0306824068988287,0.0397187582355893,1.724144942302049,0.0283232762574633,-0.0263259179039211,-0.2049459159747794,0.4199936022125091,-0.0252517230297,0.1223110291554651,0.4009949981363878,10.816627958638492,-1.300711257427818,0.1669763267781027,-1.032415994277681
1.86,0.0314322144649886,0.0392704922343777,1.718958742609683,0.0065165738218278,0.130340505435133,0.0248902415410673,0.0236262977200369,-0.0198642635837092,-0.1954196948335278,0.0309656396614034,0.0394554990565501,1.7220954831423012,0.0290959465413769,-0.0255593161644698,-0.1997433673963979,0.453694935787705,-0.068511120521662,0.134239842598579,0.4279310526047214,10.85780930819874,-1.30180222879866,0.166937980439779,-1.0344864742325903
1.88,0.0318874274988549,0.0389021959404392,1.7151443707748464,0.0070386886747011,0.1293652581617626,0.0249357000932896,0.0220317338869837,-0.017150240440757,-0.1864599632837365,0.0315321051865526,0.0389289806984716,1.7179965648228055,0.0306412871092041,-0.0240261126855672,-0.1893382702396348,0.474829824470008,-0.0797281916526591,0.1357011571476057,0.4479865774895675,10.891785802788036,-1.301489266024012,0.1665088459864762,-1.0374897142216992
1.9,0.0322917595158621,0.0386010904496289,1.7116892334079927,0.007919519533617,0.128986011165538,0.0250096116400117,0.0206573331422299,-0.0147281313476897,-0.1776987326641865,0.0320985707117019,0.0384024623403932,1.71389764650331,0.0321866276770314,-0.0224929092066647,-0.1789331730828718,0.4596595257221361,-0.0687200372376904,0.1211054546533647,0.4380615309775001,10.91628251970269,-1.300659305554665,0.1656822799319262,-1.041527163829434
1.92,0.032692060310484,0.0383301857032101,1.7082345910983725,0.0092065996508993,0.1290126376957482,0.0251153365576577,0.0194879652188364,-0.0125372056111025,-0.1682240966355076,0.0327423032652425,0.0379526041562599,1.7103189830416523,0.0337319682448586,-0.0209597057277621,-0.1685280759261087,0.4897353999851386,-0.0584683961696759,0.1095462868293648,0.4737318014339423,10.935799447953286,-1.2993708439628815,0.1644964857826499,-1.0461891378923969
1.94,0.0330720885708225,0.0380978143113066,1.7049697066061016,0.010761536582592,0.1293335843658516,0.0252415390991162,0.0186101007968286,-0.0108545683090489,-0.1587497426745034,0.0333860358187831,0.0375027459721266,1.706740319579995,0.0352773088126858,-0.0194265022488595,-0.1581229787693456,0.4831285988535705,-0.0438932211003859,0.0841318651026773,0.4737176980502119,10.95692735825378,-1.2980911834301525,0.1631384251061831,-1.05101004502929
1.96,0.033437862125396,0.0378926549997285,1.7018936077057072,0.0124381505996934,0.129822453727882,0.0253769128335635,0.0180403156767142,-0.0097730722321953,-0.1493486920242351,0.0340684018865195,0.0370912178749659,1.7034217835472567,0.036822649380513,-0.0178932987699569,-0.1477178816125825,0.4740096047978952,-0.0284892560057229,0.0540748038426817,0.4700525325134125,10.961055357038276,-1.2967786635152665,0.1615941693797528,-1.056507429776841
1.98,0.0337777747852311,0.0377113110074637,1.6991450119659297,0.0139831904874223,0.1303429345069792,0.0255017147135445,0.0177839277417259,-0.0093750518864642,-0.1404593722467556,0.0347894014684514,0.0367180198647777,1.7003633749434377,0.0383679899483402,-0.0163600952910544,-0.1373127844558195,0.4450959477323744,-0.0128193967494158,0.0199010172865537,0.4444659888739766,10.96284581566306,-1.295385046421576,0.1600681928156005,-1.0618943626833832
2.0,0.0341331909737666,0.0375221510222579,1.69643460862344,0.0153754408611551,0.1308699612200194,0.025615179009536,0.0177859730075737,-0.0095741829004606,-0.1310544873186353,0.0346669711723174,0.0372425584131405,1.692122043353592,0.017444882697924,-0.0174650394475709,-0.1366517891214475,0.4703496514696051,0.0001022632923895,-0.0099565506998221,0.4702442464060138,10.967143487266185,-1.2939465712640654,0.1587459713214292,-1.0670708987628066
2.02,0.0344797950599155,0.0373593127984805,1.693809418342898,0.0174635667478868,0.1311675879736566,0.0257715853037609,0.0168415383653083,-0.0073451798062742,-0.1319360287746192,0.0346669711723174,0.0372425584131405,1.692122043353592,0.017444882697924,-0.0174650394475709,-0.1366517891214475,0.1288169915618847,-0.0472217321132653,0.111450154709324,-0.0440770727991937,10.353719751073186,-1.3007797837611412,0.1575282722134239,-1.0746359557070335
2.04,0.0347901429483885,0.0372218284179182,1.6912966855972196,0.020076106046341,0.1311724226430534,0.0259551951823538,0.0158575282269016,-0.0073637012318995,-0.1324915324709996,0.0346669711723174,0.0372425584131405,1.692122043353592,0.017444882697924,-0.0174650394475709,-0.1366517891214475,0.0565067109374351,-0.049200506920336,-0.0009260712812692,-0.0277751848190219,10.353719751073186,-1.3001208554549126,0.1547927913595614,-1.0738152028963894
2.06,0.0350957970127727,0.0370610993261102,1.688648539447949,0.022765961196368,0.1310273724295666,0.0261356617473833,0.0147507548550063,-0.0087336286268748,-0.1322573685165282,0.0348414199992967,0.0370679080186648,1.6907555254623774,0.0173770736891636,-0.0190830369597922,-0.1358902724963858,0.088832442297478,-0.0553386685947653,-0.0684963697487626,0.0117081977235741,10.404291253666088,-1.2992736668375946,0.1520793950725903,-1.0730596833900854
2.08,0.035378693487554,0.0368633018469153,1.68601268675893,0.0251085923835521,0.1308416603197198,0.0262849978261911,0.013592312443419,-0.0109504837927687,-0.1313121949406588,0.0351903176532551,0.0367186072297134,1.6880224896799485,0.0172414556716428,-0.0223190319842349,-0.1343672392462626,0.1336954443505493,-0.0579221205793662,-0.1108427582946934,0.04725867879347,10.45364943893128,-1.2982581067873555,0.1496851640073934,-1.0725123111813528
2.1,0.0356381791617413,0.0366147508216872,1.6834022493172858,0.0270009548166229,0.1306929642313259,0.0263983009716396,0.0124191554089032,-0.0137080118407725,-0.1297819098467661,0.0355392153072136,0.0363693064407619,1.6852894538975196,0.0171058376541221,-0.0255550270086776,-0.1328442059961393,0.1682411277880021,-0.0586578517257881,-0.1378764024001908,0.0765142546946318,10.493889365846371,-1.2971315002078845,0.1478049213372007,-1.0722690838573126
2.12,0.0358631436965045,0.0363232832978924,1.680954687165818,0.0283631855009957,0.1306225867753807,0.026472983475708,0.0113298828357113,-0.0167817861938277,-0.1279347984442373,0.035881332060296,0.0358582059005884,1.6826325697775968,0.0169702196366013,-0.0287910220331202,-0.131321172746016,0.1873927963233936,-0.0544636286595948,-0.1536887176527626,0.0923555701264414,10.52556769752573,-1.2958091518910315,0.1462571929493209,-1.0722898997845538
2.14,0.036077743546572,0.0359492806903063,1.678415934429491,0.0292473882519424,0.1306373905640142,0.0265119291738661,0.0101984736355791,-0.0204352019718181,-0.1260425269622904,0.0362234488133785,0.0353471053604148,1.679975685657674,0.0168346016190806,-0.0320270170575629,-0.1297981394958928,0.213355483796424,-0.0565704600066114,-0.1826707888995185,0.0946135740973463,10.55003672923158,-1.2945263898070656,0.1452635128522449,-1.0724412096368847
2.16,0.0362700916761846,0.0354969358131712,1.6759140993937665,0.0293843598538071,0.1307471681392446,0.0264987568288866,0.0091102736207817,-0.0245284527875748,-0.1242345184361154,0.0365621751160229,0.0347551049446302,1.6773568773690044,0.0166989836015598,-0.0352630120820056,-0.1282751062457695,0.2302595076409385,-0.0544100007398694,-0.2046625407878324,0.0904004263087496,10.54658375789586,-1.2931129939034889,0.1449795305171853,-1.0724294758988615
2.18,0.0364334462518066,0.0349901149843656,1.6735705793459832,0.0286953718811299,0.1309307664216185,0.0264302095981368,0.0081545971101738,-0.028523602961458,-0.1225405936138274,0.0368975109682293,0.0340822046532345,1.6747761449115877,0.0165633655840391,-0.0384990071064482,-0.1267520729956462,0.2221706765550425,-0.0477838255303932,-0.1997575086941615,0.0846962411143979,10.543027818482187,-1.2914921588972634,0.145509247229685,-1.0723812591592483
2.2,0.0365869146741462,0.0343776504170512,1.671138732150928,0.0270816943448108,0.1311886906748434,0.0262981839291739,0.0072575618025817,-0.0324265622968283,-0.1207305324758995,0.0368411761073153,0.0335639348362927,1.6674435496652915,0.0102560797008343,-0.0230583129179549,-0.1231144194616506,0.2197389658188662,-0.0448517653796049,-0.1951479667685159,0.0905030568963939,10.542177278826784,-1.289857287739815,0.1469327356373693,-1.072390221374791
2.22,0.036717365420921,0.0336570405189477,1.6687233605623175,0.0234479115668115,0.1316299806527259,0.0260325136989002,0.0058334925430172,-0.038491871705002,-0.1209745795865747,0.0368411761073153,0.0335639348362927,1.6674435496652915,0.0102560797008343,-0.0230583129179549,-0.1231144194616506,0.3117511446055404,-0.0712034629782295,-0.3032654704086837,-0.0122023555337594,10.414563847175486,-1.2892846211067155,0.1504218011425962,-1.071885049299356
2.24,0.0368204013114173,0.0328646837058833,1.666301378352023,0.0184504985962583,0.1323329124038953,0.0256827214273765,0.0045860309483354,-0.0401874947599825,-0.1211904667265109,0.0368411761073153,0.0335639348362927,1.6674435496652915,0.0102560797008343,-0.0230583129179549,-0.1231144194616506,0.1058053074280477,-0.0623730797340891,-0.0847811527490281,-0.0107943569968113,10.414563847175486,-1.287533291342496,0.1549253818717289,-1.071805549335365
2.26,0.0368980175029909,0.0321077282517268,1.6639986237444744,0.0138124420419636,0.1331447216593806,0.0253654064477066,0.0036832633301016,-0.0394218020102131,-0.1211992139588324,0.0369437369043236,0.0333333517071131,1.6662124054706753,0.0106763762189664,-0.0219652549092543,-0.1232291846312152,0.0591893418119823,-0.0451383809116889,0.0382846374884723,-0.0004373616160742,10.423129804463317,-1.286035647815625,0.1596286875186522,-1.0721358352587562
2.28,0.03696442232133,0.0313420133176351,1.6615756612669612,0.0095382359536261,0.1340640072636503,0.0250793773105932,0.0030396394582403,-0.0372288902985998,-0.1210961120214021,0.0371488584983403,0.032872185448754,1.6637501170814422,0.0115169692552306,-0.0197791388918531,-0.1234587149703445,0.114386881599926,-0.0321811935930632,0.1096455855806633,0.0051550968715161,10.441273693296353,-1.2848992106545192,0.1637830922986321,-1.0728723865564955
2.3000000000000003,0.0370211416639229,0.030631665661949,1.6591558116965466,0.0060600952293886,0.1349781725492851,0.0248535519038245,0.0026913293288356,-0.0340636754349753,-0.1209001099053169,0.037353980092357,0.0324110191903949,1.6612878286922093,0.0123575622914948,-0.0175930228744519,-0.1236882453094738,0.1595174121268992,-0.0174155064702358,0.1582607431812245,0.0098001058042591,10.448391289228312,-1.2841536281833537,0.1670552521828331,-1.0739091877017173
2.32,0.0370711104749295,0.0300213794540736,1.6568612501187774,0.0034765213718216,0.1357918762609712,0.0246933344019582,0.0026022435050063,-0.0304791482065589,-0.1206467544707962,0.0376011313381869,0.0320591587329059,1.6588140637860198,0.0131981553277589,-0.0154069068570507,-0.123917775648603,0.1797286893589016,-0.004454291191465,0.1792263614208224,0.0126677717260346,10.448391289228312,-1.2836922245923217,0.1698069315035085,-1.0752117192504829
2.34,0.0371239272771786,0.0294553717790288,1.6544509248765014,0.0014225229505996,0.1365577310373923,0.0245754041957027,0.0026988253023463,-0.026399430875512,-0.1204027569361465,0.0378482825840168,0.0317072982754169,1.6563402988798304,0.0140387483640231,-0.0132207908396495,-0.1241473059877323,0.2044074138927988,0.0048290898669985,0.2039858665523437,0.0121998767324868,10.45577817928097,-1.2835911869936982,0.1719262440752336,-1.0766504949187103
2.36,0.0371805160773057,0.0289763408074919,1.6520453738647376,4.624080550136592e-05,0.1372056091711995,0.0245091746030227,0.0029589578780971,-0.0218186719424738,-0.1201679490379662,0.0381164486557533,0.0314100907183629,1.6538607957151623,0.0148793414002873,-0.0110346748222482,-0.1243768363268616,0.2297071837613277,0.01300662878754,0.2290379466519115,0.0117403949090155,10.457839599387626,-1.283822006539173,0.1733617050333242,-1.0782600217816356
2.38,0.0372401648262672,0.0286108432081376,1.649764493432371,-0.000521372608023,0.1377000872209737,0.0245016779101736,0.0033054589615032,-0.0169807207448045,-0.1199390855572331,0.0384056295533964,0.0311675360617439,1.6513755542920168,0.0157199344365515,-0.008848558804847,-0.1246063666659908,0.2427870120323786,0.0173250541703063,0.2418975598834621,0.011443174036655,10.457839599387626,-1.284388900246554,0.1741483047346621,-1.0800882051064815
2.4,0.0373106430900161,0.0283276956452496,1.6473683879449217,-0.0001882110396025,0.138096332075451,0.0245618078726043,0.0037233153651849,-0.0116635413196372,-0.1196840920384135,0.0374054377743423,0.0277618071708973,1.6437675391545092,0.007076538432838,-0.0111846835961203,-0.1013872032008278,0.2669832518537491,0.0208928201840823,0.2658589712583686,0.0127496759409768,10.460794073561374,-1.2852086530575846,0.174015739444423,-1.0819882700982242
2.42,0.0374045345004736,0.0281558052429042,1.645018035373126,0.001361570648976,0.1381073543295541,0.0247080076443124,0.0056315396647333,-0.0059328238493553,-0.1151523667878305,0.0374054377743423,0.0277618071708973,1.6437675391545092,0.007076538432838,-0.0111846835961203,-0.1013872032008278,0.3775545538341194,0.0954112149774197,0.2865358735140926,0.2265862625291513,10.463990750923584,-1.2831200760333985,0.1724259081025723,-1.0834917882197606
2.44,0.0375352578813704,0.028089162619981,1.6427698140267997,0.0041420363184073,0.137566859169499,0.0249368286644701,0.0072689835950317,-0.001369789167591,-0.1099252037566995,0.0374054377743423,0.0277618071708973,1.6437675391545092,0.007076538432838,-0.0111846835961203,-0.1013872032008278,0.3564608726279729,0.0818721965149212,0.2281517340882163,0.2613581515565524,10.757100067907231,-1.2853636404932614,0.170142456142487,-1.087265291525234
2.46,0.0376855965167797,0.0280878230344487,1.64073175793432,0.0071390349455559,0.1367453600708924,0.0251721725135952,0.0084226547004913,0.0009283155690785,-0.1048745150756584,0.0374762031586707,0.0276499603349361,1.642753667122501,0.007830754327105,-0.0100254761663834,-0.0976768267295468,0.2833800387865745,0.0576835552729823,0.114905236833478,0.2525344340520548,10.757100067907231,-1.2875311243594698,0.1672792576299402,-1.0908031099796789
2.48,0.0378629389333841,0.0281192094620526,1.6386909916470582,0.0100568321488126,0.1357231536014944,0.0253950638435946,0.0092045103772036,0.0020895271544987,-0.0994684962578187,0.0376177339273275,0.0274262666630137,1.6407259230584843,0.0093391861156389,-0.0077070613069097,-0.0902560737869847,0.2792165383002871,0.0390927838356114,0.0580605792710128,0.2703009408919848,10.765349523721852,-1.2893239824304827,0.1645770570723892,-1.0940978586622436
