t,x,y,z,roll,pitch,yaw,v_x,v_y,v_z,ref_x,ref_y,ref_z,ref_v_x,ref_v_y,ref_v_z,a_com,a_x,a_y,a_z,thrust,wind_x,wind_y,wind_z
0.0,0.6767596278114026,0.3494078272222948,2.6706882273846624,0.0157201291097363,0.1499617836702007,0.028273614143839,0.0012148824863038,-0.0064419285329472,-0.0034169349926656,0.6767967575947751,0.3491744452064336,2.6705830140468114,-0.0987676401095132,-0.0679145744016432,-0.1034833347199111,0.3696276079489686,0.0607441243151933,-0.3220964266473611,-0.1708467496332835,10.662132369263418,-1.4131481443541414,0.1764580422454477,-1.2772881795262832
0.02,0.6768963034212737,0.3495104107206879,2.670395061880805,0.020634180444199,0.145097099522979,0.0285270067374257,0.0121155972362784,0.0132000650594255,-0.0273928232970386,0.6767967575947751,0.3491744452064336,2.6705830140468114,-0.0987676401095132,-0.0679145744016432,-0.1034833347199111,1.6427695473855235,0.5450357374987289,0.982099679618638,-1.1987944152186494,9.239590036977916,-1.4090138253692053,0.1700066124430983,-1.2712975458297855
0.04,0.6772152304807075,0.3498709522372785,2.66954772747938,0.0336976434548222,0.1311341069747751,0.0290230683301846,0.018006906844687,0.0201437300539086,-0.0560015677741362,0.6767967575947751,0.3491744452064336,2.6705830140468114,-0.0987676401095132,-0.0679145744016432,-0.1034833347199111,1.5011514522305855,0.2945654804204297,0.3471832497241577,-1.430437223854878,9.239590036977916,-1.4258304160653603,0.1547858647690859,-1.2472027297825714
0.06,0.677549857228431,0.3502473124260906,2.6681292971607897,0.0487342084575431,0.1117008920557342,0.0291749566950973,0.0142215526233062,0.0166759953761976,-0.0843186512086424,0.67580908119368,0.3484952994624171,2.6695481806996124,-0.1187676404075364,-0.0800118355026506,-0.1234833350179343,1.4389330288560254,-0.1892677110690409,-0.1733867338855532,-1.4158541717253093,9.049702910367614,-1.4497335903702504,0.1378262381286896,-1.2097363859427115
0.08,0.6777108022172601,0.3504861255759151,2.666152077547571,0.0628567072377876,0.090616511301737,0.0288219244237782,0.0014968401973046,0.0074255287433718,-0.1119307873728426,0.6738337283914897,0.3471370079743843,2.667478514005214,-0.1587676410035828,-0.1042063577046655,-0.1634833356139807,1.5889615341472216,-0.6362356213000785,-0.4625233316412905,-1.3806068082100116,9.013541447760872,-1.4734788229762217,0.1232325146569236,-1.1703576455147793
0.1,0.6775548438981132,0.3505031327963912,2.663766725663754,0.0745302952415761,0.0715370998892383,0.0281157950710066,-0.0175090112248474,-0.0048906867573951,-0.1377483044803765,0.6718583755892994,0.3457787164863514,2.665408847310816,-0.1987676415996293,-0.1284008799066805,-0.2034833362100272,1.7171602590760546,-0.9502925711076048,-0.6158107750383481,-1.2908758553766937,9.022478592559764,-1.4962855014457586,0.1103161799493247,-1.1310646208031567
0.12,0.6769451268271748,0.350247676271144,2.6607264323988047,0.0848755719005769,0.0540442537206729,0.0271729725161356,-0.0426329043800505,-0.0198531456152182,-0.1649086470731895,0.6678830227573068,0.3432106988882178,2.661339180586616,-0.2387676421956757,-0.1525954021086954,-0.2434833368060736,1.9954757528626343,-1.2561946577601533,-0.748122942891154,-1.3580171296406498,9.042887175632131,-1.5158366938975008,0.0998756246399147,-1.0970555135469036
0.14,0.6757919951488813,0.349675500503646,2.6571360515707387,0.0933630292173939,0.0400843018424265,0.026210926491281,-0.0714375770951653,-0.0364245042115906,-0.1927777942055817,0.6639076699253142,0.3406426812900842,2.6572695138624147,-0.2787676427917223,-0.1767899243107103,-0.2834833374021202,2.1685297195573368,-1.440233635755739,-0.8285679298186214,-1.3934573566196096,9.05113666258194,-1.5261142427209682,0.0915903840553195,-1.0700882326851622
0.16,0.6741320722952577,0.3488070293651289,2.6532024396492973,0.0996508800323608,0.0306891286822449,0.0254214040676182,-0.1016638304575484,-0.0537453152031899,-0.2198313303768632,0.6589323170784205,0.3374698006369002,2.652199847123313,-0.3187676433877687,-0.2009844465127253,-0.3234833379981666,2.2054085251402515,-1.511312668119155,-0.8660405495799627,-1.3526768085640766,9.024183355586048,-1.5329395779172537,0.0850223981168334,-1.0464015027246087
0.18,0.6717445987101768,0.3475329795730058,2.6485008731547928,0.1045953979258066,0.0253256416928373,0.0248622109092055,-0.1355336895166705,-0.0724925328095125,-0.2488865422266772,0.6529569642166256,0.3336920569286659,2.64613018036931,-0.3587676439838151,-0.2251789687147402,-0.363483338594213,2.420139901070381,-1.6934929529561062,-0.937360880316132,-1.4527605924906983,9.011550893009373,-1.534518826501747,0.0802478055245679,-1.0293755412171046
0.2,0.668670821383532,0.3458786340156572,2.643215448460424,0.1080348420711651,0.024993985061523,0.0246995817170219,-0.1695985555803732,-0.0917307476676119,-0.2781281257435701,0.6649679142343432,0.3439083529325302,2.636056546043459,-0.2355336910067866,-0.1374462846715616,-0.3488865437167933,2.442127257863432,-1.7032433031851355,-0.961910742904968,-1.462079175844648,8.991392455289315,-1.5292442717306387,0.0767536385184653,-1.022446197524529
0.22,0.6651088154000812,0.3438726883395054,2.6378069533272632,0.108213415139224,0.0296993932718628,0.0248681278163271,-0.203094181488529,-0.117900547853411,-0.2886597878219523,0.6649679142343432,0.3439083529325302,2.636056546043459,-0.2355336910067866,-0.1374462846715616,-0.3488865437167933,2.189595455145198,-1.6747812954077888,-1.3084900092899574,-0.5265831039191093,8.972708398294344,-1.5180681299777896,0.0767017288882746,-1.0141017193514803
0.24,0.6607210290383329,0.3412573439585341,2.631914596652024,0.1043706614817072,0.0395087826327123,0.0252710703275691,-0.2332450392303066,-0.1413993231792341,-0.3001636927591572,0.6649679142343432,0.3439083529325302,2.636056546043459,-0.2355336910067866,-0.1374462846715616,-0.3488865437167933,1.9960000583558797,-1.5075428870888794,-1.174938766291156,-0.5751952468602439,10.11824016947412,-1.5032823508515605,0.0794356846543003,-1.0266515172076265
0.26,0.6557848031446452,0.3382286043734843,2.625757002261821,0.0988898539721205,0.0518942671211836,0.0257757975937698,-0.2583268480917401,-0.1599276381824397,-0.3151424071401623,0.6626125773242754,0.3425338900858146,2.6325676806062908,-0.2555336913048098,-0.1504370350439715,-0.3688865440148165,1.7297091353224874,-1.2540904430716786,-0.9264157501602768,-0.7489357190502532,9.869460770008118,-1.4872770635749604,0.0838928430218467,-1.042634670232335
0.28,0.6503985829285256,0.3348660909982644,2.6192596873999467,0.0932768779908243,0.0651123297402275,0.0262829368841664,-0.2786454277858176,-0.1752954156223666,-0.333816167489804,0.6579019035041396,0.3397849643923833,2.625589949731955,-0.2955336919008563,-0.1764185357887911,-0.4088865446108629,1.579337352992985,-1.0159289847038733,-0.768388871996345,-0.9336880174820872,9.625073500721555,-1.4709524005962322,0.0883522732926717,-1.0584599521606992
0.3,0.6449453705880359,0.3314084325613447,2.612711116556857,0.0883812700936993,0.0772858792719858,0.0266951037303796,-0.2941444322505057,-0.1879337150309083,-0.354584312029569,0.6531912296840039,0.3370360386989521,2.6186122188576197,-0.3355336924969028,-0.2024000365336107,-0.4488865452069094,1.44158036453135,-0.7749502232344024,-0.6319149704270846,-1.0384072269882498,9.41757095172852,-1.4539498904062926,0.0927513875364765,-1.07352212655274
0.32,0.6389209132259881,0.3275251504065984,2.605362886860454,0.0839106899775606,0.0888886797888506,0.0270135388208619,-0.3072903453616972,-0.1997644596189494,-0.3792950875164849,0.6464805558340658,0.3329880379682798,2.609634487953481,-0.3755336930929492,-0.2283815372784304,-0.4888865458029558,1.5193781410491796,-0.6572956555595783,-0.591537229402056,-1.2355387743457928,9.245193160239978,-1.4383436250763546,0.0965731179770087,-1.0861962119818986
0.34,0.6326615457582968,0.3234159432857195,2.59750132049174,0.0801908340499787,0.0987514222418826,0.0271961286049587,-0.3178837644464251,-0.2106291255071529,-0.4056995280411418,0.6397698819841278,0.3289400372376077,2.600656757049342,-0.4155336936889957,-0.25436303802325,-0.5288865463990023,1.5227080910232855,-0.5296709542363914,-0.5432332944101739,-1.320222026232845,9.09341745456095,-1.4251932690143152,0.0995968264195107,-1.0948864348985474
0.36,0.6262070867236849,0.3190916785622672,2.589098149443636,0.0770106894561123,0.1067609920259302,0.0272393699503554,-0.3270185224305719,-0.2212569917681274,-0.433299392359858,0.6320592081192885,0.324242498988315,2.5906790261303034,-0.4555336942850421,-0.2803445387680697,-0.5688865469950487,1.5476981739842226,-0.4567378992073406,-0.531393313048728,-1.3799932159358097,9.019411816039792,-1.4133666219484051,0.102278121885788,-1.101023813675982
0.38,0.6199155148332384,0.3147905568129358,2.580594757291275,0.074273513125726,0.1128494005478254,0.0271654415918448,-0.3347959143343874,-0.2309408401712573,-0.4604158162657444,0.6233485342395482,0.3188954232204017,2.579701295196363,-0.4955336948810885,-0.3063260395128893,-0.6088865475910952,1.4912789730329354,-0.3888695951907744,-0.4841924201564915,-1.3558211952943238,8.969367795739345,-1.4030400832256391,0.1045761547215914,-1.1057791441039688
0.4,0.6131394694590219,0.3100699938676182,2.57107682657527,0.0716304361308005,0.1178899644208509,0.0269904625631296,-0.3423830114016232,-0.2405763945502082,-0.4899960603773564,0.603175719116519,0.3032435148043729,2.557573966477988,-0.4121513364139505,-0.2416735682278669,-0.5604158177558606,1.6010924331530103,-0.3793548533617907,-0.4817777189475486,-1.479012205580596,8.925037195368532,-1.3942057166209092,0.1066247234033485,-1.108397854500237
0.42,0.6062059728233605,0.3050027555639158,2.5611678057898164,0.0645914919103867,0.1230514236653825,0.0265010668115953,-0.3502900070742861,-0.2631904703523494,-0.4980921423997052,0.603175719116519,0.3032435148043729,2.557573966477988,-0.4121513364139505,-0.2416735682278669,-0.5604158177558606,1.2643808258047669,-0.3953497836331476,-1.1307037901070585,-0.4048041011174424,8.87017819645007,-1.3863474943737517,0.1133514326455935,-1.1051795827534996
0.44,0.5991369728454384,0.2995950590444575,2.551110673390131,0.0529731237264531,0.1292299428029467,0.0257158569872618,-0.3559987458792506,-0.2755017167591946,-0.507519942970222,0.603175719116519,0.3032435148043729,2.557573966477988,-0.4121513364139505,-0.2416735682278669,-0.5604158177558606,0.8261959671149468,-0.2854369402482237,-0.6155623203422583,-0.4713900285258365,9.909803059384105,-1.378887462534496,0.1238768853207309,-1.1108164477672886
0.46,0.592332769030493,0.2942997599092445,2.5413292907194305,0.0411421057820971,0.1351021443844793,0.0248618521121246,-0.3598409409645435,-0.2809874078848174,-0.5216067899849984,0.5990542057523796,0.3008267791220942,2.5519698083004294,-0.4276224208298631,-0.2438201138391888,-0.5804158180538838,0.7798950714950421,-0.1921097542646466,-0.2742845562811402,-0.7043423507388236,9.909803059384105,-1.3704141665916547,0.1358602174097329,-1.1170948759156905
0.48,0.5851050932133207,0.2886584727881656,2.530699793970786,0.0293298938784658,0.1407011525059006,0.0239336243980351,-0.3626514368122575,-0.2827218250041565,-0.5408090611875266,0.5908111790241005,0.2959933077575369,2.540761491945312,-0.4585645896616884,-0.2481132050618326,-0.6204158186499302,0.9742103327686944,-0.1405247923856989,-0.0867208559669568,-0.9601135601264076,9.6143012097682,-1.3619600804059036,0.1472366643182928,-1.1224154373482194
0.5,0.5778311680162898,0.2830152486347496,2.519643004167974,0.0187639021501876,0.1453439511228914,0.0230285257752949,-0.364593931235339,-0.2816033416738854,-0.5639079776528719,0.5825681522958215,0.2911598363929796,2.5295531755901948,-0.4895067584935136,-0.2524062962844765,-0.6604158192459767,1.1603708797371632,-0.0971247211540737,0.0559241665135573,-1.1549458232672671,9.190795649914437,-1.3540671788645375,0.15687791074287,-1.1266710444296044
0.52,0.5705243767901466,0.277416624077363,2.508093902360291,0.0095840034506833,0.1488995801382663,0.022181958299242,-0.366016340961774,-0.2784629625432104,-0.5898527790190793,0.5727780171259512,0.28611171046729,2.516344859205275,-0.5204489273253389,-0.2566993875071204,-0.7004158198420232,1.3086423770898898,-0.0711204863217518,0.1570189565337471,-1.297240068310368,9.190795649914437,-1.346495768924282,0.1656826940033456,-1.129639099834551
0.54,0.5635607989892771,0.2721715224644503,2.496629035803925,0.002149943413177,0.1512589625169975,0.0214554731755822,-0.366969356984087,-0.273988278858209,-0.6156779080058089,0.562987881956081,0.2810635845416005,2.503136542820356,-0.5513910961571642,-0.2609924787297642,-0.7404158204380696,1.3113621932944628,-0.0476508011156506,0.2237341842500712,-1.2912564493364809,9.052324104663969,-1.3396012895992828,0.1730742568581511,-1.131041501885407
0.56,0.5562100573801961,0.2667520283035071,2.4840217660463173,-0.0044452148176818,0.1528223497606966,0.0207835472701926,-0.3680866591180343,-0.2682820065713582,-0.6437279426057637,0.552424192565415,0.2759081313353449,2.4889282264205352,-0.5823332649889894,-0.2652855699524081,-0.780415821034116,1.4323183554371448,-0.0558651066973614,0.2853136143425416,-1.4025017299977405,8.998077931342777,-1.3337177372456746,0.1791893771793619,-1.131056761675684
0.58,0.5488353523971644,0.2614568089447834,2.470847204114265,-0.009901930507543,0.1536899233890164,0.0202102573752126,-0.3693534616141601,-0.261628352325984,-0.6723451123837052,0.5410869489539535,0.2706453508485232,2.4737199100058134,-0.6132754338208146,-0.2695786611750519,-0.8204158216301625,1.4703896672997123,-0.0633401248062909,0.3326827122687087,-1.4308584888970743,8.954878245807777,-1.3285005554194695,0.1841764120222682,-1.130684449144218
0.6,0.5414334483245986,0.2563034710443643,2.4570942101324857,-0.0142946834485574,0.1540628441661752,0.019735880274839,-0.3707983871362633,-0.2542240133535008,-0.7015244763801274,0.5303676793164565,0.2483753913284842,2.43722994849508,-0.4039555597811027,-0.2466866450725279,-0.7723451138738213,1.5069400524071606,-0.0722462761051617,0.3702169486241607,-1.458968199821109,8.928902655723505,-1.3240938786583911,0.1880304057487078,-1.131989922982371
0.62,0.5343424626812701,0.2515160730655317,2.4437056944557773,-0.0187903371788305,0.1561791869342195,0.0192514794752767,-0.3749293063749363,-0.2493869421791606,-0.7063805106216577,0.5303676793164565,0.2483753913284842,2.43722994849508,-0.4039555597811027,-0.2466866450725279,-0.7723451138738213,0.4001337896784847,-0.206545961933649,0.2418535587170076,-0.242801712076518,10.267946445072084,-1.3203106440299963,0.1922668480852258,-1.128662139126186
0.64,0.526823519973445,0.2466064076395984,2.4294866742522445,-0.024052698080475,0.1613748852705353,0.0186522508810436,-0.3763806667882009,-0.2416355778508206,-0.7156322527862632,0.5303676793164565,0.2483753913284842,2.43722994849508,-0.4039555597811027,-0.2466866450725279,-0.7723451138738213,0.6078339186821343,-0.07256802066323,0.3875682164170002,-0.4625871082302724,10.267946445072084,-1.312534395266841,0.1975560790717098,-1.1382227854776168
0.66,0.5193008992263027,0.2418755773468147,2.415027538475265,-0.0290288880952574,0.1680716619608726,0.0180283318993138,-0.375531421328763,-0.2318283919085218,-0.730042948647014,0.5263281237186455,0.2459085248777589,2.4295064973563414,-0.4108759794144912,-0.2436983036218367,-0.7923451141718445,0.8725970850688494,0.0424622729718937,0.4903592971149423,-0.7205347930375416,9.933456040144849,-1.302694287810312,0.2026141643535605,-1.1495534854212526
0.68,0.5118144241119497,0.2373552545693088,2.400232602971834,-0.0332852690766624,0.1753924084744807,0.0174256305750721,-0.372895480795009,-0.2208184853694419,-0.748744460518773,0.5182490125230234,0.2409747919763083,2.4140595950788653,-0.4247168186812682,-0.2377216207204542,-0.832345114767891,1.093060806618623,0.1317970266876994,0.5504953269539938,-0.9350755935879472,9.672947301673958,-1.2925664063573274,0.2067689098317529,-1.1605634411365218
0.7000000000000001,0.5047661790645842,0.2332723832442283,2.385801001459912,-0.0365761505425963,0.1824793816258581,0.016894302341724,-0.3689607711862603,-0.2096556670492361,-0.7694574336814366,0.5101699013274014,0.2360410590748578,2.3986126928013887,-0.4385576579480453,-0.2317449378190718,-0.8723451153639374,1.1928094040880193,0.1967354804374377,0.5581409160102913,-1.0356486581331814,9.331231080673206,-1.2816664717978772,0.2103478443302416,-1.1717392769023416
0.72,0.4974419699303364,0.2292071554053887,2.3701592365929818,-0.0392939912975583,0.1898218757981854,0.0163895187139353,-0.3634867310310759,-0.1975541444049619,-0.7937557657131967,0.5013987481684404,0.2314061603184763,2.38116579049411,-0.4523984972148223,-0.2257682549176893,-0.912345115959984,1.384576564744716,0.2737020077592189,0.6050761322137083,-1.2149166015880064,9.331231080673206,-1.27040999747354,0.2130779952173689,-1.181925555374136
0.74,0.4902426741074197,0.2253883455028996,2.3540191288836425,-0.041287747972193,0.1968997703030588,0.0159493805223927,-0.3565414793121995,-0.1850507335459344,-0.8190836894066135,0.4926275950094795,0.2267712615620949,2.363718888186831,-0.4662393364815994,-0.2197915720163069,-0.9523451165560304,1.454368869276072,0.3472625859438194,0.6251705429513768,-1.2663961846708371,9.211911603983026,-1.25940351938905,0.2149516533229127,-1.1912148381044696
0.76,0.4835453735061022,0.2219990445235565,2.338211427448881,-0.0423960434492591,0.2033069146238398,0.0156077976855851,-0.3486422993638499,-0.1724793657119601,-0.8436397200844888,0.4835104208688492,0.222285779878248,2.345271985864651,-0.4800801757483764,-0.2138148891149244,-0.9923451171520768,1.4347778362226045,0.3949589974174827,0.6285683916987111,-1.227801533893769,9.183521251351522,-1.2481643610808608,0.216075684577762,-1.200545984353821
0.78,0.4766702818576765,0.2186945896772484,2.3210603521985567,-0.0424756056179273,0.2096878985592882,0.0153546414888988,-0.3391374142707252,-0.1587254287218808,-0.8702255298349546,0.4740472257465494,0.2179497152669357,2.32582508352757,-0.4939210150151534,-0.207838206213542,-1.032345117748123,1.570285725153656,0.4752442546562346,0.6876968495039673,-1.329290487523288,9.150134188422273,-1.2376250749428008,0.2160671130259211,-1.2099671083225667
0.8,0.4699976868727881,0.2156706500553492,2.3033721587380844,-0.0410984529718804,0.2156913490805335,0.0152415028834726,-0.3284595451759448,-0.1445074404008491,-0.8972930916446953,0.4597134111441402,0.2107583182411543,2.277549075706809,-0.3545451050490998,-0.161039136909893,-0.897869305402367,1.6192752874560832,0.5338934547390206,0.7108994160515844,-1.353378090487034,9.150134188422273,-1.2273905578210214,0.2144617200900186,-1.219135089405466
0.8200000000000001,0.4636382911893389,0.212992569222694,2.2855087529400806,-0.0365023708793308,0.2211424477262817,0.0154076766442217,-0.307432831482989,-0.1253148783691978,-0.8857241737779922,0.4597134111441402,0.2107583182411543,2.277549075706809,-0.3545451050490998,-0.161039136909893,-0.897869305402367,1.536487053859258,1.0513356846477888,0.9596281015825672,0.5784458933351555,9.14181759670555,-1.2164657573959856,0.2088424176166328,-1.2189786234746645
0.84,0.4580088765574248,0.2107504202361765,2.2687990247307943,-0.0297682743372206,0.2256448349959273,0.0157942822183893,-0.2861755660523662,-0.1122573996641589,-0.8739940597303342,0.4597134111441402,0.2107583182411543,2.277549075706809,-0.3545451050490998,-0.161039136909893,-0.897869305402367,1.3783728262806454,1.0628632715311392,0.6528739352519436,0.5865057023829001,11.652408477419158,-1.214423131897688,0.2015848537981934,-1.2309368270710372
0.86,0.4525357138514611,0.2086207993028827,2.2514119570523965,-0.0219436536829247,0.2292395451877971,0.0163224979395921,-0.2623047709671349,-0.1017835991595827,-0.8654864608949021,0.4561679600936493,0.2091479268720554,2.268570382652785,-0.3576266432047748,-0.1615018785474955,-0.9033980605158496,1.3710348217271964,1.193539754261566,0.5236900252288117,0.4253799417716031,11.417938311148646,-1.213933140878502,0.1932624419379595,-1.239814298604168
0.88,0.4475517008749108,0.2066736750074498,2.2341565768893243,-0.013940862472963,0.2308225473660177,0.0169294279927821,-0.2375270807020308,-0.0937862440314758,-0.8604224071235215,0.4490770579926673,0.2059271441338576,2.2506129965447377,-0.3637897195161246,-0.1624273618227004,-0.9144555707428144,1.326212901948557,1.238884513255203,0.3998677564053449,0.2532026885690319,11.18652972005384,-1.2157343385409467,0.1850228750764018,-1.2444187577261143
0.9,0.4432814625733648,0.2049505450173464,2.217834581956036,-0.006479664950085,0.2299164722065929,0.0175297160158367,-0.2133700032010692,-0.0882061675044399,-0.8578976518562036,0.4419861558916853,0.2027063613956597,2.2326556104366904,-0.3699527958274745,-0.1633528450979053,-0.9255130809697794,1.2460698581890293,1.2078538750480805,0.2790038263517917,0.1262377633658939,11.003816053460469,-1.219948636060326,0.1764238780708182,-1.245835125655586
0.92,0.4392850339987676,0.2032307500842633,2.2006883203027656,0.0010244408235959,0.2256840857935171,0.0181311039934421,-0.1878622659013822,-0.0842489210448955,-0.8568674035021371,0.4345870999751358,0.1994393044937016,2.214145348817295,-0.3761158721388244,-0.1642783283731102,-0.9365705911967444,1.2916712752887978,1.2753868649843485,0.1978623229772214,0.0515124177033254,10.869869942140213,-1.2284779409294275,0.1681803601675751,-1.241684038672083
0.94,0.4357792039209691,0.2015700248153972,2.1835673719930107,0.0080089218203259,0.2180337714242579,0.0186386051389936,-0.1645593489134986,-0.0821484318867524,-0.8551444920543556,0.4271880440585863,0.1961722475917435,2.1956350871979,-0.3822789484501743,-0.1652038116483151,-0.9476281014237092,1.173037103744559,1.1651458493941822,0.1050244579071567,0.0861455723890736,10.76767232459042,-1.2409342397526792,0.1604974740557083,-1.2319519344708618
0.96,0.4327066335869571,0.1999325698889916,2.166492129209144,0.0143350410438078,0.2077827695752648,0.0190060010094846,-0.1444786803426292,-0.0817443199305834,-0.8523547601765117,0.419634911234253,0.1928820536079052,2.176848387822829,-0.3884420247615241,-0.16612929492352,-0.9586856116506742,1.01387765617514,1.0040334285434689,0.0202055978084474,0.1394865938921963,10.789458089710934,-1.2553245375946387,0.1539107633045388,-1.2194102781086027
0.98,0.4301243836586194,0.1983698382228149,2.1503293732106914,0.0196697144241378,0.1964161516952614,0.0192097966556531,-0.1288372048086762,-0.0827593270811979,-0.8490397236323868,0.4119277015021361,0.1895687225421869,2.157785250692086,-0.394605101072874,-0.1670547781987249,-0.9697431218776392,0.8010547167390174,0.7820737766976477,-0.0507503575307245,0.1657518272062452,10.809666909974112,-1.2721527185455936,0.1478027144301278,-1.2038022931818926
1.0,0.4276863430282018,0.1966913610064002,2.1333879790490133,0.0245540922872611,0.1834743775578474,0.0192768323704402,-0.1162785987636468,-0.0850382457844068,-0.8452078380431836,0.4236825234181856,0.194231871868755,2.107877387029072,-0.2272911214179635,-0.1130687397096101,-0.8100642762160812,0.666324627000289,0.627930302251474,-0.1139459351604463,0.191594279460161,10.809666909974112,-1.2895787842134177,0.1425532597612853,-1.186508361790411
1.02,0.42562401718617,0.1949779958491702,2.1168042993363287,0.0295504950346155,0.166555877748833,0.0191648967065309,-0.0922645083797256,-0.0867835038333388,-0.8130882334349191,0.4236825234181856,0.194231871868755,2.107877387029072,-0.2272911214179635,-0.1130687397096101,-0.8100642762160812,2.007107036766936,1.200704519196058,-0.0872629024465984,1.6059802304132231,10.78876639723694,-1.3046098526161627,0.1371231669645997,-1.1653911348457189
1.04,0.4240259728016046,0.1932869032738165,2.1016514637802444,0.0343209387894722,0.145512229087481,0.0188054695548444,-0.0783088164194414,-0.091208237124032,-0.7834641502499681,0.4236825234181856,0.194231871868755,2.107877387029072,-0.2272911214179635,-0.1130687397096101,-0.8100642762160812,1.6522151095824409,0.6977845980142089,-0.2212366645346589,1.481204159247551,12.419532477718349,-1.3384761021522071,0.1323196992708656,-1.135342089749514
1.06,0.4225316638222768,0.1913977632610345,2.086295243148538,0.0388518302918032,0.1205162377130618,0.0181672044682716,-0.0729691908598443,-0.0975179446738822,-0.7536977350167859,0.4214096122040059,0.1931011844716589,2.0997767442669115,-0.2469819047398209,-0.1191306222352926,-0.8022691867328201,1.5446387007287143,0.2669812779798552,-0.3154853774925095,1.4883207616591063,12.419532477718349,-1.372471563935014,0.1279851302434141,-1.1004967978287898
1.08,0.4210436797465682,0.1893674209281239,2.0715176104587174,0.0427188627990131,0.0944152015748794,0.0173160598880448,-0.0770618183686666,-0.1051753773728928,-0.7255760027285512,0.4168637897756467,0.1908398096774667,2.08357545874259,-0.2863634713835359,-0.1312543872866575,-0.786679007766298,1.4715788310153426,-0.2046313754411138,-0.3828716349505323,1.406086614411739,12.236843178086929,-1.4054482117226998,0.1243669928462399,-1.062964588710883
1.1,0.4193769883531699,0.1871719385134589,2.0572840884054573,0.0458239378438095,0.0688367187768658,0.0163311822313742,-0.0901299486406307,-0.1138549104829693,-0.6991315695057871,0.4123179673472874,0.1885784348832745,2.067374173218268,-0.3257450380272508,-0.1433781523380224,-0.7710888287997757,1.537382818532166,-0.6534065135982037,-0.4339766555038225,1.322221661138201,12.075314340031582,-1.434176834314456,0.1216597524313422,-1.0270314209117433
1.12,0.4174728889060407,0.1849181564991137,2.044238949638866,0.0480698247245822,0.0462514512792741,0.0153540243338423,-0.1100787146728045,-0.1227924907703165,-0.6753493741130084,0.4058030665867424,0.185710871836514,2.051952396642273,-0.3651266046709657,-0.1555019173893873,-0.7554986498332534,1.6151055888853634,-0.9974383016086912,-0.4468790143673615,1.1891097696389352,11.953814692256856,-1.4605188199454242,0.1195204112288144,-0.9911265612842776
1.14,0.4149901784750724,0.1823574417680956,2.030994969111951,0.0497250923946258,0.0252210345683241,0.0143594500463351,-0.137574679783446,-0.1327219854206873,-0.6502957068985474,0.3992881658261974,0.1828433087897536,2.036530620066277,-0.4045081713146806,-0.1676256824407522,-0.7399084708667313,1.9250384426488183,-1.3747982555320752,-0.4964747325185398,1.2526833607230503,11.86728679155476,-1.4821782697269146,0.1180390217486118,-0.9589080681786478
1.16,0.4118881352184758,0.1795862168298838,2.018248556624872,0.0503953091996913,0.0079471235186696,0.0134596020036121,-0.1712883093206574,-0.1437126534916119,-0.6255973374327524,0.3917887258995595,0.179672651616709,2.0214985979644444,-0.4438897379583955,-0.1797494474921171,-0.724318291900209,2.160678744912404,-1.685681476860572,-0.5495334035462318,1.2349184732897531,11.90474380431442,-1.4984099156139974,0.1174296664270615,-0.9330624664784009
1.18,0.4082725758332434,0.1767421535427419,2.006592614735177,0.0497122629236902,-0.0043352849965433,0.0127249570685968,-0.2074255019414754,-0.1548869417759839,-0.6025573850379168,0.3833047468068287,0.1761989003173803,2.0068563303367752,-0.4832713046021104,-0.191873212543482,-0.7087281129336869,2.2144981460438418,-1.8068596310408995,-0.5587144142185987,1.1519976197417792,11.90474380431442,-1.5104786872237743,0.1179097894231063,-0.9117289253192769
1.2,0.4036936552953622,0.1735185083482341,1.994792676244832,0.0472710193150071,-0.0124777803259812,0.0120954712426928,-0.248694903941148,-0.1666328563782972,-0.5786489781720746,0.3979013007361696,0.1689978064539427,1.976464745483281,-0.2507066212582918,-0.1711661083403293,-0.5841390431628405,2.455983494507886,-2.0634700999836304,-0.5872957301156639,1.1954203432921084,11.933387634515384,-1.5189428382059735,0.1199372603913425,-0.8954673206948784
1.22,0.3981770694295841,0.1700531762204189,1.983424193876017,0.0424740470264556,-0.0121588013399117,0.011726000747531,-0.2999356229547537,-0.1783603291682358,-0.559423230406829,0.3979013007361696,0.1689978064539427,1.976464745483281,-0.2507066212582918,-0.1711661083403293,-0.5841390431628405,2.7985595760153474,-2.56203595068028,-0.5863736394969288,0.961287388262283,11.933387634515384,-1.5204458347492933,0.123900971955663,-0.8893478129741464
1.24,0.3917163462353834,0.1664043237122149,1.97241898981582,0.0363559436035409,-0.0031275318462226,0.0116249951223055,-0.3425554025738356,-0.1855889205859916,-0.542056047050287,0.3979013007361696,0.1689978064539427,1.976464745483281,-0.2507066212582918,-0.1711661083403293,-0.5841390431628405,2.32933316981691,-2.1309889809540987,-0.3614295708877918,0.8683591678270985,11.77334561688076,-1.5114364701987792,0.1285298983124458,-0.9085557653817932
1.26,0.3844861667433258,0.1626429890362023,1.9617439707129,0.0301677593887803,0.0102228684639753,0.0116214050308785,-0.3776130944499485,-0.1900199501896454,-0.5262561771181493,0.3953942345235867,0.1672861453705394,1.9706233550516528,-0.2593628451216551,-0.1744219416531983,-0.5804553747878253,1.935401555815612,-1.7528845938056452,-0.2215514801826884,0.7899934966068833,11.47017926178978,-1.4994068935864695,0.133217237860776,-0.9314977407956287
1.28,0.3770263766460099,0.1590081115262104,1.9518845411690708,0.0246807543366785,0.0246677037080403,0.0116306057150274,-0.4053307944575586,-0.1923418892382264,-0.5123602419079403,0.3903801020984209,0.1638628232037328,1.958940574188396,-0.2766752928483816,-0.1809336082789365,-0.5730880380377947,1.5546376668081845,-1.3858850003805017,-0.1160969524290525,0.6947967605104521,11.296321449462084,-1.4851238469604175,0.1380576951271576,-0.957032697370272
1.3,0.3686578387750135,0.1551502602534798,1.9417833657198476,0.0195069712179127,0.0404281459636387,0.0116241852915187,-0.4295258744147254,-0.1932911766050489,-0.498540757173275,0.385365969673255,0.1604395010369262,1.9472577933251392,-0.2939877405751081,-0.1874452749046746,-0.5657207012877642,1.3939881625843815,-1.2097539978583427,-0.0474643683411227,0.6909742367332633,11.193408104213631,-1.4703483823542014,0.1425886373995415,-0.9827047222988092
1.32,0.3598524253191448,0.1512872272579168,1.9319483113696596,0.0150321435132967,0.0560374508066079,0.0115991151077099,-0.4493391274109254,-0.1929784525917982,-0.4857219273468499,0.3794862148617529,0.1566905955388327,1.935943379299384,-0.3113001883018346,-0.1939569415304128,-0.5583533645377337,1.1800266826630836,-0.990662649809998,0.0156362006625318,0.6409414913212563,11.13718928779599,-1.4556213728442122,0.1466849560313413,-1.0078552427299616
1.34,0.3506919223520099,0.1474421515424933,1.9223581463093284,0.0113019289634165,0.071113688529511,0.0115666452487187,-0.4652988104736034,-0.1916444859281116,-0.4739728298932577,0.3736064600502507,0.1529416900407392,1.9246289652736288,-0.3286126360285612,-0.2004686081561509,-0.5509860277877031,0.9931417843074613,-0.7979841531338988,0.0666983331843326,0.5874548726796075,11.084519332573109,-1.4418543855048878,0.15007787792476,-1.0306982847880062
1.36,0.3417269001808053,0.1438204489661766,1.9134550969960784,0.008383901175434,0.0847730452310193,0.0115366741651914,-0.4772559243741278,-0.1897370222098092,-0.4638152467736942,0.3672938940455804,0.1490299928770023,1.913498734666624,-0.3459250837552877,-0.2069802747818891,-0.5436186910376727,0.7902333286719756,-0.5978556950262226,0.095373185915118,0.5078791559781748,11.038671453935422,-1.427771678708402,0.1531488582329507,-1.0534713379069447
1.38,0.3320769584176147,0.1400525798679713,1.9042834622171996,0.0058892374801804,0.0983784059980574,0.0115130780080225,-0.4867545153330734,-0.1871981124337568,-0.4539493192946114,0.3605485168477419,0.1449555040476219,1.9025526874783705,-0.3632375314820142,-0.2134919414076272,-0.5362513542876421,0.696429856623802,-0.4749295479472809,0.1269454888026225,0.4932963739541413,10.994825174916514,-1.414220382519026,0.1557408310772748,-1.0748560701381178
1.4,0.3222677497891216,0.136341294667884,1.895298817198106,0.003959635920096,0.1111728869116122,0.0115074774365543,-0.4933659677203299,-0.1841647306181613,-0.4450545428892994,0.3077392326509611,0.1306926742462835,1.8815859962524688,-0.3936337094139031,-0.1802945860605492,-0.4379868824993767,0.5745210074676113,-0.3305726193628233,0.151669090779774,0.4447388202655999,10.966682677049905,-1.4018876333190728,0.1577567432458954,-1.0939803180431236
1.42,0.3128450368712085,0.1328278264006313,1.8868627323579248,0.0010765252947537,0.1226166398290294,0.0114126710202204,-0.4979159494028246,-0.1848483093883984,-0.4434219348700247,0.3077392326509611,0.1306926742462835,1.8815859962524688,-0.3936337094139031,-0.1802945860605492,-0.4379868824993767,0.2441056236076723,-0.2274990841247354,-0.0341789385118557,0.0816304009637336,10.51934347803217,-1.3889331247759735,0.1609539009109731,-1.1134439391681137
1.44,0.3028601576042354,0.1291601682112003,1.878024639610082,-0.0029236413025078,0.1339430404570878,0.0112168536078389,-0.5000369790788938,-0.1817157843874797,-0.4404011348723736,0.3077392326509611,0.1306926742462835,1.8815859962524688,-0.3936337094139031,-0.1802945860605492,-0.4379868824993767,0.2420573919236719,-0.106051483803457,0.1566262500459367,0.1510399998825573,10.51934347803217,-1.3763750813845124,0.1651957687769499,-1.1294345694903714
1.46,0.2928607133888967,0.1255781859876513,1.869264283815187,-0.0067497360354472,0.1445299994813289,0.0110065785905013,-0.4995333269401245,-0.1766245826709936,-0.4357557321188907,0.303802895556822,0.128889728385678,1.877206127427475,-0.375009548230069,-0.1789138807859077,-0.4347943951403298,0.3455205027813245,0.0251826069384619,0.2545600858243041,0.2322701376741426,10.64771529396694,-1.3648198103631113,0.1693881197280192,-1.1449857982766376
1.48,0.2828973797957837,0.1221121153978069,1.8606124175566163,-0.0099954744521948,0.1544011119115987,0.0108203891308819,-0.4965883928946277,-0.1703422583746865,-0.4297220859376801,0.295930221368544,0.125283836664467,1.8684463897774877,-0.3377612258624008,-0.1761524702366247,-0.4284094204222359,0.4597421052512335,0.1472467022748391,0.3141162148153548,0.301682309060533,10.76463347088793,-1.3547357999980172,0.1729172535294006,-1.1592139210201888
1.5,0.2735082237306763,0.1189435187631453,1.8525150516988411,-0.0124462641664152,0.1631492367323325,0.0106822928366505,-0.4916980144604784,-0.1636392998444468,-0.422980020498621,0.2880575471802659,0.121677944943256,1.8596866521275,-0.3005129034947327,-0.1733910596873416,-0.422024445704142,0.5345579965538357,0.244518921707465,0.3351479265119861,0.3371032719529515,10.864690476959368,-1.3448259414760246,0.1760272723482855,-1.1736836516499467
1.52,0.2637466408633854,0.1157500007396027,1.8441387935201676,-0.0143813894379538,0.1717346234217389,0.0105851201260719,-0.4844976595359798,-0.1561557155945348,-0.4149911005392828,0.2820472891103713,0.1182101237495092,1.8512461632134167,-0.2632645811270646,-0.1706296491380586,-0.4156394709860482,0.6551182839399969,0.3600177462249304,0.3741792124955997,0.3994459979669101,10.952370450654598,-1.3357028535930056,0.1785069374266887,-1.1875382373362957
1.54,0.2541492661949063,0.1127120439881877,1.8359276066809092,-0.015628100294834,0.1797232794463757,0.0105464198790936,-0.4754017071813168,-0.148061637698541,-0.4065433902861425,0.2760370310404766,0.1147423025557623,1.8428056742993344,-0.2260162587593963,-0.1678682385887756,-0.4092544962679543,0.7409693899644686,0.4547976177331519,0.4047038947996892,0.4223855126570142,11.034215432735436,-1.3272540808049191,0.1803027638715796,-1.200788844650754
1.56,0.2447528701716701,0.1098442868383613,1.8278911330778504,-0.0159160760634832,0.1871574400885723,0.0105917613971148,-0.4645133660121995,-0.1392594116405472,-0.3975743519740044,0.2709579810297736,0.1113435166257476,1.834524809753204,-0.1887679363917282,-0.1651068280394926,-0.4028695215498604,0.8313825912835193,0.5444170584558622,0.4401113028996886,0.4484519156069066,11.084037499798796,-1.3197666630842837,0.1810781920889049,-1.2129053894813977
1.58,0.2360441100595835,0.1072868815040653,1.8204277772253443,-0.0150609476071668,0.1937411218252927,0.0107355942490036,-0.4525967235232789,-0.1305371117608068,-0.3885286901077636,0.2668101390782624,0.1080137659594649,1.8264035695750256,-0.1515196140240601,-0.1623454174902095,-0.3964845468317665,0.8658938762908989,0.595832124446033,0.4361149939870204,0.4522830933120392,11.196449829298215,-1.312471188991893,0.1806202959120453,-1.2252786160345746
1.6,0.2271379692120044,0.1047720867010761,1.8127632960702191,-0.0128212778877884,0.2002001858253748,0.011009354282169,-0.4384769869424877,-0.1215489146306022,-0.3783917052504955,0.2134142738834196,0.100760025916025,1.8010013427199565,-0.3525967220331628,-0.1218222309665201,-0.3660415191134819,0.9784082874225268,0.7059868290395566,0.4494098565102279,0.506849242863408,11.196449829298215,-1.3057447028052394,0.1786341540397691,-1.2373367605588177
1.62,0.2185129094510662,0.1024064411776104,1.805227580288682,-0.0099220112968924,0.206246110733753,0.0113611895631216,-0.4246665330260291,-0.1155794457359,-0.3761099486644516,0.2134142738834196,0.100760025916025,1.8010013427199565,-0.3525967220331628,-0.1218222309665201,-0.3660415191134819,0.760870569448906,0.6905226958229344,0.2984734447351103,0.1140878293021951,11.25957114018638,-1.298875039460292,0.1760309665388691,-1.24980835389849
1.64,0.2105884334771443,0.100260201002438,1.7981132286699837,-0.007356011121008,0.2116491279619709,0.0117087994857007,-0.4100512028966724,-0.1106576045928303,-0.3728723430953532,0.2134142738834196,0.100760025916025,1.8010013427199565,-0.3525967220331628,-0.1218222309665201,-0.3660415191134819,0.7878998744268717,0.7307665064678337,0.2460920571534887,0.1618802784549178,10.744585055589596,-1.29218547219167,0.1733588511804009,-1.2591845413269185
1.66,0.2025640657700105,0.0980960790604471,1.7907107421286812,-0.0048824932740027,0.2169648688845007,0.0120829033483034,-0.3930043769172554,-0.1060388011860337,-0.3674804919703719,0.2098883066630879,0.0995418036063598,1.7973409275288217,-0.3325967217351395,-0.1200792548076627,-0.3615440849146255,0.9233088316445416,0.852341298970849,0.2309401703398279,0.2695925562490653,10.88833371221972,-1.286196704251818,0.1709619386789707,-1.2679975631821172
1.68,0.1948977569346745,0.0960188815377686,1.783437438254382,-0.0026642039559752,0.2219035670930619,0.0124599717488585,-0.3743667554388591,-0.1019133131234448,-0.3601643076758554,0.2028363722224247,0.0971053589870294,1.790020097146552,-0.2925967211390931,-0.116593302489948,-0.3525492165169128,1.0221388589104117,0.931881073919813,0.2062744031294451,0.3658092147258263,11.033507651800392,-1.2808129213891877,0.1688581769764402,-1.2761187869033657
1.7,0.1879734454299823,0.0941178555430489,1.77667748033252,-0.0007872190731454,0.2262616395416356,0.0128180473128671,-0.3553492340587026,-0.0983942626616488,-0.351808682195899,0.1957844377817614,0.094668914367699,1.7826992667642825,-0.2525967205430466,-0.1131073501722333,-0.3435543481192001,1.0534067504514513,0.9508760690078276,0.1759525230897979,0.4177812739978193,11.269599897427724,-1.276284764621603,0.1671400548665231,-1.2834629328707048
1.72,0.1810880742644097,0.0921852365384925,1.7697459246431662,0.0009544462159747,0.2305188579079496,0.01319240587353,-0.3340740039109851,-0.0950563358365958,-0.3417511661487397,0.1907325033709005,0.0924067673642543,1.7758281798018982,-0.2125967199470002,-0.1096213978545187,-0.3345594797214874,1.1884136510140564,1.0637615073858768,0.1668963412526508,0.5028758023579633,11.269599897427724,-1.2723446842521513,0.1656487020310589,-1.2912326883876506
1.74,0.1746399108406548,0.0903151577070061,1.7630243049302878,0.002439216129873,0.2344616953470652,0.0135603199840406,-0.3117061153036513,-0.0921384766672484,-0.330907053548378,0.1856805689600396,0.0901446203608096,1.7689570928395142,-0.1725967193509537,-0.106135445536804,-0.3255646113237747,1.251430302665276,1.1183944303666895,0.1458929584673717,0.5422056300180861,11.433016992293233,-1.2688127421560886,0.1644699544638637,-1.2988436930484004
1.76,0.1686500269503967,0.0884992053904912,1.7565275797390714,0.0035946856827442,0.2381151483677316,0.0139143060314821,-0.2883185015737973,-0.0896043246513279,-0.3193413629132636,0.1816286345640798,0.0879696221653078,1.762310877587073,-0.1325967187549073,-0.1026494932190893,-0.316569742926062,1.310694093108515,1.1693806864926992,0.126707600796027,0.5782845317557184,11.49216706054267,-1.2657933219876334,0.1637116087233634,-1.3056802802258345
1.78,0.1634018389328865,0.0868180409739814,1.7505759424096825,0.0043279015855904,0.2413385204278636,0.0142316189765874,-0.2652253922748177,-0.0874786546826389,-0.3077511994974928,0.1785767001830212,0.0858817727777489,1.7558895340445748,-0.0925967181588608,-0.0991635409013746,-0.3075748745283493,1.2962851325177982,1.1546554649489782,0.1062834984344486,0.5795081707885397,11.49216706054267,-1.263037395922035,0.1633794638318605,-1.3125389664033624
1.8,0.158360543796363,0.0850903058257719,1.7445556888293543,0.0046657867657682,0.244490084323587,0.0145404797908911,-0.2400361760595019,-0.0853971796479869,-0.2948730394472633,0.1501405693191456,0.0824441082398495,1.7351883824348076,-0.193415362827739,-0.0957043983414795,-0.2906803491400795,1.4183407190632449,1.2594608107657916,0.1040737517326001,0.6439080025114757,11.54838385309995,-1.2601966063967351,0.1635995522918366,-1.32010901521996
1.82,0.1538196199809307,0.0834555215087977,1.738685512438471,0.0061971964307083,0.2468847229036622,0.0149356928465891,-0.2154633706354775,-0.0785945989744518,-0.2933545556042796,0.1501405693191456,0.0824441082398495,1.7351883824348076,-0.193415362827739,-0.0957043983414795,-0.2906803491400795,1.277109689306596,1.2286402712012172,0.3401290336767552,0.0759241921491848,11.610609103506247,-1.2574470332088656,0.1625801034977539,-1.330693001166923
1.84,0.1499671669477237,0.0820060706204514,1.7331344394269526,0.0094943660483572,0.2479455722397145,0.0154375402406231,-0.191395128098278,-0.0747925746417246,-0.2909698291255855,0.1501405693191456,0.0824441082398495,1.7351883824348076,-0.193415362827739,-0.0957043983414795,-0.2906803491400795,1.224155431546885,1.2034121268599776,0.1901012166363569,0.1192363239347071,10.998357775239128,-1.2575272957889116,0.1589402985405061,-1.3334352410746813
1.86,0.1464115100545497,0.0805280720196317,1.7273626678307792,0.0133846937094804,0.2478675113195053,0.0159824935535566,-0.165502074099049,-0.0733355874404892,-0.2862210549963093,0.1482064156908682,0.0814870642564347,1.7322815789434067,-0.1790533569383232,-0.0973495470732477,-0.2872661790685969,1.3182601344598408,1.294652699961446,0.0728493600617691,0.2374387064638078,11.1455402868105,-1.2592887438845446,0.1547266068969585,-1.3346051201565268
1.88,0.1433794465167358,0.07906186436524,1.7217075280463483,0.0170533715661301,0.2465385316318914,0.016487109087238,-0.1390565534192785,-0.0733899889000282,-0.2794383009516582,0.1443381084343134,0.0795729762896051,1.7264679719606053,-0.1503293451594918,-0.1006398445367839,-0.2804378389256315,1.3650771736180365,1.322276033988527,-0.0027200729769465,0.3391377022325559,11.1455402868105,-1.2626450109225,0.150774021853576,-1.3346257332199405
1.9,0.1408813761914533,0.0775828014607493,1.7162075684784164,0.020239290622566,0.2437312675093906,0.0169190405547908,-0.1122301460720403,-0.0744623979294371,-0.2708751417187718,0.1404698011777586,0.0776588883227755,1.7206543649778037,-0.1216053333806603,-0.1039301420003202,-0.2736094987826662,1.4090190633327848,1.341320367361909,-0.0536204514704451,0.4281579616443182,11.271368604515374,-1.2677026287050162,0.1475547900380361,-1.3328827116875557
1.92,0.1390036430746691,0.0761506195670825,1.711155252927125,0.0227622155163687,0.2395019170947571,0.0172462308505859,-0.0869398875338818,-0.0761692238672264,-0.2613403225250647,0.1380376945101454,0.0755802854827691,1.7151821750021503,-0.0928813216018288,-0.1072204394638565,-0.266781158639701,1.3540893699877197,1.2645129269079256,-0.0853412968894636,0.4767409596853567,11.45766748701135,-1.275436409904256,0.1448060582363264,-1.328758780146767
1.94,0.1375306265046439,0.0746031681162983,1.706042620075296,0.024911931175276,0.2334843999243633,0.0175005911256621,-0.0620823361408653,-0.0784493931775834,-0.2503257310069162,0.1356055878425322,0.0735016826427627,1.709709985026497,-0.0641573098229973,-0.1105107369273927,-0.2599528184967356,1.3642014694062043,1.2428775696508236,-0.1140084655178508,0.5507295759074271,11.45766748701135,-1.2865441153033987,0.1427574930214601,-1.3218484185161945
1.96,0.1365291375040906,0.0730039308088984,1.70115874669012,0.0265328596131057,0.2264724859068147,0.0176746680769427,-0.0396158710317315,-0.0813202361223717,-0.2385420464152664,0.1338915814693898,0.0713408223661679,1.704408503554418,-0.0354332980441658,-0.113801034390929,-0.2531244783537703,1.27655690851314,1.12332325545669,-0.1435421472394143,0.5891842295824858,11.49663896427137,-1.298415441271254,0.1413188460796006,-1.3139944712108724
1.98,0.1359509365007621,0.0713403961801727,1.6965168939438475,0.0274904261327172,0.2189840605294193,0.017775345093337,-0.0196149143099995,-0.0848126546987119,-0.2261792832167193,0.1328956753907182,0.0690977046529846,1.6992777305859128,-0.0067092862653344,-0.1170913318544652,-0.246296138210805,1.1885633882973123,1.000047836086601,-0.1746209288170097,0.6181381599273574,11.514901428563462,-1.3101946749484856,0.1406957401865353,-1.306523221900695
2.0,0.1357484254335782,0.0696906992803895,1.6923398377950107,0.0276261823591157,0.2118523401714284,0.0178096994032007,-0.0029045875276106,-0.0885755576360303,-0.2140910114338464,0.1349701907852621,0.0670997634452371,1.6852079297830118,-0.0297214061662765,-0.0700264336117329,-0.1987854373754307,1.0482375379494182,0.8355163391194449,-0.1881451468659228,0.6044135891436416,11.523464971133762,-1.3225770605180576,0.1410077897529629,-1.298599386861355
2.02,0.135983272968087,0.0677917560469829,1.6881669847420688,0.024013238957682,0.2005754555852166,0.0174973999520731,0.024663737385453,-0.0998056607352669,-0.2036337745916185,0.1349701907852621,0.0670997634452371,1.6852079297830118,-0.0297214061662765,-0.0700264336117329,-0.1987854373754307,1.5775626425804612,1.3784162456531834,-0.5615051549618277,0.5228618421113981,11.522112999230558,-1.331645774245173,0.1452469663601917,-1.287378186425998
2.04,0.136696468521361,0.065747151315193,1.6842201220308957,0.0166919384734524,0.1831109666028379,0.0168865524728121,0.044134703940015,-0.1034080160603149,-0.1913452146162929,0.1349701907852621,0.0670997634452371,1.6852079297830118,-0.0297214061662765,-0.0700264336117329,-0.1987854373754307,1.165229815019282,0.9735483277280989,-0.1801177662524009,0.6144279987662815,11.43603332807652,-1.3592486837609108,0.1544089093503066,-1.2596367732465206
2.06,0.1376986770869152,0.0636875382933637,1.6805349323770271,0.0089279726370392,0.1628467140393811,0.0163764680954115,0.0542842971445587,-0.1022377611808143,-0.1776678572586551,0.1346729767235993,0.0663994991091198,1.6832200754092574,-0.0317427045375319,-0.0670691893943372,-0.193306668207173,0.8536009650141607,0.5074796602271857,0.058512743975031,0.6838678678818877,11.43603332807652,-1.389455843509407,0.1639654114098214,-1.230361070003838
2.08,0.1388096566896202,0.061683318703408,1.677129029602713,0.0019222475524783,0.1424231740158587,0.0161035332060751,0.0557717080978212,-0.0983306374991227,-0.1635523265746526,0.1340785486002738,0.0649989704368851,1.679244366661749,-0.0357853012800427,-0.0611547009595456,-0.1823491298706576,0.73608120017247,0.0743705476631263,0.1953561840845788,0.7057765342001268,11.422004929315335,-1.416701353867911,0.1721187683024021,-1.2037102810459672
2.1,0.1398197565856565,0.0598691944953098,1.6741537429254012,-0.0036858703289964,0.1246674240209222,0.016066387816522,0.050256865809869,-0.09299508972102,-0.150330566511446,0.1334841204769483,0.0635984417646505,1.6752686579142402,-0.0398278980225535,-0.055240212524754,-0.1713915915341421,0.7643567470795384,-0.2757421143976101,0.2667773889051344,0.6610880031603261,11.396302490207743,-1.4414815402242136,0.1793480445309311,-1.1783200963614169
2.12,0.1407116794617227,0.0580792139902321,1.6712897122204535,-0.00847966842766,0.1089122303151468,0.0162077531956228,0.0390081635202115,-0.0863902575521163,-0.1367942229471153,0.1326875625164972,0.0624936375141554,1.671840826083557,-0.0438704947650643,-0.0493257240899625,-0.1604340531976267,0.9399331203233674,-0.562435114482877,0.3302416084451837,0.676817178216535,11.363607605313518,-1.4610874639938027,0.1852237257497349,-1.1575536626892615
2.14,0.1413322646372692,0.0564302556147272,1.6686893203974011,-0.0122047354288474,0.0968658335732902,0.0164710578840048,0.0235846398338711,-0.0789688497299493,-0.1239612704041355,0.1318910045560462,0.0613888332636603,1.6684129942528745,-0.0479130915075751,-0.0434112356551709,-0.1494765148611113,1.0696343393146022,-0.7711761843170163,0.3710703911083489,0.6416476271489904,11.293616369334812,-1.475371851778751,0.1899098226588081,-1.1426191597304591
2.16,0.1416059909977831,0.0549373363572153,1.6663374373377455,-0.0148920513078926,0.0891004342165233,0.0168008081296739,0.0046081359212053,-0.0709377774690113,-0.1118762231379435,0.1309933816770323,0.060431891224035,1.6652591008806046,-0.0519556882500859,-0.0374967472203793,-0.1385189765245959,1.1944184671147762,-0.9488251956332916,0.4015536130468997,0.6042523633096014,11.293616369334812,-1.4853799987126397,0.1935701489548515,-1.1341556469435845
2.18,0.1414717427348071,0.0536082623475445,1.6642208828794662,-0.0166534346503092,0.0863776155262831,0.0171420958905315,-0.0165768392683277,-0.0625736017463686,-0.100391184087792,0.1299946938794557,0.0596228113952795,1.6623791459667474,-0.0559982849925966,-0.0315822587855878,-0.1275614381880805,1.275410454798653,-1.0592487594766529,0.4182087861321362,0.5742519525075762,11.273062904265316,-1.4884048156645548,0.1961345573331504,-1.1342522308672869
2.2,0.1409291048132691,0.0524512413472588,1.6623290712438636,-0.0174814966742096,0.0882803576445987,0.0174792103060093,-0.0360426286856297,-0.0536827098814987,-0.0893718365266747,0.1406429007713907,0.0504795822602261,1.6592013236750769,-0.0367803942711362,-0.0574211867278399,-0.0805394492260604,1.2035270421393327,-0.973289470865104,0.4445445932434972,0.5509673780558617,11.2416644957857,-1.4855354972995096,0.1979045100896571,-1.142238914600186
2.22,0.1400820074835805,0.0515784374276179,1.6607108559877524,-0.0153775348226311,0.0930220005209753,0.0179550260748477,-0.0517413226414193,-0.0395597237227257,-0.0815132843745563,0.1406429007713907,0.0504795822602261,1.6592013236750769,-0.0367803942711362,-0.0574211867278399,-0.0805394492260604,1.1265706501214217,-0.7849346977894758,0.7061493079386488,0.392927607605923,11.20184101797622,-1.4786928165812097,0.1966032630701759,-1.1560085467607517
2.24,0.1389033374511392,0.0508975269347572,1.659165902102462,-0.0098485147284507,0.0997330732179623,0.0186823625545437,-0.0649296888811253,-0.0300860721652642,-0.0733988135314767,0.1406429007713907,0.0504795822602261,1.6592013236750769,-0.0367803942711362,-0.0574211867278399,-0.0805394492260604,0.9076449126282806,-0.6594183119853033,0.4736825778730741,0.4057235421539788,11.02981697234918,-1.470185511375505,0.1916293370219247,-1.172447504954795
2.26,0.1374951324474189,0.0503529442410172,1.657781577197284,-0.0036274456192102,0.1071530366795733,0.0194881288394155,-0.0749618166287227,-0.0249964181188615,-0.0654717503188775,0.1402750968286793,0.0499053703929477,1.658395929182816,-0.040821105271698,-0.0563907037241342,-0.0765691022537141,0.6880888326239586,-0.5016063873798694,0.2544827023201372,0.39635316062996,11.015926234043944,-1.460976627639318,0.1857776150797281,-1.1891246451497244
2.28,0.1359172395908362,0.0498815868402836,1.6565528721758565,0.002115996135669,0.114474763216347,0.0202990315241875,-0.0821533837918828,-0.0223324951358216,-0.0578310854437692,0.1395394889432566,0.0487569466583909,1.6567851401982947,-0.0489025272728214,-0.0543297377167227,-0.0686284083090215,0.5412829289187056,-0.3595783581580053,0.1331961491519949,0.3820332437554162,11.006904078622938,-1.4524757135389772,0.1805795919208436,-1.204253464024381
2.3000000000000003,0.1343085775553526,0.0494680078878145,1.6555242827272585,0.0067681073892807,0.1208004250357075,0.0210401551755895,-0.0867463625042445,-0.021197305502192,-0.0508515992527773,0.1388038810578339,0.0476085229238341,1.6551743512137735,-0.0569839492739448,-0.0522687717093112,-0.0606877143643289,0.4215961825217179,-0.2296489356180833,0.0567594816814795,0.3489743095495954,11.006904078622938,-1.444389883642936,0.1759149635776862,-1.218424201563563
2.32,0.132539990139373,0.0490472361021643,1.654582594183245,0.0107701358179593,0.1264431515774353,0.0217702157823528,-0.0897957519217906,-0.0208497220447991,-0.0437071697741363,0.137664202072355,0.0465631474896479,1.653960596926487,-0.0650653712750682,-0.0502078057018997,-0.0527470204196363,0.388788061336022,-0.1524694708773033,0.0173791728696448,0.3572214739320477,11.006601910828069,-1.4375911799786492,0.1721803684053384,-1.2300937215024683
2.34,0.1307250852123752,0.0486264298378129,1.6537807371129445,0.0139051204954526,0.1308586061397332,0.0224365179760904,-0.0915254547720865,-0.0211440508031613,-0.0368579130878224,0.1365245230868761,0.0455177720554616,1.6527468426392005,-0.0731467932761917,-0.0481468396944883,-0.0448063264749437,0.3535209276808657,-0.0864851425147944,-0.014716437918112,0.3424628343156932,11.011911423735,-1.4325404462264386,0.1693642112825152,-1.2390009579903476
2.36,0.1288842962274816,0.0481950506663629,1.6531130657367454,0.0162579088197044,0.134020582906059,0.0230329033943242,-0.0925252247026809,-0.0218272197972908,-0.0302610897856067,0.1351828085513691,0.0445239207714607,1.6517316057005311,-0.0812282152773151,-0.0460858736870768,-0.0368656325302511,0.3353518207394937,-0.0499884965297244,-0.0341584497064754,0.329841165110787,11.007877960991207,-1.4292751594599995,0.1674779833758304,-1.2453601035493622
2.38,0.1270269653827514,0.0477470879937217,1.6525755763501644,0.0179549756426861,0.1360743501856332,0.0235624353709963,-0.0932246501852917,-0.0228269177385844,-0.023822706168529,0.133639058465834,0.043581593637645,1.6509148861104792,-0.0893096372784385,-0.0440249076796653,-0.0289249385855585,0.3276483464791409,-0.0349712741305373,-0.0499848970646789,0.3219191808538836,11.00420818614839,-1.427214299072942,0.1661863868874198,-1.2501606041874918
2.4,0.1252498936759529,0.0472992719816079,1.6521832577939966,0.0189495430817575,0.1371762164690402,0.0240017164866559,-0.0938609873435616,-0.0241926158348034,-0.0177974815021191,0.1223657328734868,0.0466057421067925,1.651384441041738,-0.0829978593920516,-0.0299359041163005,-0.0343785537164774,0.3105373912660351,-0.0318168579134955,-0.0682849048109513,0.301261233320496,11.002979102247082,-1.4262855145853417,0.1656226924330405,-1.2533180372257475
2.42,0.1233036559001398,0.0468248314615068,1.6518109528673506,0.0201333133533844,0.1391831155395953,0.0244837038364991,-0.1005969023282827,-0.0233501854890244,-0.020211925251326,0.1223657328734868,0.0466057421067925,1.651384441041738,-0.0829978593920516,-0.0299359041163005,-0.0343785537164774,0.3602491436039945,-0.3367957492360566,0.042121517288954,-0.1207221874603465,11.003014923522642,-1.4246324331809297,0.1649051032553297,-1.2553549897667289
2.44,0.1212333595615765,0.0463588797068552,1.6513709401784338,0.0219576123558151,0.1433195993794515,0.025049160325822,-0.1057537502939648,-0.023402542163546,-0.0236375708187646,0.1223657328734868,0.0466057421067925,1.651384441041738,-0.0829978593920516,-0.0299359041163005,-0.0343785537164774,0.3095596457721776,-0.2578423982841055,-0.0026178337260806,-0.1712822783719302,10.434919165326392,-1.4184922132007838,0.1633162673875323,-1.2615633404006612
2.46,0.1190864748308925,0.045879096399718,1.6508642241136735,0.0239163789769691,0.1486870820064573,0.0256504426605932,-0.1084096713464421,-0.024595086955764,-0.0268891697454045,0.1215357542795663,0.0463063830656295,1.6510406555045731,-0.0809525012334036,-0.0313577013918437,-0.0364897232260671,0.2182256589986829,-0.1327960526238646,-0.0596272396108999,-0.1625799463319924,10.43565399538238,-1.4113197642684965,0.1616475342926662,-1.269066905864324
2.48,0.117021607780709,0.0453939431390272,1.65032396200006,0.0255768941015075,0.1541957110362574,0.026217837088538,-0.1086508123412105,-0.0263699794479779,-0.0298396639087318,0.1198757970917252,0.0457076649833035,1.6503530844302436,-0.0768617849161076,-0.0342012959429301,-0.0407120622452464,0.1725819236341379,-0.0120570497384203,-0.0887446246106968,-0.147524708166365,10.472491017781977,-1.4031962823353406,0.1601033214948131,-1.2773926750344216
2.5,0.1148652430739453,0.0448422431853389,1.6496954942398487,0.0269800025904895,0.1598403036146045,0.0267860704750044,-0.1068209542468875,-0.0287052960107871,-0.0328614176871725,0.1182158399038842,0.0451089469009775,1.6496655133559142,-0.0727710685988115,-0.0370448904940165,-0.0449344012644258,0.2117373372330176,0.0914929047161526,-0.1167658281404616,-0.1510876889220356,10.472491017781977,-1.3954464375712587,0.1589602158925245,-1.2852322445815925
2.52,0.1127653713030804,0.0442387758701127,1.64900777492354,0.0278684009942342,0.1648980590957772,0.0272986870603545,-0.1031644406367143,-0.0315048436535364,-0.0357637284888504,0.116760418531908,0.0443680490910971,1.6487668253306256,-0.0686803522815155,-0.039888485045103,-0.0491567402836051,0.2721716681386079,0.1828256805086595,-0.1399773821374628,-0.1451155400838958,10.490846867051914,-1.3886072105459597,0.1584101578357434,-1.291995793361804
2.54,0.1107534748836876,0.0435763416528049,1.648260357481084,0.0280967752833485,0.1690904870253148,0.0277340180531654,-0.0981670746930349,-0.0345612951867659,-0.0388477879584606,0.1153049971599317,0.0436271512812168,1.6478681373053372,-0.0645896359642195,-0.0427320795961894,-0.0533790793027844,0.3310097625528599,0.2498682971839694,-0.1528225766614772,-0.1542029734805109,10.510098854255377,-1.3832591779927712,0.1585970254183626,-1.2970164709661527
2.56,0.1089451261808058,0.0428893072000128,1.6474918351867225,0.027602109406751,0.1721187639895783,0.0280622613178543,-0.0924764684647187,-0.0375342435264986,-0.0418958290874219,0.1139518436958879,0.0428151636075593,1.6468638908045692,-0.0604989196469235,-0.0455756741472758,-0.0576014183219638,0.3553588883097961,0.28453031141581,-0.1486474169866324,-0.1524020564480629,10.510098854255377,-1.3790435710810216,0.1596673898301115,-1.300608521170365
2.58,0.1071635042284802,0.042108114415125,1.6466198784132375,0.0263302834917302,0.1742933979425616,0.0283173771370782,-0.0860145848769145,-0.0403633278038037,-0.0451365312050172,0.1127009581397765,0.0419320860701246,1.6457540858283215,-0.0564082033296274,-0.0484192686983622,-0.0618237573411431,0.3881423951509785,0.3230941793902118,-0.1414542138652576,-0.1620351058797625,10.51189054956285,-1.3762573505568148,0.1616435978415523,-1.3025097188616266
2.6,0.1055143382594214,0.0412763046817946,1.6456838601969,0.0243848105013461,0.1754870708898271,0.0284904951604167,-0.0793100868722286,-0.0426032682968394,-0.0482945864649133,0.1028627749846345,0.0400899480249348,1.6443630518529866,-0.0627233453619675,-0.0333540688443614,-0.0590754871676751,0.3871076721395984,0.3352249002342933,-0.1119970246517845,-0.157902762994808,10.514780034791327,-1.3747995828185269,0.1642506062680118,-1.302834017743025
2.62,0.1040630467608496,0.0404205524038267,1.644746442766553,0.0210726588082588,0.1761699276293089,0.0285354202532603,-0.0737852248977897,-0.0464580733199133,-0.0502020960977221,0.1028627749846345,0.0400899480249348,1.6443630518529866,-0.0627233453619675,-0.0333540688443614,-0.0590754871676751,0.350079328873382,0.2762430987219455,-0.1927402511536936,-0.0953754816404413,10.521082566526276,-1.374814033498854,0.1688197188812701,-1.3014417389153707
2.64,0.1026469277439482,0.0394845911964548,1.6437201573199665,0.0166844992022444,0.1768471597597204,0.0285152784797239,-0.0681048166955388,-0.0467590598736191,-0.0523420598851847,0.1028627749846345,0.0400899480249348,1.6443630518529866,-0.0627233453619675,-0.0333540688443614,-0.0590754871676751,0.303879397382259,0.2840204101125447,-0.0150493276852913,-0.106998189373127,10.570505000431694,-1.3740496492937295,0.1744773968491218,-1.300961829369783
