t,x,y,z,roll,pitch,yaw,v_x,v_y,v_z,ref_x,ref_y,ref_z,ref_v_x,ref_v_y,ref_v_z,a_com,a_x,a_y,a_z,thrust,wind_x,wind_y,wind_z
0.0,0.0471408015152479,-0.304869154386822,2.162130387813214,0.0150851806307303,0.1499486281596093,0.0282289416468461,0.0009869476354006,-0.0055184349606719,-0.0031457032216733,0.0471726802759922,-0.3050886682231821,2.162030298806985,0.0193071440198685,0.093309259565601,-0.1032079668664995,0.3214134362819763,0.0493473817700321,-0.2759217480335952,-0.1572851610836697,10.662192023696662,-1.4132091169095242,0.1773217090777434,-1.2773879885434398
0.02,0.0470649646387188,-0.3052111435044086,2.1618438320438718,0.0054950346645162,0.1520644706001453,0.0275909798354453,-0.008512508542282,-0.0244390134178356,-0.0265671463133538,0.0471726802759922,-0.3050886682231821,2.162030298806985,0.0193071440198685,0.093309259565601,-0.1032079668664995,1.578600609180668,-0.4749728088841344,-0.9460289228581892,-1.1710721545840228,10.661220177051293,-1.4081118990426054,0.1879996841374691,-1.2671546936340787
0.04,0.0468131988449036,-0.3057057300438385,2.1610146039888445,-0.0107664705222958,0.1575533356378698,0.0264719092351108,-0.0157508922515589,-0.0232832333155698,-0.055228748642677,0.0471726802759922,-0.3050886682231821,2.162030298806985,0.0193071440198685,0.093309259565601,-0.1032079668664995,1.4792037338140596,-0.3619191854638438,0.0577890051132937,-1.4330801164661584,9.028938686581569,-1.3979648142510193,0.2064077722180232,-1.2669518718061663
0.06,0.0464510716364616,-0.3060939574261617,2.1596077175249078,-0.02742932241775,0.1646407640781743,0.0252276547571483,-0.0197924821887732,-0.0152061266867481,-0.08405060951809,0.0473657517161909,-0.3041555756275261,2.160998219138321,0.0229648612776066,0.1133092598636243,-0.1232079671645227,1.5101935017040131,-0.2020794968607162,0.4038553314410817,-1.4410930437706522,9.045438775504408,-1.3876736579504203,0.2244259795540522,-1.2687561778183842
0.08,0.0460582157106966,-0.3062758876976794,2.1577433083985897,-0.0426901740928128,0.1719471075503333,0.0239801708724883,-0.0211460391918423,-0.0040420582303285,-0.1108030191985803,0.0477518945965882,-0.3022893904362141,2.1589340598009903,0.0302802957930828,0.1533092604596707,-0.1632079677605692,1.4509996250628132,-0.0676778501534547,0.558203422820982,-1.3376204840245125,9.045438775504408,-1.376668388801172,0.2427601452548849,-1.271639132210791
0.1,0.0456395994924801,-0.3062063833202478,2.155236230336325,-0.058018391832368,0.179722146989038,0.0226211939075452,-0.0204271141870707,0.0107440973880912,-0.1385107790174752,0.0481380374769856,-0.300423205244902,2.1568699004636604,0.0375957303085591,0.1933092610557172,-0.2032079683566157,1.570722131151924,0.0359462502385787,0.7393077809209876,-1.3853879909447433,9.097765413080197,-1.3658282488996825,0.2602776071820601,-1.2748921882748645
0.12,0.0452560836693851,-0.3058083900037056,2.1521817305241515,-0.0725327725558225,0.1873018251609461,0.0212432070722448,-0.0177705043574978,0.0286009905764125,-0.165559509000455,0.0488899520831568,-0.2965570200237877,2.152805741096528,0.0449111648240353,0.2333092616517636,-0.2432079689526621,1.6260073829920427,0.1328304914786459,0.892844659416069,-1.35243649914899,9.143114833266736,-1.3556091360993745,0.2769348687540355,-1.2781927963112405
0.14,0.0449416511355139,-0.3050043003822936,2.1485827560924275,-0.0855501282460832,0.1945504768619023,0.0199211239780992,-0.0136323679395224,0.0507058054425371,-0.1930203365086834,0.049641866689328,-0.2926908348026734,2.148741581729396,0.0522265993395115,0.2733092622478101,-0.2832079695487086,1.7747141042405177,0.2069068208987711,1.1052407433062277,-1.37304137541142,9.202750862305948,-1.3465836995456868,0.2913157404698259,-1.2820717989417745
0.16,0.044732474082544,-0.3037955190311883,2.144651493758716,-0.0957799598281227,0.2010852883175852,0.0187958732367553,-0.0084437556677261,0.0749347868460881,-0.2194210400090619,0.0505766671583861,-0.2878246495666579,2.1436774223473622,0.0595420338549877,0.3133092628438566,-0.323207970144755,1.8103607254326115,0.259430613589813,1.2114490701775484,-1.32003517501893,9.208039123890558,-1.3375281094045084,0.3039646658972973,-1.2864361476148405
0.18,0.0446318111769201,-0.3020116076306637,2.139968029661295,-0.1041822317135673,0.2075822227598037,0.0177834418880295,-0.0017410646922014,0.1018585865555558,-0.2475364811317393,0.0516943534903311,-0.2819584643157412,2.137613262950428,0.066857468370464,0.353309263439903,-0.3632079707408014,1.975028535636668,0.3351345487762358,1.3461899854733843,-1.4057720561338665,9.22479781012953,-1.3293342405263868,0.3138218221033974,-1.29072464830986
0.2,0.0446785364138686,-0.299675676274035,2.134723085706195,-0.1103012844119035,0.2136910117939552,0.0169590209286737,0.0062275387268406,0.1300171070296692,-0.2755199531166173,0.04454475794231,-0.2969186783028859,2.127591205604708,0.0313810687714196,0.2018585880456719,-0.3475364826218554,2.0245219312651868,0.3984301709521031,1.4079260237056717,-1.3991735992439025,9.23192575000121,-1.321894197433997,0.3210890011568725,-1.2952209814525502
0.22,0.0449295656894783,-0.2966239393964412,2.1290672818235743,-0.1102062023642354,0.2193760815782372,0.016629142528582,0.0186682209809328,0.1713544767034111,-0.2884512959068353,0.04454475794231,-0.2969186783028859,2.127591205604708,0.0313810687714196,0.2018585880456719,-0.3475364826218554,2.253202350460896,0.6220341127046104,2.066868483687094,-0.646567139510898,10.240983538338696,-1.316697322873131,0.3218980529834359,-1.3042518232502824
0.24,0.0454096074216021,-0.293048787552557,2.1234572285429616,-0.1044911300792485,0.2243807000158865,0.0167958033048475,0.0313702737126674,0.2017505164928901,-0.3013773612896156,0.04454475794231,-0.2969186783028859,2.127591205604708,0.0313810687714196,0.2018585880456719,-0.3475364826218554,1.7694240198177975,0.6351026365867332,1.5198019894739498,-0.6463032691390147,10.240983538338696,-1.3112970876573573,0.3159723556637895,-1.3177856633593663
0.26,0.0461854722747526,-0.2887376612651402,2.117265160155321,-0.0969432289110676,0.2291599959378927,0.0171818905130969,0.0456181850046264,0.2274380224514135,-0.3172644901666506,0.0448585686300242,-0.2949000924224292,2.1241158407784893,0.0380054954641439,0.2218585883436951,-0.3675364829198786,1.6697692973194125,0.7123955645979458,1.28437529792617,-0.7943564438517514,10.089618863996291,-1.3051929626655447,0.3075734356888284,-1.3286341326818236
0.28,0.0472559511780725,-0.2839511085857876,2.110730834601948,-0.08948359645989,0.2332002408019827,0.0176814676873484,0.0607394636958371,0.2498154317390654,-0.3354703045353435,0.0454861900054526,-0.2908629206615157,2.117165111126052,0.0512543488495923,0.2618585889397415,-0.4075364835159251,1.6285370678247222,0.7560639345605368,1.1188704643825944,-0.9102907184346448,9.932124488523186,-1.2999624608301188,0.2994363823354879,-1.3365049288691964
0.3,0.0485584798724501,-0.2790119738375382,2.104165388562645,-0.0830426325344528,0.2361585942037171,0.0182248368124135,0.075573659766766,0.2690240860030284,-0.3547130280208027,0.046113811380881,-0.2868257489006023,2.110214381473615,0.0645032022350408,0.301858589535788,-0.4475364841119715,1.5486350270811648,0.7417098035464458,0.9604327131981532,-0.9621361742729596,9.701601960855442,-1.295869561811709,0.291534227474476,-1.3420230919654956
0.32,0.0502344561502113,-0.2734352490553774,2.0968429015168373,-0.0771394918751232,0.2383505962086377,0.0188386420456553,0.0912000173677528,0.2876802340450008,-0.3765976889287862,0.0474038754255818,-0.2807885771098865,2.1012636517913754,0.0777520556204892,0.3418585901318344,-0.4875364847080179,1.6364391943296648,0.781317880049337,0.9328074020986205,-1.094233045399176,9.701601960855442,-1.2931235374290062,0.2846239907871434,-1.34482584782841
0.34,0.0522238484289528,-0.2674965249486153,2.0890746531134385,-0.0721548469086943,0.2396774337995304,0.0194737805691874,0.1069101209019947,0.3053186010438742,-0.3991468286377838,0.0486939394702826,-0.2747514053191707,2.0923129221091363,0.0910009090059377,0.381858590727881,-0.5275364853040645,1.6327760448538529,0.785505176712098,0.8819183499436695,-1.1274569854498762,9.607652895520005,-1.2916725677497882,0.2791012654967983,-1.3457481172321002
0.36,0.0545297955893412,-0.2612051946134838,2.080850765294932,-0.0677407340101122,0.2401350964370342,0.0201441879335151,0.1227973708943147,0.3228561297961498,-0.4220845209591243,0.0503152248496196,-0.2677142335135538,2.0823621924119955,0.1042497623913862,0.4218585913239274,-0.5675364859001109,1.6478071459396062,0.7943624996160011,0.87687643761378,-1.1468846160670287,9.5761546067597,-1.290929197042144,0.2740003524226905,-1.3453685685588743
0.38,0.0570149702759541,-0.2549080444386485,2.072609996078018,-0.0637585233195878,0.2397331864171788,0.0208295395309889,0.1379455088302993,0.3390182029045377,-0.4441950805477623,0.0522677315635929,-0.2596770616930358,2.071411462699954,0.1174986157768346,0.4618585919199738,-0.6075364864961573,1.5648925964832217,0.7574068967992272,0.8081036554193927,-1.1055279794319,9.55768976903346,-1.2904986455245795,0.2692402451996139,-1.3444237698730832
0.4,0.0599403154109181,-0.2479563588981969,2.063476246899154,-0.0597248139604467,0.2383431849630543,0.0216028825560134,0.1537360047832006,0.3552006437545416,-0.4680235892112122,0.0639122457174691,-0.2379571342934217,2.05040024205063,0.1614540557042264,0.4390182043946538,-0.5441950820378785,1.6424136045973408,0.789524797645065,0.8091220425001933,-1.1914254331724938,9.535901966628444,-1.2913125409169168,0.2646589928576083,-1.3416281793448712
0.42,0.0632250279753737,-0.240682882737755,2.054070336024418,-0.0560874406561482,0.2359762354008737,0.0224030899291956,0.1740707283652206,0.371428776583813,-0.4702852808778858,0.0639122457174691,-0.2379571342934217,2.05040024205063,0.1614540557042264,0.4390182043946538,-0.5441950820378785,1.305726356742427,1.0167361791010008,0.8114066414635746,-0.1130845833336807,9.496368058581538,-1.2958233219847346,0.2614286635599634,-1.344225367494589
0.44,0.0669094551610711,-0.2331018641771362,2.0446201695454254,-0.0533059752459316,0.2327592812264911,0.0231846428424753,0.193190892223259,0.3861245319888687,-0.4747268154133849,0.0639122457174691,-0.2379571342934217,2.05040024205063,0.1614540557042264,0.4390182043946538,-0.5441950820378785,1.2260435574577828,0.956008192901922,0.7347877702527844,-0.2220767267749557,10.562560274443058,-1.3004953138749826,0.2589104830283432,-1.341441375303115
0.46,0.0707494159951166,-0.2256278571436095,2.0355173928641035,-0.0513518231019403,0.2288280973346462,0.0239203118780015,0.2099329844303427,0.3999713510354554,-0.4832008807431528,0.0655267862745113,-0.2335669522494751,2.0449582912302517,0.1661557650790118,0.459018204692677,-0.5641950823359017,1.1660208321387109,0.8371046103541848,0.6923409523293317,-0.4237032664883927,10.562560274443058,-1.3057217060538329,0.2570439703104592,-1.336386016133929
0.48,0.0751165654415901,-0.2174812921348641,2.0257264255685525,-0.0498337781369466,0.2236696630202241,0.0247043829643967,0.225609543532393,0.4139609939235449,-0.4955625235918847,0.0687558673885959,-0.224786588161582,2.034074389589493,0.1755591838285827,0.4990182052887235,-0.6041950829319481,1.218887635649769,0.7838279551025131,0.6994821444044785,-0.6180821424365934,10.293798403722576,-1.3132504379501575,0.2559696467465239,-1.3299609678142246
0.5,0.0797691696184934,-0.2090611047860705,2.015657879591972,-0.048948609123483,0.2178166690090912,0.0254754266274776,0.2386134618874991,0.4273708087312709,-0.5107528216154299,0.0719849485026804,-0.216006224073689,2.023190487948736,0.1849626025781535,0.5390182058847699,-0.6441950835279946,1.2038170332404052,0.6501959177553029,0.6704907403862981,-0.7595149011772606,10.074227876737496,-1.3210973465509477,0.2556323903932502,-1.3223787535516296
0.52,0.0846539523580909,-0.2003786569062152,2.005258034054892,-0.0488250866234311,0.2117746292345541,0.0262031280715882,0.2490453437542293,0.4402750632521834,-0.528424609420823,0.0756842005542435,-0.2052258599559936,2.010306586278176,0.1943660213277244,0.5790182064808164,-0.6841950841240411,1.2120602586719311,0.5215940933365137,0.6452127260456242,-0.8835893902696568,9.897647062057333,-1.3288103155640134,0.2561233003447806,-1.3139188633538623
0.54,0.0894676806947149,-0.1918934969948728,1.9950403504753669,-0.0495153069571328,0.2062387312668074,0.0268341171453501,0.2570400040117351,0.4523383566341175,-0.5462126411865919,0.0793834526058065,-0.1944454958382982,1.9974226846076164,0.2037694400772952,0.6190182070768628,-0.7241950847200875,1.1465728432502214,0.399733012875289,0.6031646690967063,-0.889401588288441,9.749418227995193,-1.335465704055159,0.2576468426118092,-1.305995420963099
0.56,0.0946822907896504,-0.1827047295336027,1.9839103722501683,-0.050878528088171,0.2008651109546392,0.0274435485746358,0.2638660214886859,0.465918503233211,-0.5658759271126601,0.0833177901261089,-0.1826651317057016,1.9835387829221556,0.2131728588268661,0.6590182076729092,-0.7641950853161339,1.2426380302192008,0.3413008738475387,0.6790073299546756,-0.9831642963034126,9.678449790899322,-1.3419137632633709,0.2600271007533007,-1.298903002200717
0.58,0.1000165165965961,-0.1732326433120275,1.972377697958871,-0.0523809028642327,0.1961377343417168,0.0280249020913574,0.2691092495044832,0.4805375731284033,-0.5863794492008207,0.0874872131151505,-0.1698847675582039,1.968654881221793,0.2225762775764369,0.6990182082689557,-0.8041950859121804,1.2860822899856068,0.2621614007898648,0.7309534947596119,-1.025176104408032,9.564147299211982,-1.347088941493741,0.2624370878574889,-1.2929796551488535
0.6,0.105166517655073,-0.1639542130674302,1.9610345735427568,-0.0535054776011651,0.1924806010674003,0.0285661941733223,0.2726598855594022,0.4953045017669309,-0.6065887506309399,0.1134719790718203,-0.1492057646556073,1.9430587254988296,0.2671117935499315,0.5805375746185194,-0.6863794506909369,1.2640065882969862,0.1775318027459504,0.7383464319263844,-1.010465071505956,9.51649762839861,-1.351216571030951,0.2646018599172021,-1.2880691391977388
0.62,0.1107089121882117,-0.1538215394071468,1.94892722315013,-0.0526825492469948,0.1893735921960288,0.0292422474425858,0.2815754628468894,0.5168575683104116,-0.6017392629273146,0.1134719790718203,-0.1492057646556073,1.9430587254988296,0.2671117935499315,0.5805375746185194,-0.6863794506909369,1.191154615052633,0.4457788643743576,1.077653327174033,0.2424743851812627,9.51649762839861,-1.3539642800450244,0.2645783793901723,-1.2871963827636312
0.64,0.1164228883369783,-0.1432819188017656,1.936921129005677,-0.0491956646472071,0.1867523069136758,0.0300700345002535,0.2892156972353575,0.5355192810331981,-0.599513602530031,0.1134719790718203,-0.1492057646556073,1.9430587254988296,0.2671117935499315,0.5805375746185194,-0.6863794506909369,1.0143794500365464,0.3820117194234057,0.9330856361393248,0.1112830198641778,11.20757357333241,-1.3591380208279074,0.2619967714248186,-1.2891813307237872
0.66,0.1219769187240088,-0.1329599801994204,1.9254932428403304,-0.0449400565101085,0.184739881818993,0.0308825341237169,0.2949952713289563,0.5498526757745068,-0.6034877110245795,0.1161430970073196,-0.1434003889094221,1.9361949309919204,0.2667123023590212,0.6005375749165426,-0.70637945098896,0.7978772146139033,0.2889787046799402,0.716669737065434,-0.1987054247274244,10.816242450715436,-1.36319032269829,0.2579394038173263,-1.2917937901418968
0.68,0.1279292219256554,-0.1218276344252484,1.9133326348270283,-0.0405771547865725,0.183059750942463,0.0316921034737314,0.2998516653892552,0.562582004272458,-0.612577656718254,0.1214853328783182,-0.1317896374170518,1.9224673419781015,0.2659133199772005,0.640537575512589,-0.7463794515850065,0.8189131211423007,0.2428197030149459,0.6364664248975582,-0.4544972846837247,10.44634615375344,-1.3658638387415956,0.2537499978687854,-1.2932376831092909
0.7000000000000001,0.1339676988638513,-0.1104561708178352,1.9009443826706391,-0.0367349954984983,0.1817901790278553,0.032432503652899,0.3037006339395092,0.5739443631667606,-0.6259569447706131,0.1268275687493169,-0.1201788859246814,1.908739752964283,0.2651143375953798,0.6805375761086355,-0.786379452181053,0.8985030708514313,0.1924484275127008,0.5681179447151297,-0.6689644026179553,10.148849743188292,-1.3669966647258869,0.2499788324355681,-1.2940941061014728
0.72,0.1400755905205271,-0.0988685288021354,1.888248418338816,-0.0335334307472073,0.1808493218861867,0.0331024260431125,0.3069042502324507,0.5843575169848462,-0.642951137708064,0.1321298555012245,-0.1065681344025086,1.893012163920662,0.2643153552135591,0.720537576704682,-0.8263794527770995,1.009330871650639,0.1601808146470734,0.5206576909042804,-0.8497096468725429,9.910910215237893,-1.3671039624028387,0.2469806410129807,-1.29453665294428
0.74,0.1459351725861418,-0.0876738201697404,1.8758566089537985,-0.0310939358486686,0.1801336359181463,0.0336800091578608,0.3097262542557766,0.5936331842129666,-0.6605922136537064,0.1374321422531321,-0.0929573828803359,1.877284574877041,0.2635163728317384,0.7605375773007285,-0.8663794533731459,1.0064905237437862,0.1411002011662943,0.4637833614060227,-0.8820537972821174,9.724180093890936,-1.3668785857570385,0.2444676559660448,-1.2940881605089969
0.76,0.152159319278377,-0.0756963611415832,1.862437958209992,-0.0289020022754595,0.1794603742001176,0.0342490681531962,0.3125209853352231,0.6035882977387126,-0.6803922284104023,0.1427144544454942,-0.078346631343262,1.860556985818519,0.2627173904499178,0.8005375778967748,-0.9063794539691924,1.1168654702808771,0.1397365539723249,0.4977556762872981,-0.9900007378347953,9.641241535857262,-1.36637003017643,0.2423776563263966,-1.2934421018261295
0.78,0.1584375340426287,-0.0635208101848287,1.8486118256746649,-0.0268125823096736,0.1787771744267147,0.0348008877459013,0.3151373745655584,0.6133933364696408,-0.701264557169244,0.1479767920783107,-0.062735879791287,1.8428293967450955,0.2619184080680971,0.8405375784928213,-0.9463794545652388,1.1604292147054762,0.1308194615167651,0.4902519365464097,-1.0436164379420854,9.571033826337953,-1.3658091891474524,0.2403697125424117,-1.2924540906011202
0.8,0.1647655785523846,-0.0511526780491569,1.8343561821925245,-0.0247175803193767,0.1780248377541174,0.0353439525065489,0.3175093435651715,0.6228333949452461,-0.7232388676704987,0.1741944027709066,-0.0328511433613467,1.8135485978162027,0.2970317354207801,0.6633029244191552,-0.7883521436913463,1.2016772267996192,0.1185984499806558,0.4720029237802681,-1.0987155250627378,9.51223839312388,-1.3652760199942071,0.2384189987055252,-1.2911551027151955
0.8200000000000001,0.1708813338542351,-0.0390569546205656,1.8207123061714483,-0.0173656508704312,0.1768698380729908,0.0362276191956907,0.3261686257361618,0.6460480509581499,-0.7117395839833766,0.1741944027709066,-0.0328511433613467,1.8135485978162027,0.2970317354207801,0.6633029244191552,-0.7883521436913463,1.365775372115774,0.4329641085495161,1.1607328006451867,0.5749641843561082,9.452928669305038,-1.3660661429368668,0.230261535917621,-1.2934313236968318
0.84,0.1774985382914098,-0.026002732822467,1.8065640563001024,-0.0046416558915102,0.1746395406674744,0.0374743632794274,0.3349849585553979,0.6571800015063078,-0.7040968975286845,0.1741944027709066,-0.0328511433613467,1.8135485978162027,0.2970317354207801,0.6633029244191552,-0.7883521436913463,0.806316785808943,0.4408166409618025,0.5565975274078983,0.3821343227346008,11.56606207614368,-1.3713996942161844,0.2161818589182725,-1.2980468164267227
0.86,0.1842806495843574,-0.0128107421589626,1.7924813809902649,0.0088714630992715,0.1709540237728409,0.0387028937631896,0.3426618446931259,0.661088265721936,-0.7044971947677626,0.1771647201251144,-0.0262181141171551,1.8056650763792887,0.2934106075918245,0.673284842009058,-0.8057696609957667,0.4311883226341288,0.3838443068863995,0.1954132107814088,-0.0200148619539042,11.08925998795985,-1.3769383762092946,0.2007529349125374,-1.2977401795710588
0.88,0.1912001927663351,0.0004087778798266,1.7783285602660135,0.0215336760730432,0.1655272806503217,0.0397522156999917,0.3485526235927682,0.6605423663700233,-0.711001326270843,0.18310535483353,-0.012952055628772,1.7898980335054624,0.2861683519339132,0.6932486771888638,-0.8406046956046077,0.4396106480632972,0.2945389449821173,-0.0272949675956368,-0.3252065751540189,10.62302817798536,-1.3836481721545937,0.1868403799505033,-1.29246627398634
0.9,0.1978525680483499,0.0129247107897702,1.7647073051487705,0.0321573832501774,0.1591054183078686,0.0405148518215181,0.3511146821027545,0.6570770547644172,-0.7224178445255962,0.1890459895419456,0.000314002859611,1.7741309906316354,0.2789260962760019,0.7132125123686696,-0.8754397302134487,0.6101422321755273,0.1281029254993126,-0.1732655802803018,-0.5708259127376603,10.251461854815716,-1.3919821634780822,0.1738699143572373,-1.2829801067578688
0.92,0.2048754114877284,0.0260059285723893,1.7500947945067875,0.0417262974444739,0.1517361488309072,0.0410707434940467,0.3507504009627974,0.6513151170275264,-0.738372976205706,0.1946245114674656,0.0145782531069844,1.7566221960273665,0.2716838406180906,0.7331763475484753,-0.9102747648222896,0.848379122448179,-0.0182140569978533,-0.288096886844541,-0.7977565840054879,9.95243966448379,-1.4002014508594758,0.1628147298187766,-1.2704498199283554
0.94,0.2118625388995809,0.0389506816368355,1.7351378663695107,0.0495597897610875,0.1443403744184217,0.0413987693747547,0.3477941306944254,0.6437328243417297,-0.7564544891173652,0.2002030333929857,0.0288425033543578,1.7391134014230971,0.2644415849601793,0.7531401827282811,-0.9451097994311306,0.9914280173659192,-0.1478135134185987,-0.3791146342898344,-0.9040756455829636,9.71609364527012,-1.4077551140748994,0.1538044285244602,-1.255980484180688
0.96,0.2187670004473504,0.0517340920586856,1.7198065600514651,0.0558894591123615,0.1373664011748419,0.041554275061479,0.3426730127634145,0.6352018921691857,-0.7757285386595215,0.2056004989270579,0.0436058494812263,1.7207337309536073,0.257199329302268,0.7731040179080868,-0.9799448340399716,1.08454096090162,-0.2560558965505444,-0.426546608627204,-0.963702477107814,9.531398508399434,-1.4141033092775224,0.1468942853085724,-1.2427605264678625
0.98,0.2252136830141903,0.0637117319242698,1.7048740797343054,0.0607125803088568,0.1314129349017604,0.041589773900553,0.3361181555233548,0.6262351476092343,-0.7951117361551863,0.2108169080696824,0.05886829148759,1.7014831846188962,0.2499570736443567,0.7930678530878925,-1.0147798686488123,1.1170015740778136,-0.3277428620029859,-0.4483372279975695,-0.9691598747832376,9.531398508399434,-1.4193092650899872,0.1410268861042413,-1.2299025947745883
1.0,0.2318492311300568,0.0761297097088198,1.6887465249128777,0.0646873075811185,0.1260596812686343,0.0415501659982483,0.3276526985825317,0.616174698258671,-0.816649347557499,0.242019590790358,0.0950234893047315,1.665118492926546,0.2754655046306203,0.6154949680407051,-0.8248292020178181,1.2616906388544789,-0.4232728470411562,-0.5030224675281636,-1.0768805701156348,9.461104555135536,-1.4230418813932195,0.136453967230863,-1.2179218993106835
1.02,0.2384254535490318,0.0884798803470607,1.672625349820453,0.0729060895953172,0.1195221083272828,0.0416613555679495,0.3297636617933612,0.6157692017057725,-0.794537944649038,0.242019590790358,0.0950234893047315,1.665118492926546,0.2754655046306203,0.6154949680407051,-0.8248292020178181,1.1107820800141024,0.105548160541477,-0.0202748276449227,1.105570145423046,9.388525125530576,-1.4296028068301658,0.1278410099178346,-1.2097000103627489
1.04,0.2446820496800602,0.100076926396445,1.657693609589819,0.0841031477004592,0.1109029366594437,0.0417058394476457,0.3282282512283536,0.6043887582958656,-0.7784454809728958,0.242019590790358,0.0950234893047315,1.665118492926546,0.2754655046306203,0.6154949680407051,-0.8248292020178181,0.9884828842438166,-0.0767705282503833,-0.569022170495348,0.8046231838071127,12.030252227003077,-1.44161428885495,0.1149815222771001,-1.197047849385166
1.06,0.2511916383721433,0.1119794295343322,1.6422406447033069,0.095725196462294,0.1004108836610797,0.0414536615844874,0.3223338499507112,0.5863498820794227,-0.7679482661446538,0.2447742458366642,0.1011784389851385,1.656870200906368,0.2633349744520734,0.6133469321269993,-0.8307726951903445,1.084362186638166,-0.2947200638821173,-0.9019438108221424,0.5248607414120976,11.543452761356091,-1.454101505128459,0.1023562593355239,-1.1796229994513885
1.08,0.2575381536411383,0.1234804534360476,1.6269369694261795,0.1057797773420575,0.0893558033792424,0.0408657080153516,0.3122096361295753,0.5648074643126989,-0.7631164927359869,0.2502835559292766,0.1134883383459526,1.6403736168660117,0.2390739140949795,0.6090508602995877,-0.8426596815353972,1.2144149857079736,-0.5062106910567965,-1.0771208883361916,0.2415886704333458,11.140456046722647,-1.466527977254921,0.0916114426534565,-1.1594367586583998
1.1,0.2636403321392052,0.1345247613671465,1.611679289528521,0.1137207333879135,0.0785101270979616,0.040003761109663,0.2982341438275279,0.541145258897724,-0.7627924967437909,0.255792866021889,0.1257982377067668,1.623877032825655,0.2148128537378857,0.604754788472176,-0.8545466678804499,1.374153670071156,-0.6987746151023683,-1.183110270748744,0.0161997996098006,10.81433588506752,-1.476793807360525,0.0835415840293363,-1.1397661623521178
1.12,0.2691464767942229,0.1445656373543579,1.5971614441764674,0.1192837173695671,0.0689458688759617,0.0390239289621293,0.2818971032160133,0.5174449513720121,-0.7653309788948555,0.2600891230966468,0.1378933334762103,1.6067860994680463,0.1905517933807919,0.6004587166447644,-0.8664336542255026,1.4448593049038292,-0.8168520305757321,-1.1850153762855975,-0.1269241075532279,10.575341065999964,-1.485616163679254,0.0773384373764602,-1.1185157289376182
1.14,0.2745815810565599,0.1546425231252115,1.5818226222276504,0.1232240888620784,0.0600248176541121,0.0379162239282834,0.2623099157776856,0.4918369646965667,-0.7683591703431631,0.2643853801714045,0.1499884292456538,1.5896951661104373,0.1662907330236981,0.5961626448173527,-0.8783206405705553,1.619102248748958,-0.9793593719163828,-1.2803993337722697,-0.1514095724153841,10.389512810602357,-1.4923187402662623,0.0732413131294811,-1.098120770678308
1.16,0.2795986302888248,0.1641964567104039,1.5664225051216647,0.1252041652677022,0.0526456971223762,0.0368099364460425,0.2403414001235981,0.4653714520450727,-0.7714139082030935,0.2680751107372348,0.161976123219412,1.572307058094202,0.1420296726666043,0.591866572989941,-0.8902076269156081,1.726535883889448,-1.0984257827043735,-1.3232756325746995,-0.1527368929965189,10.389512810602357,-1.4969472680357865,0.0709850303039218,-1.0812742025081594
1.18,0.2841549503010822,0.1732141256284234,1.5509613586848845,0.1251212373609495,0.0472038103299196,0.0357755048857664,0.2162495073093313,0.4379640762662524,-0.7745043124761652,0.2711583147941379,0.1738564153974849,1.5546217754193403,0.1177686123095105,0.5875705011625294,-0.9020946132606608,1.8310749199763816,-1.2045946407133423,-1.370368788941012,-0.1545202136535861,10.397883633287163,-1.498379253867079,0.0706762423954072,-1.0672769791307295
1.2,0.2880150849598717,0.1812605513924338,1.536215310913868,0.1224089406470538,0.0445400395157694,0.0349156437577094,0.1912842857957874,0.4109918649679213,-0.7774651042265788,0.2949674256665488,0.195112329441736,1.5122361430610762,0.1273323934687513,0.3671944980477923,-0.7538347329702448,1.843589403399962,-1.248261075677194,-1.3486105649165552,-0.1480395875206763,10.407393953703831,-1.4963739602579378,0.0729062893578165,-1.0562392654746735
1.22,0.2916079246026766,0.1893832737468016,1.5208962712833036,0.123773922992302,0.0435025484214625,0.0345193550375719,0.1695970750907564,0.4006291874392196,-0.7532871811591384,0.2949674256665488,0.195112329441736,1.5122361430610762,0.1273323934687513,0.3671944980477923,-0.7538347329702448,1.704620307856956,-1.0843605352515522,-0.518133876435084,1.2088961533720188,10.407393953703831,-1.4857480681394195,0.0699823602126367,-1.0547080728227
1.24,0.2947761753963754,0.1971719544420627,1.506067417342236,0.1314371682002143,0.0427273231829891,0.0345691137913701,0.1483330607365769,0.377744367203228,-0.7310646591225415,0.2949674256665488,0.195112329441736,1.5122361430610762,0.1273323934687513,0.3671944980477923,-0.7538347329702448,1.9168423183424863,-1.0632007177089744,-1.144241011799582,1.1111261018298455,12.076134796690894,-1.4878981411578944,0.0627418601605526,-1.0535546930832806
1.26,0.2973922238724813,0.204069325293473,1.4923558205964629,0.1391886020189225,0.0422750425611971,0.0346551764551384,0.1281253440294197,0.3495297545592177,-0.7133537275328731,0.2962407496012363,0.1987842744222139,1.504697795731374,0.1095489707006353,0.3530405824041003,-0.7497008170690608,1.9481358262080837,-1.010385835357859,-1.4107306322005158,0.8855465794834205,11.827678294097495,-1.4879755112975237,0.0545397894988606,-1.051469431264047
1.28,0.2997324701185149,0.2107163301253884,1.4782642443393543,0.146101695802866,0.0420428810521946,0.03466200130526,0.1069725092935095,0.3168562754540154,-0.6967770390880157,0.2987873974706113,0.2061281643831698,1.4896211010719689,0.0739821251644033,0.3247327511167163,-0.7414329852666925,2.1152926830587093,-1.0576417367955109,-1.633673955260112,0.828834422242869,11.655986710646175,-1.4870392881685195,0.0474636273275631,-1.0494922143295102
1.3,0.3016499579347569,0.2166883553544739,1.464487168768832,0.1511400366284105,0.0420115872124108,0.034540038573721,0.0858426449670879,0.2823453698419662,-0.681750527257904,0.3013340453399863,0.2134720543441256,1.474544406412564,0.0384152796281713,0.2964249198293323,-0.7331651534643244,2.158280467407584,-1.056493216321077,-1.7255452806024612,0.7513255915055861,11.551998967157488,-1.4855993535563226,0.0421774879167141,-1.0471377003124076
1.32,0.3031453907095909,0.2219577938847838,1.4509994179993329,0.1540626639200134,0.0421729135942551,0.0342768420775348,0.0647731848158611,0.246950357638059,-0.6676690054795381,0.3021023509325498,0.2194005527407123,1.4598811033432777,0.0028484340919393,0.2681170885419482,-0.7248973216619563,2.176590393007759,-1.0534730075613403,-1.7697506101953613,0.7040760889182929,11.477057922535096,-1.4838358820052169,0.0390148111207652,-1.0447514693492237
1.34,0.3041775422814451,0.2262995002123029,1.4384505066041195,0.154834624737227,0.0424771806097966,0.0338931141718537,0.0449433704372902,0.2122752842466516,-0.6538981049097274,0.3028706565251132,0.2253290511372989,1.445217800273991,-0.0327184114442926,0.2398092572545642,-0.7166294898595881,2.112593166875532,-0.9914907189285448,-1.7337536695703677,0.6885450284905337,11.43228959492717,-1.4817737774732342,0.0376352791919952,-1.042235239057513
1.36,0.3048561420193478,0.2301456990828274,1.4255282826759894,0.1529109993621991,0.0430234229481697,0.0333192858251904,0.0239941258387043,0.1745230816216444,-0.6389556667656106,0.3027497909792708,0.230549853751701,1.4307611929997637,-0.0682852569805246,0.2115014259671801,-0.70836165805722,2.284390569704392,-1.047462229929293,-1.8876101312503624,0.7471219072058444,11.472206514068604,-1.479779201790097,0.0389211994282117,-1.0396353345609632
1.38,0.3051148315768647,0.2332444374452355,1.4129113195116438,0.1477870276288917,0.0439568276941946,0.0325712821921941,0.0029654135281037,0.1383193254062069,-0.6232926637535534,0.3017397542950226,0.2350629605839184,1.4165112815205956,-0.1038521025167566,0.1831935946797961,-0.7000938262548517,2.2350885714578235,-1.0514356155300342,-1.8101878107718752,0.7831501506028571,11.51524955226978,-1.477274568908929,0.0432281015958388,-1.0368556776577096
1.4,0.3049534222458788,0.2356570847843729,1.4006163582649054,0.140716430069642,0.045363735468185,0.0317499583032305,-0.0179805842133883,0.1054043968365909,-0.6068741950950366,0.3052631022532698,0.2401604037155459,1.3817466863239662,-0.0869629601663161,0.0407750948854816,-0.5474656686788044,2.116420006296132,-1.0472998870746024,-1.645746428480796,0.8209234329258408,11.535250751829151,-1.475598372358624,0.049060940215627,-1.0349532000208292
1.42,0.3044280640214026,0.2374283046884406,1.3894009833653829,0.1355855767639594,0.0468919335016727,0.0311018632140559,-0.0362136784521794,0.0813981491612588,-0.5747163405900261,0.3052631022532698,0.2401604037155459,1.3817466863239662,-0.0869629601663161,0.0407750948854816,-0.5474656686788044,2.203901800974498,-0.9116547119395556,-1.200312383766608,1.607892725250526,11.54390814715407,-1.4725535343552445,0.0537469698609237,-1.0325419832327043
1.44,0.3035085987914102,0.2387540029676875,1.3782594947076627,0.1320866974283457,0.0483812672488128,0.0305301357790816,-0.0547472061874208,0.0524702042064869,-0.541205176860667,0.3052631022532698,0.2401604037155459,1.3817466863239662,-0.0869629601663161,0.0407750948854816,-0.5474656686788044,2.399643590262512,-0.9266763867620716,-1.4463972477385945,1.6755581864679514,12.662509242405577,-1.473643070616638,0.0563159943719843,-1.0354403057293846
1.46,0.3022236203915743,0.2394923221209104,1.367779426688439,0.1287915355984797,0.0496317625567314,0.0299356571106535,-0.072831307976903,0.0230512937091116,-0.5084439640437178,0.3043934726516067,0.2405681546644007,1.3762720296371782,-0.1049486349052001,0.0212662487813366,-0.5323002696638546,2.3800231604032582,-0.9042050894741092,-1.4709455248687615,1.6380606408474607,12.568292122124149,-1.4744293253539338,0.0586456931227556,-1.0368578428499415
1.48,0.3005800111328521,0.2396472428272075,1.3579499218815947,0.1252483382913463,0.0505694118954976,0.0292800900150034,-0.090649566125719,-0.0057947101829957,-0.4761062822670997,0.3026542134482803,0.2413836565621104,1.365322716263602,-0.140919984382968,-0.0177514434269535,-0.501969471633955,2.342705661562684,-0.8909129074407981,-1.4423001946053695,1.6168840888309055,12.53545692237185,-1.475187718828317,0.0613622039293908,-1.0370681144487206
1.5,0.2986895409679566,0.2392692098718486,1.3492078201192037,0.1215898489810545,0.051151200354328,0.0285973024380095,-0.1074872183106649,-0.0322963027800103,-0.445698775134317,0.300914954244954,0.24219915845982,1.354373402890026,-0.176891333860736,-0.0567691356352436,-0.4716386736040554,2.1854389898310966,-0.8418826092472943,-1.325079629850731,1.5203753566391365,12.53545692237185,-1.4763130758374636,0.0643643586546563,-1.0367752153583278
1.52,0.2963543842562263,0.2383413028284436,1.3406297902307411,0.1175564134051408,0.0514342496797208,0.0278276863159714,-0.1251747258895059,-0.0589049063112758,-0.4136873370844492,0.2973771275677394,0.2410637757471151,1.344940629417945,-0.2128626833385039,-0.0957868278435336,-0.4413078755741558,2.261414309815958,-0.8843753789420504,-1.3304301765632738,1.6005719024933889,12.495595838136978,-1.4777388013470516,0.0675215314901753,-1.0361219229239198
1.54,0.2936638653762893,0.2368920274687052,1.3326938405357402,0.1134178501916608,0.0514135413735453,0.0270196932670971,-0.1430374760267234,-0.084469706088081,-0.3814822090503288,0.2938393008905246,0.2399283930344102,1.3355078559458635,-0.2488340328162719,-0.1348045200518238,-0.4109770775442562,2.241543609762529,-0.8931375068608777,-1.2782399888402622,1.6102564017060172,12.495595838136978,-1.4795435393783292,0.0707740603836453,-1.035050518337114
1.56,0.2906085240717461,0.2349370688315589,1.3254013640774311,0.109026313189385,0.0513392616774336,0.026194868068161,-0.1615940930617567,-0.1094003153088897,-0.3493332712123512,0.2894021904763657,0.2378175680164981,1.3268333524245302,-0.2848053822940398,-0.1738222122601139,-0.3806462795143566,2.2357535172820984,-0.927830851751664,-1.2465304610404369,1.607446891898881,12.502678823578208,-1.4816640365361513,0.0741496650059466,-1.0334520884391032
1.58,0.2873569001588476,0.2326287104155408,1.3190682118362065,0.1045361790401127,0.0515090979675113,0.0254229589541677,-0.1797105750820698,-0.1320300254205252,-0.3188870727067522,0.2840657963252626,0.2347313006933787,1.318917118853944,-0.3207767317718077,-0.2128399044684039,-0.350315481484457,2.1019524875525386,-0.9058241010156536,-1.1314855055817703,1.522309925279952,12.496473941426302,-1.4844501453702217,0.0779814687054604,-1.0332437865537425
1.6,0.2835603945540864,0.229750323710645,1.3130276004190615,0.0995965786417711,0.0521009435860969,0.0246467003992979,-0.1989385741116937,-0.1543720696870925,-0.2867572316980383,0.2783713714047441,0.2260272091445145,1.3031238582008688,-0.2596710032603802,-0.2261199134567762,-0.2188870712166361,2.18014309847869,-0.9613999514811928,-1.117102213328368,1.6064920504356954,12.48387868782629,-1.4868919356567007,0.0819325778260122,-1.0351198892871345
1.62,0.2793545681261044,0.2264239461185428,1.3076164319598904,0.0940258138174835,0.0539559868654882,0.0239565547084389,-0.2203430731924249,-0.176512745220239,-0.2558980204315286,0.2783713714047441,0.2260272091445145,1.3031238582008688,-0.2596710032603802,-0.2261199134567762,-0.2188870712166361,2.1798239687828995,-1.070224954036561,-1.1070337766573262,1.542960563325482,12.411905744423166,-1.4889236660742844,0.0863670001741237,-1.0381496247899529
1.64,0.2749799889853534,0.2228875193039323,1.3030588938132142,0.0885738991106438,0.0570706684499747,0.0234155077715664,-0.2388677277917004,-0.1945468615082664,-0.2253843266658237,0.2783713714047441,0.2260272091445145,1.3031238582008688,-0.2596710032603802,-0.2261199134567762,-0.2188870712166361,1.9996735268161736,-0.9262327299637746,-0.9017058144013684,1.5256846882852475,12.411905744423166,-1.4882237972129262,0.0910220423220257,-1.045602868435656
1.66,0.2700159914079374,0.2188172968553711,1.2988989688223975,0.0833795082314714,0.0609638019644017,0.0229316343132531,-0.2563827804434526,-0.2115178441060062,-0.1921875006622667,0.2757746613721403,0.2237660100099468,1.3009349874887024,-0.2756630888960423,-0.2449378910640264,-0.1988870709186128,2.059624101891456,-0.8757526325876119,-0.8485491298869898,1.6598413001778471,12.47649992757033,-1.487068962375525,0.095229516685159,-1.0545993651399086
1.68,0.2647204091177473,0.2144228228419798,1.295408224506248,0.0789796870847928,0.0648870629185024,0.0224990912314446,-0.2721803309594186,-0.2271229230182797,-0.1585578845314573,0.2705812413069327,0.2192436117408112,1.2965572460643695,-0.3076472601673665,-0.2825738462785269,-0.1588870703225664,2.0149641257776647,-0.7898775257982993,-0.780253945613675,1.6814808065404725,12.54063403449436,-1.486045930543448,0.0987558108906378,-1.0641366313184648
1.7,0.259124163162399,0.2097270127711347,1.292591691807955,0.0753969722249135,0.0684318994771431,0.0220902876089239,-0.2865826515114186,-0.2417443774343671,-0.1247957771871716,0.2653878212417251,0.2147212134716757,1.292179504640037,-0.3396314314386906,-0.3202098014930273,-0.1188870697265199,1.9755338891369023,-0.7201160276000013,-0.7310727208043682,1.6881053672142827,12.57523867474265,-1.4854960790587255,0.1014416606505418,-1.0729037608744685
1.72,0.2535519837248821,0.2050030446386208,1.2905421074203691,0.0727347814751871,0.0711937617758626,0.0217085479873831,-0.2992492346155735,-0.2549210060340292,-0.0926663827008921,0.2585951926129513,0.2083170174418152,1.2898017632455068,-0.3716156027100147,-0.3578457567075278,-0.0788870691304735,1.8482179652592792,-0.633329155207743,-0.6588314299831033,1.606469724313974,12.57523867474265,-1.4856482322540103,0.1035806896516462,-1.0812608399112793
1.74,0.2474340929858259,0.1997647339904314,1.289046354646045,0.0706342915009728,0.0733308161963777,0.0213038002684814,-0.3118814522951167,-0.2683161024291178,-0.0586076951440766,0.2518025639841775,0.2019128214119546,1.2874240218509765,-0.4035997739813389,-0.3954817119220282,-0.038887068534427,1.935843310439832,-0.63161088397716,-0.6697548197544312,1.7029343778407746,12.609669001292788,-1.4870003562126,0.1050831098622519,-1.0885223029922395
1.76,0.2410630692958723,0.1942546341698428,1.2882291270825814,0.0689460639232183,0.074781393439558,0.0208859405751014,-0.3246108893734966,-0.2819981063642518,-0.0248346847966141,0.2442103310736205,0.1945677265017316,1.286046280471347,-0.4355839452526631,-0.4331176671365286,0.0011129320616193,1.929930068644501,-0.6364718539189934,-0.6841001967567012,1.6886505173731274,12.599631505725483,-1.4884156502373005,0.10609234174206,-1.095105969614732
1.78,0.2344352789870787,0.1884713683005169,1.2880852820125392,0.0673500348744872,0.0758416517856024,0.0204556012049465,-0.3375306321771945,-0.2955679786631032,0.008752127674145,0.2358184938812805,0.186281732711146,1.2856685391066192,-0.4675681165239872,-0.470753622351029,0.0411129326576657,1.922976313080053,-0.6459871401848977,-0.6784936149425685,1.679340623537958,12.599631505725483,-1.4899771601327627,0.1070530739445859,-1.1017425683047462
1.8,0.2278978515438915,0.1827287363319417,1.288569697520524,0.0658298272149001,0.0767008773659259,0.020044646622813,-0.3499550138286423,-0.3081642247195469,0.0405521422807864,0.217558747378219,0.1736929693673617,1.2885228883962463,-0.4030133305581416,-0.3837102991768285,0.1087521291642611,1.8195271385156064,-0.6212190825723884,-0.6298123028221886,1.5900007303320722,12.598066914059928,-1.4916631822239783,0.1080423896558471,-1.1081506263519936
1.82,0.2207276502342235,0.1763852386288347,1.2896078706973788,0.0625542767209024,0.0783747012598393,0.0195539153368594,-0.3663313845895588,-0.3244970711992987,0.061031639046785,0.217558747378219,0.1736929693673617,1.2885228883962463,-0.4030133305581416,-0.3837102991768285,0.1087521291642611,1.5446335983160269,-0.8188185380458235,-0.8166423239875875,1.023974838299931,12.599247807133906,-1.4946974530181882,0.1109762019733283,-1.1138471865258552
1.84,0.2132437370222343,0.1697756506706658,1.2910569889981054,0.0580871316312052,0.0812576136208618,0.0190614637856331,-0.3810394278695238,-0.3355692752355516,0.0829148251687208,0.217558747378219,0.1736929693673617,1.2885228883962463,-0.4030133305581416,-0.3837102991768285,0.1087521291642611,1.4298549526027309,-0.7354021639982528,-0.553610201812646,1.094159306096789,11.683762028461388,-1.4923383303508988,0.1146841153699221,-1.1202365248475656
1.86,0.2058792622910835,0.1633183437806801,1.2928597423243782,0.0543706253664133,0.0844268035809146,0.018657770184754,-0.3933218994759646,-0.3437857446087252,0.1057164514547966,0.2135286140726376,0.1698558663755934,1.289610409687889,-0.416109870234331,-0.4013387632795735,0.1287521294622843,1.3585687680544387,-0.6141235803220374,-0.4108234686586776,1.140081314303787,11.844334301373236,-1.489453008109609,0.1181005989765784,-1.1287680174814003
1.88,0.1978924400141996,0.1563647723183871,1.2952423796438366,0.0514830182547667,0.0877094109478291,0.0183046994592226,-0.4046078111272593,-0.3513384199960342,0.1313913899199968,0.2054683474614748,0.1621816603920569,1.2917854522711745,-0.4423029495867099,-0.4365956914850636,0.1687521300583308,1.4522544306170242,-0.5642955825647361,-0.3776337693654541,1.2837469232600096,11.975022287719185,-1.4860749880837738,0.1204692626152538,-1.1376113596643225
1.9,0.1896943190017958,0.1492661995786116,1.2981512152279635,0.0497380455294244,0.0905640120187166,0.0180154436920972,-0.4145861295052961,-0.3583137741906937,0.1582247656322991,0.1974080808503119,0.1545074544085203,1.2939604948544596,-0.4684960289390887,-0.4718526196905537,0.2087521306543772,1.4733061934913596,-0.4989159189018433,-0.348767709732975,1.3416687856151177,12.093912052483574,-1.483633422537439,0.1216981731678339,-1.1457053142348397
1.92,0.1813077474389582,0.1420345696058559,1.3016077915510191,0.0492742200889724,0.0927548537647491,0.0177912301551052,-0.4235964011389692,-0.364714334303872,0.1860524963192618,0.1880381602715302,0.1450704020147092,1.2981355374675472,-0.4946891082914675,-0.5071095478960438,0.2487521312504237,1.4971095149162503,-0.4505135816836536,-0.320028005658915,1.391386534348135,12.175027472375405,-1.482151996459422,0.1217508908197179,-1.154240814327644
1.94,0.1731787997987889,0.1350483334228153,1.3054101938134035,0.0501935502731237,0.0941438490650905,0.0176478862029797,-0.431677553481925,-0.3705548951240739,0.2127837498254475,0.1786682396927484,0.1356333496208981,1.3023105800806347,-0.5208821876438464,-0.542366476101534,0.2887521318464702,1.4265141849071306,-0.4040576171477877,-0.2920280410100923,1.3365626753092856,12.246223595687296,-1.4821215116321893,0.1203409902640142,-1.1615670430250584
1.96,0.1644551458436976,0.1275629502303192,1.3099652710232803,0.0524578853624292,0.0949983254532339,0.0175651485418184,-0.4402891194833264,-0.3777945817133887,0.241323057437622,0.1686434921301571,0.1253148740219498,1.3074856227086236,-0.5470752669962252,-0.5776234043070241,0.3287521324425166,1.5338384936901903,-0.4305783000700697,-0.3619843294657421,1.4269653806087232,12.275332436612189,-1.483118380717579,0.1175296766752822,-1.168397445751883
1.98,0.1555569150889217,0.1199086735880244,1.3150939416211764,0.0553296095525617,0.0954911466879991,0.0175120000221905,-0.4491171114073246,-0.3874309092830694,0.2701103821580674,0.1579639175837564,0.1141149752178642,1.3136606653515133,-0.573268346348604,-0.6128803325125142,0.368752133038563,1.5807453265791531,-0.4413995961999123,-0.4818163784840346,1.43936623602227,12.351868839740746,-1.4841849382713033,0.1140188442077597,-1.1750348348313155
2.0,0.1464799762750452,0.112038809554913,1.3208023990912388,0.0577792109864429,0.0958613891564458,0.0174276376262925,-0.4581303393947532,-0.3989047953080988,0.2992847920717933,0.1331010595185554,0.100537128123871,1.32859946072908,-0.4830139376149624,-0.4500296369265593,0.3701103836481835,1.6309771098047623,-0.4506613993714298,-0.5736943012514706,1.4587204956862942,12.351868839740746,-1.4854250423394737,0.1110762771288959,-1.181179815711144
2.02,0.1376235979068814,0.104200456301791,1.326593696558501,0.0545885830499641,0.0978963468507612,0.0170652056545842,-0.4731631581710347,-0.4228983890905777,0.3090443679647732,0.1331010595185554,0.100537128123871,1.32859946072908,-0.4830139376149624,-0.4500296369265593,0.3701103836481835,1.4974373981655835,-0.7516409388140771,-1.199679689123942,0.4879787946489966,12.394431080061622,-1.484230532246422,0.1142028838518142,-1.177729774346567
2.04,0.1280226192494242,0.0956016180064024,1.3329172529171842,0.0457344319133362,0.1026233087027838,0.0164345695863025,-0.4857469656577076,-0.4348631986334448,0.3230740836110395,0.1331010595185554,0.100537128123871,1.32859946072908,-0.4830139376149624,-0.4500296369265593,0.3701103836481835,1.1161785244460438,-0.6291903743336436,-0.598240477143358,0.7014857823133158,11.204670357961731,-1.4790724022135744,0.1232775868618256,-1.1863538775793567
2.06,0.1182052234009139,0.0868510596859738,1.3395542113196977,0.0366145699705482,0.108591694071131,0.015815143198482,-0.4950712085403638,-0.4395933957981069,0.3399744163442836,0.1282709201424058,0.0960368317546054,1.3323005645655617,-0.48979330285649,-0.4625493824552572,0.3901103839462068,0.9936517461436172,-0.4662121441328104,-0.2365098582331026,0.8450166366622047,11.444013962498502,-1.4723084524436203,0.1327645090383508,-1.1986011973865474
2.08,0.1082348942736423,0.0780514343847583,1.34655013012652,0.0291849352386624,0.1147694469298589,0.0152921911560909,-0.5013260208170709,-0.4406045857505294,0.3587018002229626,0.1186106413901066,0.0870362390160742,1.3397027722385255,-0.5033520333395451,-0.4875888735126532,0.4301103845422532,0.988509090342787,-0.3127406138353522,-0.0505594976211276,0.9363691939339476,11.594342922850956,-1.4656423855517569,0.1402405009567729,-1.2110337500012138
2.1,0.0986729217497202,0.0696910790622128,1.3535551661305478,0.0241071247141563,0.1201211650382692,0.0149017550952646,-0.5048254546670604,-0.4398956510010774,0.3776818048632095,0.1089503626378073,0.078035646277543,1.3471049799114891,-0.5169107638226003,-0.5126283645700491,0.4701103851382996,0.9656464180708552,-0.1749716924994759,0.0354467374725997,0.949000232012348,11.707698532958602,-1.4593860646757264,0.1459988161220687,-1.22384337523511
2.12,0.0885567694323847,0.0609095319196222,1.3613313716236024,0.0206977713651723,0.1247210603875854,0.0145971316756957,-0.5065470741871175,-0.4386557987877346,0.3989721639625454,0.0986121473613553,0.067783078986142,1.3565071876142551,-0.5304694943056554,-0.537667855627445,0.5101103857343461,1.0697903975329068,-0.0860809760028558,0.0619926106671442,1.0645179549667927,11.914906260632051,-1.454559886045325,0.149651222633968,-1.2355161810697104
2.14,0.0784215461046567,0.0521574970967984,1.3695401379038876,0.019095284712139,0.12796826276709,0.0143973646674062,-0.5069684142260313,-0.4370098786196084,0.4208017068198083,0.0882739320849033,0.057530511694741,1.3659093953170212,-0.5440282247887105,-0.562707346684841,0.5501103863303927,1.094777970623852,-0.0210670019456904,0.0822960084063101,1.0914771428631425,11.914906260632051,-1.4517751250011297,0.151309285980913,-1.2447637053692795
2.16,0.0687894292598356,0.0438701732360203,1.3777473997815812,0.0190129608482069,0.1298403594091177,0.0142963873084213,-0.5069965592307684,-0.4356086598911646,0.4420098255937333,0.0775967485463749,0.0466519571269051,1.3763116030346882,-0.5575869552717656,-0.5877468377422369,0.590110386926439,1.062718810404644,-0.0014072502368511,0.0700609364221865,1.0604059386962517,11.959235220239862,-1.45015678050085,0.1513612512931621,-1.2530555064636546
2.18,0.0586501457372647,0.0351714513805952,1.386831164074961,0.0203176264513204,0.1307637816172631,0.0142800068688318,-0.5069896368500193,-0.4344664843110773,0.4652903217098477,0.0665805967457701,0.0351474152826344,1.3877138107672564,-0.5711456857548207,-0.6127863287996328,0.6301103875224855,1.1654249357932949,0.0003461190374531,0.0571087790043639,1.1640248058057217,12.006786646543333,-1.4501051046279891,0.1497929096954198,-1.258870415580924
2.2,0.0485088384970218,0.0264862367553254,1.3963905340812583,0.0228830916539635,0.1308855238810844,0.0143457072949093,-0.507201845367352,-0.4343491239030004,0.4895125982437324,0.0333006638947637,0.0134481271650413,1.4100956801604534,-0.5154241373952826,-0.4444791919840906,0.5460805657527211,1.2111745192211092,-0.0106104258666361,0.0058680204038458,1.211113826694235,12.086692920142925,-1.4510025059528069,0.146946365436943,-1.2627848942855322
2.22,0.0382838119763821,0.0175698869800591,1.4061502265559542,0.0190515568771937,0.1317692281271445,0.0139939478603519,-0.5146214697033077,-0.4529543892377566,0.4856187149614074,0.0333006638947637,0.0134481271650413,1.4100956801604534,-0.5154241373952826,-0.4444791919840906,0.5460805657527211,1.0202561571484816,-0.3709812167977833,-0.9302632667378076,-0.1946941641162519,12.155549249785508,-1.4529357346604854,0.1505845552765135,-1.2506496791482575
2.24,0.0284392078990666,0.0089024987015965,1.4153673325214309,0.0094321874595957,0.1340756240201129,0.0132819193824785,-0.5206979423607336,-0.4571657520155884,0.485158490200885,0.0333006638947637,0.0134481271650413,1.4100956801604534,-0.5154241373952826,-0.4444791919840906,0.5460805657527211,0.3703744835742286,-0.3038236328712973,-0.2105681388915925,-0.0230112380261188,10.347318782482944,-1.4493436539625544,0.1618828764871636,-1.2538898345433669
2.26,0.0179793701160467,-0.0002027904624879,1.4251059672499071,-0.001070556366103,0.1373715667647671,0.0125147975460566,-0.524788687505489,-0.4531242812618649,0.4888523210656083,0.0281464225208109,0.0090033352452004,1.4155564858179803,-0.5171110375043353,-0.4464817335186932,0.5622386145612958,0.3417311375545284,-0.204537257237769,0.2020735376861787,0.1846915432361623,10.63377648554524,-1.445068632508962,0.1738873063727784,-1.2596134052320995
2.28,0.007458544242725,-0.0091768806990696,1.434950509089674,-0.0098203824947504,0.1410533812607887,0.0118661322403423,-0.5269291371266808,-0.444793329178726,0.4955038122025393,0.0178379397729053,0.0001137514055186,1.426478097133035,-0.5204848377224406,-0.4504868165878985,0.5945547121784451,0.5436649279130671,-0.1070224810595876,0.4165476041569443,0.3325745568465515,11.055533922991344,-1.440826970929089,0.1836020150056897,-1.2664649312392295
2.3000000000000003,-0.0030846957832952,-0.0179579514263119,1.44495634610398,-0.0161154271200582,0.1446616305275911,0.0113903054240316,-0.5272134160915322,-0.4348120557652289,0.5042476187575811,0.0075294570249996,-0.0087758324341631,1.4373997084480894,-0.5238586379405459,-0.4544918996571038,0.6268708097955945,0.6636278824703492,-0.0142139482425696,0.4990636706748541,0.4371903277520877,11.21829103503478,-1.4366315024378855,0.1912337389860245,-1.2743379391913825
2.32,-0.0130901627945985,-0.026100087854224,1.454653597406299,-0.0200155751499245,0.1476986888925477,0.0110972978079277,-0.5259611937579676,-0.4237434017745641,0.5155751300000098,-0.0029477157338112,-0.0178656704273052,1.4499371246440014,-0.5272324381586512,-0.458496982726309,0.6591869074127439,0.7943482751367397,0.0626111166782295,0.5534326995332378,0.566375562121435,11.21829103503478,-1.433101756517115,0.1963822195533666,-1.2823026146697878
2.34,-0.0235857124872051,-0.0344539562802677,1.4650941210188342,-0.0223360255166277,0.1502755173581581,0.010940006891353,-0.5236299318891624,-0.4125156198624901,0.527936515009996,-0.0134248884926221,-0.0269555084204473,1.4624745408399131,-0.5306062383767565,-0.4625020657955143,0.6915030050298933,0.8430624353082584,0.1165630934402583,0.5613890956037038,0.6180692504993146,11.37246707135455,-1.4306352432934664,0.199445108999563,-1.2893336335757437
2.36,-0.0340271227792649,-0.0425803865316922,1.4757915529727903,-0.0230185330286047,0.1521409800872422,0.010930962693749,-0.5206581629671978,-0.4009649846921487,0.5411762881415765,-0.0239864062568857,-0.0361454734903195,1.4758198594762535,-0.5339800385948619,-0.4665071488647196,0.7238191026470426,0.8909828504797397,0.14858844609823,0.5775317585170692,0.6619886565790212,11.505949421961304,-1.429266354381492,0.2006261350381523,-1.2953987461881546
2.38,-0.0438876399816075,-0.0500849784726244,1.4862091172682008,-0.0221074712611732,0.1533058137637753,0.0110625713950891,-0.5174743765468248,-0.3897915312542803,0.5547420023227048,-0.0346322690266019,-0.0454355656369218,1.4899730805530231,-0.5373538388129672,-0.4705122319339249,0.7561352002641919,0.8930441743592931,0.159189321018649,0.5586726718934176,0.6782857090564143,11.505949421961304,-1.4286654446867628,0.1999801500385211,-1.3012888946760666
2.4,-0.0541996161663353,-0.0577610011276643,1.497466137965081,-0.0194984775993305,0.1539914167639574,0.0113445619855985,-0.5139082125316771,-0.3786436762513458,0.5703057628717632,-0.0697613588089487,-0.0695745550353385,1.513946217384336,-0.4806745545441755,-0.3683095329894907,0.6080122007274937,0.973682236894837,0.1783082007573877,0.5573927501467263,0.7781880274529196,11.58234240704951,-1.428597696083998,0.1973198278463714,-1.3067620734786127
2.42,-0.0645512312331011,-0.0653429152256657,1.5087554644832424,-0.0189674257466274,0.1563681277152941,0.0114652713179279,-0.5213892956654169,-0.3792793790283572,0.5563026051171935,-0.0697613588089487,-0.0695745550353385,1.513946217384336,-0.4806745545441755,-0.3683095329894907,0.6080122007274937,0.7944481574873058,-0.3740541566869926,-0.0317851388505679,-0.7001578877284809,11.674806416497631,-1.4291609544743782,0.1963712866931877,-1.2956233836887383
2.44,-0.0750263382146245,-0.0729063260584759,1.5197436384622385,-0.0226268468022379,0.1617726148745485,0.0112453819896626,-0.5252546795362124,-0.3762379740302219,0.5435857382467599,-0.0697613588089487,-0.0695745550353385,1.513946217384336,-0.4806745545441755,-0.3683095329894907,0.6080122007274937,0.6817441599156167,-0.1932691935397745,0.1520702499067633,-0.6358433435216804,9.711579486075152,-1.4212504345714234,0.2006390598091468,-1.3038673628666757
2.46,-0.0850095219548414,-0.0799790590221177,1.529995594986519,-0.0274517113271774,0.1682005283496987,0.0109075016012193,-0.525161363233534,-0.3682573565254559,0.5361388716591644,-0.0745681043543905,-0.0732576503652334,1.5200263393916111,-0.4733145901436456,-0.3640131333365328,0.6186662404084515,0.5457902199178045,0.0046658151339196,0.3990308752383015,-0.3723433293797762,9.996869485939897,-1.4116720174488018,0.2070330968246276,-1.3148589424058017
2.48,-0.0954834471823733,-0.0872258666119381,1.5406694648406731,-0.0321367321439361,0.1754556831936569,0.0105538800211073,-0.5219520701059593,-0.3569135264747382,0.5317649353529167,-0.084181595445274,-0.0806238410250232,1.532186583406161,-0.4585946613425859,-0.355420334030617,0.6399743197703671,0.628715677809485,0.1604646563787337,0.5671915025358854,-0.2186968153123858,10.270975505631212,-1.401711472042423,0.2131337614820651,-1.3273065563051714
2.5,-0.1058639806316247,-0.0942265774237765,1.5512886133970325,-0.0357626170890849,0.1827342927894997,0.0102652629471114,-0.516019607417041,-0.343915240278048,0.5304642296285976,-0.0937950865361575,-0.087990031684813,1.5443468274207108,-0.4438747325415262,-0.3468275347247012,0.6612823991322827,0.7173586846685378,0.2966231344459169,0.6499143098345067,-0.0650352862159531,10.500231071810047,-1.3924145620514066,0.2178760456701831,-1.3397699510011054
2.52,-0.1155845188590267,-0.1006270378068969,1.5613802885739403,-0.0380568031579417,0.1891976132464217,0.0100880145995481,-0.5074030527894913,-0.3307711616293916,0.5318424550437029,-0.102672581186988,-0.094926582379307,1.5575724754033564,-0.4291548037404665,-0.3382347354187853,0.6825904784941983,0.7888461866334551,0.4308277313774866,0.6572039324328233,0.0689112707552619,10.701936075171943,-1.3831237178585043,0.2214959391218757,-1.3527047493739908
2.54,-0.1256153754964588,-0.1070927476060607,1.57204248016724,-0.0393918142567899,0.1950044787790653,0.0100239360428856,-0.4960464248380933,-0.3166005166712298,0.5343311765422066,-0.1115500758378185,-0.1018631330738011,1.5707981233860022,-0.4144348749394067,-0.3296419361128695,0.7038985578561139,0.9164795574013972,0.5678313975698984,0.7085322479080891,0.1244360749251882,10.96939918557473,-1.375479066859172,0.223799178701616,-1.364055045837553
2.56,-0.1353981985373454,-0.1132672753576502,1.5827645931678656,-0.0394441372896742,0.1994179992617572,0.0101207015169251,-0.4827933840049918,-0.3016869419264003,0.5377926784205184,-0.1200595722686226,-0.1085848637856472,1.5845564733526958,-0.399714946138347,-0.3210491368069537,0.7252066372180295,1.012471972756562,0.6626520416550735,0.745678737241473,0.1730750939155867,10.96939918557473,-1.3698218028104208,0.2245716536218918,-1.3738553586943814
2.58,-0.1449007745114629,-0.1191391039297623,1.5935705854959958,-0.0378990338753197,0.2022086735504322,0.0104135291712137,-0.4682576050498299,-0.2864773061780719,0.5426340835682936,-0.1282010704794001,-0.1150917745148454,1.598847525303437,-0.3849950173372873,-0.3124563375010378,0.7465147165799451,1.0794224071639702,0.7267889477580974,0.7604817874164227,0.2420702573887601,11.05296357411953,-1.3665878508484808,0.223492431987071,-1.3815490496878609
2.6,-0.1536530258871745,-0.1244423366504779,1.603940976698614,-0.034972616684389,0.2034049084520946,0.0108665695049833,-0.4538921871129819,-0.2729321378571838,0.5487614059197627,-0.1683136547639544,-0.1334629692386659,1.6207022896744103,-0.3967258473374657,-0.2197880384235171,0.527937890640635,1.0336596351559766,0.7182708968423962,0.6772584160444017,0.3063661175734589,11.152332220151038,-1.3653047421177444,0.220427062105868,-1.387868728005938
2.62,-0.1627076733704139,-0.1299293978878087,1.6146213586653375,-0.0357747294250977,0.2052194278232251,0.0110672521167992,-0.4525968583853073,-0.2752557000756906,0.5169371581904539,-0.1683136547639544,-0.1334629692386659,1.6207022896744103,-0.3967258473374657,-0.2197880384235171,0.527937890640635,1.5967620059298353,0.0647664363837341,-0.1161781109253412,-1.5912123864654404,11.258843688410709,-1.3645675303508866,0.2206854251744904,-1.3707396918777774
2.64,-0.1717278811140797,-0.1354025196699466,1.62462385768641,-0.0428085783318574,0.2090261328790356,0.0107663720073281,-0.4491773091890397,-0.2703409620088137,0.4850503673718174,-0.1683136547639544,-0.1334629692386659,1.6207022896744103,-0.3967258473374657,-0.2197880384235171,0.527937890640635,1.622201741217152,0.1709774598133789,0.2457369033438489,-1.5943395409318244,9.039252386342014,-1.3585745615559723,0.2293588011046271,-1.3731316826362905
