t,x,y,z,roll,pitch,yaw,v_x,v_y,v_z,ref_x,ref_y,ref_z,ref_v_x,ref_v_y,ref_v_z,a_com,a_x,a_y,a_z,thrust,wind_x,wind_y,wind_z
0.0,-1.2859439946388227,1.5109688825646217,2.102388007631641,0.0160983252783418,0.1499817195816112,0.0283090659799297,0.0020670416205701,-0.0077200972641507,-0.0006739752758841,-1.2858816523053285,1.510703510462024,2.102364909711446,0.0057380875602191,-0.1085614168678391,-0.1007446507798525,0.4010199667772822,0.1033520810285084,-0.3860048632075395,-0.033698763794208,10.663198989370358,-1.4132719151342563,0.1761701948447322,-1.277969443165384
0.02,-1.285977519794688,1.5110910933259325,2.1021450357153446,0.0226533557740582,0.1509564400500104,0.0287831580684503,-0.0053393619140921,0.0159343619923056,-0.0249181951844672,-1.2858816523053285,1.510703510462024,2.102364909711446,0.0057380875602191,-0.1085614168678391,-0.1007446507798525,1.7336164909008538,-0.3703201767331164,1.1827229628228235,-1.212210995429156,10.662204260735052,-1.4081418191713184,0.1688774961025842,-1.2753691499361552
0.04,-1.2861500939431347,1.511436088675912,2.101382099903403,0.0364852836030288,0.1537081755173462,0.0298110026336001,-0.0121122715677497,0.018433171069585,-0.054067887076126,-1.2858816523053285,1.510703510462024,2.102364909711446,0.0057380875602191,-0.1085614168678391,-0.1007446507798525,1.5015166410665726,-0.3386454826828809,0.1249404538639699,-1.4574845945829364,9.15068711766753,-1.4013354961224078,0.1517234647861083,-1.2770799786155718
0.06,-1.2864490235394843,1.5117636611401637,2.0999796336248284,0.0518060775747914,0.1579844607996808,0.0310257698300377,-0.0171658149810598,0.0138174868785112,-0.08463859032476,-1.2858242714297263,1.5096178962933458,2.101357463203647,0.0064704583521759,-0.1285614171658624,-0.1207446510778757,1.566373788961293,-0.2526771706655031,-0.2307842095536899,-1.5285351624317027,8.940227781203703,-1.3937125830471129,0.1336857066413456,-1.279256491613095
0.08,-1.2868254660951948,1.51195866694277,2.097976847723181,0.0666296526328777,0.1630330311496894,0.0322906698743693,-0.0200090616710601,0.0055990094437528,-0.1141469866363287,-1.2857095096785218,1.5074466679559888,2.09934257018805,0.0079351999360894,-0.1685614177619088,-0.1607446516739222,1.538158701147602,-0.1421623345000143,-0.4109238717379211,-1.475419815578434,8.969633733071987,-1.3857194964562365,0.1171547513046629,-1.2808986450285706
0.1,-1.2872151236297775,1.5119644021301253,2.0955370554471258,0.0800706095831491,0.1680359150453309,0.0335058405240902,-0.0207281942849891,-0.0048432100331992,-0.1412283511285309,-1.2855947479273175,1.505275439618632,2.097327677172453,0.009399941520003,-0.2085614183579553,-0.2007446522699686,1.4516864348756284,-0.0359566306964501,-0.5221109738476074,-1.3540682246101097,9.037413247674069,-1.3773273033238993,0.1006516471623133,-1.2817639201343856
0.12,-1.28762134655339,1.511729695020468,2.0924185195601983,0.0935354504240074,0.1731172651772162,0.0347642865534102,-0.0197214042912542,-0.0183672892914852,-0.1691978078520804,-1.2854067490969174,1.501104211251473,2.093312784127054,0.0108646831039166,-0.2485614189540017,-0.2407446528660151,1.554191795827009,0.0503394996867453,-0.6762039629143001,-1.3984728361774736,9.103707096799551,-1.370110092418897,0.0851200003054173,-1.281919693095962
0.14,-1.287992078752996,1.5111990946246636,2.088738246974774,0.1063200662304329,0.177725502426439,0.0359635964874849,-0.0173160845553948,-0.034284431592952,-0.1974717548616355,-1.285218750266517,1.496932982884314,2.0892978910816544,0.0123294246878301,-0.2885614195500482,-0.2807446534620616,1.6267736947528897,0.1202659867929679,-0.795857115073338,-1.413697350477755,9.146696804091334,-1.3637091295564618,0.0703507762917296,-1.2827972959157978
0.16,-1.2883009117845066,1.5103259538026452,2.084491112363892,0.1184487994136153,0.181645832230083,0.0370630108426566,-0.0136654988057357,-0.0524901948121762,-0.2258535592118236,-1.284994132896519,1.4917617545022537,2.084282998021354,0.0137941662717437,-0.3285614201460946,-0.320744654058108,1.6958061570256415,0.1825292874829536,-0.9102881609612096,-1.4190902175094082,9.14270563456921,-1.357717760333977,0.0570332354108227,-1.281901061102367
0.18,-1.288517137361287,1.5091383119873374,2.079931342948385,0.1293861647274692,0.1846305492794418,0.0379834309467563,-0.0092835629283659,-0.0718272542445308,-0.2527227580516198,-1.2847328969869236,1.4855905261052924,2.078268104946152,0.0152589078556573,-0.368561420742141,-0.3607446546541544,1.6696384906741768,0.2190967938684927,-0.9668529716177306,-1.3434599419898066,9.154769080083495,-1.3514938778593992,0.0437188765778752,-1.2792938241361806
0.2,-1.2886484858640253,1.5074700942647,2.074579461027517,0.1403083620682439,0.1869869461501891,0.0388002706735837,-0.0040768661610611,-0.0942124907469811,-0.2810661841733113,-1.2889813155077052,1.5055469492751108,2.0672952050458044,2.006926394773796e-05,-0.1718272557346469,-0.3527227595417359,1.8245261774040675,0.2603348383652405,-1.1192618251225146,-1.4171713060845748,9.175193045867672,-1.3465097109499344,0.0311675141662471,-1.2754088385779752
0.22,-1.288655693985313,1.505154137192542,2.068802749949924,0.1455724920975782,0.1892154647929368,0.0391823836773337,0.0032098522988871,-0.1331433773139005,-0.2947720129702016,-1.2889813155077052,1.5055469492751108,2.0672952050458044,2.006926394773796e-05,-0.1718272557346469,-0.3527227595417359,2.0955667120200245,0.3643359229974148,-1.9465443283459716,-0.6852914398445153,10.147498166717014,-1.3429101814442297,0.0259115103974847,-1.2667217468325649
0.24,-1.28852074329596,1.5023139275084691,2.06306762287548,0.1453295851722214,0.1915817872241166,0.0391889506196235,0.0106937952426586,-0.1633868183857291,-0.3082054621651114,-1.2889813155077052,1.5055469492751108,2.0672952050458044,2.006926394773796e-05,-0.1718272557346469,-0.3527227595417359,1.6964173182939215,0.3741971471885715,-1.5121720535914276,-0.6716724597454926,10.008611137583102,-1.3392402439123827,0.026225557789105,-1.2639552203656268
0.26,-1.2882193836498412,1.4987378074479287,2.056733425256202,0.1421155524962074,0.1939883950347596,0.0389484620541204,0.0190762084218139,-0.1920669612298696,-0.3245341558056819,-1.2889811148150658,1.5038286767177642,2.063767977450387,0.0018807957024104,-0.1918272560326701,-0.3727227598397591,1.7025287664779607,0.4191206589577689,-1.4340071422070249,-0.8164346820285218,10.008611137583102,-1.335748848873848,0.0300350420755559,-1.2609317420999897
0.28,-1.2877465742065104,1.494631742945172,2.050053906392129,0.137530915125041,0.1960129845180427,0.0385302313274242,0.0277830948969028,-0.2168118117689902,-0.3426392543698839,-1.2889807134297868,1.5003921316030713,2.0567135222595523,0.0056022485793359,-0.2318272566287166,-0.4127227604358056,1.5936687973924906,0.4353443237544453,-1.2372425269560283,-0.9052549282101002,9.852093181242708,-1.3328458757475947,0.0353561994145499,-1.2572695586416989
0.3,-1.2870985049880213,1.4900599014030411,2.042992865582876,0.1328604164955367,0.1974803407124545,0.0380061218510768,0.0365568769252143,-0.2390746830667612,-0.3625222447279945,-1.2889803120445078,1.4969555864883783,2.049659067068718,0.0093237014562614,-0.2718272572247631,-0.452722761031852,1.5555931305149826,0.4386891014155741,-1.1131435648885537,-0.994149517905532,9.7254244131409,-1.3303984575185777,0.0404138657211359,-1.2528969651846744
0.32,-1.2863213104508529,1.485320488790968,2.0359025506140087,0.1287984868099895,0.1983312327050102,0.0374451635116597,0.044778667961259,-0.2587375862571502,-0.382815634135243,-1.2887938380153825,1.491519041343883,2.0406046118480807,0.0130451543331868,-0.3118272578208095,-0.4927227616278984,1.4714357472798616,0.4110895518022336,-0.9831451595194496,-1.0146694703624226,9.615503071029709,-1.3272891633531565,0.0451228009107368,-1.2472706213946054
0.34,-1.285336487902906,1.4799399658580117,2.028014480136872,0.1251183555019702,0.1987141411911142,0.0368162075093889,0.0532341526930292,-0.2783328801760813,-0.4049546503017346,-1.2886073639862572,1.486082496199388,2.031550156627444,0.0167666072101123,-0.351827258416856,-0.532722762223945,1.5375360179835404,0.4227742365885113,-0.9797646959465528,-1.1069508083245805,9.521431545636917,-1.324542019129629,0.0490398714021288,-1.2408450114524734
0.36,-1.284183100327856,1.4741655324443943,2.0196777773166112,0.1217937374224504,0.1986249652228442,0.0361413111657458,0.0616394012267159,-0.2980365110467033,-0.4275953172172663,-1.288327853635209,1.4796459510399915,2.0214957013919053,0.0204880600870378,-0.3918272590129024,-0.5727227628199913,1.5584295546950642,0.4202624266843316,-0.9851815435310995,-1.1320333457765868,9.465574659119738,-1.3222483350551668,0.0524525829320489,-1.2340104368585538
0.38,-1.282862667501059,1.4680003706745746,2.010883648772328,0.1184790760271261,0.1980656481003346,0.0354009866939612,0.0699363915430691,-0.31734128043956,-0.4506394231293189,-1.2879553069622374,1.4722094058656938,2.010441246141466,0.0242095129639632,-0.4318272596089488,-0.6127227634160378,1.559282677152328,0.4148495158176619,-0.9652384696428346,-1.152205295602629,9.43566723182994,-1.3205115583052975,0.0556209861951278,-1.22683123454418
0.4,-1.2814561112102727,1.4617916972684806,2.002098620151231,0.1152661643547536,0.197081940166645,0.0346344686742774,0.0776677445174681,-0.3350970225042425,-0.4729077321218587,-1.2793658479239056,1.4521333066525963,1.9883516776158616,0.0920214006858256,-0.4173412819296761,-0.550639424619435,1.4755658071308733,0.386567648719948,-0.887787103234125,-1.113415449626992,9.4052099804494,-1.3192424557164983,0.0589625967322654,-1.2186118021446095
0.42,-1.2798229947028723,1.4548883106558266,1.992605317507924,0.1122698225550537,0.1969813031582564,0.0339586373397512,0.0855466316825368,-0.3545040501915072,-0.4741991369919119,-1.2793658479239056,1.4521333066525963,1.9883516776158616,0.0920214006858256,-0.4173412819296761,-0.550639424619435,1.0492584442745034,0.3939443582534355,-0.9703513843632356,-0.0645702435026568,9.371408863027682,-1.3189084939807971,0.0626130069559992,-1.2036471835912497
0.44,-1.2780239236966142,1.4476077364072713,1.9830879866584132,0.1101255278667542,0.1989608737658102,0.0335701270019439,0.0941584483862536,-0.3727065459981928,-0.4778714128362225,-1.2793658479239056,1.4521333066525963,1.9883516776158616,0.0920214006858256,-0.4173412819296761,-0.550639424619435,1.023449864926867,0.4305908351858393,-0.9101247903342796,-0.1836137922155284,10.717229427722486,-1.315799498171783,0.06421021857055,-1.2052844777521996
0.46,-1.2761442596611472,1.440355826358278,1.973927473664761,0.1086916051927863,0.2018761235388908,0.0333477274632534,0.1034174669210254,-0.3897623973877563,-0.4861983575028817,-1.2784456339170474,1.4479598938332998,1.9828452833696677,0.0964384025143769,-0.4373412822276993,-0.5706394249174582,1.055899496083468,0.4629509267385929,-0.8527925694781752,-0.4163472333329615,10.40037669364574,-1.3107339731678604,0.0652356424016141,-1.2075618707941251
0.48,-1.273964554702092,1.4323791559359542,1.9640771732242188,0.1076309706858197,0.205238775915299,0.0331659430350917,0.1141532859790096,-0.4069931810178606,-0.4985531902918534,-1.2766052059033308,1.439613068194706,1.9718324948772783,0.1052724061714794,-0.4773412828237457,-0.6106394255135047,1.188275650466567,0.5367909528992083,-0.8615391815052137,-0.617741639448588,9.932050358385824,-1.3051674607724686,0.0658261674286967,-1.2090308782211718
0.5,-1.2715608601545758,1.4240640305774117,1.9539456871330243,0.1070725428346473,0.2083510197081635,0.032981653298187,0.1257127495541891,-0.4236822916432626,-0.5139610355997396,-1.2747647778896145,1.431266242556113,1.9608197063848896,0.114106409828582,-0.5173412834197922,-0.6506394261095512,1.2743128625307816,0.5779731787589732,-0.8344555312701035,-0.7703922653943068,9.78074240674414,-1.299821227473991,0.0658968336196732,-1.209327932730648
0.52,-1.2689196027528398,1.4154192594518002,1.9434827522174252,0.1070441312849713,0.2108764001369105,0.0327618788032991,0.1378222931781286,-0.4399976527860614,-0.5315504821734249,-1.2724826496930426,1.4209194168877168,1.9478069178626989,0.1229404134856846,-0.5573412840158387,-0.6906394267055976,1.3437081963437707,0.6054771811969756,-0.8157680571399373,-0.8794723286842665,9.78074240674414,-1.2952745834111352,0.0654152202246578,-1.2085151336743178
0.54,-1.2661811993480838,1.4069057367190572,1.9332087213096816,0.1075466229621712,0.2125774367315735,0.0325069393677805,0.1497823691329397,-0.4553955591521251,-0.5490339687549487,-1.2702005214964711,1.410572591219321,1.934794129340508,0.1317744171427872,-0.5973412846118852,-0.7306394273016441,1.3093999010512782,0.5980037977405552,-0.7698953183031876,-0.8741743290761883,9.665885664544476,-1.2915007318890308,0.0643109802982939,-1.2062555117437543
0.56,-1.2630500812599492,1.3976183763312036,1.9220274164251876,0.1083608923183941,0.2135547302359257,0.0321617640260698,0.1626493692811524,-0.4725100056198926,-0.5681865480945928,-1.2676975432084718,1.3992257655360238,1.920781340803416,0.1406084207998898,-0.6373412852079315,-0.7706394278976905,1.4363889324218084,0.6433500074106354,-0.8557223233883721,-0.9576289669822048,9.587795259808445,-1.2888370063473495,0.0628599452744309,-1.202859810762385
0.58,-1.2596589355921055,1.387976915724289,1.910456038629453,0.1088820579764421,0.2136053057341572,0.0316853144759342,0.1757279318872303,-0.4906426412132625,-0.5879476997740732,-1.2649737148290452,1.3868789398378258,1.9057685522514225,0.1494424244569923,-0.677341285803978,-0.8106394284937369,1.4919319598279923,0.6539281303038949,-0.9066317796684958,-0.9880575839740224,9.587795259808445,-1.2872218319162112,0.0617549299517428,-1.1982240701703162
0.6,-1.2561944521593942,1.3784740672080669,1.8990916117944217,0.1086404530714584,0.2127001477568491,0.0310683613959574,0.1882328456361711,-0.5085833805525461,-0.6072745579381618,-1.250872538997744,1.363444783663626,1.8810586536407488,0.1998972800675243,-0.5906426427033786,-0.6467362638302313,1.459255325845483,0.6252456874470388,-0.897036966964182,-0.966342908204426,9.56000805358235,-1.286566354165926,0.0613893090640071,-1.1917801238633232
0.62,-1.2522122435712093,1.3680262533624488,1.887072573958576,0.1060267606612977,0.2105004508064848,0.030113918264529,0.2096044321661068,-0.5348487766753834,-0.5917063834524511,-1.250872538997744,1.363444783663626,1.8810586536407488,0.1998972800675243,-0.5906426427033786,-0.6467362638302313,1.863453649218047,1.068579326496789,-1.3132698061418646,0.7784087242855342,9.527243059357716,-1.2874328352881892,0.064133865480758,-1.1748999027773188
0.64,-1.2477977970691954,1.3570928190494167,1.8754000674437017,0.1010346702288566,0.2066900003494877,0.0288362338443919,0.230537724472685,-0.5566234857253527,-0.5766998154754277,-1.250872538997744,1.363444783663626,1.8810586536407488,0.1998972800675243,-0.5906426427033786,-0.6467362638302313,1.6863701873050303,1.0466646153289083,-1.0887354524984627,0.7503283988511689,11.921341756896254,-1.2927067262849248,0.0682926959306775,-1.171725875732531
0.66,-1.2429848899212623,1.345762893093242,1.863969645214454,0.0954835684861862,0.2009259691931366,0.0273561434932107,0.2492447523188536,-0.5750476359064846,-0.5672483942823231,-1.248873566197069,1.357538357236592,1.874591291002447,0.2047311497035831,-0.6106426430014018,-0.6584939766414629,1.3952881094093927,0.9353513923084296,-0.921207509056593,0.4725710596552301,11.542194530852612,-1.3013813111980732,0.0733595592774548,-1.1649977224198265
0.68,-1.238101507980656,1.3346820802113046,1.8532354923271828,0.0903042626536215,0.1939531642549273,0.0258589048104966,0.2635120775206381,-0.5903551903300471,-0.563035666366798,-1.2448756205957183,1.3457255043825245,1.861656565725842,0.2143988889757007,-0.6506426435974483,-0.6820094022639261,1.0672685549266032,0.7133662600892223,-0.7653777211781287,0.2106363957762536,11.158462077798504,-1.3116932611807084,0.0783471737429016,-1.1547556845272464
0.7000000000000001,-1.2327071514452308,1.3227232732544816,1.8419858081836915,0.0852939255535417,0.1857451604747942,0.0242903557320161,0.2748133280343474,-0.6046781216050938,-0.5622826038871452,-1.2408776749943675,1.333912651528457,1.8487218404492376,0.2240666282478184,-0.6906426441934947,-0.7055248278863894,0.9130056497382518,0.5650625256854669,-0.7161465637523345,0.0376531239826394,10.836560419152192,-1.322416311756504,0.0828264968110717,-1.142389652196265
0.72,-1.2271256625496554,1.3104928986948772,1.8307109658515488,0.0808864987836349,0.1773019436661714,0.022799708138847,0.2825231644693078,-0.6176826606124624,-0.5651732205933797,-1.236396342429411,1.320099798644587,1.8346113438915097,0.233734367519936,-0.7306426447895412,-0.7290402535088526,0.7696026208218986,0.3854918217480185,-0.6502269503684266,-0.1445308353117236,10.573712541612622,-1.3322212499120183,0.0864605254426084,-1.129692835553438
0.74,-1.2214215616683577,1.298013112290445,1.8193630615873977,0.0771095399944392,0.1691738135571456,0.0214291288204915,0.2873270493120849,-0.6297185875780672,-0.5694333953112068,-1.231915009864455,1.3062869457607171,1.820500847333782,0.2434021067920536,-0.7706426453855877,-0.7525556791313158,0.6820739258512446,0.2401942421388581,-0.6017963482802424,-0.2130087358913568,10.347067883333692,-1.341519445775917,0.0896305842799042,-1.1159357594827497
0.76,-1.2159364053525257,1.2859335246577437,1.808492620195932,0.0738461975898606,0.1620873680816212,0.0202395184771815,0.2897130535863354,-0.641114882417919,-0.5745737192438021,-1.2271919838176957,1.291474092861946,1.8058024651354927,0.2530698460641712,-0.810642645981634,-0.776071104753779,0.6363793731053554,0.1193002137125226,-0.5698147419925914,-0.2570161966297613,10.16706055537361,-1.3493964108974954,0.0923791520567865,-1.1029352686334877
0.78,-1.2101338253388327,1.272990533361147,1.7969334575136175,0.0705387692935696,0.1555006462823873,0.0190994960428286,0.2902997173010499,-0.652481420549352,-0.581103952775297,-1.2222272642891334,1.275661239948274,1.7905161972966417,0.2627375853362889,-0.8506426465776805,-0.7995865303762423,0.6560989128617405,0.0293331857357248,-0.5683269065716479,-0.3265116765747478,10.082708764775816,-1.355805851900546,0.0949669021931512,-1.0910068163447992
0.8,-1.2043401503498723,1.259826453419193,1.7852295378991767,0.0672908918098051,0.1500207326410471,0.0180780177670282,0.2889455767665723,-0.663227254609353,-0.588923501968246,-1.1956188394737803,1.2403664623336796,1.7678782598748528,0.3194698225348384,-0.7524814220394681,-0.5913916874551748,0.6679296291772466,-0.0677070267238788,-0.5372917030000479,-0.3909774596474513,10.000951403831095,-1.360919377835733,0.0975079428493166,-1.080183600323401
0.8200000000000001,-1.1985562492514437,1.24641636152893,1.7737366854015335,0.0636324275066125,0.1466589480102095,0.0172019725599983,0.2893996402274638,-0.676779229720053,-0.5599407892157107,-1.1956188394737803,1.2403664623336796,1.7678782598748528,0.3194698225348384,-0.7524814220394681,-0.5913916874551748,1.5998904974431285,0.0227031730445748,-0.6775987555350027,1.4491356376267694,12.393880878525124,-1.3634922894440231,0.1004551415762072,-1.0672070753567289
0.84,-1.193064170408234,1.233449548696372,1.7633395605580893,0.0600015943678193,0.1463171816553068,0.0165638397942498,0.2890547811889483,-0.6873875439629398,-0.5360664367169599,-1.1956188394737803,1.2403664623336796,1.7678782598748528,0.3194698225348384,-0.7524814220394681,-0.5913916874551748,1.3063689812481092,-0.0172429519257749,-0.5304157121443387,1.1937176249375403,12.393880878525124,-1.365207521404057,0.1034683027866595,-1.0721533154195722
0.86,-1.1872770405104582,1.2196033664969128,1.7528341075354092,0.0565857432839432,0.1480672179696684,0.0160616143423678,0.2898779783873006,-0.6966872324986617,-0.5159773863444351,-1.192424141248432,1.232841648113285,1.7619643430003011,0.3253038435815961,-0.7724814223374913,-0.5934492343911504,1.1076233626087086,0.0411598599176138,-0.4649844267860969,1.0044525186262363,11.95813385468864,-1.3643482158623557,0.106184717496134,-1.0790266794604928
0.88,-1.1814602219903123,1.2055839636632073,1.7426823112498082,0.0538123787323145,0.1510153874958873,0.0156810432705614,0.291922332580925,-0.7048501826563127,-0.5004013602964547,-1.186034744797735,1.2177920196724956,1.7501365092511976,0.3369718856751115,-0.8124814229335378,-0.5975643282631015,0.8851916837508284,0.102217709681221,-0.4081475078825503,0.7788013023990237,11.61526951131691,-1.3621738565570545,0.1082616274031838,-1.0862298186135166
0.9,-1.1755899625844857,1.191410737411438,1.7328007680625783,0.0517380896556517,0.154427965733458,0.0153816238536707,0.2951276179379024,-0.7122224958367503,-0.4885401418904302,-1.1796453483470384,1.2027423912317063,1.738308675502094,0.3486399277686269,-0.8524814235295842,-0.6016794221350525,0.7164379909062631,0.1602642678488697,-0.3686156590218814,0.5930609203012221,11.137451188638806,-1.3591385097429107,0.1098397186457976,-1.0935364610636114
0.92,-1.1699434439021577,1.1778160121522752,1.7236072323227658,0.0504326060235874,0.1576254034645731,0.015148792035395,0.2991420883249744,-0.7185436488253486,-0.4798060144854789,-1.172672549791666,1.185692762761115,1.726275087059393,0.3603079698621423,-0.8924814241256307,-0.6057945160070036,0.575234580670929,0.2007235193536016,-0.3160576494299127,0.4367063702475637,11.137451188638806,-1.3559195548710794,0.1107524352137353,-1.100169761469329
0.94,-1.16390648602203,1.1633830285134483,1.7141022657960971,0.0499706450951286,0.160616848720306,0.0149580041951967,0.3043936299770411,-0.7245019405850059,-0.4711779721655638,-1.1656997512362934,1.168643134290523,1.7142414986166918,0.3719760119556577,-0.9324814247216772,-0.6099096098789547,0.5863510993654705,0.2625770826033324,-0.2979145879828671,0.4314021159957576,10.986873042691514,-1.3529277446376802,0.110761461776561,-1.1056818226926943
0.96,-1.1577538001035954,1.1488252202581106,1.7047646632922322,0.0503965297232929,0.1629616726805319,0.0148079926852829,0.3106166201933171,-0.7310130199739153,-0.4630360830362647,-1.158435251628583,1.1505935058050305,1.702105032827192,0.383644054049173,-0.9724814253177236,-0.6140247037509059,0.6070628481350692,0.311149510813799,-0.325553969445469,0.4070944564649514,10.948530818243851,-1.3507006589947124,0.1099013430617758,-1.110341135741139
0.98,-1.1517866553261376,1.134868860291808,1.6960400257094932,0.0513134720020298,0.1643845458709541,0.014670909266475,0.3171201921089423,-0.7377496783715127,-0.4557520099180716,-1.1508790509685345,1.1315438773046362,1.6898656896908937,0.3953120961426885,-1.01248142591377,-0.618139797622857,0.5931625730329176,0.3251785957812614,-0.3368329198798703,0.3642036559096562,10.948530818243851,-1.349517331774156,0.1085812325093323,-1.1135022942153427
1.0,-1.145370401826053,1.1200341218999983,1.6870013408873372,0.0525928912006862,0.1649909060576548,0.0145122402249726,0.3240936473273057,-0.7453876902523077,-0.44851426403529,-1.1359306457206904,1.0979813763732325,1.6732524252135896,0.3661612062736285,-0.8377496798616288,-0.4653055951195735,0.6311760226699977,0.34867276091817,-0.3819005940397468,0.3618872941390821,10.929422297660494,-1.3493215679184674,0.1068857469679021,-1.1153749043757175
1.02,-1.1388194486929146,1.104973477625921,1.6782422289045134,0.052078712452134,0.1656098042633827,0.0142384493716825,0.3308127952105359,-0.7594868428695676,-0.4277360301166982,-1.1359306457206904,1.0979813763732325,1.6732524252135896,0.3661612062736285,-0.8377496798616288,-0.4653055951195735,1.2996807854019583,0.3359573941615124,-0.7049576308629957,1.0389116959295868,11.8199975551006,-1.349439047498993,0.10701029073837,-1.1139813295354677
1.04,-1.1324679237590436,1.0904342179421938,1.6702908724282963,0.0493341233915368,0.166770001392669,0.0138612843356017,0.3375028962213491,-0.7699735816797995,-0.4103215155948289,-1.1359306457206904,1.0979813763732325,1.6732524252135896,0.3661612062736285,-0.8377496798616288,-0.4653055951195735,1.0700402544312346,0.3345050505406594,-0.5243369405115939,0.8707257260934659,11.8199975551006,-1.348973760602976,0.1094936504705819,-1.1188583441720454
1.06,-1.1256413858656713,1.0749528993119557,1.6622494175720632,0.0457139256373999,0.1682120554029254,0.013435776518172,0.3448334241436998,-0.7774707526434769,-0.3948778370075368,-1.1322690336579542,1.089603879574616,1.668599369262394,0.3759694091065657,-0.857749680159652,-0.4672163121598738,0.933342676066186,0.3665263961175335,-0.3748585481838706,0.772183929364606,11.401216418979857,-1.348393975209763,0.1128319582856274,-1.12367783054028
1.08,-1.1186659700260622,1.0593457531106436,1.6544867698596737,0.0425164342366095,0.1695962922449514,0.0130493280155175,0.3523523437910659,-0.7829447723234548,-0.3822847162086075,-1.1249458095324816,1.0728488859773837,1.6592932573600023,0.3955858147724402,-0.8977496807556985,-0.4710377462404745,0.7827607162740705,0.3759459823683031,-0.273700983998898,0.6296560399464635,11.401216418979857,-1.3479574857284835,0.1158004170016419,-1.1281042699071735
1.1,-1.1115391584455423,1.0436422174073376,1.6469488182441598,0.0401457544328664,0.1707277118635624,0.0127226777924575,0.3599453687043575,-0.7873617846230445,-0.3721431313186812,-1.117622585407009,1.056093892380151,1.649987145457611,0.4152022204383147,-0.937749681351745,-0.4748591803210753,0.670849776530066,0.3796512456645806,-0.2208506149794842,0.5070792444963168,11.22855106256884,-1.347725790539667,0.1178723351050577,-1.1316010347970662
1.12,-1.1046280213303232,1.0286489563865344,1.6399587225314445,0.0387597924668951,0.1714859462777715,0.0124724002435114,0.3671412025402899,-0.7908348274689234,-0.3641686927684506,-1.109318540998243,1.0373388987531162,1.6404899618511894,0.4348186261041892,-0.9777496819477914,-0.4786806144016761,0.5644327271585687,0.3597916917966209,-0.1736521422939452,0.3987219275115278,11.093276115519984,-1.34770227479164,0.1191546422774786,-1.134428977281142
1.14,-1.097205904809007,1.0128021247759873,1.6327569436924971,0.0384470270444765,0.1719417050072446,0.0122882569227769,0.374667697799302,-0.7937800721025108,-0.3564606756099722,-1.1010144965894764,1.0185839051260812,1.630992778244768,0.4544350317700637,-1.017749682543838,-0.4825020484822768,0.5584266409990764,0.3763247629506028,-0.1472622316793681,0.3854008579239232,10.9925632508739,-1.3479416046398378,0.1192446993359242,-1.1365157518615747
1.16,-1.089631582430041,0.9968910165584534,1.6257029067590716,0.039313476108097,0.1719939237427912,0.0121821004437275,0.3823454164426212,-0.7972571364463716,-0.3493500428017569,-1.0922200420390633,0.9988289114841452,1.6214000587863313,0.4740514374359382,-1.0577496831398845,-0.4863234825628775,0.5513584109963948,0.3838859321659643,-0.1738532171930429,0.3555316404107611,10.955067842732204,-1.3485347328432562,0.1181274418839339,-1.1381876989646322
1.18,-1.0819034284478766,0.9809031600412051,1.618785974687336,0.0410696650392381,0.1715364580570182,0.0121265477076382,0.3899968848921613,-0.801416334630417,-0.3426913567903689,-1.0829351773470033,0.978073917827308,1.6117118034758795,0.4936678431018126,-1.0977496837359306,-0.4901449166434782,0.5481377526834096,0.3825734224770033,-0.2079599092022654,0.3329343005694013,10.923913880667897,-1.3496062470966814,0.1162188051253235,-1.1389954141593075
1.2,-1.07442172886413,0.9656278987491368,1.6123347611115275,0.0432771215318989,0.1706100280256267,0.0120961643711433,0.3970937719412188,-0.8064246636858434,-0.3367139139797465,-1.0624035842032684,0.9408323433096843,1.6016514068478174,0.4307235428489999,-0.9014163361205332,-0.3447985232427022,0.5272072369305315,0.3548443524528738,-0.2504164527713237,0.2988721405311201,10.88130912647739,-1.351295514559827,0.1136179547662345,-1.1390593015696355
1.22,-1.066351916326496,0.9493680094084818,1.6057921417765275,0.0437673532542761,0.1682139532288876,0.0118786028161538,0.4096397108103374,-0.8187822771242323,-0.3171493992124872,-1.0624035842032684,0.9408323433096843,1.6016514068478174,0.4307235428489999,-0.9014163361205332,-0.3447985232427022,1.3161320508203378,0.6272969434559322,-0.6178806719194463,0.9782257383629644,10.88130912647739,-1.351210639622728,0.1126861502225785,-1.1361296119575668
1.24,-1.0580335491422737,0.9328874565527644,1.5996484437756595,0.0414952773514399,0.1632498893577872,0.0113736809278764,0.4212425045409928,-0.828458770910257,-0.2983534971022381,-1.0624035842032684,0.9408323433096843,1.6016514068478174,0.4307235428489999,-0.9014163361205332,-0.3447985232427022,1.2057625082133487,0.5801396865327685,-0.4838246893012321,0.9397951055124588,11.832315809149804,-1.358647763164547,0.1147364079235103,-1.1324830943426836
1.26,-1.0499493429085602,0.9170802748000132,1.594129313647123,0.03815185932667,0.1566717053613193,0.0107678235797962,0.4287726913557389,-0.8346917953630819,-0.2834780317680395,-1.0580963487747783,0.931818179948479,1.5982034216153904,0.4388688744403676,-0.9214163364185562,-0.3452199565331689,0.8899912586697598,0.3765093407373049,-0.311651222641246,0.7437732667099295,11.648658189191336,-1.3687827723106367,0.1182264523350405,-1.1241932161071273
1.28,-1.0413276099106297,0.9003451146968844,1.5885995756035467,0.0348614823948683,0.148964442197632,0.0101612814064539,0.4326793959753579,-0.8385774113496416,-0.2703828973625323,-1.0494818779177983,0.9137898532260684,1.5913074511505363,0.4551595376231031,-0.9614163370146028,-0.3460628231141022,0.7103571244069049,0.1953352309809503,-0.1942807993279838,0.6547567202753596,11.425926884592627,-1.3794602475584852,0.1214884200443441,-1.1147064283980912
1.3,-1.032667361794784,0.8835465770657285,1.5833036482134997,0.0324215347607817,0.1414535538646726,0.0096626734992827,0.4329316628153383,-0.8412531089235513,-0.2599695282219705,-1.0408674070608184,0.8957615265036577,1.5844114806856822,0.4714502008058385,-1.001416337610649,-0.3469056896950356,0.5377296089187965,0.0126133419990209,-0.1337848786954865,0.5206684570280895,11.23407518566728,-1.38946002251094,0.1238822816275729,-1.1053218064004606
1.32,-1.0240369505315337,0.8667043702715422,1.5781899832081336,0.0310731042705192,0.1349450087815424,0.0093036230617045,0.4300173712409973,-0.8430660958022685,-0.2519004478971318,-1.0314384030447017,0.8757331997514447,1.5774733668917815,0.4877408639885739,-1.0414163382066954,-0.3477485562759689,0.4384349270170385,-0.1457145787170516,-0.0906493439358613,0.4034540162419331,10.916184578484716,-1.3975875592659324,0.1251456688735529,-1.0972736406318926
1.34,-1.015918177679643,0.8506774167560612,1.573471010614956,0.0310424725155735,0.1303487410175806,0.0091163959984774,0.4246671214876715,-0.8440975596869952,-0.2452328218022841,-1.0220093990285848,0.8557048729992317,1.570535253097881,0.5040315271713095,-1.081416338802742,-0.3485914228569022,0.4305413101815896,-0.267512487666291,-0.0515731942363317,0.3333813047423833,10.85568703579338,-1.4041094299396109,0.1252018123162124,-1.0906184665232517
1.36,-1.0075027394056708,0.8337793131701335,1.5686347126087916,0.0323367217201645,0.127911404481698,0.0090951408081297,0.4171187900830936,-0.8457579549154288,-0.2387753060300074,-1.0121731284328996,0.8346765462321175,1.5635760676394568,0.5203221903540449,-1.1214163393987884,-0.3494342894378356,0.5035715670516547,-0.3774165702288917,-0.0830197614216821,0.3228757886138356,10.8218109877007,-1.4073386001614892,0.1239034541441371,-1.087920076929817
1.38,-0.9992390231184384,0.8168390804448938,1.5639229974807305,0.0347248944932749,0.1281225447193229,0.0092423675502975,0.4099193843881922,-0.8483215744917956,-0.2327498832412218,-1.0019295912576462,0.8126482194501022,1.5565958105165094,0.5366128535367803,-1.1614163399948347,-0.3502771560187689,0.4865935353961444,-0.3599702847450731,-0.1281809788183374,0.3012711394392811,10.8218109877007,-1.4069185568622726,0.1215032759879182,-1.0899814574860622
1.4,-0.9915077509944528,0.8006794558666387,1.5595564197033405,0.0374221074415709,0.1301107718750362,0.0094830593781696,0.4044858021533957,-0.8526416417568548,-0.2272062885293671,-0.9787430538990286,0.7744230017203041,1.552285503318669,0.4658397282342749,-0.9483215759819116,-0.2111946457691645,0.4441796916964889,-0.2716791117398254,-0.216003363252959,0.2771797355927335,10.791307359717392,-1.4045525985982033,0.1188091953123882,-1.094205178113474
1.42,-0.9834475943706568,0.7834975480431794,1.5552194814132096,0.0379868959440908,0.1335199338440282,0.009639128736988,0.4021483290870006,-0.8646922873557532,-0.2059924443834176,-0.9787430538990286,0.7744230017203041,1.552285503318669,0.4658397282342749,-0.9483215759819116,-0.2111946457691645,1.22546830144134,-0.1168736533197517,-0.6025322799449229,1.0606922072974756,10.785359208259251,-1.3983108237741055,0.1181003697231612,-1.097955708861183
1.44,-0.9754127959203768,0.766104393769984,1.551325044553051,0.0353624232426888,0.1378157266466335,0.0096130252733787,0.4016328555031671,-0.8737157311584628,-0.1846893337761177,-0.9787430538990286,0.7744230017203041,1.552285503318669,0.4658397282342749,-0.9483215759819116,-0.2111946457691645,1.1570552845728057,-0.025773679191679,-0.4511721901354792,1.065155530364996,11.871421513176756,-1.394847803836549,0.120792968386775,-1.1067656028711566
1.46,-0.967372722519229,0.748575126184133,1.5478304691425535,0.0315042470463467,0.1424501584062608,0.0095121762249192,0.4025608749858789,-0.878563086944439,-0.1658445926791922,-0.974084656616686,0.764939785960485,1.5501735568609776,0.4770237970034914,-0.9683215762799348,-0.206883598274753,0.9740153300722274,0.0464009741355908,-0.2423677892988085,0.9422370548462774,11.595041360283176,-1.3915353987255394,0.1245989734901492,-1.115504363800479
1.48,-0.9597047225268872,0.7318626804720777,1.5448387470173528,0.028250791712799,0.1467771046498676,0.0094408723361694,0.4046491765199773,-0.8806019656548875,-0.1500410210011389,-0.9647678620520004,0.7459733544408468,1.5459496639455943,0.4993919345419245,-1.0083215768759817,-0.1982615032859301,0.8035404586525285,0.1044150767049223,-0.1019439355224249,0.7901785839026648,11.595041360283176,-1.3877948733601555,0.1282424202474114,-1.1248315071505175
1.5,-0.9515787541913828,0.714242188301785,1.5419977137089107,0.0258286647707612,0.1509820440785104,0.0094272418532539,0.4079256195353155,-0.8815583982227357,-0.1349844668552532,-0.9554510674873148,0.7270069229212085,1.541725771030211,0.5217600720803576,-1.0483215774720278,-0.1896394082971071,0.7719288581818711,0.1638221507669096,-0.0478216283924137,0.7528277072942846,11.464540899775784,-1.38421650144361,0.1308846073727372,-1.133533166953172
1.52,-0.9433766081436218,0.6966123664567412,1.5394421050996177,0.0246880636779864,0.1546316446731913,0.0094944346496779,0.4121619855608894,-0.8816436420788143,-0.1213493715870495,-0.9450158660457078,0.7060404913717679,1.537932982864269,0.5441282096187906,-1.0883215780680742,-0.1810173133082842,0.7139150625085356,0.2118183012786961,-0.0042621928039277,0.681754763410184,11.305969789375013,-1.3812957979708749,0.1322054886770601,-1.1409536650662626
1.54,-0.9354976392392896,0.6798690898399751,1.5372638576182167,0.0250581675339945,0.1574726893281754,0.0096528807697551,0.416993471120803,-0.8810457535302916,-0.108638398636092,-0.9345806646041006,0.6850740598223274,1.5341401946983266,0.5664963471572237,-1.1283215786641208,-0.1723952183194612,0.680568800328225,0.2415742779956792,0.0298944274261359,0.6355486475478719,11.305969789375013,-1.3789124043333925,0.1320489116263076,-1.1478795433719968
1.56,-0.9270963206071714,0.6622488184645332,1.5352321177189685,0.0269891681862566,0.1596983547564918,0.0099187028018606,0.4228806313501937,-0.8811456276787709,-0.0952073990260528,-0.9235862597240326,0.6631076282579857,1.530562958907105,0.5888644846956568,-1.168321579260167,-0.1637731233306383,0.7332468563467018,0.2943580114695338,-0.0049937074239669,0.6715499805019627,11.304609666406575,-1.377364606315432,0.1302397015913948,-1.1541707732314117
1.58,-0.918570968332847,0.6446108261772135,1.5334698407663854,0.0300678117592672,0.1610349371631093,0.0102500171059768,0.4293190921231999,-0.883013544806995,-0.0816986573103753,-0.9120326514055038,0.6401411966787429,1.527201275490604,0.6112326222340898,-1.2083215798562137,-0.1551510283418154,0.7540374564044191,0.3219230386503124,-0.0933958564112047,0.6754370857838747,11.320302831637491,-1.3766815758942743,0.1272054387503399,-1.1594410018599095
1.6,-0.9099137385093752,0.626908194458679,1.5319788984172245,0.0332288447061268,0.1614476556290211,0.0105649236234118,0.4359710198385028,-0.8871457202392826,-0.068070525367809,-0.897105013726687,0.6004601489368638,1.5293849079008666,0.4965020949527516,-0.9535010514946362,-0.0888727515179601,0.7858896175303678,0.3325963857651409,-0.2066087716143805,0.6814065971283152,11.334721175419872,-1.3771353952782808,0.1242206563488284,-1.1626856199121378
1.62,-0.9015783313026348,0.6098432769681144,1.530770505167239,0.0306400051153008,0.1612476761972323,0.0104602702843161,0.4410379084057683,-0.9061541659988912,-0.0596944707140106,-0.897105013726687,0.6004601489368638,1.5293849079008666,0.4965020949527516,-0.9535010514946362,-0.0888727515179601,1.0690564315232385,0.2533444283632752,-0.9504222879804236,0.4188027326899174,11.351239913709833,-1.3780968033863636,0.1269707340708827,-1.163599766163763
1.64,-0.8927136364899452,0.59163369626084,1.529663284603127,0.0220590064193721,0.1609060201434841,0.0099583874714615,0.4451394531434711,-0.9128565449722564,-0.0514685584345534,-0.897105013726687,0.6004601489368638,1.5293849079008666,0.4965020949527516,-0.9535010514946362,-0.0888727515179601,0.5687929895122519,0.2050772368851428,-0.3351189486682671,0.4112956139728639,11.09058126222044,-1.3798797916292305,0.1362633777013691,-1.1617072664826005
1.66,-0.883776968991269,0.5733787060769052,1.5286983389433852,0.0129169318321677,0.1607961964462455,0.0094506567100028,0.4483669890370109,-0.9123100019291904,-0.0454467412391035,-0.8921399927771595,0.5909251384219175,1.528496180385687,0.509938695518662,-0.9675985528321644,-0.0903075703594771,0.3427024203935083,0.16137679467699,0.0273271521533058,0.3010908597724938,11.011530927643436,-1.3810998260355791,0.1457057321368376,-1.1617067759992183
1.68,-0.8752332114512015,0.5560871366765822,1.527873354226547,0.0054843348619777,0.1610457252256576,0.0090840620130143,0.4508791221282478,-0.9082275785658936,-0.0417103632223468,-0.8822099508781045,0.5718551173920248,1.5267187253553278,0.5368118966504827,-0.9957935555072208,-0.0931772080425111,0.3038812015795828,0.1256066545618439,0.2041211681648336,0.1868189008378339,10.865924930521942,-1.3817211906887958,0.1543419818086904,-1.162612925832862
1.7,-0.866190745969888,0.5379883763985016,1.5270670107500135,-0.0005023570044708,0.1617629438341679,0.0088488718543818,0.4532918024552901,-0.9021634770113978,-0.0391949834058882,-0.8722799089790495,0.552785096362132,1.5249412703249683,0.5636850977823034,-1.0239885581822774,-0.096046845725545,0.3497194934686369,0.1206340163521169,0.3032050777247941,0.125768990822932,10.744313943910129,-1.3817350678553866,0.161044895003583,-1.1645012014829867
1.72,-0.857100052057948,0.5200236629731221,1.5262987293832808,-0.0045169504726299,0.1629665704813651,0.0087672729583397,0.4557617004623972,-0.8951188899871444,-0.0377701657273074,-0.8610062070234035,0.5323053251984865,1.5230203334104575,0.590558298914124,-1.0521835608573338,-0.0989164834085789,0.3799891706515677,0.1234949003553531,0.3522293512126684,0.0712408839290353,10.612877397989903,-1.380998473645788,0.1657071018118951,-1.167350894683
1.74,-0.8479564111727426,0.5022026031854747,1.525552038546928,-0.006817725126585,0.1645841634658695,0.0088168945415387,0.4585818229565744,-0.8877946158051795,-0.0369830675549262,-0.8497325050677574,0.5118255540348409,1.5210993964959467,0.6174315000459447,-1.0803785635323904,-0.1017861210916129,0.3943906905206046,0.1410061247088589,0.3662137090982453,0.0393549086190624,10.612877397989903,-1.3793505700336848,0.1684472876248766,-1.1706607501590895
1.76,-0.8392094236731745,0.4854046645909999,1.5248545754277767,-0.0077499771995578,0.1663040963787016,0.0089618053251763,0.4620630044978506,-0.8809479575627052,-0.0364823081320657,-0.8377869730838158,0.4906409078043189,1.51910671863936,0.6443047011777654,-1.1085735662074467,-0.1046557587746468,0.3848574866497572,0.1740590770638095,0.3423329121237162,0.0250379711430232,10.583309755387743,-1.37720767395296,0.1699555725687276,-1.174601932448752
1.78,-0.8299229391941159,0.4678640749769925,1.5241302705849151,-0.0074727633703631,0.1680480015585476,0.0092145587952489,0.4664461668560632,-0.8735807050401629,-0.0359793134479205,-0.8251696110715787,0.4687513865069206,1.5170422998406974,0.6711779023095861,-1.136768568882503,-0.1075253964576808,0.429364430413242,0.2191581179106311,0.3683626261271111,0.0251497342072599,10.57610148609274,-1.375179238649998,0.1701058727427191,-1.1785743499092909
1.8,-0.8205412233659869,0.4504712320649285,1.5234172011483973,-0.0057869817019104,0.1695221100850536,0.0095792357992858,0.471503834949906,-0.8662572097121802,-0.0353578084361272,-0.8066006308513127,0.4241850397249844,1.5223313049125191,0.5339189004132875,-0.8725054214159311,-0.0415049047654848,0.4460937649366556,0.2528834046921391,0.3661747663991355,0.0310752505896651,10.582174582428706,-1.3735664978918372,0.1688654000906628,-1.182245240045952
1.82,-0.8114869963868824,0.433818254609069,1.522816619149028,-0.0113079045472002,0.1696434978182276,0.0094496582295437,0.4810632884560772,-0.8821137837111074,-0.0278652396633057,-0.8066006308513127,0.4241850397249844,1.5223313049125191,0.5339189004132875,-0.8725054214159311,-0.0415049047654848,0.9986899883541972,0.4779726753085633,-0.7928286999463574,0.3746284386410753,10.59491836477264,-1.371614006702638,0.1749778601397174,-1.18155757737546
1.84,-0.8017747546990234,0.4161751626982103,1.5223321304020452,-0.0246832529957452,0.1677537802595777,0.0088521284773876,0.4894617533016465,-0.8801585945666058,-0.0210699312930346,-0.8066006308513127,0.4241850397249844,1.5223313049125191,0.5339189004132875,-0.8725054214159311,-0.0415049047654848,0.5489380479619635,0.4199232422784638,0.0977594572250772,0.3397654185135559,11.070005962227697,-1.374564857997046,0.1898541489906611,-1.177277840947358
1.86,-0.7919183085271262,0.3986894361818464,1.5219513668769795,-0.0388369957518445,0.1644882644618841,0.008314189784075,0.4955689478557729,-0.8683398034667026,-0.0174933092243981,-0.8012614418471798,0.4154599855108251,1.5219162558648645,0.5474134471247324,-0.8722903646910848,-0.0426100230289976,0.6887921925496848,0.3053597277063197,0.5909395549951624,0.1788311034318241,10.935016510808056,-1.3793167397411437,0.2057097286679156,-1.1724335494150702
1.88,-0.7819686272488925,0.381503983034518,1.5216072571103485,-0.0510924313353286,0.1606012236332428,0.0080253659845054,0.4989615321343565,-0.8512315752158313,-0.0170680957919423,-0.7905830638389141,0.3980098770825064,1.521086157769555,0.5744025405476221,-0.871860251241392,-0.0448202595560233,0.8723272156053957,0.1696292139291788,0.8554114125435663,0.0212606716227895,10.736652140924887,-1.3845957625365442,0.2189396525656271,-1.1670139224790907
1.9,-0.7724798324828476,0.3655238890271116,1.5212678107471185,-0.0602860983337658,0.1571523470548867,0.0079865539707205,0.4996028143214343,-0.8322970728466964,-0.0186548616408619,-0.7799046858306483,0.3805597686541878,1.5202560596742452,0.6013916339705118,-0.8714301377916993,-0.047030496083049,0.9505846209958564,0.0320641093538909,0.9467251184567428,-0.0793382924459807,10.574152998357931,-1.3898137885920103,0.2301575727961728,-1.1615333776418089
1.92,-0.7625033764201864,0.3491028209422475,1.5208663982040829,-0.0674668994286726,0.1547145810967663,0.0081083428415641,0.4978838328819228,-0.8111891086117242,-0.0214274226006304,-0.7678768531512381,0.3631311658983538,1.5193154497525845,0.6283807273934015,-0.8710000243420066,-0.0492407326100747,1.0679280706230667,-0.0859490719755773,1.0553982117486094,-0.1386280479884226,10.465757406735063,-1.3935315605354357,0.2386457189374184,-1.157853980401948
1.94,-0.752577171846312,0.3331132899754448,1.5204050292592206,-0.0723461712397502,0.1542936433304141,0.0082943273389068,0.4950680466740905,-0.7892194203907928,-0.024575770426723,-0.7558490204718279,0.3457025631425198,1.5183748398309234,0.6553698208162912,-0.8705699108923138,-0.0514509691371004,1.1186017460732076,-0.1407893103916146,1.0984844110465686,-0.1574173913046326,10.411214794703485,-1.39415557270749,0.2447999606700737,-1.15847624289582
1.96,-0.7426956915256508,0.3175662328327169,1.5198814737261257,-0.0752508999541886,0.1556369598833175,0.008514531864793,0.4934195997945331,-0.7669544380137396,-0.0276027739025967,-0.7431464604568454,0.3282847132229282,1.5173789739960866,0.6823589142391809,-0.8701397974426212,-0.0536612056641261,1.1265096175889533,-0.0824223439778698,1.1132491188526603,-0.1513501737936842,10.397775921614084,-1.3926355202059186,0.2487734770734796,-1.162132227103676
1.98,-0.7333247570775585,0.3032137963579877,1.5193325484280946,-0.0763398029798931,0.1579495814208476,0.0087787274823181,0.4932311229533084,-0.7452791308270835,-0.0300258144673929,-0.7297691731062906,0.3108776161395788,1.5163278522480743,0.7093480076620706,-0.8697096839929284,-0.0558714421911518,1.0905567279310049,-0.0094238420612319,1.0837653593328056,-0.1211520282398083,10.450595514948873,-1.3898086099274551,0.2511311702988033,-1.167693689369603
2.0,-0.7234487362066199,0.2885536621481735,1.5187106541343327,-0.0756498346226721,0.1609170984375669,0.0091611077612912,0.4945180839946961,-0.7220683966134286,-0.0320073968610726,-0.7086632009298931,0.2659498398166335,1.517831257704725,0.5592747829979785,-0.7082314801620387,-0.0243196159538851,1.1665345261091964,0.0643480520693823,1.1605367106827469,-0.0990791196839847,10.450595514948873,-1.3863942071838289,0.2514777138056201,-1.1741105258677822
2.02,-0.713487078710031,0.2742529897372247,1.5181032465491069,-0.0763700707495152,0.1628334164773867,0.0095420446735256,0.5012850492024483,-0.7080054598916514,-0.0287106567812468,-0.7086632009298931,0.2659498398166335,1.517831257704725,0.5592747829979785,-0.7082314801620387,-0.0243196159538851,0.7975376206135479,0.3383482603876109,0.7031468360888582,0.1648370039912921,10.496218710523864,-1.383446078915235,0.2533357656169179,-1.1804696686542306
2.04,-0.7039059161063943,0.260970420283914,1.517591621890298,-0.0795607348319472,0.1629912596036861,0.0098733794987831,0.5067986154424048,-0.6903623874745914,-0.0253375889578104,-0.7086632009298931,0.2659498398166335,1.517831257704725,0.5592747829979785,-0.7082314801620387,-0.0243196159538851,0.939487897124694,0.2756783119978234,0.882153620852999,0.1686533911718159,10.813427474364287,-1.3837546791546709,0.2579195725622566,-1.1805124401289069
2.06,-0.6937192310046427,0.2473940627893942,1.5171185141600751,-0.083235776405642,0.1620993258979393,0.0103083126438855,0.5114704541372272,-0.6682017303128575,-0.0221590263234062,-0.7030704530999133,0.2588675250150131,1.5175880615451862,0.5724835150069125,-0.7008219500290298,-0.0231783762511835,1.1434859673944222,0.233591934741123,1.1080328580866994,0.1589281317202108,10.813427474364287,-1.3858224274677553,0.2631133843324103,-1.1801284910903298
2.08,-0.6834520221056549,0.2342827161327251,1.5167051563690863,-0.0861508506690448,0.1606667870325446,0.01086798946883,0.5149185120696463,-0.6442241621349337,-0.0193286490809331,-0.6918849574399537,0.2447028954117723,1.5171016692261083,0.5989009790247806,-0.6860028897630118,-0.0208958968457804,1.2194506084370624,0.1724028966209545,1.1988784088961868,0.1415188621236542,10.802769763984545,-1.3887502219564307,0.2675225201021415,-1.1788734105457794
2.1,-0.6731297852313163,0.2216624228428529,1.51634655454342,-0.0878750159346247,0.1592385375255577,0.011534254176318,0.5170769816531288,-0.6193364170533668,-0.0166437508691481,-0.6806994617799942,0.2305382658085315,1.516615276907031,0.6253184430426486,-0.671183829496994,-0.0186134174403772,1.256251890143376,0.1079234791741212,1.244387254078344,0.1342449105892517,10.789350303726678,-1.39157396991814,0.2705383170816686,-1.1777462439727582
2.12,-0.6632935475270447,0.2101406377822511,1.5160561640505514,-0.0882331755177168,0.158328418653406,0.0122345383210984,0.5182708373355093,-0.5949629767770953,-0.0140456547164517,-0.6681930929191412,0.2171145892185917,1.516243008558223,0.6517359070605167,-0.6563647692309761,-0.0163309380349741,1.2270289176604432,0.0596927841190253,1.2186720138135765,0.1299048076348213,10.78559464090631,-1.393541933146774,0.2723109816488734,-1.1777591467646262
2.14,-0.6529175099073249,0.1985156904240043,1.5158078168878917,-0.0869787516668237,0.1580077688072879,0.0130422450377764,0.5193228450489497,-0.5689858605788745,-0.0108964218181174,-0.6556867240582882,0.2036909126286518,1.5158707402094156,0.6781533710783847,-0.6415457089649581,-0.0140484586295709,1.3094225388057104,0.0526003856720191,1.2988558099110423,0.1574616449167121,10.792049319506075,-1.3946873514978897,0.2723381514833792,-1.179415283780746
2.16,-0.6425164299884275,0.1874121584776881,1.5156279761706286,-0.0837450527596587,0.1582457875108208,0.0139484434563929,0.52079772805926,-0.5431792274746949,-0.0071857863076433,-0.6425199185969885,0.1906377125453623,1.5155555338457432,0.7045708350962527,-0.6267266486989402,-0.0117659792241678,1.3056860341975671,0.0737441505155145,1.290331655208976,0.1855317755237072,10.8218784100236,-1.3952918483738714,0.2703612462003928,-1.1832893564063185
2.18,-0.6320795530767993,0.1767978646946373,1.5155319959072455,-0.0791681565472397,0.1587939252660644,0.0149280504846061,0.5228600578436274,-0.5199743587305345,-0.0025758832812377,-0.6286926765352422,0.1779549889687234,1.5152973894672055,0.7309882991141208,-0.6119075884329223,-0.0094834998187647,1.1874029891806572,0.1031164892183744,1.1602434372080197,0.2304951513202766,10.855423704031637,-1.3954869862907722,0.2671043272184425,-1.1877045043425516
2.2,-0.6221208976204085,0.167123028269544,1.515533348552333,-0.0744678006983789,0.159405831490365,0.015879534523861,0.5253320425782835,-0.4997908873628647,0.0024901474437826,-0.6059365501846179,0.1507991467581106,1.5154032017431835,0.5605969207415004,-0.4860881346990862,0.0153109192728927,1.047792789969431,0.123599236732802,1.0091735683834897,0.2533015362510215,10.897081063066253,-1.3953084022841906,0.2633259417922038,-1.1935633749980583
2.22,-0.6114946136539143,0.1573372364045123,1.515645710169946,-0.0696047855094462,0.1572468415592131,0.0170769990839623,0.5373011789817934,-0.4799414413413001,0.0085462666410464,-0.6059365501846179,0.1507991467581106,1.5154032017431835,0.5605969207415004,-0.4860881346990862,0.0153109192728927,1.1978494410195109,0.598456820175497,0.9924723010782316,0.3028059598631892,10.935529208850312,-1.3933186516924934,0.2599201643022494,-1.2017864873420865
2.24,-0.6006491519043241,0.1479352059153008,1.5158923338795456,-0.0650570281484812,0.1497314593730804,0.018599525773351,0.5458073202111534,-0.4613276293272642,0.0159342144735661,-0.6059365501846179,0.1507991467581106,1.5154032017431835,0.5605969207415004,-0.4860881346990862,0.0153109192728927,1.0878995926597737,0.4253070614679999,0.9306906007017972,0.3693973916259883,11.03313785593764,-1.4048284315863937,0.2565770691784295,-1.193115091368424
2.26,-0.5902469944976692,0.1393378371899765,1.5162688869157936,-0.0611115176559726,0.1399757320103979,0.0201478736734492,0.5482844289089862,-0.4446261145449816,0.0233805820083689,-0.6003305809772029,0.1459382654111197,1.5155563109359125,0.568144293321075,-0.4793108898927965,0.0188882797837188,0.922666046014277,0.1238554348916398,0.83507573911413,0.3723183767401392,11.048073157327051,-1.4193398423645045,0.2535035941992016,-1.180039713389384
2.28,-0.5793041788914167,0.1306205387870201,1.5168181441782027,-0.0573638684718189,0.1290149299312771,0.0217418842394856,0.545479807038419,-0.4280294194563095,0.0311612421974247,-0.5891186425623729,0.136216502717138,1.5158625293213703,0.5832390384802241,-0.4657564002802171,0.026043000805371,0.927166199611444,-0.140231093528359,0.8298347544336004,0.38903300945279,11.048073157327051,-1.4340225812132246,0.2508702821840365,-1.165632124266345
2.3000000000000003,-0.5684691720713322,0.1222258308218672,1.517518101280834,-0.0540250429829445,0.1189302724260672,0.0232102573407568,0.5379492540855512,-0.4123078085007954,0.0384221693274471,-0.5779067041475429,0.1264947400231563,1.5161687477068282,0.5983337836393733,-0.4522019106676378,0.0331977218270233,0.9441919052819494,-0.3765276476433932,0.7860805477757055,0.3630463565011185,11.016070242856586,-1.4471902219793706,0.2487003024227164,-1.1526998441139338
2.32,-0.5583541476251264,0.114534533771172,1.5183112748740857,-0.05120522113945,0.1112632366194242,0.0244419044966016,0.5271851629728,-0.3980931599986667,0.0447086702026976,-0.5659400284747554,0.1174507018098035,1.5168327021433687,0.6134285287985225,-0.4386474210550585,0.0403524428486755,0.945306805721302,-0.5382045556375559,0.710732425106439,0.3143250437625234,10.930462819140304,-1.4573317080206103,0.2470073742275702,-1.1430751164276596
2.34,-0.5479576189366984,0.1067229439607449,1.5192722283744269,-0.0485880698553279,0.1060615997746327,0.025540496697781,0.5128876335999711,-0.3838291639120603,0.0510389329887056,-0.5539733528019679,0.1084066635964507,1.5174966565799093,0.6285232739576716,-0.4250929314424791,0.0475071638703277,1.0582451954362295,-0.7148764686414455,0.7131998043303195,0.3165131393004002,10.930462819140304,-1.4649232795260494,0.2455715905028064,-1.1366836103578886
2.36,-0.5378694752573007,0.0991930891284667,1.5203573601454152,-0.0462361584492904,0.1046725889318712,0.0264190799818593,0.4969995279754655,-0.3699075993590286,0.0571360168389116,-0.5416293085002017,0.0997014876234125,1.518339479041991,0.6436180191168208,-0.4115384418298998,0.0546618848919799,1.099336494682268,-0.7944052812252828,0.6960782276515809,0.3048541925103037,10.923178904891756,-1.4668283732797538,0.2444533361473198,-1.1380946558558038
2.38,-0.5280845959800868,0.0919380619362382,1.5215648549046548,-0.0440377498651975,0.1067243170555548,0.0271207085663328,0.4827269027920688,-0.3563345373305604,0.0632930613180351,-0.5289078955694568,0.0913351738906887,1.519361169529614,0.6587127642759699,-0.3979839522173204,0.0618166059136321,1.031800658039476,-0.7136312591698307,0.6786531014234126,0.3078522239561718,10.903866730233858,-1.464576082443949,0.2435232388759986,-1.1448979035061622
2.4,-0.5190294807881187,0.0852940227661478,1.5228291280868689,-0.0420529928244964,0.1108538124435011,0.027683105984364,0.4714769706951098,-0.343756797262249,0.0694610831681803,-0.5039482508404833,0.0741213350697102,1.5247295079705565,0.506878092044803,-0.3121835925313756,0.059477356594215,0.89833875981734,-0.5624966048479507,0.628887003415568,0.3084010925072614,10.922361545026432,-1.4594660379843942,0.242643739699496,-1.1559427743141168
2.42,-0.5096731196253804,0.0785140223724094,1.5242189765518053,-0.0413061999771423,0.11543888963977,0.02817139708784,0.4648199381323362,-0.3345973855006343,0.0688134485596261,-0.5039482508404833,0.0741213350697102,1.5247295079705565,0.506878092044803,-0.3121835925313756,0.059477356594215,0.5670765753997256,-0.3328516281386834,0.4579705880807361,-0.0323817304277114,10.922361545026432,-1.4509343680294446,0.2430016584973354,-1.1686151980960162
2.44,-0.5004404531636812,0.0719231767671844,1.5255851033015555,-0.0427491107588039,0.118858700396033,0.0285498547084091,0.4587638403384005,-0.3247510160811904,0.0678877455992204,-0.5039482508404833,0.0741213350697102,1.5247295079705565,0.506878092044803,-0.3121835925313756,0.059477356594215,0.5798366951236693,-0.3028048896967811,0.4923184709721945,-0.0462851480202856,10.45600968044164,-1.4473314516393372,0.245574491989426,-1.1736820606473044
2.46,-0.4913262646129028,0.0655455864302281,1.5269375273866186,-0.0458405608409929,0.1214382750875916,0.0288412536075834,0.4529397417598641,-0.313075177022367,0.0673717575842279,-0.4988794699200353,0.0709994991443964,1.525324281536499,0.5117083298953499,-0.3033534035715386,0.058714215649451,0.6529004242832013,-0.291204928926822,0.5837919529411734,-0.0257994007496237,10.498657803027529,-1.444590121904234,0.2496908849895185,-1.1774764972659484
2.48,-0.4827755987806704,0.0597337527187129,1.528213413206437,-0.0491268217582478,0.1233478882831998,0.0291120088213727,0.4474269847357056,-0.2992701492930663,0.0669448277930151,-0.4887419080791392,0.0647558272937689,1.5265138286683828,0.5213688055964436,-0.2856930256518647,0.0571879337599229,0.7435582520233284,-0.2756378512079244,0.690251386465035,-0.0213464895606377,10.527646740026285,-1.4428728300422982,0.2546314873381005,-1.182092163132024
2.5,-0.4738881757477798,0.0539155954328717,1.5295479589769143,-0.0521562737710101,0.1250112693875239,0.0294392920149342,0.4416272300136253,-0.2833290331577982,0.0665315147998785,-0.4786043462382431,0.0585121554431414,1.5277033758002672,0.5310292812975372,-0.2680326477321908,0.0556616518703949,0.8484208361784431,-0.2899877361040137,0.7970558067634026,-0.0206656496568306,10.543982334906104,-1.44160160893538,0.2591534176496853,-1.1864632295372293
2.52,-0.4651163965451733,0.0484265670248449,1.530874923057389,-0.0544726441444888,0.1265033002407818,0.0298216890735886,0.4358758676424044,-0.2664951191009636,0.0661886368021621,-0.4679837606122924,0.0531515024884976,1.5288166088376751,0.5406897569986309,-0.2503722698125169,0.0541353699808669,0.8896296939166713,-0.287568118561049,0.8416957028417299,-0.0171438998858221,10.556990151498212,-1.440502305043842,0.2629450721390114,-1.190944245540179
2.54,-0.4564590768743325,0.0432809101382791,1.5321934839989146,-0.055955083493839,0.1279661230509408,0.0302606980390737,0.4302008792984714,-0.2490876473727617,0.0656803509677354,-0.4573631749863416,0.0477908495338537,1.529929841875083,0.5503502326997246,-0.2327118918928429,0.0526090880913388,0.9158110055592834,-0.2837494171966492,0.8703735864100948,-0.0254142917213338,10.570341602921872,-1.4393953765176446,0.2657283432622144,-1.1954808902336238
2.56,-0.4483371086100194,0.038723811008733,1.5334352941056084,-0.0563669424546929,0.1293678784873076,0.0307435866614658,0.4250733539110135,-0.2316603660712062,0.0650621421588519,-0.4465010774678636,0.0428717060272018,1.5310049178652527,0.5600107084008182,-0.215051513973169,0.0510828062018108,0.9088231845275986,-0.256376269372896,0.8713640650777773,-0.0309104404441755,10.567599395908474,-1.4379797480156395,0.2675239996629303,-1.2005173707333303
2.58,-0.4398895769087828,0.034288224963682,1.5347295301647337,-0.0554200510943258,0.1308359508044336,0.0313450291700887,0.41999629692267,-0.2129548805121164,0.0643960185120755,-0.4353974680568582,0.0383940719685417,1.532041836808184,0.569671184101912,-0.1973911360534951,0.0495565243122828,0.9696847662732924,-0.2538528494171743,0.9352742779544856,-0.0333061823388186,10.569106806965465,-1.4364569275761556,0.267766242634929,-1.2059636522018968
2.6,-0.4315399070027612,0.0302273593058454,1.5360112498616492,-0.0528145579863471,0.1322750595376221,0.0320593080209655,0.4152730708411195,-0.1943209072888298,0.0638220599302887,-0.4188897620626493,0.0236404809380761,1.5379493310903372,0.4317736410824519,-0.1834848260793667,0.0584945719460898,0.9615914558132368,-0.2361613040775256,0.9316986611643304,-0.0286979290893413,10.576144130866853,-1.4348601747061849,0.2661433682651255,-1.2116133216352245
2.62,-0.423230387107547,0.0265778054277933,1.537285296857778,-0.0470880123897703,0.1320590865555772,0.0330665675355087,0.4157397128792685,-0.1732786761105956,0.0637192216502265,-0.4188897620626493,0.0236404809380761,1.5379493310903372,0.4317736410824519,-0.1834848260793667,0.0584945719460898,1.0523828004365472,0.0233321019074528,1.0521115589117127,-0.0051419140031101,10.633991352314297,-1.4311599033545177,0.2612330021580488,-1.2180643512016585
2.64,-0.415332364208157,0.0234299626544052,1.5384992153278587,-0.040099152772935,0.1290934816884102,0.0342317284273724,0.4154244185328157,-0.1593833401997822,0.064090650139972,-0.4188897620626493,0.0236404809380761,1.5379493310903372,0.4317736410824519,-0.1834848260793667,0.0584945719460898,0.6951937314918777,-0.0157647173226416,0.6947667955406702,0.0185714244872757,10.633991352314297,-1.4356045884965305,0.2542427244102802,-1.2170782932918476
