t,x,y,z,roll,pitch,yaw,v_x,v_y,v_z,ref_x,ref_y,ref_z,ref_v_x,ref_v_y,ref_v_z,a_com,a_x,a_y,a_z,thrust,wind_x,wind_y,wind_z
0.0,2.2683868589162004,-1.5840450034649836,1.8608559237905185,0.0220471364088237,0.150051169458702,0.0287870890455972,-0.0004318094110859,0.0065034129164874,0.0013070466187455,2.2683722224307576,-1.5837945470653454,1.8608985280599155,-0.1004625626838795,0.1076858460787717,0.0924378373749679,0.3323748252854445,-0.0215904705542966,0.3251706458243706,0.0653523309372783,10.660917919516578,-1.4133585147734775,0.1693854909650961,-1.2824635872675854
0.02,2.2686488497070045,-1.5842149065545534,1.8610704861210772,0.0144114863261529,0.1427463253334632,0.0281237331663472,0.0257763896659437,-0.0188999546641896,0.0215536686205485,2.2683722224307576,-1.5837945470653454,1.8608985280599155,-0.1004625626838795,0.1076858460787717,0.0854763128884262,2.0869394371807424,1.310409953851486,-1.2701683790338538,1.0123311000901491,10.661638259656684,-1.4170558273560776,0.177978299665567,-1.2797397487662168
0.04,2.269310360863581,-1.584631170671475,1.8616898065385183,-0.0018565600951685,0.1238228278685888,0.0269299809104574,0.0372629715732536,-0.0204348328629357,0.0390804276258923,2.2683722224307576,-1.5837945470653454,1.8608985280599155,-0.1004625626838795,0.1076858460787717,0.0854763128884262,1.0505768608599326,0.5743290953654915,-0.0767439099373018,0.8763379502671911,11.640558450730168,-1.444815003422441,0.1961828100158913,-1.2491852184994705
0.06,2.2700270916226954,-1.5849628577399637,1.8626092356115485,-0.0179187754938569,0.1008296610461431,0.0261653691204348,0.0365570310214377,-0.0140139729699934,0.0569524390706485,2.2683722224307576,-1.5837945470653454,1.8608985280599155,-0.1004625626838795,0.1076858460787717,0.0854763128884262,0.9501770715358636,-0.0352970275907933,0.3210429946471152,0.8936005722378074,11.671082830458545,-1.4791719716820817,0.2157477860394631,-1.2112669798582232
0.08,2.2706458594647394,-1.5851332308821309,1.8639611598098929,-0.0341826316822736,0.075050043501916,0.0259178011910719,0.0244324521799743,-0.0029311045513913,0.0773574105313738,2.267367596803919,-1.5827176886045575,1.8617532911887995,-0.1204625629819027,0.1276858463767949,0.1023000263698524,1.309769297223675,-0.6062289420731684,0.5541434209301003,1.0202485730362636,11.671082830458545,-1.514093723408799,0.2341160523500156,-1.170409011687205
0.1,2.270913094655623,-1.5850285763105811,1.865729891996261,-0.0491674243500334,0.0506990820907092,0.0261835343860032,0.0023500519611699,0.0129866308742327,0.0984812491469184,2.2653583455502413,-1.5805639716829822,1.863462817446568,-0.1604625635779492,0.1676858469728414,0.1359474533327049,1.7228053128249865,-1.104120010940224,0.7958867712812073,1.0561919307772305,11.823467884728416,-1.5451101655776884,0.2506874876951139,-1.1326542270120368
0.12,2.270652267937008,-1.5845546843177902,1.8679241916166605,-0.0620528370179279,0.0300092161707739,0.0268026340501993,-0.0275766287033808,0.0334368868875816,0.119879252550311,2.263349094296564,-1.5784102547614067,1.8651723437043368,-0.2004625641739956,0.2076858475688878,0.1695948802955574,2.104574622258089,-1.496334033227536,1.022512800667445,1.0699001701696325,11.912078169531924,-1.570693860603278,0.2649153315193326,-1.1024796634237937
0.14,2.269728097107535,-1.5836357519481143,1.8705589931325104,-0.0723305178128806,0.01441205307511,0.0275555127298427,-0.0630966404426108,0.0569359962071877,0.1425265602552681,2.2593398430130835,-1.574256537810029,1.868564241310248,-0.240462564770042,0.2476858481649343,0.2032423072584099,2.411835358732457,-1.7760005869615016,1.174955465980306,1.1323653852478557,11.912078169531924,-1.5896725514768248,0.2759473404991646,-1.0820349858577856
0.16,2.268154795237945,-1.5823092501850375,1.873491084454755,-0.0797936710364774,0.0048935533594732,0.0281951012464982,-0.1006046128949817,0.0810488035112238,0.1649895111607069,2.255330591729604,-1.5701028208586514,1.871956138916159,-0.2804625653660886,0.2876858487609808,0.2368897342212624,2.496427265588534,-1.875398622618543,1.2056403652018015,1.1231475452719395,12.062213665446508,-1.603880694802375,0.2851613409005031,-1.0691911427623508
0.18,2.265700317346315,-1.580403432901264,1.8770471619887787,-0.0853605119932784,0.001204191176047,0.0285941378925598,-0.1423672315399385,0.1078844218703737,0.1895443976893008,2.250321340431223,-1.5649491038923724,1.8761892221961411,-0.320462565962135,0.3276858493570272,0.2705371611841148,2.769119526688112,-2.0881309322478385,1.3417809179574982,1.2277443264296917,12.206813809926643,-1.6093245457273018,0.2922302649622348,-1.0695699919906645
0.2,2.2624264188996484,-1.577949225967274,1.8811045742278183,-0.0886605907078274,0.0034979142222285,0.0286618008695753,-0.1823144064327155,0.135756865842061,0.2150776200215721,2.2443120891179404,-1.5587953869111923,1.8812634911501955,-0.3604625665581814,0.3676858499530736,0.3041845881469673,2.749816065456998,-1.9973587446388523,1.3936221985843626,1.276661116613567,12.348392313835577,-1.6067048761768037,0.2969325521743852,-1.0802563246131212
0.22,2.258608268170874,-1.5750945912490146,1.8854396287430728,-0.0897871696355208,0.0098580309390668,0.0284965749044574,-0.2170799716679036,0.1630996878308404,0.240031442115751,2.258581955769318,-1.5750092118077452,1.886524381873244,-0.2423672330300546,0.2078844233604899,0.2832718447818338,2.5391768732899083,-1.738278261759406,1.3671410994389677,1.2476911047089436,12.348392313835577,-1.5996180098407125,0.300061142245267,-1.1000637431401874
0.24,2.253884302432034,-1.5714138805670017,1.8903390621551197,-0.0846148473765397,0.0204101766055473,0.0284429956125341,-0.2527598070300334,0.2010506595002308,0.2479865279339653,2.258581955769318,-1.5750092118077452,1.886524381873244,-0.2423672330300546,0.2078844233604899,0.2832718447818338,2.634677538378613,-1.783991768106488,1.8975485834695216,0.3977542909107179,12.367782735264882,-1.5878648448870287,0.2961563193251084,-1.1224046318376368
0.26,2.2485115064465613,-1.5671180918993244,1.8954171621013027,-0.0742437611187425,0.0339352479323176,0.0286063297845249,-0.2820694065875675,0.2259146911869848,0.2598026065434752,2.258581955769318,-1.5750092118077452,1.886524381873244,-0.2423672330300546,0.2078844233604899,0.2832718447818338,2.0105300368615637,-1.4654799778767047,1.2432015843376985,0.590803930475492,11.127402925384558,-1.5719501645365228,0.2872759054535082,-1.156277683253445
0.28,2.242624758875646,-1.5624074322015054,1.9007788755530624,-0.063910452554262,0.0481430444015322,0.0288625259456691,-0.3047744505570154,0.2440227104679698,0.2756977511261482,2.2561582834390173,-1.5729303675741404,1.889357100321062,-0.2623672333280778,0.2278844236585131,0.3020173342003405,1.6553511751582874,-1.1352521984723971,0.9054009640492522,0.7947572291336497,11.581494910756192,-1.5566346666052984,0.2783463501760066,-1.1873024127173355
0.3,2.2366680994951373,-1.5576344123676662,1.9061888421780255,-0.0556975985887644,0.0605854934750912,0.0291817484222106,-0.3210085646924223,0.2578968050572451,0.2928835973152432,2.2513109387784165,-1.5687726791069303,1.8950225372166989,-0.3023672339241242,0.2678844242545595,0.3395083130373537,1.3705749447483768,-0.8117057067703409,0.6937047294637635,0.8592923094547539,11.717653712239551,-1.5419450521434477,0.2703961916638141,-1.217364350969389
0.32,2.2301084941804823,-1.5523425410508938,1.912251047191161,-0.0491151463553678,0.0713869200492558,0.0295881006203104,-0.3340075547939933,0.2708824400965651,0.3124297642021453,2.2464635941178157,-1.5646149906397206,1.9006879741123357,-0.3423672345201707,0.307884424850606,0.376999291874367,1.3413175435050653,-0.6499495050785536,0.6492817519659994,0.9773083443451042,11.837762038175242,-1.5301387684041854,0.2645490558822871,-1.2429173163441425
0.34,2.22332234001017,-1.546801310997027,1.918715897964381,-0.0445944671320145,0.0791247539635167,0.0300492062585785,-0.3441639492040728,0.2830713778710273,0.3329913922306053,2.239616249427412,-1.5584573021427086,1.9082279599498229,-0.3823672351162171,0.3478844254466524,0.4144902707113802,1.29855987411397,-0.5078197205039742,0.6094468887231114,1.0280814014229978,11.837762038175242,-1.522485131062059,0.2610216366146085,-1.262027303876683
0.36,2.216700105437618,-1.541312624190631,1.9252400113659724,-0.0418444895516027,0.0835496325691098,0.0305277473863477,-0.3526482702423448,0.2944372271920473,0.3526778409339854,2.2327689047370085,-1.5522996136456966,1.9157679457873105,-0.4223672357122636,0.3878844260426989,0.4519812495483934,1.2131802182893214,-0.4242160519135979,0.5682924660509986,0.984322435169005,11.953698099903704,-1.518367478731905,0.2590611093097216,-1.2764640054972956
0.38,2.209550762736056,-1.535292770739246,1.9325151703961625,-0.0399864687641562,0.0855634306352664,0.031073075041745,-0.3620156717301485,0.3070359684988076,0.3738069166605957,2.224921560031704,-1.5451419251337832,1.924245206095723,-0.46236723630831,0.4278844266387454,0.4894722283854067,1.3161633012369796,-0.4683700743901869,0.6299370653380154,1.056453786330516,11.953698099903704,-1.5178814679688084,0.2583159563895828,-1.2861644248740234
0.4,2.202204906201612,-1.529018704607836,1.940218785124938,-0.038745762637276,0.0855854532760995,0.0316522116233645,-0.3722218933362456,0.3197426761169083,0.3955128033009459,2.216074215311498,-1.5369842366069688,1.9336597408750609,-0.5023672369043565,0.4678844272347918,0.52696320722242,1.357178039912594,-0.5103110803048538,0.635335380905036,1.0852943320175112,12.002913007153438,-1.5198736356520337,0.2582624952886164,-1.2925816703863635
0.42,2.194643811153998,-1.5224907597562358,1.9483639231126613,-0.0379550488024624,0.0842509798523313,0.0322476987073985,-0.3834991789178384,0.3324045651833103,0.4179385784732972,2.191449979149549,-1.5199409723143058,1.951205516229192,-0.4620156732202646,0.4070359699889237,0.4306244445209988,1.4057168961952455,-0.56386427907964,0.6330944533200988,1.121288758617564,12.113470066196896,-1.5236657314624504,0.2587204860362997,-1.2966479102455295
0.44,2.186800961716045,-1.5156982947143212,1.9566432469587995,-0.0367168039809912,0.0826645839267916,0.0328779692354407,-0.4002382364653261,0.3458568732812273,0.408891528972046,2.191449979149549,-1.5199409723143058,1.951205516229192,-0.4620156732202646,0.4070359699889237,0.4306244445209988,1.1651284751235378,-0.8369528773743862,0.6726154048958516,-0.4523524750625618,12.113470066196896,-1.5242536251936918,0.2573150935753182,-1.284236081885393
0.46,2.1790384455805683,-1.5090266651860924,1.9643549264108464,-0.0354201172633365,0.0816406206421709,0.0334596372414778,-0.4160168561026816,0.355915004388936,0.4033963672946697,2.191449979149549,-1.5199409723143058,1.951205516229192,-0.4620156732202646,0.4070359699889237,0.4306244445209988,0.9750995345357096,-0.7889309818677748,0.502906555385435,-0.2747580838688146,10.111467768320836,-1.5252089536573838,0.2565346250096971,-1.2841773439498083
0.48,2.1705465049871515,-1.501806927213454,1.972403668104653,-0.0349352061663659,0.0809869291877603,0.0339890598407093,-0.4323133993508531,0.3656401918100953,0.4019520953496388,2.186829822417346,-1.5158706126144166,1.955511760674402,-0.4820156735182879,0.4270359702869469,0.4419879500930794,0.9516334820551998,-0.814827162408574,0.4862593710579649,-0.0722135972515441,10.653627223536205,-1.5259684729115102,0.2568458041139764,-1.2849256060020338
0.5,2.1617321170657515,-1.494397359556481,1.9804676842088835,-0.0357887896904013,0.0807122095856187,0.0344080948177325,-0.4482832117297997,0.3750424762117544,0.4044917676464497,2.177589508952941,-1.507729893214638,1.964124249564822,-0.5220156741143344,0.4670359708829933,0.4647149612372406,0.9352643941202204,-0.7984906189473284,0.4701142200829539,0.1269836148405423,10.653627223536205,-1.5264933583185454,0.2586363173709204,-1.2862950731903384
0.52,2.15306607443736,-1.4871805278042618,1.98820459735922,-0.037969856887625,0.080727296478372,0.0346997865727426,-0.4631142773898634,0.3843651040167037,0.4097746140669658,2.168349195488536,-1.4995891738148597,1.972736738455242,-0.5620156747103808,0.5070359714790398,0.4874419723814018,0.9148502119274736,-0.7415532830031879,0.4661313902474678,0.2641423210258065,10.872561900271648,-1.5268012861980849,0.2622366009778303,-1.2880782002123892
0.54,2.143643705140623,-1.479370944876753,1.996481562473559,-0.0412768554908551,0.0809038180411245,0.0349312949882551,-0.4783277713990128,0.3964141966056294,0.4177358206510045,2.1571088819943283,-1.4894484543852788,1.98248557790287,-0.6020156753064273,0.5470359720750863,0.5101689835255631,1.0488229622494294,-0.7606747004574671,0.6024546294462807,0.398060329201938,11.052758106477995,-1.5267820902276392,0.2670921439806461,-1.2900962821998674
0.56,2.133918677721898,-1.4712955875797349,2.004929756739,-0.0446345600511643,0.0811403224467308,0.0351586399313729,-0.4934065973039396,0.4105408344756391,0.4266612526736374,2.1458685685001204,-1.479307734955698,1.9922344173504984,-0.6420156759024738,0.5870359726711327,0.5328959946697244,1.1253846286627158,-0.7539412952463409,0.7063318935004892,0.4462716011316453,11.209744900458643,-1.5268794477250445,0.271839606799788,-1.2925618668741454
0.58,2.1243966056050945,-1.463341640995097,2.013126039406259,-0.0471823231852131,0.081535257575212,0.035412953622844,-0.5081007890737251,0.4257592740916708,0.4356561417661964,2.133628254991012,-1.468167015511216,2.0025514320767304,-0.6820156764985201,0.6270359732671791,0.5556230058138856,1.149378316636294,-0.7347095884892768,0.7609219808015849,0.4497444546279483,11.264010392433192,-1.52694289880542,0.2761337771278271,-1.2959535335435843
0.6,2.114071479526124,-1.4546495103224242,2.0219451304658853,-0.0488746913982417,0.0823059566041971,0.0357325857553902,-0.5235732215965344,0.442495311945222,0.4458107046850746,2.1203879414670017,-1.456026296051833,2.0134366220815663,-0.7220156770945666,0.6670359738632256,0.5783500169580468,1.247603982922707,-0.7736216261404638,0.8368018926775606,0.5077281459439087,11.309059286270896,-1.5265094350338566,0.2792751398642017,-1.3006149774980202
0.62,2.1034378148834416,-1.4456143292370722,2.03097329391315,-0.0493356859380417,0.0835204831653998,0.036114482739703,-0.5389365608177369,0.4600584025271397,0.456517949598298,2.0989915661514083,-1.4420536772905137,2.034908846494569,-0.6081007905638413,0.525759275581787,0.4820462356292068,1.2836855499363282,-0.7681669610601238,0.8781545290958842,0.5353622456611723,11.363639347077878,-1.5253573676976715,0.2809285207231984,-1.3060072479409313
0.64,2.0924573919197624,-1.4361586629883227,2.040020463383293,-0.045808667149294,0.0859608834123335,0.0367121863815545,-0.5579290905722192,0.4829876914853239,0.4477481017048055,2.0989915661514083,-1.4420536772905137,2.034908846494569,-0.6081007905638413,0.525759275581787,0.4820462356292068,1.5519171294545626,-0.9496264877241144,1.1464644479092068,-0.4384923946746277,11.407050687648734,-1.5215568082690594,0.2772887510894323,-1.3047437978160146
0.66,2.081701834742454,-1.4268409890682503,2.0484701761236384,-0.0398217943461062,0.0893897484395367,0.0374166274061231,-0.5731344615655078,0.4964720692981358,0.4421860839088769,2.0989915661514083,-1.4420536772905137,2.034908846494569,-0.6081007905638413,0.525759275581787,0.4820462356292068,1.0535271638695731,-0.7602685496644335,0.6742188906405988,-0.2781008897964288,10.219914709267869,-1.5157470790348575,0.2706144152436835,-1.314482226057719
0.68,2.0700914560436208,-1.4168039610699157,2.0572776631186014,-0.0340217350529441,0.0932236327606908,0.0381227337532395,-0.5869862032648483,0.5066837232749701,0.4389428226212367,2.09291055824577,-1.4367960845346956,2.039729308850861,-0.6281007908618644,0.5457592758798102,0.4913242544018089,0.875596038175921,-0.6925870849670224,0.5105826988417134,-0.1621630643820093,10.419634658999712,-1.5099129514593543,0.2643694143346607,-1.323206833763467
0.7000000000000001,2.058222786920609,-1.406583286782294,2.0660424675726,-0.0296884362442461,0.0967364028929859,0.0387427016982073,-0.5991352770940109,0.5151719776305337,0.4377575310764212,2.080748542434493,-1.4262808990230598,2.049370233563445,-0.6681007914579109,0.5857592764758567,0.509880291947013,0.7433965512386363,-0.6074536914581319,0.4244127177781776,-0.0592645772407779,10.566056310358364,-1.5049314893636636,0.2600245019450871,-1.3304849664194478
0.72,2.0461258354368943,-1.396200760036764,2.0748035548843005,-0.0269951241239053,0.099552068262012,0.0392679887358994,-0.6100023664993417,0.5231065099886186,0.4383784470426368,2.0685865266232164,-1.415765713511424,2.059011158276029,-0.7081007920539574,0.6257592770719032,0.5284363294922172,0.6734908546558941,-0.5433544702665383,0.3967266179042472,0.0310457983107803,10.684358807360695,-1.500772835931211,0.2573661686014395,-1.3366900401078934
0.74,2.0344406705601585,-1.386191971062625,2.083152808762096,-0.0258061137693524,0.1014207626492125,0.0396879137445636,-0.6195337028479431,0.5303089990584752,0.4404421914578482,2.054424510782137,-1.403250527969986,2.069579884865873,-0.7481007926500038,0.6657592776679496,0.5469923670374214,0.6061791451437623,-0.4765668174300685,0.3601244534928272,0.1031872207605699,10.788116583659756,-1.4979454065685125,0.2565077628515165,-1.3413324273161844
0.76,2.021949160143877,-1.37551116138944,2.091991810277645,-0.0261159914377781,0.1025049578424564,0.0400363496020781,-0.6291677423701498,0.5375507794680927,0.4433743389622408,2.040262494941058,-1.390735342428548,2.080148611455718,-0.7881007932460503,0.7057592782639961,0.5655484045826256,0.6201926918387506,-0.481701976110338,0.3620890204808769,0.1466073752196317,10.884631138513214,-1.4964402310380451,0.2575916336214581,-1.3438240345824624
0.78,2.00926025333156,-1.3646739749224317,2.1008983361843905,-0.0278547406408226,0.1029161604092953,0.0402960988365152,-0.6392837626642384,0.5459000784998325,0.4471235957690954,2.025100479085077,-1.377220156872209,2.0911812389841926,-0.8281007938420967,0.7457592788600425,0.5841044421278296,0.6820952783804598,-0.5058010147044267,0.4174649515869877,0.1874628403427281,10.984166481629472,-1.4960718869793328,0.2604426820083336,-1.344848233267442
0.8,1.9963634184719337,-1.353652465928928,2.1098900555484565,-0.030384254182478,0.1030713786341342,0.0405034950596103,-0.6498984139479885,0.5559890984773221,0.4518511928598285,1.977296065198348,-1.33737897099744,2.123254515972845,-0.7392837641543545,0.6459000799899486,0.4521417578445255,0.7694305040647159,-0.5307325641875082,0.5044509988744839,0.2363798545366557,10.984166481629472,-1.4961159017880872,0.2640857120600054,-1.3454963945910363
0.8200000000000001,1.9838638359506773,-1.3429515762776978,2.118299465708749,-0.0316514888806025,0.1039826949274229,0.0407519746543244,-0.6650276544001164,0.5692902677163709,0.4331271374268,1.977296065198348,-1.33737897099744,2.123254515972845,-0.7392837641543545,0.6459000799899486,0.4521417578445255,1.3751411487945913,-0.7564620226063912,0.6650584619524391,-0.936202771651426,11.048333399658986,-1.493639944769212,0.2657314493398351,-1.3372125893758473
0.84,1.9704170952217692,-1.3314473156887576,2.1267705006015016,-0.0317660380552706,0.1060005413144806,0.0410582127534376,-0.6786774978653687,0.5804708034168572,0.415180363464858,1.977296065198348,-1.33737897099744,2.123254515972845,-0.7392837641543545,0.6459000799899486,0.4521417578445255,1.258381202991346,-0.6824921732626166,0.5590267850243136,-0.8973386980970999,9.591335764352152,-1.4893800834633637,0.2663368158193726,-1.3401656141064608
0.86,1.9567140421102405,-1.3197237274101634,2.134917211870978,-0.0316291961754941,0.1083515264311196,0.0413640559752785,-0.6908618147527694,0.5913770636806875,0.4003669079621759,1.9699032275568045,-1.3309199701975405,2.1277759335512902,-0.7592837644523777,0.6659000802879718,0.4531453902596116,1.103225447137783,-0.6092158443700368,0.5453130131915174,-0.7406727751341019,9.769864311600031,-1.485288829190417,0.266620382818159,-1.3430665410292353
0.88,1.9434828696815865,-1.3083870181411468,2.142404995814006,-0.0314564773594477,0.1105937000282945,0.0416505712555517,-0.7012421774078333,0.6014736970110897,0.388548930892663,1.9551175522737172,-1.3180019685977415,2.136818768708181,-0.7992837650484241,0.7059000808840182,0.4551526550897836,0.9345567337978536,-0.5190181327531962,0.5048316665201058,-0.5908988534756437,9.93007188559568,-1.4811288079763374,0.2668747514848795,-1.3464080353754744
0.9,1.929353662493062,-1.296250114502053,2.150062019827606,-0.031480364253323,0.1126992510588156,0.041938686894439,-0.7110893028846397,0.6117445622840406,0.3778454835757404,1.9403318769906304,-1.3050839669979426,2.1458616038650717,-0.8392837656444706,0.7459000814800647,0.4571599199199557,0.8902532477857305,-0.4923562738403164,0.5135432636475479,-0.5351723658461316,10.06049270182757,-1.477403636459957,0.2673940746783659,-1.3494891303421357
0.92,1.9150364021749784,-1.283909037847639,2.157522095151662,-0.031927676386002,0.1143627578682445,0.0422038298641018,-0.7201326605062839,0.6219173261348344,0.3687562736919773,1.923546201677741,-1.2901659653683413,2.1550048022634702,-0.8792837662405171,0.7859000820761112,0.4591671847501277,0.8183538014637456,-0.4521678810822105,0.5086381925396899,-0.454460494188158,10.161699610311189,-1.4744578725492044,0.2684589050936402,-1.352014894903474
0.94,1.9005434443651967,-1.2713641971797238,2.164807444914416,-0.032915124775085,0.1155075276118087,0.0424408963415412,-0.7287487836859026,0.6321569108621223,0.3602209214351726,1.9067605263648515,-1.27524796373874,2.1641480006618696,-0.9192837668365637,0.8259000826721576,0.4611744495802998,0.7936291832169012,-0.4308061589809342,0.511979236364396,-0.4267676128402314,10.253300394907455,-1.472424634669395,0.2700879392341012,-1.3534556794061507
0.96,1.8858747399375977,-1.2585999863201294,2.171927022303409,-0.0340883155709034,0.1163114248935206,0.0426699888455199,-0.7376778068466204,0.6436930914756737,0.3521612111526353,1.888974851037061,-1.2593299620942375,2.173341380681023,-0.95928376743261,0.865900083268204,0.4631817144104719,0.833321437969094,-0.4464511580358932,0.5768090306775664,-0.4029855141268662,10.278561167873704,-1.4709100363272636,0.2720635660067034,-1.3543872073410297
0.98,1.871771846702748,-1.2462495415632815,2.1785470926626647,-0.0348461489364905,0.1170281866318696,0.0429085745222387,-0.7463501817515477,0.6556653443426044,0.3450892427990809,1.8701891756943692,-1.242411960434834,2.182584942320931,-0.9992837680286564,0.9059000838642504,0.4651889792406439,0.8193864497217075,-0.4336187452463613,0.5986126433465355,-0.3535984176777224,10.30945234182127,-1.4695168529615137,0.2736128479937346,-1.3557297961737789
1.0,1.8567489117319127,-1.2329976624533536,2.1853754952743807,-0.0349003154477537,0.1179003010786506,0.0432012135484204,-0.7554405510586494,0.6688154087533451,0.3381442709777663,1.8514035003516776,-1.2254939587754303,2.1918285039608385,-1.0392837686247027,0.9459000844602968,0.467196244070816,0.8714809833624898,-0.454518465355086,0.6575032205370368,-0.3472485910657297,10.348688913421938,-1.4679778975944862,0.2742319030715034,-1.3577752426010783
1.02,1.8415451500692488,-1.2194781789412388,2.192069939607289,-0.0339006691441219,0.1189898984682708,0.043552567100002,-0.7644182295365746,0.6823583417141206,0.3316654829927312,1.8344543376151707,-1.2134662743461515,2.195801554802619,-0.8463501832416638,0.7556653458327205,0.330214352352418,0.8746205431329847,-0.4488839238962594,0.6771466480387733,-0.3239393992517547,10.38151853632644,-1.466168481202521,0.2735408934020693,-1.3606155879187525
1.04,1.8268884592116013,-1.2063381529539976,2.1981848589317923,-0.0300959934720699,0.1212837895934757,0.0440374016730543,-0.7774823931889312,0.6986407852330203,0.3123721325934138,1.8344543376151707,-1.2134662743461515,2.195801554802619,-0.8463501832416638,0.7556653458327205,0.330214352352418,1.4212878917662626,-0.6532081826178315,0.8141221759449868,-0.9646675199658672,10.411093598752814,-1.4629024244843811,0.2690041047579055,-1.36120169161126
1.06,1.8112259149882728,-1.1922631518248008,2.204226068724913,-0.0246314015906754,0.125216104539065,0.0446045634852372,-0.7878263562103157,0.7080088924637206,0.2928618639130777,1.8344543376151707,-1.2134662743461515,2.195801554802619,-0.8463501832416638,0.7556653458327205,0.330214352352418,1.199384829873812,-0.5171981510692258,0.4684053615350125,-0.975513434016806,9.608481323184606,-1.4556176612434348,0.2624213592291925,-1.3679198416901963
1.08,1.7953828347259346,-1.1780311339403953,2.2098867838887704,-0.020051008771222,0.1295489306885711,0.045105072081715,-0.7958238613733142,0.7149302387751882,0.2741987695371566,1.825990835782754,-1.2059096208878244,2.199103698326143,-0.866350183539687,0.7756653461307437,0.3272393742630854,1.0725859118037968,-0.3998752581499232,0.346067315573384,-0.933154718796056,9.686071510755935,-1.4480790567611177,0.2568514494518005,-1.373690781393305
1.1,1.7794015790818505,-1.163673369302368,2.215182262938671,-0.0168369651549493,0.1336299928506047,0.0455166444931089,-0.801869472656858,0.7208847514000217,0.2562642054602872,1.8090638321179209,-1.19079631397117,2.205707985373192,-0.9063501841357334,0.8156653467267901,0.3212894180844202,0.9920360691758492,-0.302280564177193,0.2977256312416743,-0.8967282038434693,9.728771384257016,-1.4413298165463546,0.2531410471472126,-1.3785269578924872
1.12,1.7641222413073565,-1.1499257784467407,2.219887577685117,-0.0150006049821698,0.1368695076456784,0.0458296079046161,-0.8062050937226258,0.7262203683469587,0.2399195086833012,1.7921368284530876,-1.1756830070545154,2.2123122724202395,-0.94635018473178,0.8556653473228366,0.315339461905755,0.886588307730803,-0.2167810532883896,0.266780847346848,-0.8172348388493011,9.770651692103456,-1.4351500233364043,0.2508410842455318,-1.3828106798181183
1.14,1.7479605656165416,-1.1353474554522738,2.224511940585571,-0.0143495355538965,0.139363815398942,0.0460749878953203,-0.8097478676078677,0.7314580762955577,0.2234049468225819,1.773209824758452,-1.1585697001080586,2.2186190616583548,-0.9863501853278264,0.8956653479188831,0.3093895057270899,0.8841883068785331,-0.1771386942620911,0.2618853974299506,-0.8257280930359614,9.816004616112878,-1.4301557452582627,0.250256897557173,-1.3868498885145268
1.16,1.7317344620204818,-1.1206669223743349,2.228811415127658,-0.0152110171672556,0.1408273612980711,0.046219279094496,-0.8127393667225531,0.7364756477584059,0.2073873456126376,1.7542828210638164,-1.141456393161602,2.224925850896469,-1.0263501859238728,0.9356653485149296,0.3034395495484247,0.8524796755037062,-0.1495749557342718,0.2508785731424101,-0.8008800604972152,9.861230425262876,-1.426749544048596,0.2515884040481484,-1.3888226221176092
1.18,1.7154462634046093,-1.105872583700787,2.2327998810578795,-0.0173377565431579,0.1414443282366885,0.0462789983227067,-0.8159913363877463,0.7427646629067555,0.1922605633596718,1.7343558173542797,-1.123343086200244,2.231083891230118,-1.0663501865199192,0.975665349110976,0.2974895933697596,0.8350846657198122,-0.1625984832596627,0.3144507574174782,-0.7563391126482896,9.94004316376686,-1.4245852206972645,0.2543143835967878,-1.3886868927441358
1.2,1.6999086533066643,-1.0916827763948287,2.2363189170697804,-0.0198293589211306,0.1415770901691261,0.0463046771621522,-0.819413649693484,0.7506689412194733,0.1789167926224037,1.713428813629842,-1.104229779223985,2.2370931826593,-1.1063501871159656,1.0156653497070225,0.2915396371910944,0.7941128092033015,-0.1711156652868806,0.3952139156358891,-0.6671885368634084,9.94004316376686,-1.423130641188119,0.2578707303779537,-1.3881049600312538
1.22,1.6834799883277485,-1.0765664561406787,2.2397581579592885,-0.0220829179143576,0.1415003473404292,0.0463568993955193,-0.8232790118316688,0.7604509302759723,0.1657474102956706,1.674646696585222,-1.0687343505554492,2.242412909225864,-0.9159913378778624,0.8427646643968716,0.1445540860156357,0.8427054129831641,-0.1932681069092445,0.4890994528249537,-0.6584691163366532,10.001344761527434,-1.4220662556419017,0.2610208576605647,-1.3883707361920987
1.24,1.6669128430015188,-1.0612053086595767,2.2428215858260163,-0.022136768725365,0.1426454117272877,0.0465288453572978,-0.8331147670012119,0.7746809936925437,0.1406374321646001,1.674646696585222,-1.0687343505554492,2.242412909225864,-0.9159913378778624,0.8427646643968716,0.1445540860156357,1.5245882938827096,-0.4917877584771524,0.7115031708285702,-1.255498906553526,10.05403211245266,-1.4200137831307649,0.2612595120617497,-1.3881584565570522
1.26,1.6501717741975954,-1.0455969940474985,2.245367906958324,-0.0197697348029403,0.1456554032487231,0.0468210784191194,-0.8402584283462862,0.7854154019559896,0.1153061295369713,1.674646696585222,-1.0687343505554492,2.242412909225864,-0.9159913378778624,0.8427646643968716,0.1445540860156357,1.4212092658999538,-0.3571830672537135,0.5367204131722925,-1.2665651313814377,9.336055513473184,-1.4135062788145427,0.2584818133658904,-1.393181959308215
1.28,1.6341566708488264,-1.030590148272666,2.247321482687887,-0.0166949144609153,0.1491651947566763,0.0471399839722936,-0.845051583690171,0.7935149850018669,0.0915911144168073,1.6654867832064435,-1.0603067039114804,2.2438584500860195,-0.9359913381758858,0.8627646646948948,0.1350127905468285,1.2757150208973826,-0.2396577671942401,0.4049791522938661,-1.185750756008202,9.395561768779771,-1.4060091097672995,0.2543193376568168,-1.3979693941741786
1.3,1.6172199188065928,-1.014651749138562,2.24889105731978,-0.0137545190312193,0.152897067244061,0.0474519101587283,-0.8482665141148954,0.8000040442313793,0.0666069781427041,1.6471669564488862,-1.043451410623543,2.246749531806332,-0.9759913387719322,0.9027646652909412,0.1159301996092141,1.3006255539959377,-0.1607465212362213,0.3244529614756186,-1.249206813705158,9.414057765664438,-1.3969194176732105,0.2502521032802213,-1.4010376395011572
1.32,1.6002354051480625,-0.998592890128592,2.2499625399870435,-0.0116001142751527,0.1561794119291906,0.0477103108106702,-0.849978418064367,0.8057210165640846,0.0417986268997652,1.628847129691329,-1.0265961173356055,2.249640613526645,-1.0159913393679787,0.9427646658869876,0.0968476086715996,1.275802374172978,-0.0855951974735813,0.2858486166352647,-1.2404175621469455,9.415466458287485,-1.3884476205709513,0.2471688106695717,-1.403123399335235
1.34,1.5832299279723512,-0.9824259049997702,2.2505420522569275,-0.0103953798360827,0.158682598449495,0.0479033798303252,-0.8505296848681158,0.8108583965446537,0.0173944457267112,1.6085273029039693,-1.0077408240178658,2.2515775657000767,-1.055991339964025,0.9827646664830342,0.0777650177339852,1.2472576186186564,-0.0275633401874364,0.2568689990284589,-1.220209058652701,9.430744800450157,-1.381557163935841,0.2453781431773391,-1.4039600738279248
1.36,1.5670713245084185,-0.9669767950036752,2.25064178975053,-0.0103239585434357,0.1602078082861427,0.0480113155379187,-0.8504185711091001,0.8152569138081439,-0.0056678612778928,1.5882074761166098,-0.988885530700126,2.2535145178735085,-1.0959913405600716,1.0227646670790806,0.0586824267963707,1.1739136518067173,0.0055556879507812,0.2199258631745082,-1.153115350230203,9.455785827811267,-1.3757488460588323,0.2449107316305731,-1.4027209787338637
1.38,1.5500634479210962,-0.9506161533471416,2.2502768691410773,-0.0112702668474659,0.1610243372772486,0.0480517771486025,-0.8504117912830659,0.8206214986344568,-0.0295865616938123,1.566887649314349,-0.9690302373674852,2.2549744052735003,-1.135991341156118,1.062764667675127,0.0395998358587563,1.2256457949906017,0.0003389913017126,0.2682292413156428,-1.1959350207959778,9.463238823208483,-1.3712156735397896,0.2457755615176506,-1.399579940993648
1.4,1.5330542758651955,-0.9341384369751036,2.249442099567901,-0.0128591389059381,0.1612944180472957,0.0480448259255757,-0.8505291616887455,0.8269006979022382,-0.052650159648504,1.544567822497187,-0.9481749440199432,2.2559572279000517,-1.1759913417521644,1.1027646682711734,0.0205172449211419,1.1951690987808954,-0.0058685202839803,0.313959963389071,-1.1531798977345848,9.481029433265576,-1.3676628490558669,0.2473699534947658,-1.396072684618079
1.42,1.516041396448353,-0.9175241627400345,2.2481559443195684,-0.0146629195166033,0.1612384956556891,0.0480200959875587,-0.8507652281008707,0.8342082153189504,-0.0747683941874722,1.5075428583569428,-0.9095850784154188,2.2487975410563865,-0.950411792773182,0.9206215001245728,-0.11388020284381,1.1647658962934238,-0.0118033206062628,0.3653758708356103,-1.1059117269484071,9.52593391544815,-1.3644644067211824,0.2493254660205864,-1.391904587300349
1.44,1.4998100443287885,-0.9015574083295076,2.2464746499833192,-0.0148328845718034,0.1626740516880536,0.0480753129789826,-0.8572407814217807,0.8455250241709656,-0.1011339606669552,1.5075428583569428,-0.9095850784154188,2.2487975410563865,-0.950411792773182,0.9206215001245728,-0.11388020284381,1.4706682572805423,-0.3237776660454994,0.5658404426007624,-1.318278323974149,9.573417558831352,-1.361088290886673,0.2493121598768524,-1.387209243347456
1.46,1.4826239647842454,-0.8845562080795945,2.2441509886670845,-0.0132863297338995,0.1664816938844174,0.0482125228066221,-0.8607091612357519,0.8540002150260578,-0.1298657091296882,1.5075428583569428,-0.9095850784154188,2.2487975410563865,-0.950411792773182,0.9206215001245728,-0.11388020284381,1.507789680534031,-0.1734189906985594,0.4237595427546092,-1.4365874231366544,9.242229192544984,-1.350547755785273,0.246714275930909,-1.3886610215466144
1.48,1.4653963262277412,-0.8673947149370408,2.2412408343644508,-0.0111031964848195,0.171194409397896,0.0483780961663313,-0.8616889484833422,0.8617041849206606,-0.1597699225547731,1.498038740429211,-0.9003788634141731,2.2476587390279485,-0.9704117930712052,0.9406215004225962,-0.1307389310738096,1.5448083341959562,-0.0489893623795145,0.3851984947301379,-1.4952106712542448,9.203920666850536,-1.3397636312368322,0.2433509190256912,-1.3907584450661532
1.5,1.4481725535921868,-0.8500936925704958,2.2377198474405944,-0.0087350047135645,0.1759149042524426,0.0485545163867329,-0.8605485731885986,0.8679881466457929,-0.1908309916883394,1.4790305045737473,-0.8819664334116817,2.245381134971072,-1.0104117936672516,0.9806215010186426,-0.1644563875338087,1.585543003592121,0.0570187647371822,0.3141980862566174,-1.5530534566783103,9.14366021402293,-1.3296764767163696,0.2399182489285722,-1.3925139683253571
1.52,1.4318476607751032,-0.8335525611979483,2.2337914159572345,-0.0068652236397019,0.1798468471283214,0.048697281327623,-0.8579154024967409,0.873003528058294,-0.2211279629769661,1.4600222687182838,-0.8635540034091902,2.243103530914196,-1.0504117942632982,1.0206215016146891,-0.1981738439938078,1.5410987215856675,0.1316585345928822,0.2507690706250509,-1.514848564431337,9.092123659885146,-1.3200586911401664,0.2367634018122743,-1.3924567836503017
1.54,1.4147293592586594,-0.8160446606081814,2.2290272160055067,-0.0055633614657963,0.1830535990841715,0.0488008729542757,-0.8540552603473623,0.8775873026500735,-0.253721867983629,1.439014032833018,-0.8431415733768964,2.23914005403432,-1.0904117948593446,1.0606215022107357,-0.2318913004538068,1.657011112293019,0.1930071074689288,0.2291887295889749,-1.6296952503331463,9.05434672105912,-1.311952584188422,0.2345518796886703,-1.3922140653913917
1.56,1.397697434896068,-0.7984516857097221,2.223607057374399,-0.0052484798223762,0.1850988636894256,0.0488324277248929,-0.8494283974719115,0.8816162398360674,-0.2866464220211248,1.418005796947752,-0.8227291433446026,2.235176577154444,-1.1304117954553912,1.100621502806782,-0.265608756913806,1.6745644609008683,0.2313431437725444,0.2014468592996976,-1.6462277018747862,9.006917404872183,-1.305675155656289,0.2336364265321676,-1.391078457658578
1.58,1.3816028778210727,-0.7816561610451184,2.2178513010828733,-0.0057197218243853,0.1860576065893852,0.0488040691945033,-0.845034130805761,0.8861299011341406,-0.3175605639301082,1.3959975610475848,-0.8013167132974077,2.230370163863068,-1.1704117960514375,1.1406215034028284,-0.299326213373805,1.5774717809011105,0.2197133333075251,0.2256830649036589,-1.5457070954491696,9.006917404872183,-1.3004888676312385,0.2336618932326528,-1.3874044850528646
1.6,1.364749701279866,-0.7638785781078946,2.21116127263178,-0.0067017285120971,0.1862766569499594,0.0487356109701287,-0.8405614733859382,0.8913967723458666,-0.3497924281891135,1.3729893251325165,-0.7789042832353116,2.224720814160192,-1.210411796647484,1.1806215039988748,-0.333043669833804,1.6482093847316148,0.2236328709911361,0.2633435605862988,-1.6115932129502657,9.025187108452885,-1.2965284699506063,0.2343583578783178,-1.3833694203822953
1.62,1.3479849605070444,-0.7459879672708906,2.2038338086854825,-0.007888708076264,0.1858700020865303,0.0486492387589516,-0.8361619249613922,0.8973889600656008,-0.3813001858128916,1.3393511712807846,-0.7373496659884113,2.201973272886368,-0.9450341322958772,0.9861299026242568,-0.4175605654202243,1.6186422786452923,0.219977421227302,0.2996093859867099,-1.5753878811889082,9.036555287061674,-1.2932851331636854,0.2352919857719467,-1.378690094496003
1.64,1.3312603479487235,-0.7279279076937806,2.195972380198405,-0.0075469487987233,0.1868776343384492,0.0486505215282028,-0.835960111669011,0.907700648136191,-0.4033177168462782,1.3393511712807846,-0.7373496659884113,2.201973272886368,-0.9450341322958772,0.9861299026242568,-0.4175605654202243,1.2156719461642136,0.0100906646190612,0.5155844035295121,-1.1008765516693275,9.07144121350575,-1.289564251402098,0.2345082862157966,-1.3763678324010813
1.66,1.315403094146224,-0.7106112479897407,2.188082620732535,-0.0056875824238983,0.1899128628101573,0.0487358771062968,-0.8330168509112149,0.9146287600011432,-0.4261249806091636,1.3393511712807846,-0.7373496659884113,2.201973272886368,-0.9450341322958772,0.9861299026242568,-0.4175605654202243,1.200867184841331,0.1471630378898025,0.3464055932476062,-1.1403631881442693,9.5814099991685,-1.2817251214709522,0.2316208591699766,-1.3800865246957763
1.68,1.2987943909821071,-0.6922533232742203,2.179277505356693,-0.0031650596112829,0.1938574904768961,0.0488564265057545,-0.8278589589701426,0.9206309562370428,-0.4533396637449253,1.329900829957826,-0.7274883669621688,2.197797667232165,-0.9650341325939004,1.00612990292228,-0.4375605657182475,1.417100196801501,0.257894597053615,0.3001098117949796,-1.3607341567880875,9.446292890809673,-1.2733798179992115,0.2281259165902217,-1.3838906154646635
1.7,1.282307896835498,-0.6737929402368414,2.169896891425012,-0.000786224937377,0.1976022850232483,0.0489636770192865,-0.8210228104136506,0.9251853727156574,-0.4833474852539172,1.3110001473119082,-0.7077657689096836,2.189446455923761,-1.0050341331899468,1.0461299035183265,-0.477560566314294,1.5555907143771956,0.341807427824603,0.2277208239307326,-1.5003910754495946,9.274097927973344,-1.264568578948428,0.2245027675071037,-1.3864638255998123
1.72,1.2667841960304658,-0.6561784418716725,2.160410770171077,0.00100536028247,0.2004148279891536,0.0490277376508448,-0.8134425519700151,0.9288722137306528,-0.5136768806083296,1.292099464665991,-0.6880431708571985,2.181095244615357,-1.0450341337859932,1.0861299041143728,-0.5175605669103405,1.5739483292872165,0.3790129221817706,0.1843420507497639,-1.5164697677206185,9.147106501138296,-1.256546281859055,0.2214346677873957,-1.387158845462385
1.74,1.2506055922793249,-0.6375668718793485,2.149787735828224,0.0022402670294293,0.2022815108737263,0.0490396680072736,-0.8048755605475234,0.9321396693030204,-0.5470794694259277,1.2711987819902708,-0.666320572774911,2.17074403327715,-1.0850341343820396,1.1261299047104192,-0.5575605675063869,1.7319083027602602,0.4283495711245866,0.1633727786183814,-1.6701294408799028,9.055052844575584,-1.2500714824543055,0.2191930815667793,-1.385951659841814
1.76,1.2346052026427146,-0.6188965740949737,2.1384911911095776,0.0025213782285707,0.2028185229611708,0.0489711243149847,-0.795703143907549,0.9348529120141916,-0.580876534515006,1.250298099314551,-0.6445979746926236,2.160392821938943,-1.125034134978086,1.1661299053064658,-0.5975605681024334,1.7562292857585535,0.4586208319987184,0.1356621355585729,-1.6898532544539158,8.978008077434424,-1.2453445073162022,0.2181822126581327,-1.383838767433858
1.78,1.219575879221876,-0.6011023778202537,2.127137270899296,0.00203545417843,0.2020255791781927,0.0488408162806694,-0.7868624219782677,0.938082423306433,-0.6125647836228701,1.22839741662393,-0.6218753765954349,2.149041610585835,-1.1650341355741325,1.206129905902512,-0.6375605686984798,1.6528257915912097,0.4420360964640657,0.1614755646120624,-1.5844124553932082,8.964918145031334,-1.2417776140539718,0.2180721814659714,-1.3796100551131794
1.8,1.2039364149878755,-0.5823005202604234,2.1145384724670366,0.0010279773638069,0.1997835069554455,0.0486591311031417,-0.7776177587346753,0.9419422081310548,-0.6456169644122697,1.205496733918408,-0.5981527784833451,2.136690399217826,-1.2050341361701788,1.2461299064985585,-0.6775605692945262,1.726852912319807,0.4622331621796205,0.192989241231084,-1.6526090394699766,8.994498213677616,-1.240282622635514,0.2186094385301991,-1.3735827582983802
1.82,1.1884800056498648,-0.563414798929531,2.101286457197523,-0.0002392417578879,0.1960116733002145,0.0484542779888982,-0.7685844446327,0.9464318530074252,-0.6778725142114704,1.1802327581229626,-0.554198256654932,2.0965090317181523,-0.8868624234683838,1.0380824247965492,-0.7104556896587703,1.6898063259066,0.4516657050987638,0.2244822438185245,-1.6127774899600378,8.994498213677616,-1.2408792559181123,0.2194581554554201,-1.3656058667857387
1.84,1.1731490863760663,-0.5443887888787283,2.087594746746333,7.559317301950675e-07,0.1933486593547032,0.0483501073393127,-0.7649887930862684,0.9552897723664164,-0.6896944551232731,1.1802327581229626,-0.554198256654932,2.0965090317181523,-0.8868624234683838,1.0380824247965492,-0.7104556896587703,0.7601804593908934,0.1797825773215799,0.4428959679495581,-0.5910970455901332,9.028643118797843,-1.243076073756902,0.2189279962768935,-1.36223115995888
1.86,1.1586540830553973,-0.5261792521073815,2.0743571665581504,0.0018848242808878,0.1941197089677598,0.0483567855824057,-0.7605727431913115,0.9610619364380488,-0.7032305161245602,1.1802327581229626,-0.554198256654932,2.0965090317181523,-0.8868624234683838,1.0380824247965492,-0.7104556896587703,0.7681866995971123,0.2208024947478459,0.2886082035816306,-0.6768030500643563,9.952856757796326,-1.239424293154279,0.2160007690604364,-1.3633728914533034
1.88,1.143513391873315,-0.5069076521453264,2.0601004449993465,0.0045655948656914,0.1967077274229088,0.0484075649530882,-0.7535412710626075,0.9655837384301398,-0.7219431742666439,1.1713641338882788,-0.5438174324069666,2.0894044748215648,-0.906862423766407,1.0580824250945724,-0.7300338708659503,1.024758347483577,0.3515736064352015,0.2260900996045423,-0.9356329071041836,9.952856757796326,-1.2334661009013348,0.2121674096115309,-1.3671760295044724
1.9,1.1285340265377586,-0.4875645387819066,2.045426927545427,0.0071158789088784,0.1997062574903216,0.0484450717921349,-0.7446745343499297,0.9685429750253656,-0.744626311904421,1.1536268854189111,-0.5230557839110356,2.0751953610283893,-0.9468624243624536,1.098082425690619,-0.7691902332803103,1.226683368123994,0.4433368356338896,0.1479618297612894,-1.1341568818888537,9.699720340666316,-1.2266951499209513,0.208419156710253,-1.3706468326414485
1.92,1.1137466331995929,-0.4681711390554888,2.0302640155344056,0.0091225310982403,0.2021432921325354,0.0484336831718951,-0.7345689367389703,0.9707924953391002,-0.7705063155477684,1.1358896369495437,-0.5022941354151046,2.060986247235214,-0.9868624249585,1.1380824262866651,-0.8083465956946704,1.39369834729059,0.5052798805479708,0.1124760156867299,-1.2940001821673708,9.5004559918425,-1.2209945486813585,0.2054767541947088,-1.3731310868036042
1.94,1.0998933129828945,-0.4497107374409375,2.015359328009238,0.0104055271620458,0.2034384362486443,0.0483614410742507,-0.7243021533653342,0.9723990925018196,-0.7970909926479949,1.1161523884503737,-0.4795324868893713,2.044819315321321,-1.0268624255545464,1.1780824268827117,-0.8475029581090304,1.4271764535331075,0.5133391686818034,0.0803298581359746,-1.3292338550113247,9.351713220078636,-1.2161754131501603,0.2031403211455893,-1.3739470343321143
1.96,1.0855268125554212,-0.4302520088114435,1.9991150096880557,0.0108609198742142,0.2034139404019472,0.048197911384842,-0.7129268497244021,0.9734662873637832,-0.8259619888466843,1.0964151399512034,-0.4567708383636379,2.0286523834074277,-1.0668624261505928,1.2180824274787585,-0.8866593205233905,1.5524745241883526,0.5687651820466044,0.0533597430981747,-1.443549809934469,9.24793911359393,-1.2132203148857428,0.2019394365853834,-1.372840442242109
1.98,1.0713928195487814,-0.4107661904681756,1.982293841809408,0.0104327378348803,0.2016012995793895,0.0479438715504042,-0.7011581009771013,0.9750838705686588,-0.8546795487371728,1.0756778914371323,-0.4330091898230035,2.0115065424331746,-1.1068624267466391,1.2580824280748046,-0.9258156829377504,1.553880842089883,0.5884374373650414,0.0808791602437852,-1.435877994524426,9.204878709835612,-1.2128074417291688,0.2018280074770444,-1.3686955934067928
2.0,1.0574947639942196,-0.3912431050445455,1.9649035556334316,0.0094062672125765,0.1977342930275055,0.0476213990660575,-0.6893654065796104,0.9771583045696288,-0.8828586649416654,1.05394064290816,-0.4082475412674679,1.9933817923985635,-1.1468624273426855,1.298082428670851,-0.9649720453521105,1.5308767974948974,0.5896347198745433,0.1037217000485035,-1.4089558102246325,9.237286391705313,-1.2151226643136983,0.2024115594347822,-1.3620729072213833
2.02,1.0444995969195747,-0.3726531076715318,1.9478689405857008,0.0080706037639271,0.1921501006302562,0.0472723913195181,-0.6795039949286051,0.9795627678501028,-0.908790094441691,1.0363349144999263,-0.3620119969397427,1.939559864372549,-0.8011581024672174,1.075083872058775,-0.9444314852324768,1.3923612312655496,0.4930705825502646,0.1202231640236917,-1.2965714750012791,9.237286391705313,-1.2205147387378426,0.2034906630644833,-1.3518791044618592
2.04,1.0309580035460415,-0.3529886126664109,1.929632626229976,0.0079519032713403,0.1875035090893944,0.0470053642851495,-0.6753283026531236,0.9863895420249136,-0.9123272383194064,1.0363349144999263,-0.3620119969397427,1.939559864372549,-0.8011581024672174,1.075083872058775,-0.9444314852324768,0.4374718231641844,0.2087846137740767,0.341338708740535,-0.176857193885771,9.26424467799552,-1.2240377386222006,0.2028455680706503,-1.3404835255336922
2.06,1.0174973343635996,-0.3332143683158997,1.911336210928096,0.009669235399067,0.1869570368428683,0.0468893492741821,-0.6704736712279962,0.9906660768646114,-0.9173085189658886,1.0363349144999263,-0.3620119969397427,1.939559864372549,-0.8011581024672174,1.075083872058775,-0.9444314852324768,0.4082565167514256,0.2427315712563715,0.213826741984896,-0.2490640323241089,10.44250501310762,-1.2246469137246403,0.2005844080984284,-1.3422977533933873
2.08,1.0048244421990224,-0.314361832502898,1.8938116559572564,0.0120162122695794,0.1884349484915253,0.0468391716701497,-0.6636116123337701,0.9934883753334492,-0.9271371139246688,1.0283233334752542,-0.3512611582191549,1.9301155495202245,-0.8211581027652406,1.0950838723567982,-0.9623818725315376,0.6157404075151903,0.3431029447113043,0.1411149234418929,-0.4914297479390039,10.44250501310762,-1.2222011881122887,0.1971904382673221,-1.3462556107250694
2.1,0.9916441921905734,-0.2944783595962918,1.87511715055839,0.0144453782924009,0.1905415704660718,0.0467830243675354,-0.6547183909848029,0.9947476578667344,-0.941991504872684,1.01230017142591,-0.3297594807779794,1.911226919815575,-0.8611581033612871,1.1350838729528447,-0.9982826471296592,0.8679402469306943,0.4446610674483597,0.0629641266642555,-0.742719547400772,10.137273748516236,-1.2183120261073084,0.1937068399352107,-1.349683720554942
2.12,0.9786543907321889,-0.274578773644713,1.856085992826913,0.0163191706039847,0.1921965754425147,0.0466741867711312,-0.6447448089709144,0.9952567871945782,-0.9605075523195172,0.9962770093765656,-0.3082578033368039,1.8923382901109251,-0.9011581039573336,1.175083873548891,-1.034183421727781,1.0518739990055872,0.4986791006944269,0.025456466392193,-0.9258023723416496,9.886218995749005,-1.214544293257724,0.1908207421849861,-1.3515093994225136
2.14,0.9658721436894238,-0.25467622415804,1.8366531883953148,0.0174075786688079,0.1927200108276507,0.0464831737668054,-0.634117066776572,0.9951008164114894,-0.9818082407713838,0.9782538472974188,-0.2847561258658261,1.8716546216763696,-0.94115810455338,1.2150838741449377,-1.070084196325903,1.1902652640882945,0.5313871097171186,-0.007798539154441,-1.065034422593336,9.699873728666716,-1.2126363854217552,0.18897709533236,-1.3511635117542669
2.16,0.9539328398756368,-0.2357781935086722,1.8177887348306283,0.0174257555290561,0.1917072791195302,0.0461962197664984,-0.6232879714146407,0.9943244574189934,-1.0028284457904313,0.9602306852182722,-0.2612544483948482,1.8509709532418144,-0.9811581051494264,1.255083874740984,-1.1059849709240244,1.1829212343662396,0.5414547680965665,-0.0388179496247975,-1.0510102509523722,9.527388381653507,-1.2134867946675016,0.1883928357994021,-1.348059545259628
2.18,0.9415890564905576,-0.2158958045929257,1.7974980783904413,0.0163572436583026,0.1885756111888816,0.0457775430194627,-0.611761598318868,0.9940181332398944,-1.0251085867905354,0.9412075231242244,-0.2367527709089693,1.8293897654423052,-1.0211581057454728,1.2950838753370304,-1.1418857455221458,1.2543482313837062,0.5763186547886323,-0.0153162089549574,-1.1140070500052055,9.527388381653507,-1.217203476664375,0.1891789778497962,-1.3418296475705642
2.2,0.9294699814879864,-0.1960140892906098,1.7767665526860097,0.0143776938630395,0.1830868344628634,0.0452605562501667,-0.6011592924876986,0.9942199196575064,-1.0468418695979431,0.9211843610152752,-0.2112510934081891,1.806911058277844,-1.0611581063415192,1.3350838759330768,-1.1777865201202675,1.2091166075721922,0.5301152915584695,0.0100893208806018,-1.086664140370397,9.529071301044496,-1.2242967188776634,0.1909853402704328,-1.331946759485968
2.22,0.9175380292417624,-0.1761192604669511,1.7556096713151847,0.0117549259598276,0.1757830654736246,0.0446880029214966,-0.5929289928640685,0.99547184203114,-1.0676762868951797,0.911000976574614,-0.166194897930931,1.7462426490509144,-0.7117615998089841,1.0940181347300104,-1.046726347672317,1.1218044455694034,0.4115149811815044,0.0625961186816792,-1.041720864861817,9.529071301044496,-1.233910890306415,0.1936326411396666,-1.3192155249936748
2.24,0.9063485240936352,-0.1571381760579712,1.7355129349274774,0.010780821488138,0.1692902262145779,0.0442698372446363,-0.5853246129677069,1.00171407276019,-1.046756121027831,0.911000976574614,-0.166194897930931,1.7462426490509144,-0.7117615998089841,1.0940181347300104,-1.046726347672317,1.1559037351789518,0.3802189948180823,0.3121115364524973,1.0460082933674286,9.551392800403846,-1.2396016281475235,0.1940885693693221,-1.306041516963964
2.26,0.8947221839881765,-0.1370560108425573,1.7147920373679633,0.0119227794428529,0.1644018472415778,0.043997265639089,-0.5777987639837056,1.006036637613979,-1.026766626712862,0.911000976574614,-0.166194897930931,1.7462426490509144,-0.7117615998089841,1.0940181347300104,-1.046726347672317,1.0896132947213284,0.3762924492000663,0.2161282426894728,0.9994747157484496,12.234095277673076,-1.248279214183753,0.1926404021469667,-1.3057818628041593
2.28,0.8832447592721476,-0.1169065122459575,1.694414523245217,0.0142298513312266,0.1604757604854015,0.0438011968089642,-0.5703867274027447,1.0086272522385982,-1.012199057100596,0.9038833605765244,-0.1552547165836309,1.7357753855741913,-0.7317616001070073,1.1140181350280336,-1.0510498998486733,0.8274413193982519,0.370601829048045,0.1295307312309424,0.7283784806133009,11.900952982350644,-1.2556465442031688,0.1897240671443261,-1.3054463373896297
2.3000000000000003,0.8719163108075204,-0.0967276077270715,1.674277781873314,0.0167849194132491,0.1564048389387547,0.0435999509374053,-0.5629171062709984,1.0090860767446226,-1.002373212860211,0.8896481285803446,-0.1333743538890307,1.7148408586207449,-0.7717616007030538,1.1540181356240802,-1.059697004201386,0.6175616868286674,0.3734810565873103,0.0229412253012206,0.4912922120192564,11.245311945721369,-1.2624486365916048,0.1865751847473394,-1.3037108024371162
2.32,0.861293320752264,-0.0775642643142484,1.6552904954923682,0.018656866796202,0.151437998765198,0.0433325780150537,-0.5558837206982421,1.008279333129374,-0.9967260826813608,0.8754128965841649,-0.1114939911944305,1.6939063316672986,-0.8117616012991002,1.1940181362201263,-1.0683441085540986,0.4527952824750966,0.3516692786378173,-0.0403371807624286,0.2823565089425051,11.245311945721369,-1.270418056043005,0.183834906108842,-1.2989961073027734
2.34,0.850240224370134,-0.0574179683672727,1.6353957111383453,0.0197150047459227,0.1445911044924739,0.0429405034675261,-0.5502095346204675,1.0064774364194295,-0.9931107950231154,0.8591776645581829,-0.0876136284700279,1.6725394494962167,-0.8517616018951467,1.234018136816173,-1.076991212906811,0.3482582527750841,0.2837093038887295,-0.090094835497223,0.180764382912274,11.02177800022764,-1.2803384202801762,0.1821616968860619,-1.2906362129638194
2.36,0.8392781061878195,-0.0373193115110579,1.6155700042712469,0.019349270600192,0.1363116097255125,0.0424136348678473,-0.5467362826396218,1.003706985352758,-0.9895746565671898,0.8429424325322008,-0.0637332657456254,1.6511725673251347,-0.8917616024911932,1.2740181374122197,-1.085638317259524,0.2839152761597449,0.1736625990422846,-0.1385225533335754,0.1768069227962798,10.866879692080149,-1.291071783851352,0.1820827042191091,-1.2798841424878262
2.38,0.8289003681861721,-0.018272612811192,1.5968080105550653,0.017626170301638,0.1275872830117384,0.0418097390682786,-0.5461661245846234,1.0014708390028322,-0.98551028915417,0.8257072004913176,-0.0388529030063217,1.629589507545235,-0.9317616030872397,1.3140181380082658,-1.0942854216122364,0.2336905709158158,0.0285079027499191,-0.111807317496293,0.2032183706509926,10.860773775171763,-1.303255205383284,0.1836716174944222,-1.2668651318486135
2.4,0.8179582540323065,0.0017389008693551,1.5771489783801351,0.0145901632444509,0.1180549143554371,0.0411100693142139,-0.5484135647615868,1.0001856795208466,-0.9805519990582352,0.8074719684355334,-0.0129725402521169,1.6077902701565174,-0.971761603683286,1.3540181386043122,-1.1029325259649492,0.2796750923777983,-0.1123720088481661,-0.0642579740992799,0.2479145047967423,10.887129260187066,-1.3148033635075598,0.1865046309473925,-1.2539694114365645
2.42,0.80694068678051,0.0217479538423291,1.5575963781179711,0.0111236969799473,0.1086191047483365,0.0404216576550137,-0.5535124116204367,1.000905022350173,-0.9749149889225636,0.8015920619569409,0.0318009291389495,1.5475324960973569,-0.6461661260747396,1.0338633147568548,-0.9439140627599936,0.3817446026657455,-0.254942342942499,0.0359671414663198,0.2818505067835763,10.93479931633101,-1.3272904957877945,0.1901533702386504,-1.2400561535064425
2.44,0.7957438376743378,0.0420820275706901,1.5384479549196222,0.0175149801242833,0.1018393845837609,0.0404549452656316,-0.5656464086598072,1.026204541862066,-0.9402882923562064,0.8015920619569409,0.0318009291389495,1.5475324960973569,-0.6461661260747396,1.0338633147568548,-0.9439140627599936,2.228400596157863,-0.6066998519685229,1.264975975594651,1.7313348283178651,10.93479931633101,-1.3331515203574549,0.1829820253749939,-1.2346318660480589
2.46,0.7848817250342189,0.061622121432425,1.5208908807156525,0.0312625510644509,0.0997645666340208,0.0410288556397063,-0.5766484140584441,1.0284838685056008,-0.9096535907290638,0.8015920619569409,0.0318009291389495,1.5475324960973569,-0.6461661260747396,1.0338633147568548,-0.9439140627599936,1.6315057435721818,-0.5501002699318469,0.1139663321767403,1.5317350813571218,13.006779023511626,-1.3391448247125162,0.1664990800131215,-1.2390824800517135
2.48,0.7732498192413636,0.0821374366818002,1.502985065066058,0.0466829439018284,0.1006232461944597,0.0417520161486182,-0.585688750347509,1.0224495372307734,-0.8828129918336938,0.7951304006961935,0.042139562286518,1.538093355469757,-0.6661661263727627,1.0403418099076591,-0.935594817481158,1.4478938006772837,-0.4520168144532432,-0.3017165637413721,1.3420299447685025,12.649951566751042,-1.3415651575598653,0.1486742963891706,-1.2456943923373116
2.5,0.7614600984695278,0.1024832371429579,1.4855597954671822,0.061584998631759,0.1030522204197506,0.0425049274326996,-0.5926441823221195,1.012063604257214,-0.8612877063800549,0.7822070781746987,0.0628168285816551,1.5192150742145571,-0.7061661269688092,1.0532988002092682,-0.9189563269234876,1.2445717652523478,-0.347771598730523,-0.5192966486779693,1.0762642726819427,11.908167626188517,-1.3415334799051646,0.13210589129331,-1.2520950335798906
2.52,0.7501490883544919,0.1215676392449924,1.4693584261205317,0.074359775724709,0.1058184543745075,0.0431586701905031,-0.5975713649288451,0.9975149809236684,-0.8451792138636152,0.769283755653204,0.0834940948767922,1.5003367929593572,-0.7461661275648557,1.0662557905108774,-0.902317836365817,1.1129050953401247,-0.2463591303362822,-0.7274311666772837,0.8054246258219877,11.908167626188517,-1.3401786007577745,0.1161606477539894,-1.2572632064541516
2.54,0.7381571478104874,0.1413244150117795,1.4526057715115528,0.0857112231032587,0.1085115010211432,0.0436894600217492,-0.6013264626086315,0.979105967819662,-0.8310350957335091,0.7543604331019068,0.1048192106870098,1.4822904362320408,-0.7861661281609021,1.0792127808124865,-0.8856793458081463,1.17584926726027,-0.1877548839893217,-0.9204506552003112,0.7072059065053038,11.658021693820956,-1.3382218140322557,0.1026338864969587,-1.2595493479844186
2.56,0.7261029816549959,0.1606852229933602,1.4361218654992616,0.0946739627346171,0.1105027567774456,0.0439888809292077,-0.6039275469570466,0.9582027502484416,-0.8180589801603322,0.7394371105506097,0.1261443264972274,1.4642440795047245,-0.8261661287569486,1.0921697711140954,-0.8690408552504758,1.2370223522493344,-0.1300542174207553,-1.045160878561019,0.6488057786588453,11.500519317221006,-1.336734322602689,0.0918669349151624,-1.2592750332652547
2.58,0.7140008733849802,0.1796103674907931,1.4198936993567213,0.1012576464986089,0.1116443212253566,0.0440272734508601,-0.6062420067143839,0.9358575422532208,-0.8053525092049221,0.7235137879844115,0.1477933670649851,1.44661368504135,-0.866166129352995,1.1051267614157043,-0.8524023646928052,1.2904644982124582,-0.1157229878668619,-1.1172603997610386,0.6353235477705055,11.457755124102732,-1.3365707849131343,0.0842392477195174,-1.257307904291766
2.6,0.7024618106269652,0.1971652350952156,1.4047137464826869,0.1055481378659928,0.1120415345419327,0.0438382221569577,-0.6083683285852157,0.9136209772178728,-0.7931165634855737,0.7065904654033119,0.1697663323902831,1.429399252841917,-0.9061661299490414,1.1180837517173134,-0.8357638741351346,1.2734838406085869,-0.1063160935415918,-1.1118282517673994,0.6117972859674192,11.457755124102732,-1.3374577617796004,0.0785935162332598,-1.2538650956443826
2.62,0.690271089273746,0.2151839793514836,1.388991013884581,0.1082289592355119,0.1118234598432344,0.0434227812735746,-0.6106721102785418,0.8897820682308921,-0.7797271907091241,0.683688773049261,0.2264032446034541,1.3796260738964752,-0.7062420082045,0.8775028553075441,-0.7137613372846225,1.3719295673674257,-0.1151890846663061,-1.1919454493490411,0.6694686388224791,11.476267379718593,-1.3392174413866051,0.0751490800667341,-1.2489968084834038
2.64,0.6780257591083078,0.2328879117905445,1.3736455301498114,0.11485447872829,0.1113392908032648,0.0432307566475663,-0.6136465881551605,0.8790574815783174,-0.755325040100403,0.683688773049261,0.2264032446034541,1.3796260738964752,-0.7062420082045,0.8775028553075441,-0.7137613372846225,1.3410156895407526,-0.1487238938309321,-0.5362293326287348,1.2201075304360542,12.189490564658628,-1.3420370225075733,0.0670507363138052,-1.2466949770964766
2.66,0.6657326016295688,0.2502344146341525,1.358794470414933,0.1254878874763187,0.1107400964863302,0.0432672118379527,-0.6155855406705081,0.8555672893734018,-0.7311108637082213,0.683688773049261,0.2264032446034541,1.3796260738964752,-0.7062420082045,0.8775028553075441,-0.7137613372846225,1.6895820526333896,-0.0969476257673795,-1.174509610245783,1.2107088196090854,12.189490564658628,-1.3452320822528985,0.0550435485586057,-1.2446075673239798
