t,x,y,z,roll,pitch,yaw,v_x,v_y,v_z,ref_x,ref_y,ref_z,ref_v_x,ref_v_y,ref_v_z,a_com,a_x,a_y,a_z,thrust,wind_x,wind_y,wind_z
0.0,-2.512752041003317,-0.0719979786200569,2.0922174272916285,0.0131436089265443,0.1498885053205808,0.0281040215656649,0.0021338892294225,-0.0033496451682564,-0.0036117896727589,-2.5126847111079056,-0.0721731488643354,2.0921073993684987,0.1022161778552719,-0.0108599947242667,-0.103652495591876,0.2684149336238438,0.1066944614711262,-0.1674822584128216,-0.1805894836379452,10.66040481505206,-1.4133779773928143,0.1796163095704649,-1.2772668172208446
0.02,-2.512811638642989,-0.0720005933090177,2.0919313246920903,0.013660235783411,0.1520068838059047,0.0281772415525334,-0.0079224909443299,0.0026562679721422,-0.0261664939702382,-2.5126847111079056,-0.0721731488643354,2.0921073993684987,0.1022161778552719,-0.0108599947242667,-0.103652495591876,1.270744329906482,-0.5028190086876222,0.3002956570199359,-1.1277352148739686,10.659663828678276,-1.408027799420166,0.1786532788947346,-1.2723964090971591
0.04,-2.5130568129981112,-0.0718892840697016,2.0910897176852967,0.0170843810563953,0.1575225374486955,0.0285078386806415,-0.0156361898226546,0.0076237651841732,-0.0570465227976516,-2.5126847111079056,-0.0721731488643354,2.0921073993684987,0.1022161778552719,-0.0108599947242667,-0.103652495591876,1.6107089738053908,-0.385684943916238,0.2483748606015484,-1.5440014413706695,9.260878065213092,-1.3975257064063382,0.1745771270444885,-1.276964345139821
0.06,-2.5133980674338536,-0.0717295213879933,2.089715531566123,0.0216715543152667,0.1642966365877504,0.0289624236901682,-0.0196101570448767,0.008706400122523,-0.0860507214902932,-2.511662549329353,-0.0722817488115781,2.09107087441258,0.1222161781532951,-0.0119930643996825,-0.1236524958898992,1.4647594134321698,-0.1986983611111012,0.0541317469174917,-1.4502099346320785,8.921515391396042,-1.3862347322477084,0.1687233851128245,-1.282306205924476
0.08,-2.5138082346564965,-0.0715655630434809,2.0876844245018003,0.0264596662048765,0.1720633543932844,0.0294820357459508,-0.0209215769399864,0.0075993672839282,-0.1154985867905333,-2.5096182257722472,-0.0724989487060634,2.0889978245007423,0.1622161787493415,-0.014259203750514,-0.1636524964859457,1.4748916185504115,-0.0655709947554886,-0.0553516419297401,-1.4723932650120042,8.982525625763628,-1.3746002241375697,0.1629305594418272,-1.2878227171848216
0.1,-2.5142176949893607,-0.07143856523233,2.0850791562010067,0.0307016741381985,0.1799339996802365,0.0299957678871179,-0.0197265850152813,0.0051990338459255,-0.1435081197140679,-2.507573902215142,-0.0727161486005488,2.086924774588905,0.202216179345388,-0.0165253431013455,-0.2036524970819921,1.4068791178600528,0.0597495962352562,-0.1200166719001348,-1.4004766461767293,9.140208261809676,-1.3638445785579263,0.158056174785604,-1.2928719590586115
0.12,-2.514563385233673,-0.0713709050984186,2.082099632465432,0.0340818785222792,0.1872340299004225,0.030455136140626,-0.0165577969722295,0.002156499971472,-0.1687480285118139,-2.503529578628234,-0.0730466554625757,2.082851724647265,0.2422161799414344,-0.018791482452177,-0.2436524976780386,1.2809676285503102,0.15843940215259,-0.1521266937226789,-1.2619954398873006,9.221854772662482,-1.3530669184908333,0.1537488240078869,-1.2971766389292168
0.14,-2.5148451754568626,-0.0713657910443828,2.078445164855385,0.0370222333118442,0.1945935908367875,0.0309014256710105,-0.011614444012721,-0.0014270607906367,-0.1953898721361289,-2.4994852550413267,-0.0733771623246026,2.0787786747056254,0.282216180537481,-0.0210576218030085,-0.2836524982740851,1.3666258430167166,0.2471676479754264,-0.1791780381054388,-1.3320921812157491,9.221854772662482,-1.3432693674083995,0.1502435558180136,-1.3009025760285124
0.16,-2.5150119744385395,-0.0714371405265182,2.074258061784663,0.0393742623347216,0.2015608368927022,0.031303669332139,-0.005152325422968,-0.0054510780492334,-0.2219941777281252,-2.494440931439517,-0.0737643226704003,2.0737056247490844,0.3222161811335274,-0.02332376115384,-0.3236524988701315,1.383601069309577,0.323105929487648,-0.2012008629298319,-1.3302152795998168,9.22308832379258,-1.3334577309572022,0.1473926671708846,-1.3044603839930036
0.18,-2.515034436540542,-0.0715925986923733,2.069540552019936,0.0411556634734771,0.2081142098584246,0.0316560008733589,0.0027257649134581,-0.0097844912157866,-0.248442115468977,-2.4883966078228075,-0.0742081364999688,2.067632574777642,0.3622161817295738,-0.0255899005046716,-0.3636524994661779,1.3967249082809037,0.3939045168213098,-0.2166706583276643,-1.3223968870425873,9.252915034337091,-1.3250180708827657,0.1453421824444055,-1.3079874389353563
0.2,-2.514897277587699,-0.071823781543216,2.0645709514226818,0.0423201098753942,0.2139569828293388,0.0319397492715996,0.0114331528724238,-0.0142720651588576,-0.2733644813013852,-2.514898148294869,-0.0720818232531626,2.057118446246487,0.1027257664035742,-0.0087350996396977,-0.3484421169590931,1.3389186342407615,0.4353693979482862,-0.2243786971535495,-1.24611829162041,9.252915034337091,-1.3170163773473516,0.1438605986697687,-1.3111335064108582
0.22,-2.514532941604436,-0.0722005268429229,2.0589478236950285,0.0417815742669599,0.2196605996473086,0.0320918649385947,0.0248032635339575,-0.0228724514069052,-0.2869993843417658,-2.514898148294869,-0.0720818232531626,2.057118446246487,0.1027257664035742,-0.0087350996396977,-0.3484421169590931,1.04718322613314,0.6685055330766867,-0.4300193124023785,-0.681745152019031,9.273699913463131,-1.310591736647872,0.1445852109360801,-1.3120437549531163
0.24,-2.513889181171536,-0.0727397065653212,2.0530588753639765,0.0386617477241771,0.2249050655177307,0.0320288208204587,0.0389662360545522,-0.030150856210077,-0.3013839527278984,-2.514898148294869,-0.0720818232531626,2.057118446246487,0.1027257664035742,-0.0087350996396977,-0.3484421169590931,1.072940789085399,0.7081486260297332,-0.3639202401585896,-0.7192284193066306,10.057368897411834,-1.3042975557298904,0.1483512406551058,-1.3151718455535442
0.26,-2.5129588681518147,-0.0733870646579869,2.046857945249147,0.03423190299726,0.2297720641942717,0.0318379313503133,0.0534608682787241,-0.0339157821382896,-0.317982974233609,-2.5138708906308334,-0.0721691742495596,2.053634025076896,0.1227257667015974,-0.0085252213244799,-0.3684421172571163,1.1178064965659,0.7247316112085928,-0.1882462964106294,-0.8299510752855316,9.926356078021854,-1.2987646385084293,0.1534042237322474,-1.3174100939114284
0.28,-2.5118026547676977,-0.0740471039703041,2.040642680888732,0.0300165322890709,0.2340911862558658,0.0316264445232169,0.0676096105841278,-0.0353520894628478,-0.3354344220617886,-2.511816375302762,-0.0723438762423535,2.0466651827377143,0.1627257672976439,-0.0081054646940443,-0.4084421178531627,1.1256141866276563,0.7074371152701885,-0.0718153662279116,-0.8725723914089795,9.716061816347974,-1.293436218911981,0.1587443577895677,-1.3193713368954594
0.3,-2.5102905569786698,-0.0747571210328999,2.033726449306887,0.0260192634323504,0.2383502775223417,0.0314092523622737,0.0829354372402384,-0.0355797536933054,-0.3553497494464288,-2.5097618599746903,-0.0725185782351475,2.039696340398532,0.2027257678936903,-0.0076857080636087,-0.4484421184492092,1.2565359709657884,0.7662913328055256,-0.0113832115228806,-0.9957663692320068,9.716061816347974,-1.288149161283562,0.1635016718233062,-1.3208065310097552
0.32,-2.508466744939929,-0.0754612532158039,2.02639892116725,0.0226314949186919,0.2423390369101345,0.0312143514370702,0.0987719489246649,-0.0349113521313567,-0.3764158857232164,-2.5057073446168165,-0.0726722923964196,2.030727498029548,0.2427257684897368,-0.0072659514331731,-0.4884421190452556,1.3181653543952516,0.7918255842213284,0.0334200780974354,-1.053306813839383,9.633207036773456,-1.2834371135024822,0.1673187870131072,-1.32167843127731
0.34,-2.506434319016976,-0.0761118628597128,2.019044328259082,0.0199788259783935,0.2458913747530485,0.0310542353114489,0.1144510792250533,-0.0337008187664741,-0.3967105573213566,-2.5016528292589424,-0.0728260065576918,2.021758655660564,0.2827257690857833,-0.0068461948027375,-0.5284421196413022,1.2837194137353456,0.7839565150194169,0.0605266682441301,-1.0147335799070094,9.581574582663052,-1.2784343383813717,0.1705858802061468,-1.322559477665591
0.36,-2.503966422684849,-0.0767684021710666,2.0108834205075605,0.0177183943818865,0.2493928054279142,0.030911224225357,0.1315910266899813,-0.0320674714593625,-0.4183334621987921,-2.496598313886168,-0.0729692268032031,2.0117898132766787,0.3227257696818297,-0.006426438172302,-0.5684421202373485,1.38202355069004,0.8569973732463994,0.0816673653555796,-1.0811452438717728,9.5728400179014,-1.2737015750154883,0.1731857406871832,-1.323622824045957
0.38,-2.501148798907123,-0.0773882998108588,2.0022891956018047,0.0159549364657382,0.2526627165216339,0.0307939670860048,0.1493892224148389,-0.030093918228689,-0.4400205631175395,-2.4905437984984915,-0.0731019531329535,2.000820970877892,0.3627257702778761,-0.0060066815418664,-0.608442120833395,1.40623702631756,0.8899097862428831,0.0986776615336772,-1.084355045937374,9.566795279703,-1.269372815701734,0.1750797495890678,-1.3243980577749557
0.4,-2.49813652090403,-0.0779370814984541,1.993722333045402,0.0147250971995243,0.2555661802747354,0.0307075511335507,0.1668626118915313,-0.0278158828698013,-0.4606801105436724,-2.493679337786381,-0.0788929957222933,1.980288167445928,0.249389223904955,-0.0290156780045287,-0.5400205646076557,1.357687081724983,0.8736694738346179,0.113901767944383,-1.0329773713066452,9.566795279703,-1.265082528712638,0.1765037514406423,-1.324944030861106
0.42,-2.4945544636965846,-0.0784452027113572,1.9844486028018773,0.0146551096596816,0.2583363546285596,0.0306971955315856,0.1907131063199393,-0.0233101234829741,-0.464739043310187,-2.493679337786381,-0.0788929957222933,1.980288167445928,0.249389223904955,-0.0290156780045287,-0.5400205646076557,1.2304703240373052,1.1925247214204002,0.2252879693413596,-0.2029466383257294,9.56810896206207,-1.2606494744612389,0.1762828876043378,-1.322015353323955
0.44,-2.490489417110472,-0.078865684308721,1.9751002360461665,0.0164012915415614,0.2607953347943685,0.0308110265950636,0.2145767827991451,-0.0191235864212314,-0.4701686473815509,-2.493679337786381,-0.0788929957222933,1.980288167445928,0.249389223904955,-0.0290156780045287,-0.5400205646076557,1.2414535311936958,1.193183823960292,0.2093268530871387,-0.2714802035681918,10.482626657651052,-1.2591467947340227,0.1744110828173943,-1.3261822938715109
0.46,-2.48595344168129,-0.0792137983180041,1.9656037187037203,0.019685311143293,0.2630493231238193,0.0310315657910648,0.237895052542264,-0.016382461876374,-0.4792146101764328,-2.4911854455473312,-0.0791831525023386,1.9748879617998516,0.2693892242029783,-0.0288000299596967,-0.5600205649056789,1.258058931916208,1.1659134871559422,0.1370562272428699,-0.4522981397440978,10.482626657651052,-1.2566704319045543,0.1704779175980826,-1.3304251661489426
0.48,-2.481214902971493,-0.079519441117054,1.9563877242452217,0.0232466900455861,0.2650529248244351,0.0312704007892136,0.2597822839169707,-0.0160271192714547,-0.4904400302093097,-2.4861976610692325,-0.0797634660624291,1.9640875505076985,0.3093892247990247,-0.0283687338700326,-0.6000205655017253,1.2300276628305251,1.094361568735336,0.0177671302459606,-0.5612710016438427,10.28923610431866,-1.2538771709245118,0.1658175846460639,-1.3331879119300185
0.5,-2.475779222864366,-0.0798488002765833,1.946433595058656,0.0268129821577687,0.2670459330834308,0.0315057663795193,0.2826587056369856,-0.0169575451434992,-0.5044830028312386,-2.481209876591133,-0.0803437796225197,1.953287139215545,0.3493892253950712,-0.0279374377803685,-0.6400205660977718,1.3429458692326188,1.143821086000743,-0.0465212936022217,-0.7021486310964442,10.014237957489058,-1.251017023660192,0.1613263136739966,-1.3349801629917462
0.52,-2.46988702603424,-0.08020685867766,1.9361781206296669,0.0299525350203169,0.2689357173030927,0.0317063873874634,0.3054678943292558,-0.0187552863308708,-0.5203558841183061,-2.474222092083232,-0.0809025283781271,1.9404867278935896,0.3893892259911176,-0.0275061416907044,-0.6800205666938183,1.3923355580908845,1.1404594346135135,-0.0898870593685834,-0.7936440643533771,10.014237957489058,-1.248167648678273,0.1573227539759389,-1.335800975475067
0.54,-2.4635360645900577,-0.0806075243300429,1.925598247027253,0.0326091584836603,0.2707250297259759,0.0318668628305531,0.3285322834064141,-0.0211551120346883,-0.5368361897952459,-2.4672343075753305,-0.0814612771337344,1.9276863165716345,0.4293892265871641,-0.0270748456010403,-0.7200205672898647,1.4224324958645809,1.1532194538579148,-0.1199912851908744,-0.8240152838469905,9.923867791676455,-1.245621727803962,0.1540566842183278,-1.3357735087835545
0.56,-2.4570725400878244,-0.0810373849849412,1.915238835742948,0.0346782813968913,0.2723305439033284,0.0319804605475816,0.350720521700435,-0.0238933800048407,-0.5528030528224995,-2.459246523052528,-0.0820092434871002,1.9138859052347776,0.4693892271832106,-0.0266435495113762,-0.7600205678859111,1.3736418246760076,1.1094119147010415,-0.1369133985076197,-0.7983431513626793,9.89671273409931,-1.2431122775507637,0.1511939409912046,-1.3352872033165164
0.58,-2.4498112670115164,-0.0815489524268191,1.904001095455652,0.0364064001473956,0.273923635275025,0.0320603717888866,0.3742707508009838,-0.0270760983237596,-0.5701560244795082,-2.450258738514824,-0.0825464274382244,1.89908549388302,0.509389227779257,-0.0262122534217121,-0.8000205684819576,1.471282274000187,1.1775114550274413,-0.1591359159459418,-0.8676485828504332,9.881913526395692,-1.2407110989235368,0.1488936529270564,-1.3348307043713217
0.6,-2.4420767485722403,-0.0821287222206155,1.8924117561450489,0.0376367051062607,0.2754220836284637,0.0320965700344351,0.3980325621233467,-0.0307220201229351,-0.5879252395806,-2.431097729471467,-0.082902757343007,1.8754932942316769,0.4742707522910999,-0.0373378882193537,-0.6701560259696243,1.494708523754837,1.188090566118147,-0.1822960899587746,-0.8884607550545875,9.851181039813127,-1.2395267537591124,0.1472848966667189,-1.3345794652885523
0.62,-2.4342160696885533,-0.082721834670002,1.881307799817946,0.0393934846214652,0.27663952641291,0.032159871732805,0.4282156911260906,-0.0321056256850002,-0.5800537375998649,-2.431097729471467,-0.082902757343007,1.8754932942316769,0.4742707522910999,-0.0373378882193537,-0.6701560259696243,1.5611663782092324,1.5091564501371946,-0.0691802781032547,0.3935750990367526,9.831596976738185,-1.2382963439133616,0.1449553236692885,-1.327111308165984
0.64,-2.425327751484872,-0.0834002240081757,1.8697596978211368,0.0420381534176368,0.2776757558108786,0.0322668789260909,0.4589432749019916,-0.0358126177600115,-0.575506903448057,-2.431097729471467,-0.082902757343007,1.8754932942316769,0.4742707522910999,-0.0373378882193537,-0.6701560259696243,1.5641290673672508,1.5363791887950506,-0.1853496037505654,0.2273417075903949,11.474769931343872,-1.239324460644698,0.1417610600020717,-1.332044812123894
0.66,-2.415840806500765,-0.0841692673544574,1.85824494659062,0.0446172075900891,0.2785986421530024,0.0323569147154791,0.4882423250770455,-0.0408834303929351,-0.5761708826437271,-2.426355021948556,-0.0832761362252006,1.8687917339719804,0.4942707525891232,-0.0393902461984725,-0.6901560262676475,1.4871015014877296,1.464952508752693,-0.2535406316461822,-0.0331989597835036,10.827235188267878,-1.2400245331389763,0.1387261651672165,-1.335073910747946
0.68,-2.405770329304264,-0.0850474699260235,1.846673784733912,0.046785589902644,0.2792082778113357,0.0323952407151791,0.5172806943751026,-0.0466005477004325,-0.5808828190160246,-2.416869606902734,-0.0840228939895877,1.855388613452588,0.5342707531851696,-0.0434949621567102,-0.730156026863694,1.498428064818771,1.4519184649028545,-0.2858558653748719,-0.2355968186148749,10.827235188267878,-1.2404940590225375,0.1359317514943951,-1.3368871961406334
0.7000000000000001,-2.3956683346625933,-0.0859914282612194,1.8355632555430796,0.0483731819509681,0.2791560942234206,0.0323595565126154,0.5445331177497409,-0.0523923664915377,-0.588374938974893,-2.407384191856912,-0.0847696517539747,1.8419854929331956,0.5742707537812161,-0.0475996781149478,-0.7701560274597404,1.442542552385895,1.3626211687319143,-0.2895909395552568,-0.3746059979434224,10.418208876877545,-1.2414892073057928,0.1336971255382465,-1.337729066119547
0.72,-2.384482595680689,-0.0871067239379973,1.823688583603884,0.0494942581030574,0.2782743044341105,0.0322327647618841,0.5725270953524487,-0.0588070164176751,-0.5987917427186443,-2.395898776781288,-0.0857216453162737,1.826582372384001,0.6142707543772625,-0.0517043940731855,-0.8101560280557869,1.5275145792525466,1.3996988801353916,-0.3207324963068712,-0.5208401871875656,10.2643597586557,-1.2435900265423818,0.1321252322124588,-1.3368710168449165
0.74,-2.37273910659054,-0.0883557594781622,1.8115895805575672,0.0498570579589002,0.2763213198007828,0.0319893416672053,0.6003249179052216,-0.0656882824145926,-0.6105395260904029,-2.3844133617056635,-0.0866736388785726,1.8111792518348055,0.654270754973309,-0.0558091100314231,-0.8501560286518334,1.5476443184284514,1.3898911276386428,-0.3440632998458748,-0.5873891685879262,10.2643597586557,-1.2467269413018347,0.131452134073117,-1.3339373179667515
0.76,-2.3610646388506566,-0.0896738535929978,1.799867869128226,0.049269768595602,0.2730067674461506,0.0316130797842395,0.6270502074811439,-0.0725920018262496,-0.6226875379324387,-2.371927946615138,-0.0877282503398275,1.7947761312707098,0.6942707555693554,-0.0599138259896607,-0.8901560292478797,1.5078765171144122,1.3362644787961175,-0.345185970582848,-0.6074005921017922,10.140579630758111,-1.251697567220457,0.1318676316749358,-1.3287185014953626
0.78,-2.348234464073851,-0.0912023994131233,1.7872694620906933,0.047485885282979,0.2674686727776542,0.0310351896507555,0.6541472470692966,-0.0797896403845494,-0.6364660901897923,-2.3584425315097115,-0.0888854797000384,1.7773730106917127,0.7342707561654018,-0.0640185419478984,-0.9301560298439262,1.5619731572329123,1.354851979407634,-0.3598819279149901,-0.6889276128676791,10.06226682178567,-1.260205632230798,0.1337580054733485,-1.3195818147555196
0.8,-2.334890200713849,-0.0928690989878644,1.774386193826061,0.0445050857321182,0.2601718585024097,0.0303059198260593,0.6785427490357394,-0.0861436553808801,-0.6511237988388147,-2.3155271017203862,-0.0951918814323507,1.7554461575812037,0.7541472485594127,-0.0910620484527295,-0.7110696999305264,1.458048735131937,1.21977509832214,-0.3177007498165372,-0.7328854324511191,10.06226682178567,-1.2694969098563458,0.1367936519113295,-1.308380653271107
0.8200000000000001,-2.3209881076749,-0.0946391345088174,1.7616156523121045,0.0416098848927831,0.2519668408452337,0.0295716618685469,0.7101013541728322,-0.0907755170647476,-0.6251382477365116,-2.3155271017203862,-0.0951918814323507,1.7554461575812037,0.7541472485594127,-0.0910620484527295,-0.7110696999305264,2.057090522405261,1.5779302568546372,-0.2315930841933759,1.2992775551151523,12.612174260978463,-1.2825688472520942,0.1400803046882375,-1.2843058991888403
0.84,-2.3072310152632407,-0.0964074396892947,1.7499332582161904,0.0393105364498618,0.2439536127600646,0.0289227402235859,0.7361407186866347,-0.0951125161386423,-0.6059373018532227,-2.3155271017203862,-0.0951918814323507,1.7554461575812037,0.7541472485594127,-0.0910620484527295,-0.7110696999305264,1.6321262114666792,1.3019682256901255,-0.2168499536947352,0.9600472941644456,12.612174260978463,-1.296307518440972,0.1428015213996251,-1.2801372274326308
0.86,-2.292258141952736,-0.0983539489780333,1.7379611185939603,0.0370885366090031,0.2355285416785328,0.0282790876046521,0.759427788997036,-0.0992503334709708,-0.592549209881006,-2.307985629234792,-0.096102501916878,1.7483354605818984,0.7741472488574359,-0.0933165300663655,-0.7259904218786732,1.3589059777757122,1.1643535155200668,-0.2068908666164215,0.6694045986108343,12.005431268306891,-1.308379674838,0.1451650649843103,-1.274345320244772
0.88,-2.276862415622609,-0.1003773280978908,1.7261836068955272,0.0349814168349831,0.2273119871754407,0.0276758717626537,0.7787561252443393,-0.1028268021356385,-0.5857832038860215,-2.292902684263604,-0.0979237428859326,1.734114066583288,0.8141472494534824,-0.0978254932936375,-0.7558318657749669,1.0394163594565191,0.9664168123651672,-0.1788234332333875,0.3383002997492279,11.51060661266547,-1.3188800515845525,0.1472400121242116,-1.267744757796452
0.9,-2.261912356951282,-0.1023603715159575,1.7150712710550091,0.033080165915838,0.2199230604223411,0.027146190152123,0.7938206059350668,-0.10569908616261,-0.5842238723435447,-2.277819739292416,-0.0997449838549872,1.7198926725846777,0.8541472500495289,-0.1023344565209095,-0.7856733096712605,0.7707465680628389,0.7532240345363705,-0.1436142013485755,0.0779665771238391,11.09509666732538,-1.3290240640346922,0.1492804539199844,-1.25972494404096
0.92,-2.24589804656742,-0.1045012450838583,1.7033654419327424,0.031211752519847,0.2128615865512645,0.0266426357586762,0.8066326970801836,-0.1082037009550891,-0.5866007607545655,-2.260736794291425,-0.1017916729854054,1.7041792063912522,0.8941472506455753,-0.1068434197481816,-0.8155147535675541,0.6634613275993015,0.6406045572558416,-0.1252307396239535,-0.1188444205510397,10.763071110085548,-1.3380005017875871,0.1511523361036766,-1.2514455975312655
0.94,-2.2296533180535287,-0.106687736698304,1.6915875659433628,0.0295024594546466,0.2068080895099192,0.0262005734179715,0.8170509146306698,-0.1102996025477464,-0.5911192138584789,-2.2436538492904345,-0.1038383621158236,1.688465740197827,0.9341472512416218,-0.1113523829754536,-0.8453561974638478,0.5773830593021134,0.520910877524311,-0.104795079632864,-0.2259226551956705,10.36698859212902,-1.3457195993633952,0.152845417520614,-1.2430957486560572
0.96,-2.2132182746191167,-0.1089133820189511,1.679700025147588,0.0279238610708859,0.2019242457652078,0.0258181526998717,0.8258379507492049,-0.1121223761929841,-0.5973752372132629,-2.225570904274542,-0.1059977753269236,1.6720062379069944,0.974147251837668,-0.1158613462027256,-0.8751976413601414,0.5469742583655467,0.439351805926752,-0.0911386822618869,-0.3128011677392017,10.261784435447224,-1.3514113934782868,0.1543032623672398,-1.2363764953785747
0.98,-2.197456012812702,-0.1110581529155713,1.668276793261336,0.0265358223788451,0.1984237178068597,0.0255068979451684,0.8328406077403456,-0.1135189211744242,-0.6047369718073569,-2.20648795924375,-0.1082699126187054,1.6548006995187543,1.0141472524337145,-0.1203703094299977,-0.9050390852564352,0.5127930358698277,0.3501328495570388,-0.069827249072002,-0.3680867297046974,10.261784435447224,-1.3558649088753487,0.1557101509310962,-1.2305500452363238
1.0,-2.180733240551993,-0.1133404913145491,1.6560873667240494,0.0252373024973001,0.1960871858541724,0.0252369173996649,0.8389937882712512,-0.1146088908020077,-0.6138734710412348,-2.155813982425685,-0.1167340989742926,1.638039944670968,0.9328406092304616,-0.1161359979122304,-0.6652087114273272,0.5534556953488269,0.3076590265452761,-0.0544984813791747,-0.4568249616938968,10.166547666733097,-1.358496413994246,0.1569338487550093,-1.2264742557775223
1.02,-2.163826348682268,-0.1156652184595025,1.6440381939529127,0.0235957510747206,0.1951948733909696,0.0249880721375561,0.8518552717339892,-0.1176122920966728,-0.5888848645379092,-2.155813982425685,-0.1167340989742926,1.638039944670968,0.9328406092304616,-0.1161359979122304,-0.6652087114273272,1.413213210362405,0.6430741731369038,-0.1501700647332571,1.2494303251662786,10.076217404437555,-1.361124159740939,0.1585489427723632,-1.2142048286805638
1.04,-2.147520271917181,-0.1179169655994134,1.633059324413253,0.0215853185245323,0.1953360382697583,0.0247512024407934,0.863983954415421,-0.1191298526952278,-0.5682412438392844,-2.155813982425685,-0.1167340989742926,1.638039944670968,0.9328406092304616,-0.1161359979122304,-0.6652087114273272,1.1995488832326084,0.6064341340715873,-0.0758780299277513,1.03218103493124,12.425654470191148,-1.3610762749054188,0.1607225834978591,-1.2206091578421276
1.06,-2.130111041466869,-0.1203067248786689,1.6218628062085847,0.0194357250193739,0.1960923877864541,0.0245197522322051,0.8763199367277634,-0.1196974450278373,-0.5527795731823295,-2.14648557633338,-0.1178954589534149,1.631387857556695,0.9528406095284848,-0.1166594132597916,-0.6773030593513213,0.9893961291750182,0.6167991156171226,-0.0283796166304757,0.7730835328477459,11.928339864371084,-1.3594464418419665,0.1629963193721847,-1.2263533797415578
1.08,-2.112459339407905,-0.1226994152503758,1.6109163217820712,0.0174140944831078,0.197107894864865,0.0243088193066337,0.8882399353360853,-0.119509036717276,-0.5428608740720189,-2.127828764148771,-0.1202181789116595,1.6180836833281482,0.9928406101245314,-0.1177062439549141,-0.7014917551993094,0.7754070810786415,0.5959999304160912,0.0094204155280677,0.4959349555155312,11.514306300458884,-1.357632452222049,0.1651526290365389,-1.23135045626789
1.1,-2.094573767822545,-0.1250816441907355,1.600116534510366,0.0156026467243787,0.1981504385327909,0.0241194283644046,0.8997490900148459,-0.1187293706571056,-0.5375959005965104,-2.1091719519641616,-0.1225408988699041,1.6047795090996018,1.032840610720578,-0.1187530746500366,-0.7256804510472975,0.6340119602239933,0.575457733938034,0.038983303008519,0.2632486737754236,11.182388212292608,-1.3559633879262964,0.1669985493671936,-1.2352808355941949
1.12,-2.0773727086057314,-0.1273255349154104,1.5899206987066776,0.0141147839714963,0.1990622945917339,0.0239606130676282,0.9103274259031584,-0.1175226339950964,-0.5359082369432556,-2.08851513974975,-0.1249159603629048,1.590265900078656,1.0728406113166242,-0.1197999053451591,-0.7498691468952856,0.5389935346177962,0.5289167944156237,0.0603368331004626,0.0843831826627394,10.925254940582818,-1.3543904733949153,0.1686792537080966,-1.2384743616036344
1.14,-2.0590507154102,-0.1296580675775521,1.5792080196163896,0.012861070286876,0.1999284971648094,0.0238204757160073,0.9213230765485324,-0.1157844199908571,-0.5355016680283825,-2.0678583275353386,-0.1272910218559056,1.57575229105771,1.1128406119126708,-0.1208467360402815,-0.7740578427432738,0.5569807432088386,0.5497825322687,0.0869107002119611,0.0203284457436558,10.724213249884995,-1.353039645160257,0.169988909928327,-1.24005751009212
1.16,-2.040503529752328,-0.131950989028876,1.5684895773600582,0.012046453730641,0.2005217579789292,0.0237142715775655,0.9328005090316274,-0.1136197380615082,-0.5363536616051734,-2.046201515306026,-0.1296922541162843,1.5606339646405645,1.1528406125087172,-0.121893566735404,-0.7982465385912619,0.5855407699600131,0.5738716241547481,0.1082340964674452,-0.0425996788395444,10.649364025848628,-1.3519006212018692,0.1708006494888738,-1.241108468005225
1.18,-2.021724697758533,-0.1341973297056815,1.5577415167255146,0.011769656519924,0.2005683603703041,0.0236455631003222,0.94442296573038,-0.1111649537338437,-0.5383980248850015,-2.023544703061812,-0.1321196571440412,1.544910920827219,1.1928406131047635,-0.1229403974305265,-0.82243523443925,0.6026750513950989,0.5811228349376252,0.1227392163832261,-0.1022181639914077,10.584293355723275,-1.351507216007023,0.171020749337643,-1.241414702149395
1.2,-2.003670493514944,-0.1362846253174841,1.5474810988290155,0.0120775589815856,0.1999776178926102,0.0236178491238023,0.9553603039874318,-0.1087258443026816,-0.541530636112746,-1.974503549472014,-0.1397555773923737,1.5308216154812646,1.044422967220496,-0.1177916738084079,-0.5612846084665684,0.5817814797467897,0.5468669128525949,0.1219554715581071,-0.1566305613872221,10.51698749254956,-1.351956662759173,0.1705850380865174,-1.2408893877102485
1.22,-1.9843336815696304,-0.1384172754605494,1.5369622087069794,0.0135990909679207,0.1973593144312336,0.0236497311096998,0.9781345902328886,-0.104890740769243,-0.5083556313160732,-1.974503549472014,-0.1397555773923737,1.5308216154812646,1.044422967220496,-0.1177916738084079,-0.5612846084665684,2.021111746268289,1.1387143122728427,0.1917551766719261,1.6587502398336396,10.443947436383496,-1.35453505075706,0.1686542288052253,-1.2337163300793084
1.24,-1.964540512971117,-0.1404866759630064,1.5271237695068984,0.0165655297223923,0.1911348193842188,0.0237213532129294,0.9993259334860398,-0.102703684584544,-0.477265651812672,-1.974503549472014,-0.1397555773923737,1.5308216154812646,1.044422967220496,-0.1177916738084079,-0.5612846084665684,1.8844382910762891,1.0595671626575598,0.1093528092349527,1.554498975170057,12.614992051564514,-1.3628043858046035,0.165631133194124,-1.231719977387676
1.26,-1.9453973682988936,-0.1424376179859126,1.518291107107962,0.0197428682576057,0.1828877661758832,0.0237493692784336,1.014239857292549,-0.1028656442759907,-0.4539602459139748,-1.964059319799809,-0.1409334941304577,1.525208769396599,1.0644229675185193,-0.1191170178233208,-0.5658619251828817,1.3834678333368005,0.7456961903254622,-0.0080979845723354,1.1652702949348617,12.614992051564514,-1.3738120579588229,0.1618657754404202,-1.2226959978017888
1.28,-1.9249969828972464,-0.1445099897082751,1.5094179324361665,0.0228643039549277,0.1731596552239752,0.0237078011156616,1.0245735402756784,-0.1043888853708796,-0.4347841802201178,-1.943170860455399,-0.1432893276066259,1.5139830772272675,1.104422968114566,-0.1217677058531465,-0.5750165586155085,1.0918181658638215,0.5166841491564655,-0.0761620547444434,0.9588032846928524,12.12730269178519,-1.3856944568976075,0.1582960424736129,-1.209791865055279
1.3,-1.9044430727941288,-0.1466231620386698,1.5008720557878947,0.025533550864084,0.1635300428298862,0.0236036273563648,1.0299855077947933,-0.1068197955806869,-0.4209530226331974,-1.9222824011109887,-0.1456451610827941,1.502757385057936,1.1444229687106122,-0.1244183938829721,-0.5841711920481352,0.7524952442878355,0.270598375955744,-0.1215455104903659,0.6915578793460164,11.726337390014123,-1.397245613537772,0.1552441958485858,-1.1969101044465713
1.32,-1.8838278142798035,-0.148791970000079,1.492549159395128,0.0276600493976032,0.1549253839134375,0.0234620567746157,1.031184893351352,-0.1098357513380424,-0.4119791103986476,-1.899393941736777,-0.1481335289604535,1.4910739612169734,1.1844229693066586,-0.1270690819127978,-0.5933258254807618,0.477141529415042,0.0599692778279314,-0.1507977878677784,0.4486956117274898,11.363811680992512,-1.4070564774944745,0.1529245004782516,-1.1859032825499
1.34,-1.86425197778586,-0.1509126761598596,1.484787050583627,0.0291758220638207,0.1483134851954087,0.0233200512445685,1.029327482796125,-0.1131571439050738,-0.4055113588884019,-1.8765054823625649,-0.150621896838113,1.4793905373760108,1.2244229699027052,-0.1297197699426235,-0.6024804589133886,0.3752113809350846,-0.0928705277613461,-0.1660696283515693,0.323387575512285,11.067490029908186,-1.4157080669851374,0.1510949938666172,-1.1762425719449694
1.36,-1.8437060805975956,-0.1532182028643452,1.4767345482523635,0.0301572922748092,0.14349545658408,0.0231822768909206,1.0252323484490715,-0.1171840977787066,-0.4001355560903039,-1.8526170229734515,-0.1531765319165181,1.4674782476992323,1.2644229704987515,-0.1323704579724492,-0.6116350923460153,0.3933374459189581,-0.204756717352661,-0.2013476936816402,0.2687901399049008,10.935511682528158,-1.4217855901759937,0.1499626629586305,-1.1697530010378678
1.38,-1.8232617500479555,-0.1556100779407928,1.4687753307702174,0.0302864546906972,0.1413378834557181,0.02306447218751,1.0194610680364575,-0.1217291797750837,-0.39611216358445,-1.827728563569437,-0.1557974341956688,1.4553370921866384,1.304422971094798,-0.1350211460022749,-0.6207897257786421,0.4187873422483577,-0.2885640206307105,-0.2272540998188549,0.2011696252926964,10.845085888034191,-1.4244535740325208,0.149723174647272,-1.1673800276455897
1.4,-1.802929684086264,-0.1580958348450188,1.4608843291868394,0.0293228011555178,0.1417648167849071,0.022952307445507,1.0143419327735577,-0.1264635747626539,-0.3931950873829524,-1.7722886966461326,-0.161696536929547,1.448969722590995,1.1194610695265736,-0.1244465441216923,-0.3800616553386242,0.3779198833864726,-0.2559567631449932,-0.2367197493785076,0.1458538100748807,10.762188671301374,-1.4237757772279565,0.150570035828169,-1.168904511573264
1.42,-1.7836215848176982,-0.1605616553665726,1.453725268831929,0.0268968557457144,0.1428037294036929,0.0227637428296213,1.018232245718762,-0.1324327867733333,-0.3605230517591949,-1.7722886966461326,-0.161696536929547,1.448969722590995,1.1194610695265736,-0.1244465441216923,-0.3800616553386242,1.6719957675186718,0.1945156472602183,-0.2984606005339688,1.6336017811878738,12.844822720404409,-1.423321227259209,0.1532158969916938,-1.1720144215606367
1.44,-1.7632179362781626,-0.1632505071198085,1.4468591124089796,0.0231366491633205,0.1433732122513731,0.0224737016505979,1.0218479341653657,-0.1358096715106659,-0.3280859029873346,-1.7722886966461326,-0.161696536929547,1.448969722590995,1.1194610695265736,-0.1244465441216923,-0.3800616553386242,1.6406135848516614,0.1807844223301713,-0.1688442368666332,1.6218574385930131,12.844822720404409,-1.4221634144016275,0.157127694254684,-1.1745136657366202
1.46,-1.742753772580371,-0.165981543130683,1.4405909998506845,0.0192141566999816,0.1437175862921121,0.0221765460068326,1.0243951146829913,-0.1370183490590913,-0.3003321300010585,-1.7610940859508668,-0.1629410023707639,1.4451691060376088,1.1394610698245968,-0.124990016991014,-0.3768515536894591,1.394830585572304,0.1273590258812906,-0.0604338774212689,1.3876886493138063,12.553540249956312,-1.4214832040556926,0.1610535400700512,-1.1763678219920803
1.48,-1.7222479616587414,-0.1687203165425017,1.4348379776624938,0.0155792154775694,0.144089979476202,0.0219103039928996,1.026095807445787,-0.1367893171912289,-0.2763560947818025,-1.7387048645603354,-0.1654299332531978,1.4375678729308363,1.1794610704206434,-0.1260769627296574,-0.3704313503911288,1.2018684165757552,0.0850346381398026,0.0114515933931191,1.1988017609627977,12.247798688369585,-1.4206700926498188,0.1649215461214119,-1.1782116872554098
1.5,-1.702741894880881,-0.1713074454553487,1.4297870692477366,0.0125572261591813,0.1446381085022843,0.021699669751095,1.027145468855294,-0.1355956846411305,-0.2565185724859589,-1.716315643169804,-0.1679188641356316,1.4299666398240638,1.2194610710166898,-0.1271639084683008,-0.3640111470927984,0.9950550720655578,0.0524830704753287,0.0596816275049219,0.991876114792184,12.001178412273475,-1.419555106426856,0.1683228329946982,-1.180185738778957
1.52,-1.6821910825155006,-0.1739987904893656,1.4248549282221794,0.00987610904969,0.1455397123585876,0.0215255221066263,1.0279293192310877,-0.1336301309629666,-0.2378435207886626,-1.69192642174947,-0.1704621423049976,1.4226864168822078,1.259461071612736,-0.1282508542069442,-0.3575909437944681,0.9397278576402612,0.0391925187896879,0.0982776839081961,0.9337525848648108,11.803872585069255,-1.4181361786964473,0.1712131289149276,-1.1828373235008316
1.54,-1.6616241699803282,-0.1766438852339808,1.4202847405788923,0.0077327827910746,0.1468337134864812,0.0214005165523486,1.028822448583594,-0.131071121183558,-0.2201150369317849,-1.6675372003291362,-0.1730054204743637,1.4154061939403515,1.2994610722087827,-0.1293377999455876,-0.3511707404961378,0.8967236906580978,0.0446564676253147,0.1279504889704269,0.8864241928438876,11.661825657110969,-1.416399883410197,0.1735876892842239,-1.186969480070176
1.56,-1.6420611946471797,-0.1791054481938867,1.4162654372124597,0.0061600640919024,0.1482416035125027,0.0213220324408025,1.0304335170907082,-0.1282413902146277,-0.2038665052606533,-1.6421479788939013,-0.1755758722871958,1.408286476080954,1.339461072804829,-0.130424745684231,-0.3447505371978075,0.8285796590535284,0.0805534253557116,0.1414865484465163,0.8124265835565788,11.619082156678814,-1.4143333385993908,0.1753585587168447,-1.1912931675852427
1.58,-1.6214288945600577,-0.1816344081018606,1.41236341354684,0.0050040291714925,0.1496324251520041,0.0212804532868271,1.032741748609059,-0.1248173835130672,-0.1872174997207451,-1.615758757443765,-0.178173497743494,1.4013272633040146,1.3794610734008754,-0.1315116914228744,-0.3383303338994772,0.8576729273192267,0.1154115759175455,0.1712003350780248,0.8324502769954084,11.586278868598129,-1.412290735423395,0.1767063048022375,-1.1957053938267543
1.6,-1.6007451628201412,-0.1840895761926163,1.4087872925116267,0.0045038368861639,0.1507404588450128,0.0212901544766922,1.035517807569028,-0.1209081642925717,-0.1712621903370831,-1.5697918071296046,-0.187875277277514,1.403002538560803,1.1327417500991752,-0.1084305113556127,-0.1584509775367308,0.8330071965347733,0.1388029479984509,0.1954609610247751,0.797765469183101,11.524933787261944,-1.4105748145461214,0.1773556800794633,-1.1996648769197602
1.62,-1.579926672813718,-0.186518173957369,1.4056616607203931,0.0030174215124153,0.1497229341285479,0.0212303286704551,1.045906380045882,-0.1214630785665671,-0.1420794035284039,-1.5697918071296046,-0.187875277277514,1.403002538560803,1.1327417500991752,-0.1084305113556127,-0.1584509775367308,1.5490847409673485,0.5194286238426993,-0.0277457136997713,1.4591393404339583,11.524933787261944,-1.4110312414944282,0.179092946302411,-1.2056559215146485
1.64,-1.5599698159860251,-0.1888062911306054,1.403223470374451,0.0002828320333659,0.1454726802342283,0.0210890952821095,1.0539312788139357,-0.119099399889766,-0.1160345892859284,-1.5697918071296046,-0.187875277277514,1.403002538560803,1.1327417500991752,-0.1084305113556127,-0.1584509775367308,1.3677703809939454,0.4012449384026784,0.118183933840054,1.3022407121237776,12.47455489901222,-1.416095661103143,0.1823712809943773,-1.201479815281473
1.66,-1.5388435627426695,-0.1911436075138633,1.4011650920942411,-0.0027261532302167,0.1388018054782259,0.0209611234235707,1.057823842079083,-0.1147086755041373,-0.0912734279336626,-1.558464389628613,-0.1889595823910701,1.4014180287854356,1.1527417503971984,-0.1051531369241218,-0.152697673099928,1.2723458854775622,0.1946281632573709,0.2195362192814361,1.2380580676132915,12.281295780100663,-1.4245573511401728,0.1858662613978699,-1.1935657568682665
1.68,-1.5176899599063784,-0.1933805816309487,1.3995691721003374,-0.0053860171634674,0.1315694175151277,0.0208935165186396,1.0570650086218791,-0.1092410162487087,-0.0696795471119055,-1.5358095546266295,-0.1911281926181824,1.3982490092347009,1.192741750993245,-0.09859838806114,-0.1411910642263222,1.1144133152622222,-0.0379416728601977,0.2733829627714304,1.0796940410878544,12.0736567634749,-1.433176401978232,0.1889699616696527,-1.185178444770256
1.7,-1.4965970249142004,-0.1955007830912831,1.3983715376812176,-0.0075122331283203,0.125171248577264,0.0208887201949202,1.052178604697675,-0.1031630219545626,-0.0511411244523669,-1.513154719624646,-0.1932968028452946,1.3950799896839663,1.2327417515892911,-0.0920436391981582,-0.1296844553527165,1.005599414098183,-0.2443201962102015,0.3038997147073063,0.9269211329769298,11.666048553821383,-1.4406064070690572,0.1914009522635812,-1.1781623972072854
1.72,-1.476684441032298,-0.1973986599263796,1.3975551888155429,-0.0090177251081878,0.1209866228256191,0.0209265576178098,1.044071643928138,-0.097010025709816,-0.0357119024398192,-1.48849988459286,-0.1951376756292578,1.392486300576912,1.2727417521853377,-0.0854888903351764,-0.1181778464791108,0.9241794571661478,-0.4053480384768604,0.3076498122373309,0.7714611006273825,11.666048553821383,-1.446369677889742,0.1934179233869539,-1.1736328775436886
1.74,-1.4559159661481496,-0.1992670375038172,1.397003321137435,-0.0100217047833385,0.119714985279632,0.0209925791152407,1.0334758328992166,-0.0901723521824254,-0.0203377847364784,-1.4638450495610744,-0.196978548413221,1.3898926114698575,1.3127417527813845,-0.0789341414721946,-0.106671237605505,0.994218896651994,-0.5297905514460632,0.3418836763695282,0.7687058851670386,11.533658275231572,-1.4480886409607852,0.1948826291283884,-1.1760481379479302
1.76,-1.4353473050439214,-0.2009917346652014,1.396752009311323,-0.0102205445490671,0.1214989526675916,0.0210930939750533,1.0243106845070824,-0.0827399066242258,-0.0055821574580006,-1.4381902145143874,-0.1986555524756096,1.3875865875846434,1.3527417533774306,-0.0723793926092128,-0.0951646287318993,0.9446821269702298,-0.4582574196067113,0.3716222779099782,0.7377813639238896,11.481488790073854,-1.4459488302157328,0.1954964114142392,-1.1834042167188803
1.78,-1.414937484097759,-0.2025649256637302,1.3967957130794253,-0.0094217957540631,0.125275750621643,0.0212506903526806,1.017438136080852,-0.0750735748784191,0.0091891143472862,-1.4115353794527992,-0.2001686878164237,1.3855682289212694,1.392741753973477,-0.065824643746231,-0.0836580198582936,0.9002708412657145,-0.3436274213115209,0.3833165872903367,0.7385635902643465,11.444633922697903,-1.4413952439656712,0.1951203687372077,-1.194288604701076
1.8,-1.395651478694637,-0.2039190209260876,1.3971134775940106,-0.0076629249275907,0.1298399088480387,0.0214708526605722,1.0132121492386017,-0.0679667853366679,0.023495484905681,-1.3640655772937167,-0.2063186044076512,1.3972551687967896,1.117438137570968,-0.0519472092615015,0.045572068914957,0.8261925637158096,-0.2112993421125142,0.355339477087558,0.7153185279197385,11.451194782019227,-1.435551292396253,0.193567588171758,-1.2069191827755763
1.82,-1.3753566509977189,-0.2052185279979229,1.3978078520056108,-0.0052911971888767,0.1334104715816421,0.0217596704354503,1.01648897656418,-0.0624496038290215,0.0455281545650438,-1.3640655772937167,-0.2063186044076512,1.3972551687967896,1.117438137570968,-0.0519472092615015,0.045572068914957,1.1474051392474471,0.1638413662789162,0.275859075382321,1.1016334829681431,11.478833579172717,-1.4306980453364933,0.1914542248926254,-1.2205367093919646
1.84,-1.35499874567489,-0.206421295711123,1.3989530080228196,-0.003146040026753,0.1344019761285412,0.0220539559911172,1.0189202752655788,-0.0580593276487734,0.0678370979257867,-1.3640655772937167,-0.2063186044076512,1.3972551687967896,1.117438137570968,-0.0519472092615015,0.045572068914957,1.1433226711946978,0.1215649350699399,0.2195138090124049,1.1154471680371445,11.994971358752991,-1.4301497593786956,0.18954633959484,-1.2276350437827743
1.86,-1.3346097420153962,-0.2075438238951177,1.4005307473950104,-0.0014113215691013,0.1339116766703202,0.022326541769644,1.0197332558130203,-0.0543381121902219,0.088816168527319,-1.352891195918007,-0.2068380765002662,1.3977108894859391,1.1374381378689913,-0.047321936138118,0.0528486598284912,1.0661024636069911,0.0406490273720749,0.1860607729275758,1.0489535300766155,11.88655960509459,-1.4311338793486246,0.1881171347080159,-1.2320014099642915
1.88,-1.3152421496913786,-0.2085470425273863,1.4024050348972212,-0.0002407460337926,0.1328782942229969,0.0225535463582521,1.0188444482189556,-0.051397882660408,0.107426105415552,-1.3305424331665876,-0.2078770206854962,1.3986223308642385,1.177438138465038,-0.0380713898913509,0.0674018416555595,0.943086262771426,-0.0444403797032366,0.1470114764906965,0.9304968444116468,11.88655960509459,-1.4329014172065948,0.1871418313044562,-1.235198162133135
1.9,-1.2948887237850455,-0.2095478275210191,1.4047493394402883,0.0003246238020876,0.1319353372995114,0.022747309815407,1.016539046118304,-0.0487972517990012,0.1259708001972168,-1.3081936704151682,-0.2089159648707262,1.3995337722425374,1.2174381390610842,-0.0288208436445839,0.0819550234826278,0.943376733161382,-0.1152701050325832,0.1300315430703406,0.9272347390832402,11.802188950617165,-1.4341868805725604,0.1869068157243159,-1.2384634825449077
1.92,-1.2745908852105678,-0.2104993118951236,1.407452961419145,6.339124411918508e-05,0.1315875459547063,0.0228868961372164,1.013404132849567,-0.0464194360911734,0.1434091394602198,-1.2838449076339469,-0.2094923817436179,1.40117287271219,1.2574381396571306,-0.0195702973978168,0.0965082053096962,0.8938363454717085,-0.1567456634368413,0.118890785391388,0.8719169631501517,11.737989628128162,-1.434639703369434,0.1875393780607993,-1.2421018777116477
1.94,-1.254360263044418,-0.2114020980535168,1.410498470083302,-0.0010797877690409,0.1320798828011025,0.0229697483783405,1.0099544224996957,-0.0438794819263287,0.1602568717245066,-1.2594961448527249,-0.2100687986165096,1.4028119731818425,1.2974381402531772,-0.0103197511510498,0.1110613871367645,0.8691920833547283,-0.1724855174935813,0.1269977082422324,0.8423866132143395,11.64685392665433,-1.434044428327732,0.1891857054890081,-1.2469284395422664
1.96,-1.2351990387479954,-0.2122050950150202,1.4137000787732643,-0.0028387797695324,0.1332134812306568,0.0230054194783923,1.0072829041559994,-0.0407249938517037,0.1758986645109126,-1.234147382056602,-0.2104139518332321,1.4048149031971715,1.3374381408492235,-0.0010692049042827,0.1256145689638328,0.8089398723738949,-0.1335759171848027,0.1577244037312512,0.7820896393202977,11.62840578146006,-1.4323712383790326,0.1916704610564841,-1.2523780271851983
1.98,-1.215076325833256,-0.2129736339574898,1.417390297511706,-0.0050640358417383,0.1348094946697246,0.0230200307077483,1.0052109184183835,-0.0361403492943316,0.1922862087830905,-1.207798619245578,-0.2105278413937854,1.4071816627581777,1.37743814144527,0.0081813413424842,0.1401677507909012,0.8571226544184264,-0.1035992868807844,0.2292322278686039,0.8193772136088961,11.62840578146006,-1.4299958044469494,0.1946211500919655,-1.2584348216633852
2.0,-1.194986877053677,-0.2136340526871276,1.4214064191761486,-0.0070703077706862,0.1365562998116098,0.0230531086390397,1.0039023942804763,-0.0301789196463417,0.2084873149492666,-1.1648157799123369,-0.2147806514222064,1.4270046079508607,1.1052109199084998,0.0111216785653561,0.2205787995353345,0.865630868030837,-0.0654262068953692,0.2980714823994982,0.8100553083088032,11.632057827046085,-1.427473954178186,0.1973521538380441,-1.2645764096673255
2.02,-1.1748670268581063,-0.2142132616428396,1.4257325828178031,-0.0100797060212711,0.1366515491700035,0.0230352436871642,1.00786101777208,-0.0271080803692861,0.223317154431117,-1.1648157799123369,-0.2147806514222064,1.4270046079508607,1.1052109199084998,0.0111216785653561,0.2205787995353345,0.782663549795237,0.1979311745801792,0.1535419638527768,0.7414919740925215,11.628452809767625,-1.425625785528668,0.2009662765618163,-1.2686877075372884
2.04,-1.1556963740538055,-0.2146714078955254,1.4301133851284973,-0.0137507308816328,0.1342483573619901,0.0230017801129484,1.0097172069590987,-0.0211184555165753,0.2370908075478645,-1.1648157799123369,-0.2147806514222064,1.4270046079508607,1.1052109199084998,0.0111216785653561,0.2205787995353345,0.7566943972878133,0.0928094593509398,0.2994812426355435,0.6886826558373776,11.550509403319666,-1.4286832334898434,0.2058418785979625,-1.2665103719284354
2.06,-1.1355062680217023,-0.2150097354708623,1.435001248006479,-0.0174772956532922,0.1302274582684347,0.0230220645808736,1.0089544923933644,-0.0130038134571158,0.2509473704682615,-1.153763670713252,-0.2146694346365528,1.429210395946214,1.125210920206523,0.0205740841372936,0.2262373176857833,0.8037933273374013,-0.0381357282867145,0.4057321029729742,0.6928281460198484,11.528934338849467,-1.4339979922706612,0.2106150603159318,-1.2621150462633144
2.08,-1.1153661932212935,-0.2151727686441047,1.4401557421854636,-0.0206715746253633,0.1259207381790756,0.0231122112319603,1.0048569320179617,-0.0037612262609374,0.2637696980896632,-1.1316594523150818,-0.2144470010652457,1.4336219719369208,1.1652109208025696,0.0394788952811688,0.2375543539866809,0.8164366245147149,-0.2048780187701382,0.4621293598089214,0.6411163810700837,11.480622030840095,-1.439832042719423,0.214776513690015,-1.256849571932959
2.1,-1.09534457183971,-0.215143913581233,1.4455562285402137,-0.0232181248915864,0.1227617959761847,0.0232467102819937,0.9973273273127772,0.0061017990332904,0.2755973809132959,-1.109555233916912,-0.2142245674939386,1.4380335479276274,1.205210921398616,0.0583837064250439,0.2488713902875785,0.8571293600550736,-0.3764802352592189,0.4931512647113915,0.5913841411816334,11.414182512760815,-1.444195100689045,0.2180502053428429,-1.2532782677170886
2.12,-1.0764902644380352,-0.2149298606332836,1.450898202245071,-0.0250473468305544,0.1221174895770861,0.0233748997543087,0.9880526807913582,0.0158237819697285,0.2861114241831131,-1.0854510154889396,-0.2130568933654377,1.4430109757333789,1.2452109219946623,0.077288517568919,0.2601884265884761,0.8530549897182111,-0.4637323260709536,0.4860991468219076,0.5257021634908626,11.362572599770829,-1.445038020529306,0.2208448185702567,-1.254905309175907
2.14,-1.0568258991846324,-0.2145029569656468,1.4567351130673418,-0.0264538795739205,0.1240174989196837,0.0234893101574628,0.9791738982082318,0.0263386355252945,0.2970045527936491,-1.0613467970609674,-0.2118892192369369,1.4479884035391306,1.285210922590709,0.0961933287127941,0.2715054628893737,0.8775750343690087,-0.4439391291563233,0.5257426777783007,0.5446564305267992,11.32076313012567,-1.4422128578250653,0.2230676921360456,-1.2613689614281574
2.16,-1.037317084543776,-0.2138548766749206,1.462790440420133,-0.0270960516759967,0.1278378568994831,0.0236109634846763,0.9724599992458658,0.0378203276331095,0.3079603687831913,-1.0362425786180938,-0.2102489248298391,1.4532487572524049,1.3252109231867553,0.1150981398566693,0.2828224991902713,0.8615909657897818,-0.335694948118298,0.5740846053907478,0.5477907994771103,11.314049311021336,-1.436912502359241,0.2243448108001171,-1.2700117601372796
2.18,-1.0188838271503686,-0.2130206068741932,1.4687498212278036,-0.0266872926801312,0.1323780016016919,0.0237779036192495,0.9684101953346476,0.049280950773508,0.3187738544700145,-1.010138360160319,-0.2081360101441445,1.458792036873201,1.3652109237828016,0.1340029510005444,0.2941395354911689,0.813446782501297,-0.2024901955609059,0.5730311570199258,0.5406742843411583,11.324647364398515,-1.4301727438249447,0.2244593625866909,-1.2804474085107789
2.2,-0.9995393135338836,-0.2119079393687852,1.4752502522031208,-0.025031828622235,0.1373636961078343,0.0240423429069833,0.966430746264819,0.0612646558726044,0.3307123232956869,-0.9704633173836362,-0.2105565593355178,1.4846885139513044,1.0684101968247637,0.1022699977941818,0.3302686288414,0.8515492417114048,-0.098972453491436,0.599185254954819,0.5969234412836227,11.361564221082515,-1.423183889629966,0.2230901432812281,-1.2912382308385637
2.22,-0.980164095445436,-0.2105510266954068,1.4819428049803236,-0.0217976909157657,0.1402289142428433,0.0244792018703509,0.9708193509761868,0.0731465714832096,0.3379607592775138,-0.9704633173836362,-0.2105565593355178,1.4846885139513044,1.0684101968247637,0.1022699977941818,0.3302686288414,0.7296910203518059,0.2194302355683852,0.5940957805302589,0.362421799091342,11.41098257469639,-1.417754485732688,0.2199219927188758,-1.2987198486236475
2.24,-0.9616892453599776,-0.2090817249838389,1.4884357158976025,-0.0183236586488789,0.1399556966868179,0.0249901333408641,0.9734915060690572,0.0809648983170661,0.3451605555473527,-0.9704633173836362,-0.2105565593355178,1.4846885139513044,1.0684101968247637,0.1022699977941818,0.3302686288414,0.5479591993217711,0.1336077546435332,0.3909163416928283,0.3599898134919455,11.12661625799592,-1.4187788791502272,0.2161228883972545,-1.30013139854924
2.26,-0.9422089318056808,-0.207392785574218,1.4954164148409828,-0.0152412177556921,0.1377507835570499,0.025515671142612,0.9741966844636554,0.0876160807197792,0.3525220469632317,-0.9597792154153886,-0.2095338593575759,1.4879912002397184,1.0884101971227869,0.1128678071983165,0.3325675837156772,0.4973104156068632,0.0352589197299024,0.3325591201356517,0.3680745707939525,11.15523692696388,-1.4220272642154326,0.2129743844954324,-1.298394293954502
2.28,-0.922742007604152,-0.2055800985772562,1.5025380146030187,-0.0129871279428478,0.1347339101761532,0.0259856916550259,0.9722586055634967,0.0934608438616475,0.3592440237703839,-0.9384110114788934,-0.2074884594016923,1.4945965728165465,1.1284101977188334,0.134063426006586,0.3371654934642314,0.4558025290728242,-0.0969039450079256,0.2922381570934149,0.336098840357607,11.131844049320534,-1.426408875814716,0.2108070043146529,-1.295124261406734
2.3000000000000003,-0.9033458271863266,-0.2036574985841642,1.5097855707023988,-0.0116306983252162,0.1322275034153065,0.0263790926480613,0.9673708657615808,0.0986598801791813,0.3651802095074548,-0.917042807542398,-0.2054430594458087,1.5012019453933745,1.1684101983148798,0.1552590448148555,0.3417634032127856,0.4641074231987536,-0.2443869900958017,0.2599518158766932,0.2968092868535471,11.04205207621908,-1.4302172605307375,0.2097514979386615,-1.2924573113964817
2.32,-0.8850329553312082,-0.2017398396322366,1.516775253751837,-0.0112933572894114,0.131461287007699,0.0266652617380815,0.9607604758167712,0.1030748871653521,0.3702658463071174,-0.8936746035761005,-0.2023378785495116,1.5080372134576303,1.2084101989109262,0.176454663623125,0.3463613129613399,0.4718401306810895,-0.3305194972404834,0.2207503493085356,0.2542818399831281,11.007002610876045,-1.4316952768487294,0.2098247385397958,-1.292857137436072
2.34,-0.8658901790101788,-0.1996320585595504,1.5242334465685357,-0.0120971796707735,0.1326646549524405,0.02686346087278,0.954091340131356,0.1075826151187275,0.3752561894353434,-0.8703063996098028,-0.1992326976532145,1.514872481521886,1.2484101995069727,0.1976502824313945,0.3509592227098941,0.4735517570169913,-0.3334567842707525,0.2253863976687725,0.2495171564113024,11.007002610876045,-1.430178268081198,0.2113001636539295,-1.296493813425854
2.36,-0.8468650102709998,-0.1974251661133902,1.5317898834652772,-0.0139806542020369,0.1354511011425443,0.0269670155474206,0.9489795740217222,0.1129679958217738,0.3801221332234203,-0.8459381956286042,-0.1955976262867106,1.5218226973298556,1.288410200103019,0.218845901239664,0.3555571324584483,0.4438746642495756,-0.2555883054816965,0.2692690351523155,0.2432971894038432,10.984082090664742,-1.4262005247380307,0.2140332778182625,-1.3021503991190324
2.38,-0.827922456874331,-0.1950944163171134,1.53944602527561,-0.0164563568562698,0.1391038372216444,0.0270140094385762,0.945706759974018,0.1200073661719874,0.3852249625030848,-0.8205699916325042,-0.19143266445,1.528887860881539,1.3284102006990657,0.2400415200479335,0.3601550422070025,0.4644968067051634,-0.1636407023852037,0.3519685175106812,0.2551414639832272,11.006009098958202,-1.4210461285211071,0.2172821612406268,-1.3083486759439866
2.4,-0.8099699883470622,-0.1927305804600158,1.5468171597194629,-0.0185951147508182,0.1427951608565746,0.0270656446506959,0.9442896124625634,0.1283525320739888,0.390410415059044,-0.78063711887563,-0.189094048008514,1.5587072734007643,1.0457067614641342,0.1675321983610705,0.3697287392694446,0.4963341092733115,-0.0708573755727359,0.4172582951000689,0.2592726277979601,11.006009098958202,-1.4155208443443583,0.2205093914859533,-1.3154399399246033
2.42,-0.7910548964116545,-0.1900036347542167,1.5546349219634743,-0.0183517590008949,0.1452115616186144,0.0273195227333673,0.94723198745431,0.1433168843732831,0.3908641262104158,-0.78063711887563,-0.189094048008514,1.5587072734007643,1.0457067614641342,0.1675321983610705,0.3697287392694446,0.7628814851245386,0.1471187495873382,0.7482176149647121,0.0226855575685858,11.038620717295087,-1.4097303532459655,0.2205145705245904,-1.3201116756404712
2.44,-0.7720931159718755,-0.1870057674549853,1.562452237734496,-0.0146645396159882,0.1452629691012316,0.0278550293745495,0.948614734118832,0.1550832368753888,0.3908937784874652,-0.78063711887563,-0.189094048008514,1.5587072734007643,1.0457067614641342,0.1675321983610705,0.3697287392694446,0.5923679574377537,0.0691373332260991,0.5883176251052863,0.0014826138524715,10.7375065154165,-1.4111624892620307,0.2166616305224242,-1.321709460499047
2.46,-0.7531240814178237,-0.183825937588831,1.5702643485091832,-0.0098518958199043,0.1442342018011915,0.0284744266990611,0.9481195602846114,0.1621601843818028,0.3903242897586764,-0.7701800512609887,-0.1874187260249033,1.562404560793459,1.0657067617621574,0.1770371647988872,0.3666294946227166,0.3558535532591121,-0.0247586917110353,0.3538473753207025,-0.0284744364394379,10.732164574397755,-1.413280847954521,0.2116279287885041,-1.3215793129816449
2.48,-0.7351322419270839,-0.1807034336246116,1.5776679753896314,-0.0057427094054505,0.143230941638124,0.0290173775426457,0.9457331669608292,0.1663460983694086,0.3890358934450144,-0.749265916031706,-0.1840680820576819,1.5697991355788476,1.105706762358204,0.1960470976745204,0.3604310053292605,0.2493828084917027,-0.1193196661891105,0.209295699380288,-0.0644198156831005,10.686502454410402,-1.4153212459203022,0.2068356641524329,-1.3208427640785838
2.5,-0.716256001045323,-0.1773439558966391,1.5854279529311914,-0.0023992445450951,0.1429863519761978,0.029504313501099,0.9421065011078582,0.1695576267534163,0.3869898169425944,-0.7283517808024234,-0.1807174380904605,1.5771937103642366,1.1457067629542503,0.2150570305501536,0.3542325160358044,0.2629308313233173,-0.18133329264855,0.1605764192003853,-0.1023038251210001,10.637550003792056,-1.4158681840825478,0.2032242555803594,-1.3213432261575253
2.52,-0.6974562110927701,-0.1739273905566981,1.5931406602820477,-0.000155672777453,0.143886446463035,0.0299047354657282,0.9382411409787276,0.17222859431613,0.3843740467186742,-0.7054376455433383,-0.1764162974794574,1.5842783606849526,1.1857067635502967,0.2340669634257869,0.3480340267423484,0.2688741829987029,-0.1932680064565262,0.1335483781356838,-0.1307885111960088,10.59445981612498,-1.4148712685869684,0.2010107334999941,-1.323144607445127
2.54,-0.6796646518844393,-0.170635085733829,1.600415345165691,0.0010357224977892,0.1457998085633824,0.0302157810777011,0.934930132781627,0.1743553106217047,0.3815009276451255,-0.6825235102842533,-0.1721151568684543,1.591363011005669,1.2257067641463433,0.2530768963014201,0.3418355374488923,0.2436211748619929,-0.1655504098550364,0.1063358152787338,-0.1436559536774379,10.545034165002107,-1.4123771394811209,0.1998619308929577,-1.3265813914290094
2.56,-0.6609910212972848,-0.1671247783193726,1.6080120350452332,0.0013086452632189,0.1486214735256994,0.0304725536090405,0.932760571121962,0.1766300475615435,0.3783035986475428,-0.6586093750102672,-0.1673387679355604,1.5982926990940485,1.2657067647423896,0.2720868291770534,0.3356370481554362,0.224189309844043,-0.1084780829832543,0.1137368469919436,-0.1598664498791341,10.540024683293268,-1.408500954381103,0.1999121148190406,-1.3310747683579367
2.58,-0.6423452551918832,-0.1635671929653976,1.6155452752715744,0.000623823844497,0.1517742936725434,0.0306588438966478,0.9320293975535584,0.1791022915824686,0.375167281814835,-0.6336952397213799,-0.1620871306807757,1.6050674249500918,1.305706765338436,0.2910967620526866,0.3294385588619801,0.2029968507222297,-0.0365586784201676,0.1236122010462512,-0.1568158416353882,10.540024683293268,-1.4043417867013102,0.2010329659228464,-1.3355296976835234
2.6,-0.6246326029577024,-0.1601361221874326,1.6226451367143908,-0.0007847896678226,0.1546920995270121,0.0307778621930334,0.9325450456008472,0.1819921427414373,0.3723333954040457,-0.5957437853142054,-0.1546120783862742,1.6343036393623165,1.0320293990436746,0.2351830315276418,0.3362237899387097,0.2040100782983641,0.0257824023644381,0.1444925579484363,-0.1416943205394649,10.550480369095569,-1.4000104467807917,0.2031849342086981,-1.3397702854194384
2.62,-0.6059287329813884,-0.1564538877147887,1.630063119708121,-0.0027959197810907,0.1562158730768922,0.030863478801838,0.9377954390610862,0.1861317193852634,0.3696428066427911,-0.5957437853142054,-0.1546120783862742,1.6343036393623165,1.0320293990436746,0.2351830315276418,0.3362237899387097,0.3603539723647435,0.2625196730119461,0.2069788321913068,-0.1345294380627304,10.565981177994216,-1.396516491534007,0.2059357624636592,-1.342378562522457
2.64,-0.587133254836882,-0.1526836730289762,1.6374191329715388,-0.0051584644348229,0.1553383346058471,0.0309314726449293,0.9412663990479476,0.1908587908905186,0.366054807423879,-0.5957437853142054,-0.1546120783862742,1.6343036393623165,1.0320293990436746,0.2351830315276418,0.3362237899387097,0.3437532059526922,0.1735479993430655,0.2363535752627585,-0.1793999609456059,10.60280341868838,-1.3981904689241362,0.2091986864508783,-1.3393729588283991
