t,x,y,z,roll,pitch,yaw,v_x,v_y,v_z,ref_x,ref_y,ref_z,ref_v_x,ref_v_y,ref_v_z,a_com,a_x,a_y,a_z,thrust,wind_x,wind_y,wind_z
0.0,1.5107427147745,-0.5212969185423911,2.9971357794955606,0.0196849916807446,0.1364177335280711,0.0262865779387231,0.0001840773481894,-0.0068310235259718,-0.0004981249887945,1.510742270033555,-0.5214208720624341,2.9971184637435,-0.0999625948409203,0.0951422014392486,-0.1005579576959939,0.3425817252385131,0.0092038674094735,-0.3415511762985908,-0.024906249439726,10.547816254116697,-1.283180835935339,0.155735797163946,-1.1610145001027148
0.02,1.5109009392916013,-0.5216708907585195,2.997015059541801,0.0096805013323187,0.1313778900908642,0.0255201913246162,0.015030702453783,-0.0262042465776676,-0.0119150993779935,1.510742270033555,-0.5214208720624341,2.9971184637435,-0.0999625948409203,0.0951422014392486,-0.1005579576959939,1.3473041162265744,0.7423312552796805,-0.9686611525847934,-0.5708487194599499,10.547548279286277,-1.2766837806455935,0.1650671993263426,-1.1413829456705906
0.04,1.5113047436426392,-0.5222068146671317,2.996594242270315,-0.0067714703415538,0.1168894114159844,0.0244094358414592,0.0231740220261688,-0.0256626791621836,-0.0297058694191092,1.510742270033555,-0.5214208720624341,2.9971184637435,-0.0999625948409203,0.0951422014392486,-0.1005579576959939,0.97867058755663,0.4071659786192869,0.0270783707742002,-0.8895385020557867,9.90678420887116,-1.307681153087885,0.182489717506417,-1.122049930964921
0.06,1.5117330465452197,-0.5226329684590513,2.9958466126032373,-0.0226677292266319,0.0977769009918683,0.0236982318864954,0.0206127665857876,-0.0189064948474589,-0.0479874694911356,1.509742644085146,-0.5204694500480417,2.99611288416654,-0.1199625951389435,0.1151422017372718,-0.1205579579940171,0.9828821866313988,-0.1280627720190561,0.3378092157362357,-0.9140800036013176,9.478768275544098,-1.3410575889008551,0.2001589642731098,-1.0874432128651046
0.08,1.5120276816986165,-0.5229053827987595,2.9946799212647344,-0.038713883569953,0.0757801713434937,0.0234481772891959,0.0082348747849818,-0.0083461399398674,-0.067728153534329,1.5077433921883276,-0.5185666060192566,2.99410172501262,-0.1599625957349899,0.1551422023333183,-0.1605579585900635,1.279089429731109,-0.6188945900402923,0.5280177453795737,-0.987034202159674,9.365017026887472,-1.3691823447347204,0.2159403072268679,-1.0472680921641615
0.1,1.5119805257467496,-0.5229360760018634,2.9931113773889426,-0.0539553758485236,0.0547805267025838,0.0236246607371795,-0.0126104023462291,0.0050744766559052,-0.088132209540377,1.5057441402915093,-0.5166637619904717,2.9920905658587,-0.1999625963310364,0.1951422029293648,-0.20055795918611,1.605431429542898,-1.042263856560549,0.6710308297886378,-1.0202028003023986,9.309201749276326,-1.389369537484667,0.2291867685809038,-1.0085846775675142
0.12,1.5114468978195923,-0.5226702130078003,2.991130436661104,-0.0684321993592577,0.0367259228709867,0.0240541054951837,-0.0397170284731999,0.0211539043192196,-0.10894455969159,1.5017448883648885,-0.5127609179318844,2.9880794066749776,-0.2399625969270828,0.2351422035254112,-0.2405579597821564,1.888432612501588,-1.3553313063485382,0.8039713831657195,-1.0406175075606483,9.278406533833731,-1.4020520473483893,0.2413999941197749,-0.9707121679159796
0.14,1.51039532596282,-0.5220959160106877,2.9888563263803367,-0.0815215199453816,0.0232774746863184,0.0245233373492586,-0.0694415403722765,0.0387568447050493,-0.1293897683852543,1.4977456364382675,-0.5088580738732972,2.984068247491256,-0.2799625975231293,0.2751422041214577,-0.2805579603782029,2.007122739391459,-1.486225594953832,0.880147019291486,-1.022260434683215,9.25542312947664,-1.4072104623387574,0.2521147497965169,-0.9375349160171246
0.16,1.508648265597604,-0.5210880399578488,2.9860328599819725,-0.0940681919523641,0.0135200984856805,0.0249480419627904,-0.1036799071184382,0.0610739875872993,-0.1518934616288859,1.492746384496746,-0.5039552297998087,2.9790570882926324,-0.3199625981191757,0.3151422047175041,-0.3205579609742494,2.3327756179468384,-1.7119183373080833,1.1158571441124978,-1.125184662181583,9.25542312947664,-1.4077541972981955,0.2613188011120319,-0.9108244236048136
0.18,1.5061831697611177,-0.5195928302445985,2.982750055890928,-0.1044050418301305,0.009108977088913,0.0251451948464814,-0.140777436177141,0.0867943900004376,-0.1751660868386838,1.4867471325403228,-0.4980523857114191,2.973045929079108,-0.3599625987152222,0.3551422053135505,-0.3605579615702958,2.539380262342957,-1.8548764529351425,1.2860201206569173,-1.1636312604898933,9.229103444914928,-1.4021245388240935,0.2682643560800974,-0.891784067332685
0.2,1.502982178901618,-0.5175640246417792,2.978999688092717,-0.1122634526892191,0.0101730968018042,0.0249866137429279,-0.1767134706414941,0.1142358688676746,-0.1985587369113165,1.499144297952261,-0.5152531107445766,2.973991751548994,-0.2407774376672571,0.1867943914905538,-0.2751660883287999,2.545412251907745,-1.7968017232176516,1.3720739433618476,-1.1696325036316346,9.229103444914928,-1.3895020840959158,0.2726599813962014,-0.8816874626535436
0.22,1.4992674403533603,-0.5149614268256464,2.9752222673169,-0.1133475695654937,0.016282608250835,0.0247117367263843,-0.2115101850691487,0.1556954395010302,-0.1975185979916962,1.499144297952261,-0.5152531107445766,2.973991751548994,-0.2407774376672571,0.1867943914905538,-0.2751660883287999,2.706838202143811,-1.739835721382731,2.0729785316677787,0.052006945981016,9.21252179299654,-1.3654464605596206,0.2730304879794101,-0.8902447199040955
0.24,1.4947082473307378,-0.5114818445429753,2.9712699874532293,-0.1079080188792918,0.0272406169204854,0.0244017348524062,-0.2417980744665283,0.1887540912207088,-0.1978669423145611,1.499144297952261,-0.5152531107445766,2.973991751548994,-0.2407774376672571,0.1867943914905538,-0.2751660883287999,2.241847475542316,-1.514394469868982,1.6529325859839294,-0.017417216143245,10.777023778983676,-1.3462593040371231,0.2693637173986297,-0.9121614195975182
0.26,1.489608181301581,-0.5074249361856756,2.967264030269108,-0.1005589869097194,0.040506646659189,0.0240582769725761,-0.2661121759742152,0.2149099688853796,-0.2029021759562507,1.496736523575588,-0.5133851668296711,2.971240090665706,-0.2607774379652804,0.206794391788577,-0.2951660886268232,1.803232546263607,-1.2157050753843437,1.3077938832335434,-0.2517616820844823,10.433908681893628,-1.328959098207415,0.2643002390212667,-0.9346925228626486
0.28,1.4843651519353729,-0.5031282293548681,2.9633158015143017,-0.0936016698168868,0.053617763600776,0.0237735365139418,-0.2842386551888461,0.236041300814211,-0.2124377564290922,1.491920974822243,-0.5096492789998599,2.96573676889913,-0.3007774385613268,0.2467943923846234,-0.3351660892228696,1.4714191557463607,-0.9063239607315476,1.0565665964415702,-0.4767790236420738,10.09793553095642,-1.311642701648318,0.2585874885199379,-0.9562932787724776
0.3,1.4785204004515071,-0.4981991104955258,2.9589226786617977,-0.0870760017555784,0.0666919770119903,0.0235784117230505,-0.2990030584328807,0.255798416019351,-0.2265923094868325,1.4871054260688978,-0.5059133911700489,2.9602334471325538,-0.3407774391573733,0.2867943929806699,-0.3751660898189161,1.4218672376895964,-0.7382201622017276,0.987855760256999,-0.7077276528870163,9.813570191989127,-1.2969658568666125,0.2533738380194938,-0.9746199640370936
0.32,1.472417643710242,-0.4928922806837492,2.9542059473127527,-0.0816085686206291,0.0781536916823775,0.0235239090524058,-0.3103909165148422,0.2739869276257101,-0.2445534873728257,1.4802898772857505,-0.5001775033104354,2.9527301253361755,-0.3807774397534197,0.3267943935767163,-0.4151660904149625,1.399204396435565,-0.5693929040980761,0.9094255803179546,-0.8980588942996581,9.577647905264712,-1.2854149772846883,0.2489327250938264,-0.9886256737601646
0.34,1.4661159359923177,-0.4872337201946619,2.9491041146697405,-0.0772139501694346,0.0874637871309109,0.0236208095883992,-0.3192523200642038,0.291157582981554,-0.2647536896930375,1.4734743285026028,-0.4944416154508221,2.9452268035397973,-0.4207774403494662,0.3667943941727628,-0.455166091011009,1.3976802674353843,-0.4430701774680801,0.8585327677921945,-1.01001011601059,9.384884903321108,-1.2768403853891903,0.2454782502819383,-0.9978141681219472
0.36,1.459976438414014,-0.4815379372718732,2.943868167863134,-0.0736525871241692,0.0942957826684878,0.0238550135353621,-0.3266185010341976,0.3075220099648343,-0.2853920720110695,1.4656587797045542,-0.4877057275763075,2.9367234817285177,-0.4607774409455126,0.4067943947688092,-0.4951660916070554,1.3674775293209247,-0.3683090484996904,0.8182213491640139,-1.0319191159015972,9.288751010607484,-1.2709847222501174,0.2424350505170747,-1.0038558154730242
0.38,1.4533682279729967,-0.4752112052702825,2.937919086730843,-0.0702368383787007,0.0996417047469456,0.0242333593308356,-0.3338429092177655,0.3242380965899932,-0.3084883643122244,1.4568432308916044,-0.4799698396868918,2.927220159902337,-0.500777441541559,0.4467943953648556,-0.5351660922031019,1.4705937098014252,-0.3612204091783949,0.8358043312579472,-1.1548146150577447,9.2188045609837,-1.26735004029839,0.2396764887047159,-1.0067553827296376
0.4,1.4466177516040406,-0.4685551214336736,2.9314961300482194,-0.0670291254921357,0.1034205941789742,0.0247186938499849,-0.3408818700163563,0.3404579722198355,-0.3326880161903854,1.4366760825121083,-0.4589993004407828,2.9224946685152315,-0.4338429107078816,0.4242380980801093,-0.4084883658023405,1.4985446986958968,-0.3519480399295394,0.8109937814921114,-1.2099825939080515,9.146208199175817,-1.2648556003740412,0.2372507604878911,-1.0080528266783844
0.42,1.4397698317131151,-0.4615664341514882,2.924898494291345,-0.064200164082629,0.1057459230243008,0.0252797429634593,-0.3436859846183664,0.3576796295458996,-0.3258881080146634,1.4366760825121083,-0.4589993004407828,2.9224946685152315,-0.4338429107078816,0.4242380980801093,-0.4084883658023405,0.9363323274295248,-0.1402057301005038,0.8610828663032088,0.3399954087860979,9.09007940119318,-1.2477939790433623,0.2344104919932216,-1.0142105556026055
0.44,1.433215901895629,-0.454624298922231,2.9187244218744417,-0.0622681174954617,0.1064832843370736,0.0258538843261025,-0.3462375751328017,0.3724639673510439,-0.3244570578877073,1.4366760825121083,-0.4589993004407828,2.9224946685152315,-0.4338429107078816,0.4242380980801093,-0.4084883658023405,0.7535502023021343,-0.1275795257217632,0.7392168902572133,0.071552506347805,10.898280494622668,-1.2510758581584938,0.2338410214677481,-1.0189722698641672
0.46,1.4262564074176998,-0.4470158273878797,2.9121932831287243,-0.0610700679953358,0.105638271614882,0.0264970909478998,-0.3496866956702144,0.3876357254826265,-0.3289933317771006,1.4323376534050296,-0.4547569194599817,2.918409784857208,-0.4538429110059048,0.4442380983781326,-0.4284883661003637,0.8103339714038205,-0.1724560268706348,0.7585879065791279,-0.2268136944696658,10.47434011025689,-1.2557954500663322,0.2338766732101758,-1.0195791259487672
0.48,1.419218959393909,-0.4391086992772697,2.9055177752718007,-0.0606707352032693,0.1030954193249983,0.0271840715651224,-0.3540129603743423,0.4023473767117499,-0.3385110998521348,1.423660795190872,-0.4462721574983795,2.9102400175411614,-0.4938429116019513,0.484238098974179,-0.4684883666964101,0.9024094931178572,-0.2163132352063973,0.7355825614561717,-0.4758884037517064,10.121819100402718,-1.261236143484581,0.2344799460613243,-1.0167902918855556
0.5,1.4120828262159637,-0.4309114957288474,2.898607679117753,-0.0611083040966579,0.0988416440579678,0.0279149721066756,-0.3595574783157058,0.4167165251547847,-0.3519843372902639,1.4149839369767143,-0.4377873955367773,2.9020702502251146,-0.5338429121979977,0.5242380995702255,-0.5084883672924566,1.0231596078377452,-0.2772258970681729,0.7184574221517387,-0.6736618719064585,9.852248285885253,-1.2674439124186665,0.2356447197953474,-1.011001954266374
0.52,1.405180086896445,-0.4228588615120088,2.8917671948350026,-0.0623221775704673,0.0935151326558839,0.0286360924735421,-0.3670466508793667,0.4302849721446009,-0.3673700768990339,1.4043070787327545,-0.4273026335453728,2.8919004828792656,-0.5738429127940442,0.564238100166272,-0.5484883678885031,1.091915109695595,-0.374458628183047,0.6784223494908093,-0.7692869804384994,9.64860746109298,-1.275262653934377,0.2375521051335907,-1.0020491244276748
0.54,1.3977340779502518,-0.4141026377148769,2.884240414883458,-0.0644682688450329,0.0873236327103884,0.0293827093144433,-0.3773854441729533,0.4447810148847069,-0.3845317755268891,1.3936302204887945,-0.4168178715539683,2.8817307155334166,-0.6138429133900907,0.6042381007623184,-0.5884883684845496,1.2364766492779182,-0.5169396646793306,0.7248021370053037,-0.858084931392758,9.443067777972828,-1.2815050281506464,0.2400958978517066,-0.9922694757031209
0.56,1.3900523595383234,-0.4050328331896686,2.876363754838111,-0.0668446478625528,0.0813129203043583,0.0301190974231035,-0.3904033390115151,0.4614571205497627,-0.4022823938932138,1.3819533622299334,-0.4053331095476626,2.8705609481726664,-0.653842913986137,0.6442381013583648,-0.6284883690805959,1.380799169472941,-0.6508947419280903,0.8338052832527892,-0.8875309183162372,9.443067777972828,-1.2865386859616672,0.2426863922220006,-0.9836023715918296
0.58,1.382083726358454,-0.3956152683296272,2.8681255523745226,-0.0685853438798718,0.076296158076709,0.0308468983013455,-0.4058782605514606,0.4792351686272229,-0.4206260616500555,1.369276503956171,-0.3928483475264558,2.858391180797015,-0.6938429145821835,0.6842381019544113,-0.6684883696766424,1.4933371495457293,-0.7737460769972754,0.888902403873007,-0.9171833878420826,9.418828377900354,-1.2904828446829837,0.2448224154194186,-0.9758039144501254
0.6,1.3742045395659364,-0.386332910166039,2.859952348271989,-0.069348215508854,0.0732159240830561,0.0314894808318917,-0.4227610422689355,0.4967930448922707,-0.4387786313935399,1.361789813330881,-0.371653509898266,2.84709424929202,-0.5058782620415767,0.579235170117339,-0.5206260631401716,1.5189001989521078,-0.8441390858737463,0.8778938132523922,-0.9076284871742196,9.39369367136078,-1.2922271757415624,0.2460841842370317,-0.9706944370495868
0.62,1.3655334496957263,-0.376143600802988,2.851255750399846,-0.0677744835034743,0.0736739588473573,0.0320723524535992,-0.4428675815381094,0.5209164818082636,-0.4284154371024515,1.361789813330881,-0.371653509898266,2.84709424929202,-0.5058782620415767,0.579235170117339,-0.5206260631401716,1.6534879240090947,-1.0053269634586914,1.2061718457996418,0.5181597145544198,9.360880115288635,-1.274534534041268,0.2445828998608201,-0.9787948150729786
0.64,1.3564929275335127,-0.3655032008482121,2.842771038979683,-0.0635261657966076,0.0782741711786148,0.0325609962808638,-0.4596705316505603,0.5412089608788905,-0.4210218384437829,1.361789813330881,-0.371653509898266,2.84709424929202,-0.5058782620415767,0.579235170117339,-0.5206260631401716,1.36820058876505,-0.840147505622546,1.0146239535313462,0.3696799329334282,11.280360980234036,-1.2688166568410404,0.242115436276373,-0.9916800196281594
0.66,1.347152054638307,-0.3545018522991727,2.834350320273931,-0.0586491549199837,0.0851981706108541,0.0329607997962595,-0.4731626891494503,0.5577640406446485,-0.4213888335211519,1.3567310307104652,-0.3658611581970927,2.841887988660618,-0.5258782623395999,0.5992351704153622,-0.5406260634381947,1.0679930540648164,-0.6746078749445023,0.8277539882878993,-0.018349753868449,10.81621618787176,-1.2616205599199517,0.2386902545509489,-1.0057162999515166
0.68,1.3380585123988455,-0.3437668924443852,2.8262832536893465,-0.0542576440240447,0.0926513271365295,0.0332938660048464,-0.4831404306199461,0.5714286293075027,-0.4277565807698064,1.3466134654696338,-0.3542764547947459,2.8314754673978144,-0.5658782629356464,0.6392351710114087,-0.5806260640342412,0.9039144223871562,-0.4988870735247869,0.6832294331427125,-0.318387362432726,10.365724497019071,-1.253938423038291,0.2351980599967105,-1.0181776760073775
0.7000000000000001,1.3283088264673983,-0.3322021833839328,2.8176095511033803,-0.0502388919430641,0.1004302637900491,0.0336274876904894,-0.4911210621190145,0.5843713471709885,-0.4395163041511991,1.3364959002288022,-0.3426917513923991,2.821062946135011,-0.6058782635316928,0.6792351716074552,-0.6206260646302877,0.9611133112497594,-0.3990315749534207,0.6471358931742888,-0.5879861690696347,10.009022437114254,-1.246697473992555,0.2320962404542948,-1.0285515524590163
0.72,1.3184216831588556,-0.3203890211341271,2.8086499250176624,-0.0469505026715707,0.107430170095226,0.0339647475260779,-0.4971319656717073,0.5964271272794384,-0.4558536947403646,1.3243783349581684,-0.32910704796025,2.8086504248424053,-0.6458782641277393,0.7192351722035016,-0.6606260652263342,1.058752953722001,-0.3005451776346424,0.6027890054224938,-0.8168695294582751,9.725511371718312,-1.240349672794524,0.2295793848232648,-1.0369072711357998
0.74,1.308431930298266,-0.3083408976186233,2.7993403313654124,-0.0443459719290414,0.113238028978186,0.0343177331848575,-0.5015550599960781,0.6079197264481068,-0.4742939865898116,1.3122607696875344,-0.3155223445281009,2.7962379035497995,-0.6858782647237858,0.7592351727995481,-0.7006260658223806,1.108701901489688,-0.2211547162185356,0.5746299584334202,-0.9220145924723504,9.503193836103492,-1.2350569147313677,0.2276734597376692,-1.0425658235810775
0.76,1.2988661389565035,-0.2966776394816467,2.790140440610421,-0.0421861820120055,0.1175848816337988,0.0346839990507941,-0.5051637476441748,0.619153603955262,-0.4931889512940559,1.2991432044019993,-0.3009376410810506,2.7828253822422924,-0.7258782653198321,0.7992351733955945,-0.740626066418427,1.1138248533341444,-0.1804343824048371,0.5616938753577605,-0.9447482352122144,9.40378982031052,-1.2312439261688872,0.2259744029632739,-1.046335988971741
0.78,1.288726315138876,-0.2841725904920584,2.7800545462181074,-0.0399810642235362,0.1210822761291488,0.0351073529693159,-0.5086352661123743,0.6306843965614987,-0.514464167003325,1.285025639101563,-0.2853529376190992,2.7684128609198844,-0.7658782659158786,0.8392351739916409,-0.7806260670144735,1.2223393780769531,-0.1735759234099743,0.5765396303118342,-1.0637607854634523,9.334154297084751,-1.2287225645068325,0.2243427197048952,-1.0486843854805092
0.8,1.278518692443558,-0.2714401462663038,2.769530507788549,-0.0377559601418342,0.1236465765951137,0.0355636339985992,-0.5119681217412331,0.641886139004008,-0.5369134584201605,1.2632945518332577,-0.2526383706639835,2.7543313378679413,-0.6086352676024904,0.7306843980516148,-0.6144641684934411,1.2654620159344327,-0.1666427814429383,0.5600871221254689,-1.1224645708417746,9.259530120080854,-1.2271845862521298,0.2227395149871659,-1.0495415724309085
0.8200000000000001,1.2682763627674396,-0.2584659682483305,2.7588908069209315,-0.0351912355635176,0.125883438432878,0.0360483735363457,-0.5119735590173329,0.65465580864094,-0.525942041686955,1.2632945518332577,-0.2526383706639835,2.7543313378679413,-0.6086352676024904,0.7306843980516148,-0.6144641684934411,0.8417785892590958,-0.0002718638049903,0.6384834818465968,0.5485708366602726,9.19950345565212,-1.2120196093330022,0.2195233737953,-1.0504995500307304
0.84,1.258557389330085,-0.2459296473421153,2.7489513894295854,-0.0329211012786189,0.1277737122704418,0.036497305727003,-0.5111274297943124,0.6644793312754917,-0.520963235793304,1.2632945518332577,-0.2526383706639835,2.7543313378679413,-0.6086352676024904,0.7306843980516148,-0.6144641684934411,0.5522817209999237,0.0423064611510259,0.4911761317275886,0.2489402946825536,11.181429407592988,-1.2138055087386317,0.2183236039108854,-1.0572946376938648
0.86,1.2483448779212738,-0.2325390996584272,2.7385226501635147,-0.0311264619725312,0.1289918290346009,0.0369436715540555,-0.5102589089075025,0.6741235348595025,-0.5224688848150137,1.2572081991572326,-0.2453315266834674,2.748186696183007,-0.6286352679005136,0.750684398349638,-0.6344641687914643,0.489979515585209,0.0434260443404943,0.4822101792005373,-0.0752824510854899,10.7117495789671,-1.2165636601642864,0.2175769450840942,-1.0611955487182982
0.88,1.2381461666888345,-0.2189625234640645,2.7279973332510763,-0.0300004953757396,0.1291557803589712,0.0373643602624565,-0.5097866866121851,0.6831302229345804,-0.5299479198541835,1.2450354938051826,-0.2307178387224351,2.735897412813138,-0.6686352684965601,0.7906843989456844,-0.6744641693875107,0.5858314371367297,0.0236111147658701,0.4503344037538936,-0.37395175195849,10.312201626870774,-1.219572723017383,0.2173461052605622,-1.062870330545162
0.9,1.2284617155404898,-0.2059036277745662,2.717818803696169,-0.029679785500484,0.1282293151859889,0.0377331320740524,-0.5097390294114651,0.6911275200516322,-0.5410806525355777,1.232862788453133,-0.2161041507614028,2.723608129443269,-0.7086352690926065,0.8306843995417309,-0.7144641699835572,0.6853772124577969,0.0023828600359987,0.3998648558525941,-0.5566366340697071,9.77342006789695,-1.22298076579062,0.2176832948699092,-1.061876567841934
0.92,1.2182640996930334,-0.1919979734138345,2.706843469325415,-0.0303423320222506,0.125929628674077,0.0380815338522475,-0.5101233125296676,0.6991031728503155,-0.5559955658847272,1.2186900830712808,-0.1994904627705682,2.709318846043598,-0.748635269688653,0.8706844001377774,-0.7544641705796037,0.8458920606270022,-0.0192141559101244,0.3987826399341643,-0.7457456674574758,9.77342006789695,-1.227609185839998,0.2189636595190442,-1.0586998573939346
0.94,1.2080539127265004,-0.1779327029290005,2.695556063450406,-0.0321933740420987,0.1220612434408229,0.0383914848855872,-0.5110046110343246,0.7071398536247735,-0.5720074054451085,1.204517377689429,-0.1828767747797335,2.695029562643927,-0.7886352702846995,0.9106844007338238,-0.7944641711756502,0.8968610971497277,-0.0440649252328506,0.401834038722898,-0.8005919780190662,9.590955098282391,-1.2329003093134423,0.2212446607247479,-1.052640022140679
0.96,1.1978089695392955,-0.1636880561476058,2.6839440513562414,-0.034799457227871,0.1167357110550281,0.0387019966981626,-0.5137824743645691,0.7170870112037546,-0.5883678537342147,1.1893446722926753,-0.1652630867739977,2.6797402792293545,-0.8286352708807458,0.9506844013298704,-0.8344641717716965,0.9673762670273616,-0.1388931665122272,0.4973578789490562,-0.8180224144553105,9.51696359062771,-1.2398524184775297,0.2241214536494511,-1.0449153749958666
0.98,1.1879986884230838,-0.1499531695289309,2.672607486075096,-0.0370531874557079,0.1110692972289971,0.0390435087559513,-0.5189027489994666,0.7280611951480317,-0.6041164306877784,1.173171966881021,-0.1466493987533608,2.663450995799881,-0.8686352714767923,0.9906844019259168,-0.874464172367743,0.9933121383053776,-0.2560137317448752,0.5487091972138536,-0.7874288476781843,9.51696359062771,-1.2466734524783225,0.2268696831485539,-1.0367371456114574
1.0,1.1775437387176868,-0.1352647692507045,2.6603455456312237,-0.0388569524056052,0.1051596104999544,0.0394484291174861,-0.5264730270123682,0.7400893328149468,-0.6212640988812594,1.1620535509731105,-0.1135501097715293,2.642401664540707,-0.6189027504895828,0.8280611966381478,-0.7041164321778945,1.1135839993020324,-0.3785139006450777,0.6014068833457564,-0.8573834096740507,9.50019633472766,-1.252660904219175,0.2290007453261996,-1.0290386442689914
1.02,1.1668862266381073,-0.1202727502888309,2.6480761208331804,-0.0384658077121,0.1019053470295652,0.039901275317032,-0.5388379319840535,0.7577778252930448,-0.6048217184120637,1.1620535509731105,-0.1135501097715293,2.642401664540707,-0.6189027504895828,0.8280611966381478,-0.7041164321778945,1.3565816567758906,-0.6182452485842649,0.8844246239049003,0.8221190234597886,9.461934038864456,-1.24289746207654,0.2273726491441111,-1.0176364719231348
1.04,1.155985793958067,-0.1049555652794803,2.6361030584383536,-0.0354483339911051,0.1032211279578783,0.0403486860167088,-0.5500689732509875,0.7727538102713681,-0.5937537655422973,1.1620535509731105,-0.1135501097715293,2.642401664540707,-0.6189027504895828,0.8280611966381478,-0.7041164321778945,1.087331590107071,-0.5615520633466986,0.7487992489161654,0.5533976434883181,11.561249761672116,-1.2412524453625096,0.2255941666418763,-1.0282167608685284
1.06,1.1454475150593182,-0.0901596652147792,2.6248504997603,-0.0314476254934329,0.1070878917476734,0.0407543228438265,-0.5583289229958435,0.7837189980975475,-0.5912460774209664,1.1558645234682146,-0.1052694978051478,2.635360500218928,-0.6389027507876059,0.848061196936171,-0.7241164324759177,0.6977653860087998,-0.4129974872427999,0.5482593913089695,0.1253844060665476,11.034837010652154,-1.237410827409163,0.2224693913128642,-1.0407135293329306
1.08,1.1342115069086698,-0.0743879003847727,2.6129906371291383,-0.0273276338121653,0.1124704433004238,0.0411367717745534,-0.5646051468803924,0.7928683631929945,-0.5951718743583397,1.143486468458423,-0.0887082738723849,2.62127817157537,-0.6789027513836524,0.8880611975322175,-0.7641164330719642,0.5884593220696228,-0.3138111942274479,0.4574682547723474,-0.1962898468686691,10.54550307684076,-1.2328149088760394,0.2192717623084961,-1.0530551080977613
1.1,1.1228714185619713,-0.0584481374305514,2.60098504179771,-0.0237877668195891,0.1181331715611811,0.0414760014404101,-0.5689502945429297,0.8007608054228633,-0.6051752732595315,1.1311084134486311,-0.0721470499396219,2.6071958429318123,-0.7189027519796989,0.928061198128264,-0.8041164336680107,0.6731250666433279,-0.217257383126862,0.3946221114934423,-0.5001699450595865,10.15901635985938,-1.228603749078894,0.2166002450058589,-1.0628808196691049
1.12,1.1120330817623063,-0.0431669516298167,2.589351005730504,-0.0210562063243141,0.1231273367449862,0.0417651386574417,-0.5716665407114859,0.8075221079685917,-0.6189576827325008,1.1167303584090371,-0.0535858259770566,2.591113514258452,-0.7589027525757454,0.9680611987243104,-0.8441164342640571,0.779499865688997,-0.1358123084278129,0.3380651272864188,-0.6891204736484691,9.852262062222508,-1.2246166453334597,0.2142715346003845,-1.0706682410279114
1.14,1.100581920790812,-0.026948122411515,2.576798135093996,-0.0188758594980488,0.1275457208605234,0.0420357851078991,-0.5732836442033994,0.8141225712100971,-0.6356966948456597,1.1023523033694431,-0.0350246020144913,2.575031185585092,-0.7989027531717918,1.008061199320357,-0.8841164348601036,0.9032935088199492,-0.0808551745956731,0.3300231620752714,-0.8369506056579434,9.50610981000409,-1.221128420614105,0.2124751382167607,-1.0755010890818568
1.16,1.0891039447849022,-0.0105911336977576,2.563892566487819,-0.0170929794767895,0.1309588162925174,0.0422904713199647,-0.5744549585446979,0.8212061880980486,-0.6540118397085369,1.0869742483149485,-0.0154633780370249,2.5579488568968305,-0.8389027537678382,1.0480611999164031,-0.92411643545615,0.98360832759994,-0.0585657170649234,0.3541808443975724,-0.915757243143861,9.50610981000409,-1.2190812970578149,0.2111098332390383,-1.078282245870192
1.18,1.0776048725520788,0.0059076497030825,2.5506076145495475,-0.0153609729223184,0.133483720092644,0.0425470405710032,-0.5754209899566056,0.8282310765371187,-0.6735591000187076,1.070596193245552,0.0050978459553426,2.539866528193668,-0.8789027543638847,1.0880612005124497,-0.9641164360521964,1.0396846395707513,-0.0483015705953882,0.351244421953506,-0.9773630155085312,9.370873082469188,-1.2178636742657494,0.2096931942545032,-1.0798214430127342
1.2,1.0666633909093026,0.0217091632922434,2.537613776773086,-0.0136763936141444,0.1351756945391852,0.0427938055647608,-0.5762938897548541,0.8346481219617098,-0.693226596147943,1.0488338230542484,0.0473192035299384,2.5169296595486124,-0.6754209914467217,0.8925808619842394,-0.7735591015088237,1.0353149641927084,-0.0436449899124224,0.3208522712295547,-0.9833748064617732,9.370873082469188,-1.2170893635167293,0.2081827482416218,-1.0804086920627838
1.22,1.0551485988162137,0.0385922249520927,2.5238429893763183,-0.0080724417725132,0.136975102791698,0.0433085859874583,-0.5747296049929974,0.8511989266243677,-0.6811568412777601,1.0488338230542484,0.0473192035299384,2.5169296595486124,-0.6754209914467217,0.8925808619842394,-0.7735591015088237,1.0271989880543346,0.078214238092833,0.8275402331328952,0.6034877435091457,9.309585601005892,-1.2021150607927304,0.2010534912443357,-1.071330308276627
1.24,1.043685529936565,0.0557061970440439,2.5103162715800003,0.0012280180445211,0.1390506035630721,0.0440672687175073,-0.5716247626389849,0.8586804947035217,-0.6726692290662388,1.0488338230542484,0.0473192035299384,2.5169296595486124,-0.6754209914467217,0.8925808619842394,-0.7735591015088237,0.5866290736475893,0.1552421177006269,0.3740784039577005,0.4243806105760639,11.37889298839218,-1.204950220908921,0.1933513187288654,-1.0836383776262517
1.26,1.0328571355024143,0.0720469537916507,2.4975347282070235,0.0104606202668503,0.1405386674818175,0.0448029256188177,-0.5684188702264587,0.8608729714487466,-0.6731445931689768,1.0420796131397811,0.0562450121497808,2.509194068533524,-0.6954209917447449,0.9054508190736636,-0.7935591018068469,0.1956442656278047,0.1602946206263111,0.1096238372612468,-0.0237682051368981,10.887525254219328,-1.207760757445692,0.1844157887428411,-1.0925769734623625
1.28,1.0215231623988712,0.0892581110756424,2.4840028404201187,0.0193911086090192,0.1412041875589486,0.0454918577944056,-0.5652621029210368,0.860110656574733,-0.6803001194286317,1.0285711933108468,0.0740966293894656,2.493722886503348,-0.7354209923407914,0.9311907332525118,-0.8335591024028933,0.3928990323236144,0.1578383652710902,-0.038115743700684,-0.3577763129827438,10.393839307885171,-1.2105905714118537,0.1759585875649456,-1.096828794724484
1.3,1.0102480026672926,0.1064316803880286,2.4702684962409776,0.0270814371491628,0.1407384151215284,0.0460411948201142,-0.5624965849093988,0.8573670733065123,-0.6929716168586089,1.0150627734819124,0.0919482466291504,2.478251704473171,-0.7754209929368379,0.95693064743136,-0.8735591029989398,0.6628389437492971,0.1382759005819023,-0.1371791634110331,-0.6335748714988598,9.725722972286349,-1.2136020959371845,0.1685322859315124,-1.0973245682261608
1.32,0.9990254436592028,0.123534367170915,2.456232545247103,0.033392808129182,0.1388522123361045,0.0464161421954897,-0.5600138464511315,0.8532664858386828,-0.7099365262380473,0.9995543536231756,0.1110868595777776,2.4607805224131925,-0.8154209935328843,0.9826705616102084,-0.9135591035949864,0.8814575402224951,0.1241369229133648,-0.2050293733914743,-0.8482454689719199,9.725722972286349,-1.2171129930204678,0.1626399076957532,-1.0944603918715483
1.34,0.9884085559089204,0.1396960861225319,2.442569376670343,0.0381564072390759,0.1354545809386635,0.0465903795085672,-0.5578129202818766,0.8484072642020761,-0.7273997807649457,0.9840459337644388,0.1302254725264048,2.443309340353214,-0.8554209941289308,1.0084104757890564,-0.9535591041910328,0.9129914698224416,0.1100463084627467,-0.242961081830334,-0.8731627263449226,9.513159094331058,-1.2212637822023598,0.1575719877400992,-1.0873481757232226
1.36,0.9772648551589164,0.1566076823357779,2.4278217336915717,0.0421487633617894,0.130148243939062,0.0465887304876991,-0.5570404518295697,0.843070183992597,-0.7464376507306775,0.967537513890801,0.1500075833295032,2.424838158278334,-0.8954209947249772,1.0341503899679048,-0.9935591047870792,0.9893452702473668,0.0386234226153414,-0.2668540104739547,-0.951893498286588,9.43944225621908,-1.2279562415816407,0.1536289744125832,-1.0770565487266224
1.38,0.966108865233163,0.1734071697991102,2.412689885898757,0.0453591204792678,0.123795711884403,0.0464399567950321,-0.5588549275095032,0.8372020989581046,-0.7657755085230936,0.950029094002262,0.1704331919870728,2.405366976188553,-0.9354209953210236,1.059890304146753,-1.0335591053831257,1.0144943173384633,-0.0907237839966712,-0.2934042517246216,-0.9668928896208072,9.391214014946854,-1.2338896124209926,0.150478385943141,-1.064945341149716
1.4,0.954891297924271,0.1900831450825506,2.3971678207768314,0.0478914585134829,0.1171553296972981,0.0461863139689735,-0.5629938811237064,0.8308007687019797,-0.7854226880835589,0.938166118857688,0.2152672747470154,2.3744011104726024,-0.6588549289996193,0.8374485796765925,-0.8657755100132097,1.0537073013290612,-0.2069476807101622,-0.3200665128062441,-0.9823589780232622,9.361721667603888,-1.2393351415561784,0.1477203549599161,-1.0515183005100397
1.42,0.9441108871855278,0.20597881433158,2.382369110149019,0.0559443916259964,0.112887013806318,0.0463902380374099,-0.5714079197959279,0.8384532680749636,-0.7715442310768149,0.938166118857688,0.2152672747470154,2.3744011104726024,-0.6588549289996193,0.8374485796765925,-0.8657755100132097,0.8971738436880511,-0.4207019336110729,0.3826249686491922,0.6939228503371975,9.33265772867071,-1.2304256904510076,0.1386670785735957,-1.0321929819142632
1.44,0.9325918133974428,0.2226809553331077,2.3670317591628844,0.0692589487438013,0.1125678884519762,0.0471105917327396,-0.5795485602774184,0.830711818665736,-0.7634502978694419,0.938166118857688,0.2152672747470154,2.3744011104726024,-0.6588549289996193,0.8374485796765925,-0.8657755100132097,0.6923001898922343,-0.4070320240745273,-0.3870724704613804,0.404696660368653,11.370652604178758,-1.229756075323113,0.1256420746109564,-1.0384550672749424
1.46,0.9209335074508976,0.2391639581049991,2.3517525776810246,0.0829488786413752,0.1149402523763974,0.0480130992509968,-0.585554279351606,0.8176313814739373,-0.7648654270393379,0.9315775695676916,0.2236417605437813,2.3657433553724703,-0.6788549292976425,0.83749787582029,-0.8857755103112329,0.723133959398499,-0.3002859537093783,-0.6540218595899316,-0.0707564584948028,10.812129304899829,-1.227278490487413,0.1123252836295932,-1.0444130742541522
1.48,0.9091763470112112,0.2553538322810094,2.336368614151439,0.0960734950117723,0.1185829250381633,0.0489798818627286,-0.5896561006550909,0.8017526126315659,-0.7734652362006403,0.9184004709876992,0.2403907321373132,2.348427845172206,-0.7188549298936889,0.8375964681076852,-0.9257755109072794,0.925900852637592,-0.2050910651742454,-0.7939384421185691,-0.4299904580651215,10.299745442391211,-1.2233217598606432,0.1001802759740731,-1.048350947564027
1.5,0.8979474170684126,0.2704028423295373,2.321538798999481,0.1073071518486345,0.1223280222468954,0.0498457568773988,-0.5920493611327067,0.7833388562451403,-0.7871043252976533,0.9052233724077068,0.257139703730845,2.331112334971942,-0.7588549304897354,0.8376950603950803,-0.965775511503326,1.151975337592569,-0.1196630238807894,-0.9206878193212809,-0.6819544548506473,9.918533066165764,-1.218071408115927,0.0886742370483388,-1.0495715604925435
1.52,0.8860915784393512,0.285845958772489,2.3056055214966302,0.1173711691162312,0.1259522811271637,0.0506014178223341,-0.5933648601612078,0.7621052823111611,-0.8056530506385796,0.8900462737979121,0.2738936049387466,2.3117968247418754,-0.7988549310857819,0.8377936526824755,-1.0057755120993723,1.4112498108740972,-0.0657749514250571,-1.0616786966989589,-0.9274362670463164,9.631999870089205,-1.2128379906329272,0.079030306983316,-1.0479094539923022
1.54,0.8742214622940071,0.3008465234651735,2.289278405270129,0.1255185519862657,0.1288396964688508,0.0511267862705058,-0.59358331327759,0.7392479775083018,-0.8261378356566004,0.8748691751881175,0.2906475061466483,2.292481314511809,-0.8388549316818283,0.8378922449698707,-1.045775512695419,1.5347072374311328,-0.0109226558191066,-1.142865240142965,-1.0242392509010378,9.416036259050998,-1.2073219292519328,0.0713030147015974,-1.0430809689467169
1.56,0.8623520883716048,0.3153760990843888,2.272531148716178,0.1317311320162825,0.1308627229181172,0.0513873938326779,-0.5933997696238011,0.7152580184839176,-0.8474882480878541,0.8586920765634216,0.3074038721617347,2.2721658042668413,-0.8788549322778747,0.8379908372572658,-1.085775513291465,1.605764563416065,0.0091771826894404,-1.199497951219214,-1.0675206215626842,9.337577649093872,-1.203174434174968,0.0656879840650508,-1.0377798254961474
1.58,0.8510816616353921,0.3287277628048834,2.2562207043717835,0.1360065869682809,0.1320726824886041,0.0514012891659769,-0.5930287584424331,0.6917572002948535,-0.8682658056357792,0.8415149779238246,0.3241627029840061,2.2508502940069723,-0.9188549328739212,0.8380894295446609,-1.1257755138875114,1.5685447096827378,0.0185505590684031,-1.175040909453201,-1.0388778773962548,9.27559073379507,-1.1993443923751494,0.0612687471809111,-1.032130587756486
1.6,0.8392260679343969,0.3422984007501808,2.238620082995719,0.1390104163216967,0.1326783000304804,0.0511896500484455,-0.5926008259999302,0.6668110285605713,-0.8906758671679128,0.8214302237132705,0.3633156228196261,2.2128074140899945,-0.6930287599325492,0.6314051169992698,-0.9682658071258952,1.676831437746253,0.0213966221251415,-1.2473085867141132,-1.1205030766066826,9.27559073379507,-1.1959025046089045,0.0582262136533923,-1.0258537746131815
1.62,0.8273877211026676,0.3554675634563637,2.2208644621131213,0.1451522659950187,0.1334819998768154,0.0511956654925907,-0.5908917994072921,0.649004004647352,-0.882620703695145,0.8214302237132705,0.3633156228196261,2.2128074140899945,-0.6930287599325492,0.6314051169992698,-0.9682658071258952,0.9809390030900512,0.0854513296319081,-0.8903511956609655,0.40275817363839,9.24109526699158,-1.1836484353160897,0.0518368893253723,-1.0196087395408673
1.64,0.815604871013212,0.3681687456090388,2.203255314778749,0.1544734272305524,0.1348530445331094,0.051475549454429,-0.5874397067411816,0.6216331815934408,-0.8792424743847764,0.8214302237132705,0.3633156228196261,2.2128074140899945,-0.6930287599325492,0.6314051169992698,-0.9682658071258952,1.3896864139954026,0.1726046333055231,-1.368541152695557,0.1689114655184287,11.05352729796232,-1.182680719510233,0.0427737985315502,-1.019676205623036
1.66,0.8044832302080024,0.3796972607690222,2.186518110289651,0.1634319011998397,0.1357897901782742,0.0516612050889314,-0.5834987234777768,0.5930543149670614,-0.8827217964915857,0.814499936113945,0.3696296739896187,2.2031247560187355,-0.7130287602305724,0.619334700340153,-0.9882658074239185,1.4529183124437457,0.1970491631702431,-1.4289433313189714,-0.1739661053404617,10.613926915378215,-1.182255915616228,0.0338827194488883,-1.0165300497381882
1.68,0.7928600862035385,0.391230033460294,2.168780958228176,0.1724685650099134,0.1358664260959949,0.0516395735149396,-0.5791041663228433,0.5615393112618311,-0.891013070420169,0.800639360915294,0.3822577763296041,2.183759439876218,-0.7530287608266188,0.5951938670219196,-1.028265808019965,1.6441204445595383,0.219727857746671,-1.5757501852615152,-0.4145636964291654,10.259653441138653,-1.1823632634142742,0.0254989482999532,-1.0108263903005077
1.7,0.7813267447538562,0.402119259168655,2.1508393163857358,0.1810248548732361,0.1345958709738575,0.0512978728059684,-0.5745029739237937,0.5287812661193368,-0.9028714297904212,0.786778785716643,0.3948858786695896,2.1643941237337,-0.7930287614226653,0.5710530337036861,-1.0682658086160113,1.757043809929629,0.2300596199524829,-1.6379022571247126,-0.5929179685126074,10.006065305799892,-1.1830331921451398,0.0176017200143664,-1.0026522054258031
1.72,0.7698895844527549,0.4123209329496717,2.13262721003536,0.1884472190608916,0.1314229571073406,0.0504632562483877,-0.5695981275918555,0.4932779081440901,-0.91764531523082,0.7709182104881896,0.4063069393436633,2.14302880756138,-0.8330287620187118,0.5469122003854526,-1.1082658092120576,1.9383070164865976,0.2452423165969108,-1.7751678987623336,-0.7386942720199463,9.824364190072629,-1.1846497209673832,0.0111861810547349,-0.9914248829257633
1.74,0.7591131022979704,0.4213345855194638,2.115047031637221,0.1938709958532269,0.1262522668585226,0.0490768129052129,-0.5654703255687525,0.4576872879343012,-0.932027980253858,0.7550576352597363,0.417728000017737,2.1216634913890595,-0.8730287626147583,0.522771367067219,-1.1482658098081042,1.9304093151610937,0.2063901011551461,-1.779531010489449,-0.7191332511518933,9.697870486052125,-1.188352377388426,0.0060670395677709,-0.9761288230800528
1.76,0.7478257986429632,0.4300784327573062,2.0962492746875547,0.1976854473955498,0.1190829329413824,0.0470760183097537,-0.5638455281818721,0.4189321954535982,-0.9468631567977942,0.7381970600163819,0.4285455398588549,2.099298175201838,-0.9130287632108046,0.4986305337489856,-1.1882658104041506,2.076463112377638,0.0812398693440241,-1.9377546240351484,-0.7417588271968145,9.688592053607865,-1.1929320390104572,0.0024185119088093,-0.9598833260925624
1.78,0.7365425007726921,0.4380335455359789,2.077160724082165,0.1993887283935545,0.110984186476863,0.0446851527242923,-0.5648793708918748,0.3789011999216389,-0.9611098900497348,0.7203364847581263,0.4387595588670169,2.0759328589997152,-0.9530287638068512,0.4744897004307521,-1.228265811000197,2.125158136692848,-0.0516921355001365,-2.001549776597966,-0.7123366625970351,9.69853509382574,-1.1973226313670553,0.0004285296571905,-0.9443923067935012
1.8,0.7252120860039578,0.4451704291110821,2.057792748956909,0.1984310268984256,0.1025959008029881,0.0420203882519227,-0.5683799332071489,0.3373314284910421,-0.9748291185666836,0.7082985322280984,0.4569786055320609,2.029105229579678,-0.6648793723819909,0.2789011984315228,-1.061109891539851,2.1957442157588845,-0.1750281157637034,-2.0784885715298405,-0.6859614258474367,9.725849075030055,-1.2009058476048442,0.0003217724628934,-0.9281268032859242
1.82,0.7143249890728439,0.451289896048982,2.0394400029406405,0.2000540957390431,0.09667432730547,0.0400685235716198,-0.577343616914513,0.3068985733351156,-0.9567702332048738,0.7082985322280984,0.4569786055320609,2.029105229579678,-0.6648793723819909,0.2789011984315228,-1.061109891539851,1.82526000823051,-0.4481841853682056,-1.5216427577963236,0.9029442680904942,9.7528593403822,-1.193681296721726,-0.0017994908944452,-0.9102438064538834
1.84,0.7026750720866958,0.457019331377412,2.020445793857439,0.2059576350927157,0.0946124135376307,0.0391154147661095,-0.5867757184830525,0.2670468120644029,-0.9441360770996624,0.7082985322280984,0.4569786055320609,2.029105229579678,-0.6648793723819909,0.2789011984315228,-1.061109891539851,2.1428656729179107,-0.4716050784269787,-1.992588063535633,0.6317078052605729,11.659132181610405,-1.1910931373304583,-0.0084714697823259,-0.908556883390914
1.86,0.6908593281141177,0.4618943845955461,2.0016252954349207,0.2120600384815749,0.0954093299458703,0.0387392923768069,-0.594080485772541,0.2226194512944052,-0.9387572981383724,0.7016497385042785,0.4597676175163761,2.0184941306642794,-0.6848793726800141,0.2589011981334995,-1.081109891837874,2.267201619428412,-0.3652383644744239,-2.221368038499885,0.2689389480644899,11.174292503903416,-1.1863067889513037,-0.0147610475628302,-0.909079723679266
1.88,0.6795178289520937,0.465680387279224,1.98378905349332,0.2163304403919316,0.0975397348834025,0.0385524262550618,-0.5992498338152311,0.1786789026683551,-0.9388634370855782,0.6883521510566386,0.4653456414850065,1.9972719328334825,-0.7248793732760606,0.2189011975374531,-1.121109892433921,2.212185140432898,-0.2584674021345046,-2.1970274313025038,-0.005306947360284,10.796126116521918,-1.1791760764949564,-0.0198946925734101,-0.909883678355106
1.9,0.6674905714997584,0.4687656539345992,1.964976401615641,0.2189079431036414,0.1002849633748644,0.0383179734488182,-0.603104179894109,0.1325970893421722,-0.9424493882603724,0.6750545636089988,0.470923665453637,1.976049735002685,-0.764879373872107,0.1789011969414066,-1.161109893029967,2.3190776986514186,-0.1927173039438956,-2.3040906663091483,-0.1792975587397161,10.320925095593338,-1.1722478203846534,-0.0231711190604818,-0.9103688390625984
1.92,0.6553997574231596,0.4709248501286743,1.946060213284533,0.2192989000640416,0.1028990778982913,0.0378861847005719,-0.6057467544884603,0.0859292066545798,-0.9490250344228074,0.6597569761315567,0.4745016893924651,1.952827537142086,-0.8048793744681535,0.1389011963453602,-1.2011098936260134,2.360144909472263,-0.1321287297175621,-2.333394134379616,-0.3287823081217444,10.320925095593338,-1.166512997949029,-0.0245219485443967,-0.9104639475559656
1.94,0.6438751261408734,0.472099483974372,1.9279529823302608,0.2168052143927749,0.1048668894721485,0.0371445551321308,-0.6072888100511619,0.0406028813353523,-0.9565203349279464,0.6444593886541146,0.4780797133312933,1.9296053392814867,-0.8448793750642,0.0989011957493137,-1.24110989422206,2.2983870605085444,-0.0771027781350797,-2.2663162659613763,-0.3747650252569512,10.170578650080644,-1.1613131807740602,-0.0233676595148497,-0.9092765671482458
1.96,0.6317141489630526,0.4724244704896096,1.9087372339187847,0.2110933028953436,0.1062843093030444,0.0359894589014216,-0.608764805363833,-0.0047519028038204,-0.9644629442455968,0.6281618011617712,0.4806577372552202,1.905383141405986,-0.8848793756602463,0.0589011951532673,-1.2811098948181063,2.3034322484321184,-0.0737997656335587,-2.2677392069586424,-0.397130465882517,10.123565530741873,-1.156493631067886,-0.0196385552322294,-0.9072090489710074
1.98,0.61952366004948,0.471870939203519,1.8893610095889224,0.203224356176206,0.1070933778709378,0.0345467489000669,-0.6102696222087711,-0.0474049375874712,-0.9725477607206784,0.6108642136545268,0.482235761164246,1.8801609435155844,-0.9248793762562928,0.0189011945572208,-1.3211098954141527,2.1719289280659515,-0.0752408422469042,-2.13265173918254,-0.4042408237540817,10.084650955813231,-1.1526764172989568,-0.0144992538250304,-0.9047973307014444
2.0,0.607913005765241,0.4705801816772333,1.8708000996436291,0.1943080041241613,0.1073831666463446,0.0329801101546505,-0.611881808294228,-0.0855654943777961,-0.9806570170580936,0.5890101789390414,0.4695006923241455,1.8407336215528884,-0.7102696236988872,-0.1474049390775874,-1.0725477622107946,1.952298182186608,-0.0806093042728439,-1.9080278395162409,-0.4054628168707552,9.982169244830402,-1.1493624559823896,-0.0079007160786033,-0.9017460847681612
2.02,0.5956698497239119,0.4684771750810143,1.8514261516506043,0.1861199559360062,0.1079796963479035,0.0314809764948534,-0.6120673681888311,-0.1235898246255913,-0.9548126385380854,0.5890101789390414,0.4695006923241455,1.8407336215528884,-0.7102696236988872,-0.1474049390775874,-1.0725477622107946,2.2988127502872757,-0.0092779947301557,-1.9012165123897635,1.2922189260004049,9.982169244830402,-1.132204043455525,-0.0034342990069566,-0.8989558739540651
2.04,0.5834383585077881,0.4655964409775797,1.8325626665069392,0.1796289795283405,0.1091782773054045,0.0302195686281148,-0.6110465907740761,-0.1623726991125361,-0.9333790466417404,0.5890101789390414,0.4695006923241455,1.8407336215528884,-0.7102696236988872,-0.1474049390775874,-1.0725477622107946,2.2161634650785818,0.0510388707377518,-1.9391437243472365,1.071679594817243,12.23513548100891,-1.1307153241512813,0.0001290696990699,-0.9017260374814824
2.06,0.5718418360425815,0.4621447277808732,1.81495536301255,0.1733678798876316,0.1100971504628663,0.0289777935178904,-0.6097420296057249,-0.1985102087232954,-0.920953661738284,0.5819074827020525,0.4680266429333696,1.8300081439307805,-0.7302696239969104,-0.1674049393756106,-1.0925477625088178,1.9118130601007668,0.0652280584175601,-1.8068754805379672,0.6212692451728341,11.664367932217829,-1.1292260473799207,0.0041879804900619,-0.9027852823017644
2.08,0.5596616845803751,0.4577954184337144,1.796618771777614,0.1661756346614468,0.110398310203964,0.0275204839076845,-0.6084368695209639,-0.234038527303327,-0.9135327690996596,0.5677020902280748,0.4650785441518179,1.8085571886865648,-0.7702696245929569,-0.207404939971657,-1.1325477631048644,1.815925736040063,0.0652580042380501,-1.776415929001579,0.371044631931211,11.173814881686669,-1.1280576300764136,0.0088638334098661,-0.9021367698009674
2.1,0.5475043414434275,0.4527626027464628,1.7783778987667032,0.1583996194790242,0.1097622898061111,0.0258833232974285,-0.6074408651748501,-0.2670001218617255,-0.9110465258337164,0.553496697754097,0.4621304453702661,1.7871062334423486,-0.8102696251890034,-0.2474049405677035,-1.1725477637009107,1.6535115255624693,0.0498002173056899,-1.6480797279199235,0.1243121632971633,10.496601159280544,-1.1277872683789854,0.0137640066277087,-0.9003872562980654
2.12,0.5353640417673223,0.4470994225818591,1.7601399074736368,0.1501763714399002,0.1078882753219515,0.0240486349459053,-0.6067462622270382,-0.2972275066786768,-0.9127660908927534,0.537291305250317,0.457182346558912,1.7636552781683306,-0.8502696257850498,-0.2874049411637499,-1.212547764296957,1.5142111561134988,0.0347301473905936,-1.511369240847568,-0.0859782529518515,10.24918011909449,-1.1284001890555204,0.0193067330625243,-0.8966777558412558
2.14,0.5238410524899978,0.4411841658588951,1.7427643362786958,0.1422299915984088,0.1046651409957495,0.0221218244787573,-0.6063594567768948,-0.3236269081699343,-0.9160835764932264,0.5210859127465368,0.4522342477475579,1.7402043228943125,-0.8902696263810963,-0.3274049417597964,-1.2525477648930037,1.3304921347589873,0.0193402725071678,-1.3199700745628706,-0.1658742800236534,10.130145628169885,-1.129758946165107,0.0249420672391169,-0.8907349114624464
2.16,0.5117068478573806,0.4344332846764261,1.7243922725866787,0.1337714893950508,0.0996613447142719,0.0199195711859836,-0.6073814281148773,-0.3497119977635918,-0.9209492160868206,0.5038805202278557,0.4462861489213027,1.7157533676053929,-0.9302696269771428,-0.3674049423558428,-1.29254776548905,1.3277337583073157,-0.0510985668991215,-1.304254479682876,-0.2432819796797047,10.130145628169885,-1.1333159291891468,0.0307699743008609,-0.881858771998552
2.18,0.4995242328471208,0.4271797025924996,1.7059092543799457,0.125141477134321,0.0935912558964904,0.0176416581309501,-0.6111024338916586,-0.3739662038802303,-0.9271057476527385,0.4856751276942732,0.4393380500801463,1.6903024123015724,-0.9702696275731892,-0.4074049429518893,-1.3325477660850964,1.2649261631231354,-0.186050288839068,-1.2127103058319235,-0.3078265782958944,10.02843515393488,-1.137165949570458,0.0366270761637543,-0.8716960306453585
2.2,0.4872391750596866,0.4194625252550739,1.6872879606226707,0.1163667447249485,0.0872425619942935,0.0154084660403508,-0.6173904374774489,-0.396143879515137,-0.934640918672738,0.4689691111525379,0.4084813923984881,1.6595539669973087,-0.7111024353817748,-0.4739662053703464,-0.9770476375944308,1.2126078178482598,-0.3144001792895146,-1.1088837817453372,-0.3767585509999727,9.935232720305976,-1.1400728427831304,0.0421614577389669,-0.861907404501212
2.22,0.4754369925795413,0.4117348556580585,1.669887471410034,0.1094450109522438,0.0825424235774628,0.0136169274669826,-0.6247231246841934,-0.4168264595292359,-0.8967118530905849,0.4689691111525379,0.4084813923984881,1.6595539669973087,-0.7111024353817748,-0.4739662053703464,-0.9770476375944308,2.1909766279257883,-0.3666343603372257,-1.0341290007049446,1.896453279107652,9.842419288006568,-1.1272709896319946,0.0459960638345184,-0.8514748296514617
2.24,0.4628452824749967,0.4031653605114861,1.652321891965068,0.1036823999606614,0.0805906767496108,0.0122180117547946,-0.6338971035234683,-0.4389387815126033,-0.8623795959529774,0.4689691111525379,0.4084813923984881,1.6595539669973087,-0.7111024353817748,-0.4739662053703464,-0.9770476375944308,2.09273777108025,-0.4586989419637421,-1.1056160991683688,1.716612856880373,12.968540675032273,-1.1288078879471253,0.0489875433043723,-0.854882335382375
2.26,0.4500782723544805,0.3941651585612557,1.6353448660799867,0.0984658986025186,0.0810187912300498,0.011136927880519,-0.6421019485565203,-0.4598153632916211,-0.8369888090825137,0.4618580867987201,0.4037417303447846,1.6497834906213644,-0.7311024356797979,-0.4939662056683696,-0.9870360155827692,1.6939917404563454,-0.4102422516525983,-1.04382908895089,1.269539343523185,12.33446706945324,-1.1280696678017428,0.0515713907734778,-0.8598711806093012
2.28,0.4378094745695989,0.3852444630816814,1.6196199197091483,0.0937334334775852,0.0826038070235602,0.0102618841564707,-0.6488102311922302,-0.4780281011011748,-0.8195113384469916,0.4476360380910846,0.3942624062373777,1.6302425378694758,-0.7711024362758444,-0.533966206264416,-1.007012771559446,1.305916205443187,-0.3354141317854997,-0.9106368904776868,0.8738735317761037,11.76245598189962,-1.1264867178776177,0.0543598416544472,-0.8644578442672223
2.3000000000000003,0.4247683937385624,0.3754997122482839,1.6033712075444575,0.0890381999269214,0.0847536346202445,0.009422787096546,-0.6548603236877175,-0.4953803545437962,-0.8065163479179254,0.4334139893834491,0.3847830821299707,1.6107015851175872,-0.8111024368718909,-0.5739662068604625,-1.0269895275361232,1.125360050818671,-0.3025046247743634,-0.8676126721310712,0.6497495264533137,11.315513700304107,-1.1239241635068336,0.0570368413948274,-0.8683799826142817
2.32,0.4116143297065736,0.3654242356819253,1.587330037648287,0.0847177079787229,0.0868837818068627,0.0086246897973613,-0.6602028428985768,-0.5112237177438892,-0.7984430208547562,0.4171919406460113,0.3733037579927615,1.590161794566865,-0.8511024374679373,-0.613966207456509,-1.0469662835128002,0.92834971707509,-0.2671259605429632,-0.7921681600046471,0.4036663531584605,10.678494754145504,-1.1212168789270205,0.0594076032396103,-0.8709916943664927
2.34,0.3983607951941254,0.3550453097392109,1.571423555836545,0.0808312459922241,0.0886692710945938,0.0078456335441045,-0.664869993862908,-0.5258511714602314,-0.7926812409151323,0.4009698919085735,0.3618244338555522,1.5696220040161424,-0.8911024380639838,-0.6539662080525555,-1.066943039489477,0.8199737929047552,-0.2333575482165617,-0.731372685817111,0.288088996981195,10.678494754145504,-1.1183118582369194,0.0616212517677687,-0.8728910509934374
2.36,0.3856838788753939,0.3449169214671814,1.5564014227937426,0.0773605569294663,0.0899895572594197,0.0071090026868047,-0.6693030899134673,-0.5394347966616819,-0.7888653595317503,0.3837478431562345,0.3493451097034418,1.548582794566003,-0.9311024386600302,-0.6939662086486018,-1.086919795466154,0.7394730639769899,-0.2216548025279652,-0.6791812600725255,0.1907940691690979,10.557995691122414,-1.1159003633266669,0.0637070015952448,-0.8738019552997278
2.38,0.3722486450569113,0.3339851446084493,1.5406519214760752,0.073775488588131,0.0911063965469223,0.0063383514748777,-0.6739802818883572,-0.5529020571021632,-0.7863461827780948,0.3655257943889944,0.3358657855364303,1.527044166216447,-0.9711024392560766,-0.7339662092446483,-1.1068965514428308,0.7238602766727251,-0.2338595987444958,-0.673363022024065,0.1259588376827769,10.466592592553752,-1.1137497706165966,0.0657765851032264,-0.8742790573375778
2.4,0.3587190671956057,0.3227924839634606,1.5249360137942385,0.0702296231911035,0.0920387418784283,0.0055796509645823,-0.6787338032862836,-0.5655574670574204,-0.7854277233097333,0.3385496309624934,0.3063400417533412,1.5013346123371705,-0.7739802833784734,-0.6529020585922793,-0.7710706150080905,0.6774934217599254,-0.2376760698963198,-0.6327704977628579,0.0459229734180721,10.375210326875276,-1.1118817214204622,0.0677508052121367,-0.8744083525919639
2.42,0.345126073769443,0.3113165601676972,1.50955420589662,0.0661879884259625,0.0928836844798401,0.0048041176999824,-0.6801440088119378,-0.5810887293509023,-0.7510931194713011,0.3385496309624934,0.3063400417533412,1.5013346123371705,-0.7739802833784734,-0.6529020585922793,-0.7710706150080905,1.8855196954656843,-0.0705102762827092,-0.7765631146740948,1.7167301919216116,10.282548321501965,-1.1023282107344223,0.0697308963362678,-0.875248038819622
2.44,0.3321948759616556,0.3001498364916512,1.4956057083635248,0.0620550048794814,0.093515984046504,0.0040592201353864,-0.6810040314890601,-0.5934399567860026,-0.719312178744434,0.3385496309624934,0.3063400417533412,1.5013346123371705,-0.7739802833784734,-0.6529020585922793,-0.7710706150080905,1.7053743369443697,-0.0430011338561131,-0.6175613717550155,1.589047036343355,12.615857579212388,-1.103142362019878,0.0724888552479749,-0.8801696409986899
2.46,0.3185681992431813,0.2881653898831979,1.481523040208988,0.0580956502775658,0.0936505064092523,0.0032961707546603,-0.6816923167243909,-0.6043556109672418,-0.6908324370749915,0.3308098281287087,0.2998110211674183,1.4936239061870895,-0.7939802836764965,-0.6729020588903025,-0.7680155014540896,1.5253859579855154,-0.034414261766541,-0.5457827090619594,1.4239870834721224,12.25730114756152,-1.104066055878432,0.0750045384793153,-0.8837340811944482
2.48,0.3049265008249708,0.2759772211986288,1.4679638092130305,0.0547977756057069,0.0929587737381394,0.0025606883917947,-0.6825448214887113,-0.6139689560697802,-0.666690286039333,0.3153302224611392,0.2867529799955728,1.4782024938869278,-0.833980284272543,-0.712902059486349,-0.7619052743460879,1.2999871394193063,-0.0426252382160208,-0.4806672551269209,1.2071075517829266,11.930189692398017,-1.105097098254126,0.0770498894360715,-0.8849135815306156
2.5,0.2912652181035161,0.2636078585483173,1.4548475827983276,0.0522449131900441,0.0912320638936219,0.0018515524794563,-0.6836554344819854,-0.6226476785587853,-0.6461278166325939,0.2998506167935698,0.2736949388237272,1.462781081586766,-0.8739802848685895,-0.7529020600823955,-0.7557950472380862,1.1173281001624755,-0.0555306496637042,-0.4339361244502571,1.0281234703369555,11.654764542251542,-1.1066178003677234,0.0784570720133075,-0.8848747321863341
2.52,0.2782630767760797,0.2517025762925997,1.4427439420464458,0.0505060172599,0.0884226071171497,0.0011939213481182,-0.6850549249048653,-0.6302596860604237,-0.6289639529890152,0.282371011096198,0.2586368976220793,1.4476651806420042,-0.913980285464636,-0.7929020606784419,-0.7496848201300845,0.9414077846821932,-0.069974521143995,-0.3806003750819187,0.8581931821789346,11.444043608852551,-1.1091007192877862,0.0793900572318115,-0.8832358117512916
2.54,0.2645428001928563,0.2390208188408717,1.4303514223896288,0.0495038083509753,0.0840096320793116,0.000515524747874,-0.6870452703433233,-0.6375874687278851,-0.611191890002993,0.2648914053988261,0.2435788564204313,1.4325492796972423,-0.9539802860606824,-0.8329020612744884,-0.7435745930220828,0.9663127037417516,-0.0995172719228998,-0.3663891333730684,0.8886031493011093,11.288786617354162,-1.112580433048905,0.0796545334098287,-0.8798014778098732
2.56,0.2507644685839567,0.2261889030637929,1.4183138864866984,0.0493249496046865,0.0781998030379256,-0.0001487106973761,-0.6910376286894714,-0.6452621856138213,-0.5934426314635509,0.2464117996865532,0.2275208152038823,1.4175861344301808,-0.9939802866567288,-0.8729020618705348,-0.737464365914081,0.9872643809325988,-0.1996179173074042,-0.3837358442968119,0.8874629269721046,11.271553681896876,-1.117706538262368,0.0793311112502595,-0.8739187959831838
2.58,0.2368747303768608,0.2131997073797701,1.4066316352461778,0.0497196880544818,0.0718401400958953,-0.000779323611122,-0.6979456652267515,-0.6532793393731134,-0.5756642501999969,0.2269321939593791,0.2104627739724321,1.4027757448408191,-1.0339802872527752,-0.9129020624665812,-0.7313541388060794,1.0344884769208618,-0.3454018268640058,-0.4008576879646064,0.8889190631777011,11.270628854726056,-1.122152526679393,0.0785692090502531,-0.8682130539842846
2.6,0.2235260916777432,0.2007071333507542,1.39586222310254,0.0504498787794769,0.0660450436707415,-0.0013260369750119,-0.7069419097590063,-0.6613185982663846,-0.5588453445346188,0.2019774471155232,0.1805357404111145,1.377848422736178,-0.7815852571590483,-0.7397695979475992,-0.5005743112613792,1.0349368181416347,-0.4498122266127391,-0.4019629446635586,0.8409452832689068,11.273697843540504,-1.1258917615767847,0.0774519356958862,-0.8628328940961029
2.62,0.2092076542547218,0.1872774987193754,1.3849912455703943,0.0480906258433464,0.0629946657739844,-0.0019456469752583,-0.7246052982077654,-0.6801394174161168,-0.5284168213449971,0.2019774471155232,0.1805357404111145,1.377848422736178,-0.7815852571590483,-0.7397695979475992,-0.5005743112613792,1.995064878932529,-0.8831694224379572,-0.9410409574866108,1.5214261594810818,11.273461963761292,-1.1252945524235602,0.0787754317892503,-0.8579520653870366
2.64,0.1945446738774394,0.1735481154266291,1.374759570888557,0.0419912715664315,0.0652625634465293,-0.0025416525773853,-0.7401520428781405,-0.6911952015210411,-0.4963247888873117,0.2019774471155232,0.1805357404111145,1.377848422736178,-0.7815852571590483,-0.7397695979475992,-0.5005743112613792,1.866701756632312,-0.7773372335187545,-0.5527892052462124,1.604601622884269,12.327877953004643,-1.1182864471851732,0.0828297617223786,-0.8659433752835116
