t,x,y,z,roll,pitch,yaw,v_x,v_y,v_z,ref_x,ref_y,ref_z,ref_v_x,ref_v_y,ref_v_z,a_com,a_x,a_y,a_z,thrust,wind_x,wind_y,wind_z
0.0,-0.8171232739726332,0.5919845440911637,2.3812721997879294,0.0181317818460764,0.1364306637377668,0.0261743590602402,0.0015190820729919,-0.0078949052588927,-0.0037975912625167,-0.8170810424246986,0.5917859762352394,2.381151565381501,0.0326118949867642,-0.1068244158424819,-0.1038696329454459,0.4445751870845977,0.0759541036495978,-0.3947452629446396,-0.1898795631258366,10.544196149056006,-1.2836235349239036,0.1573827595151623,-1.1587641375592717
0.02,-0.8172089876992421,0.5920999426304129,2.3809768345703604,0.024394293134697,0.1387292879208013,0.0266507161342566,-0.0098154379389002,0.0154430980819693,-0.0268892494390173,-0.8170810424246986,0.5917859762352394,2.381151565381501,0.0326118949867642,-0.1068244158424819,-0.1038696329454459,1.7366335401995618,-0.5667260005946102,1.1669001670431094,-1.1545829088250286,10.544196149056006,-1.3086430866310363,0.1530679910459474,-1.1770381281886202
0.04,-0.8174951989342747,0.5924483291310058,2.3801292653821946,0.0388772552378132,0.1446869306278443,0.027826260270249,-0.0176701201261243,0.0173269044391779,-0.0565667860120827,-0.8170810424246986,0.5917859762352394,2.381151565381501,0.0326118949867642,-0.1068244158424819,-0.1038696329454459,1.5378564104780652,-0.3927341093612068,0.0941903178604301,-1.4838768286532715,9.148803343271084,-1.2978032125204848,0.1380235496202291,-1.1619593665813923
0.06,-0.8178724971899146,0.5927335114071972,2.3787787143154566,0.0533642507294724,0.1519748161752585,0.0291339306195495,-0.0213393656461979,0.0123051539258613,-0.0841096578270048,-0.8167549234748309,0.5907177320768147,2.3801128690520468,0.0388537883825457,-0.1268244161405051,-0.1238696332434692,1.4118172055172424,-0.1834622760036788,-0.2510875256658313,-1.3771435907461052,8.896371984916641,-1.2839405842152949,0.1217905260810417,-1.1510062017796083
0.08,-0.8183118950228485,0.592892832766236,2.3768011784902128,0.068139531383137,0.1603120821980409,0.0306118699889806,-0.0221024625312531,0.0035714571548422,-0.1121607488391989,-0.8161026855750957,0.588581243759965,2.378035476393137,0.0513375751741088,-0.1668244167365516,-0.1638696338395156,1.4694586444661235,-0.0381548442527595,-0.436684838550956,-1.4025545506097046,8.937843835378771,-1.2713813497246005,0.1066463581071275,-1.141993517866222
0.1,-0.8187377300807472,0.5928473603405092,2.37427521897253,0.0822385777568723,0.1687471981003681,0.0321503323580174,-0.0201861103045461,-0.0079789701590164,-0.1389934310476104,-0.8154504476753603,0.5864447554431154,2.3759580837342287,0.0638213619656718,-0.206824417332598,-0.2038696344355621,1.463794394277372,0.0958176113353484,-0.5775213656929359,-1.341634110420577,8.99079527556296,-1.2604900713970275,0.0933595365453282,-1.133646115929995
0.12,-0.8191003320108516,0.5925432501128839,2.371225437172677,0.0956534053945392,0.1769641402788276,0.0337155058641499,-0.0159610698390085,-0.0221325091749478,-0.1646780339315805,-0.8141740204360469,0.5823082670964634,2.371880691045517,0.0763051487572348,-0.2468244179286444,-0.2438696350316085,1.4814456275190837,0.2112520232768812,-0.7076769507965678,-1.2842301441985031,9.060188599777575,-1.2510781099705195,0.0803948435289566,-1.1274667405478869
0.14,-0.8193493757119812,0.5919696433283089,2.367851182334781,0.1077846763615992,0.1844306870178777,0.0352019649481855,-0.0103023666519828,-0.0377682849006703,-0.1892505845524162,-0.8128975931967335,0.5781717787498114,2.3678032983568063,0.0887889355487979,-0.286824418524691,-0.283869635627655,1.483499787931805,0.2829351593512868,-0.7817887862861266,-1.2286275310417871,9.124095810917424,-1.2439071662010073,0.0683848965313704,-1.122872487852731
0.16,-0.8194792429391382,0.5910222291884626,2.36379231182801,0.1199355935531453,0.1918737136724851,0.0367448582855965,-0.0028108173135504,-0.0564024133252898,-0.215374796559996,-0.811309071287631,0.5730352903882583,2.362725905653194,0.1012727223403609,-0.3268244191207374,-0.3238696362237014,1.6475956016665283,0.3745774669216172,-0.931706421230976,-1.3062106003789902,9.123285599667724,-1.2381196590126915,0.0572505331952693,-1.1183412575773113
0.18,-0.8194430461197808,0.5896792001419123,2.359212799034774,0.1314784957610514,0.1988691134237721,0.038247255848781,0.0062104839988331,-0.0772055123073592,-0.2413002936465175,-0.8094084547087393,0.5668988020118041,2.3566485129346804,0.1137565091319239,-0.3668244197167838,-0.3638696368197479,1.7221238368725285,0.4510650656191817,-1.040154949103468,-1.2962748543260738,9.122524602524209,-1.2333538430474007,0.0474421415229702,-1.1133515281810555
0.2,-0.8192278633323885,0.5879981122080408,2.35438493005051,0.1419025187016236,0.2051008611025961,0.0396230522755837,0.0161121574589634,-0.0989047599506664,-0.2656276113893739,-0.8191325219198391,0.5858189245265444,2.3471477843524484,0.0340393021859507,-0.1772055137974753,-0.3413002951366337,1.7034662266673486,0.495083673006514,-1.084962382165361,-1.21636588714282,9.178754151721478,-1.2291672466282657,0.037858331639873,-1.1077983734382253
0.22,-0.8187099365341942,0.5855989494558517,2.348917079108128,0.1475181223175441,0.2099895414789697,0.0404700434378854,0.035239482245875,-0.1378542798137028,-0.2788630885478279,-0.8191325219198391,0.5858189245265444,2.3471477843524484,0.0340393021859507,-0.1772055137974753,-0.3413002951366337,2.268312978116678,0.9563662393455808,-1.9474759931518169,-0.6617738579226984,9.178754151721478,-1.213326172285181,0.0330367269055124,-1.0950106652137794
0.24,-0.8178020851748651,0.5824945891902278,2.3432091851199903,0.1470420827420673,0.212128209762225,0.0404564154592487,0.0543736282162946,-0.170138007291406,-0.2913285788328192,-0.8191325219198391,0.5858189245265444,2.3471477843524484,0.0340393021859507,-0.1772055137974753,-0.3413002951366337,1.977209555103573,0.9567072985209774,-1.6141863738851638,-0.6232745142495638,9.97358903866916,-1.2150418222646076,0.0341457160287621,-1.0916699255006024
0.26,-0.8165184897659986,0.5787778389053205,2.3372298725278986,0.1432283431451813,0.2118284129028791,0.0398201346128427,0.0728574453915952,-0.1990867093585898,-0.3058025158682499,-0.8187921288979796,0.5840468693885696,2.343734781401082,0.0396050658233742,-0.1972055140954985,-0.3613002954346569,1.8635810299327775,0.9241908587650342,-1.4474351033591903,-0.7236968517715353,9.97358903866916,-1.218815429378935,0.0380956796687746,-1.085972547300433
0.28,-0.8149655134506169,0.5747557295340505,2.3312671452460005,0.1383651677525178,0.2093196928535896,0.0387978305549656,0.0895371274446422,-0.2226116690217772,-0.3210481339266497,-0.8181113428542606,0.5805027591126201,2.3369087754983493,0.0507365930982212,-0.237205514691545,-0.4013002960307033,1.6309999927406011,0.8339841026523478,-1.1762479831593675,-0.7622809029199928,9.83045833433698,-1.2243772568043083,0.0432301198046277,-1.078053764838507
0.3,-0.8130068516199018,0.5700690360034969,2.3246621997203345,0.1332518556489021,0.2044924559678559,0.0374252134912299,0.1050424556044393,-0.2447701844809716,-0.3386620891855609,-0.8174305568105416,0.5769586488366706,2.330082769595617,0.0618681203730683,-0.2772055152875914,-0.4413002966267498,1.6137428764841073,0.7752664079898552,-1.1079257729597212,-0.8806977629455592,9.700035889206449,-1.2344078540172327,0.0484626251414842,-1.0667953722304926
0.32,-0.8107733479934889,0.5649552557906424,2.317690624356829,0.1286358124593793,0.1982730989230746,0.035919853958341,0.1172270926550848,-0.2655054668932842,-0.357632744668349,-0.8161931944030802,0.5714145385309187,2.3212567636630816,0.0729996476479153,-0.3172055158836379,-0.4813002972227962,1.5315866660272262,0.6092318525322722,-1.0367641206156295,-0.9485327741394016,9.568724095395735,-1.2451839450296114,0.0530716090266954,-1.0532972682128088
0.34,-0.8083289731515779,0.5594380432372785,2.310330508684173,0.1246658128039511,0.1916229915623728,0.0344263322646191,0.1264179572345186,-0.2852676355159746,-0.3773794319747275,-0.8149558319956188,0.565870428225167,2.3124307577305467,0.0841311749227623,-0.3572055164796844,-0.5213002978188428,1.4704990309118129,0.4595432289716927,-0.9881084311345212,-0.987334365318926,9.389979352781666,-1.254549350419501,0.0567577311459907,-1.0391090539343324
0.36,-0.8058591979728333,0.553828731604573,2.3029663341962907,0.1212170377617461,0.1855075925587014,0.0330743510299393,0.1329980390995274,-0.3040933285099306,-0.3967570320416965,-0.8134401814062863,0.5593263179045139,2.3026047517831105,0.0952627021976094,-0.3972055170757308,-0.5613002984148892,1.390319727983726,0.3290040932504387,-0.941284649697796,-0.9688800033484518,9.389979352781666,-1.261595321829628,0.0600852525415977,-1.0237064974040313
0.38,-0.8031442294607565,0.5475437065524712,2.294809464276414,0.1176950376473859,0.1796646115827772,0.0317496421934778,0.1380408715703389,-0.3233074139595506,-0.4179143115227446,-0.8116462426350826,0.5517822075689598,2.291778745820773,0.1063942294724564,-0.4372055176717772,-0.6013002990109356,1.4510700483032763,0.2521416235405735,-0.9607042724810028,-1.0578639740524032,9.332922195091667,-1.2663512534858108,0.0631642029353039,-1.0085055580623226
0.4,-0.8003469238076482,0.5408800451997459,2.28622218470158,0.1141996750511018,0.1747444270936206,0.0305530146897592,0.1413093794979735,-0.3419628128143658,-0.4397458132223005,-0.7962421858822395,0.5313783358544937,2.2739137487002767,0.166658497626414,-0.4233074154496667,-0.5179143130128607,1.4450964647411633,0.1634253963817333,-0.9327699427407576,-1.0915750849777972,9.208637464492313,-1.2698592819133785,0.0660382601887177,-0.9948404816219462
0.42,-0.7974907252109827,0.5338332514859844,2.277451721528363,0.1110808753692051,0.1722696957955463,0.0296748002349781,0.1441494669606768,-0.3618780850173173,-0.4362213551400573,-0.7962421858822395,0.5313783358544937,2.2739137487002767,0.166658497626414,-0.4233074154496667,-0.5179143130128607,1.0211586170705171,0.1420043731351655,-0.9957636101475764,0.1762229041121638,9.208637464492313,-1.2662821727035978,0.0689808367808825,-0.9747485249159812
0.44,-0.7947327253874295,0.5267842452694975,2.2691557689851938,0.1088635916342702,0.1733677884813369,0.0292788877708528,0.1464913306637991,-0.3793151867608608,-0.4373371373953796,-0.7962421858822395,0.5313783358544937,2.2739137487002767,0.166658497626414,-0.4233074154496667,-0.5179143130128607,0.881450243717676,0.1170931851561141,-0.871855087177173,-0.0557891127661164,10.291847204047372,-1.2636035793669813,0.0701887920649871,-0.9786681871133344
0.46,-0.791761465095302,0.5190093347879045,2.2603463852578014,0.1071671892587774,0.1770098921788215,0.0291712882599676,0.1507955892178529,-0.3972649706798516,-0.4437900759116271,-0.7945756009059753,0.527145261699997,2.268734605570148,0.172382022837629,-0.44330741574769,-0.5379143133108839,0.9777036871326072,0.215212927702689,-0.8974891959495412,-0.3226469258123782,10.291847204047372,-1.2589214506453548,0.0710582415571682,-0.9838492502181118
0.48,-0.7886842779080583,0.5108815436288311,2.251357638130775,0.105878745872471,0.1819970183537332,0.0292267257906703,0.1569584025322809,-0.4146151113253531,-0.4547573889548124,-0.7912424309534472,0.5186791133910037,2.258376319309891,0.183829073260059,-0.4833074163437364,-0.5779143139069304,1.0715521496343468,0.3081406657214,-0.867507032275075,-0.5483656521592634,9.98807843591112,-1.253068051288469,0.0717567028175795,-0.988614933203265
0.5,-0.7854646437427697,0.5024138509062571,2.242115045226418,0.1049595365893281,0.1874113819001419,0.0293430802735288,0.1648584039595736,-0.4312910961634209,-0.4689595386444307,-0.7879092610009188,0.5102129650820103,2.2480180330496338,0.1952761236824891,-0.5233074169397829,-0.6179143145029768,1.164258936702888,0.3950000713646331,-0.8337992419033879,-0.7101074844809124,9.598567353679757,-1.2475975858258888,0.0722515554314041,-0.9923537263932136
0.52,-0.7822453316796655,0.4940664706623849,2.2330472660603804,0.1044950951093494,0.192373681556559,0.0294547492272623,0.1736994367099545,-0.4465701134782004,-0.4848351144738222,-0.7840037385272691,0.4997468167432146,2.2356597467595742,0.2067231741049191,-0.5633074175358294,-0.6579143150990233,1.1870616434219012,0.4420516375190475,-0.7639508657389771,-0.7937787914695765,9.598567353679757,-1.242548395910179,0.0724961579705636,-0.995026916289155
0.54,-0.778662574718183,0.4849715512286173,2.223164468574216,0.1045830306530155,0.1970402342640787,0.0295473552022688,0.1841774048964791,-0.4621548358902504,-0.5026570273097635,-0.7800982160536193,0.489280668404419,2.2233014604695147,0.2181702245273492,-0.6033074181318758,-0.6979143156950698,1.2944998716786005,0.5238984093262317,-0.7792361206025028,-0.8910956417970628,9.47207870424336,-1.2384377291017057,0.0722890406397727,-0.9960561828289975
0.56,-0.7748569195918414,0.4755552116198981,2.212916554958131,0.1050198327899658,0.2008515281185517,0.0295689195656814,0.1958802520107215,-0.4786649115442926,-0.5212553805195377,-0.7759065173194087,0.4778145200507221,2.209943174164554,0.2296172749497792,-0.6433074187279222,-0.7379143162911161,1.3742615933629994,0.585142355712119,-0.8255037827021056,-0.9299176604887104,9.41850051622714,-1.2355154114613518,0.0718078957611045,-0.9954971166493044
0.58,-0.7708078218360775,0.4657997526578247,2.202288827552493,0.105223416827117,0.2035600740989378,0.0294515780208225,0.2083636990865527,-0.495924472997212,-0.5405544438387058,-0.7714286423246375,0.4653483716821242,2.195584887844692,0.2410643253722092,-0.6833074193239687,-0.7779143168871626,1.4371697511423622,0.6241723537915578,-0.8629780726459729,-0.9649531659584044,9.390509186909185,-1.2341856811974246,0.0715496015256826,-0.9936531283176888
0.6,-0.7667266946426821,0.4562066945474207,2.1918285562941677,0.1048138164879959,0.2050584828194554,0.0291777916777345,0.2205056653281435,-0.5128557060222464,-0.5595228548154372,-0.7603896368817499,0.4410035290079641,2.175261105360557,0.2643670014222918,-0.5959244744873282,-0.6405544453288219,1.408806774314819,0.6070983120795417,-0.8465616512517177,-0.9484205488365705,9.36140248025913,-1.2340607547715707,0.0718270523902752,-0.990034648542632
0.62,-0.7621717584763918,0.4457139036921964,2.18069268218953,0.1028867219705864,0.2070263823924389,0.0288193318016585,0.2347848358153481,-0.5353803241384881,-0.5516873947557862,-0.7603896368817499,0.4410035290079641,2.175261105360557,0.2643670014222918,-0.5959244744873282,-0.6405544453288219,1.3898269365568203,0.7139585243602309,-1.1262309058120867,0.3917730029825483,11.07588624982236,-1.2299376012823933,0.0736815238206795,-0.9785221807902204
0.64,-0.7573186958653637,0.4347998711179417,2.1697114528352115,0.0995806215127294,0.2105116663209557,0.0285127375240698,0.2500289342347951,-0.5545581676399383,-0.5469853155980869,-0.7603896368817499,0.4410035290079641,2.175261105360557,0.2643670014222918,-0.5959244744873282,-0.6405544453288219,1.2472788044310392,0.7622049209723494,-0.9588921750725066,0.2351039578849634,11.07588624982236,-1.2265109506515923,0.0758369170455468,-0.9860881210303376
0.66,-0.7521538422717537,0.4235286315616217,2.158762004805521,0.0960787553670209,0.2146924985878561,0.028249781180454,0.2658639417866791,-0.5714848486630157,-0.5481927879760498,-0.7577459668675269,0.4350442842630908,2.168855560907269,0.2755676618894397,-0.6159244747853514,-0.6605544456268451,1.160514954846313,0.791750377594197,-0.8463340511538742,-0.0603736188981407,10.672569231933268,-1.2239115920672703,0.0783039527468194,-0.992283241704522
0.68,-0.7469442041069864,0.4125236338469224,2.148291440656682,0.0928901645503952,0.218678412275738,0.0279987999553937,0.281787298677247,-0.5860595509482678,-0.5539051628158947,-0.7524586268390812,0.4231257947733442,2.1560444720006924,0.2979689828237353,-0.6559244753813979,-0.7005544462228915,1.1164748851620252,0.7961678445283976,-0.728735114262602,-0.2856187419922495,10.334178734251507,-1.2214653908936333,0.0809195802297341,-0.997153970972749
0.7000000000000001,-0.7411278167723165,0.4006541023325606,2.1371148767191914,0.0898738651817577,0.222387916540291,0.02770196141427,0.2990274081930343,-0.6001212741774146,-0.5636139905817867,-0.7471712868106353,0.4112073052835976,2.143233383094116,0.320370303758031,-0.6959244759774443,-0.740554446818938,1.213687328842585,0.8620054757893625,-0.7030861614573392,-0.4854413882945996,10.071904268532307,-1.220210096369652,0.0833541623527554,-1.0000407637125968
0.72,-0.734963055100809,0.3885125763293257,2.125710887614832,0.0872737763547751,0.2253207285912878,0.0273560819068765,0.3165610788577062,-0.6133390128739792,-0.5764113463860289,-0.7407638807354746,0.3972888157640488,2.1284222941577373,0.3427716246923266,-0.7359244765734908,-0.7805544474149845,1.2707385045793336,0.8766835332335965,-0.6608869348282309,-0.6398677902121064,9.863893702716268,-1.2200827679597068,0.0854816665676049,-1.0008940683220466
0.74,-0.7284444803354025,0.3761140682660759,2.1140337972287147,0.085102847099745,0.2273133850556953,0.0269532858912727,0.334347585067959,-0.6259265908298012,-0.5906327745083666,-0.7343564746603141,0.3833703262444999,2.1136112052213587,0.3651729456266223,-0.7759244771695373,-0.820554448011031,1.301014930544684,0.8893253105126397,-0.6293788977910997,-0.7110714061168866,9.702340753867247,-1.22080409691787,0.0871608491191236,-0.9997440100582003
0.76,-0.7219188947041069,0.3640981905498794,2.1026675110062167,0.083149251644275,0.2282281850563309,0.0264931495637886,0.3515503645450503,-0.6381594199552216,-0.605070682419932,-0.727389035561796,0.3684518367100499,2.097800116270079,0.387574266560918,-0.8159244777655836,-0.8605544486070773,1.278701406713086,0.8601389738545628,-0.6116414562710226,-0.7218953955782703,9.637572437705783,-1.222393070315469,0.0887802396012033,-0.9970918150562784
0.78,-0.7146984330524961,0.3512026428451081,2.090396328554246,0.0809883159409327,0.2280714035846256,0.0259094654335497,0.3695191915846766,-0.6506416217490401,-0.6213098651665181,-0.7198615634399207,0.3525333471606987,2.0809890273038976,0.4099755874952135,-0.8559244783616301,-0.9005544492031238,1.3623464712387148,0.8984413519813189,-0.6241100896909213,-0.8119591373293045,9.587276419714726,-1.224897964359601,0.0904440497998225,-0.9930483267861638
0.8,-0.707119221150902,0.3380615528191992,2.077789162579936,0.0786592868059222,0.2265969411461109,0.0252122666654401,0.387432426891548,-0.6627122293329459,-0.6386060930143543,-0.6962224734732623,0.3186705617576561,2.05933083529592,0.435498873493761,-0.7506416232391562,-0.7213098666566342,1.3836031443013703,0.8956617653435694,-0.603530379195294,-0.8648113923918122,9.521562986205936,-1.2284859860375503,0.0921224110141159,-0.9879143310746926
0.8200000000000001,-0.6995531536025422,0.3253277982238451,2.065789947493567,0.0760257692112345,0.224825380053129,0.0244999551609989,0.4079909512403349,-0.6767491721596934,-0.6235712749750586,-0.6962224734732623,0.3186705617576561,2.05933083529592,0.435498873493761,-0.7506416232391562,-0.7213098666566342,1.454075686472142,1.0279262174393426,-0.701847141337375,0.7517409019647869,11.47497567342998,-1.2291327137829322,0.0943094727577258,-0.9729560149793458
0.84,-0.6911859968430858,0.3116635419073865,2.053437574447849,0.0732953210462853,0.2239140947481277,0.0238376314903578,0.4276378357689398,-0.6889420483270365,-0.6129304693151777,-0.6962224734732623,0.3186705617576561,2.05933083529592,0.435498873493761,-0.7506416232391562,-0.7213098666566342,1.2726871630568253,0.9823442264302455,-0.6096438083671551,0.5320402829940452,11.47497567342998,-1.232330692223686,0.0960494779859013,-0.9781844975007482
0.86,-0.6824337075370218,0.2977667171331069,2.041221476934931,0.0709908502969176,0.2236002375017792,0.0232587331738306,0.4465722824340204,-0.7001300728198236,-0.6094938068958993,-0.6918674847383247,0.3111641455252645,2.052117736629354,0.4486948098755778,-0.7706416235371794,-0.7413098669546574,1.1129867599707404,0.9467223332540298,-0.5594012246393554,0.1718331209639212,10.974882134595646,-1.2353160563795915,0.0975097116524099,-0.9835255299073268
0.88,-0.6737757592062821,0.2843663018281099,2.029619482234463,0.069173520187686,0.2233128125727407,0.0227430294984746,0.4638050891892801,-0.7099436803786233,-0.6119030875215811,-0.6831575072684495,0.2961513130604814,2.037691539296221,0.4750866826392116,-0.8106416241332258,-0.7813098675507039,0.9988507835451942,0.8616403377629839,-0.4906803779399837,-0.1204640312840898,10.238637767615728,-1.2383209937598632,0.0986664372225995,-0.9867615870151446
0.9,-0.6643178706127102,0.2700678673332073,2.0173144290354106,0.0677198038068081,0.2227831769591621,0.0222240568181909,0.4809897017571212,-0.7193974304713804,-0.6186509942544577,-0.6744475297985743,0.2811384805956983,2.0232653419630884,0.5014785554028454,-0.8506416247292723,-0.8213098681467503,1.037085513830354,0.8592306283920548,-0.4726875046378531,-0.3373953366438309,10.238637767615728,-1.2415505599905476,0.0995409963399008,-0.9878398715404654
0.92,-0.6545257815823234,0.2555881846899479,2.0048360145698667,0.0669196649548239,0.2219325145311824,0.0217361816525402,0.4972817220999864,-0.7281269487658211,-0.6289807044446967,-0.6644179586905173,0.2641256481011128,2.006839144600153,0.5278704281664791,-0.8906416253253188,-0.8613098687427968,1.058698882024106,0.8146010171432627,-0.4364759147220343,-0.5164855095119492,9.990502734435722,-1.2448090256350866,0.0998616549459087,-0.9871284133425124
0.94,-0.644414143304604,0.2409403122752234,1.992130539313338,0.0669864633067239,0.2206826751873251,0.0212878864377222,0.5130112169783257,-0.7363334753967152,-0.6410216644535199,-0.6543883875824604,0.2471128156065273,1.9904129472372185,0.5542623009301129,-0.9306416259213652,-0.9013098693388432,1.072087690449525,0.786474743916965,-0.4103263315447081,-0.6020480004411632,9.708049654415843,-1.24779178848263,0.0994635291460295,-0.984612175566052
0.96,-0.6345170117539933,0.2268647192164659,1.9798256816157247,0.0676741298506154,0.2189374774558875,0.0208709708315138,0.5279414762017274,-0.7448803914622363,-0.6535997495765881,-0.6436990196553127,0.2290999830970407,1.972986749859382,0.5806541736937465,-0.9706416265174116,-0.9413098699348896,1.0655639822086929,0.7465129611700816,-0.4273458032760524,-0.6289042561534064,9.708049654415843,-1.2511132119648292,0.0984392934839495,-0.9808335409479558
0.98,-0.623795684581281,0.2118674669882682,1.966602861438876,0.0687035268052711,0.2162042662929554,0.0203930357353135,0.5433236943098063,-0.754394661076002,-0.6680533978996686,-0.6323498549090741,0.210087150572653,1.9545605524666447,0.6070460464573803,-1.010641627113458,-0.981309870530936,1.1576289453611894,0.7691109054039469,-0.4757134806882834,-0.7226824161540246,9.642666669300525,-1.2545924586374362,0.0970961280902887,-0.9754503367552478
1.0,-0.6127716560259686,0.1966721432496512,1.953078389756484,0.0697269925934177,0.21228968937875,0.0198317209787983,0.5581970368040846,-0.764638027605851,-0.6836871409206146,-0.5966294998657906,0.1741477339344681,1.9332001915438923,0.6286566318484301,-0.8133808070790098,-0.7680533993897847,1.1943165364151935,0.7436671247139148,-0.5121683264924515,-0.7816871510473,9.568039603769648,-1.2586248450574904,0.0958118329603501,-0.9684656629391908
1.02,-0.6020226748856775,0.1818471374591219,1.9402631196688944,0.0648869705426207,0.2093842476143164,0.0189557777738967,0.5724375844378748,-0.7919201194485194,-0.6642589177298305,-0.5966294998657906,0.1741477339344681,1.9332001915438923,0.6286566318484301,-0.8133808070790098,-0.7680533993897847,1.819726345204796,0.7120273816895117,-1.3641045921334194,0.971411159539204,9.49766164978064,-1.2576714342281037,0.0996215697082402,-0.9461052194397056
1.04,-0.590435511542403,0.1658301920408905,1.927143480891688,0.0536985001477339,0.2096081755652562,0.0178513932275191,0.5858630115837896,-0.8071383003938349,-0.6492332963635735,-0.5966294998657906,0.1741477339344681,1.9332001915438923,0.6286566318484301,-0.8133808070790098,-0.7680533993897847,1.2625415070174415,0.6712713572957385,-0.7609090472657787,0.7512810683128479,11.801639736117068,-1.256754852326881,0.1083617450239661,-0.9565210880467292
1.06,-0.5785738989212396,0.1496013426568402,1.914231257141245,0.0411019136317476,0.2120869145618417,0.0167834778544428,0.5997969754066719,-0.8145013555815213,-0.6431192281768113,-0.5903429335473063,0.166013925863678,1.9255196575499944,0.6457232193561548,-0.8251780362796114,-0.7880533996878079,0.8452096771019062,0.6966981911441128,-0.3681527593843159,0.3057034093381094,11.176180482575546,-1.2557551886302527,0.1187936799742315,-0.9668245794295416
1.08,-0.566430265883406,0.133280626432151,1.90136128497954,0.0289321805121233,0.2157317351000526,0.0157852090261125,0.6139973923723845,-0.81700952924217,-0.6444959868641693,-0.5777698009103377,0.1497463097220978,1.9101585895621989,0.6798563943716044,-0.8487724946808146,-0.8280534002838543,0.7242897237902908,0.7100208482856307,-0.1254086830324352,-0.068837934367899,10.211201413904746,-1.2544630510004728,0.1291724467415106,-0.9755497770271738
1.1,-0.5539978432892223,0.1169471708302392,1.8883998661126429,0.0179294826952351,0.2198512928938505,0.0148660619771997,0.6286295647233362,-0.8161776322327093,-0.6518241611187017,-0.5651966682733691,0.1334786935805176,1.894797521574403,0.7139895693870539,-0.8723669530820177,-0.8680534008799008,0.8192903304798247,0.7316086175475855,0.0415948504730312,-0.366408712726618,10.211201413904746,-1.253093375100688,0.1382575705455598,-0.982394325154843
1.12,-0.541912368209668,0.101471499033482,1.875902454352924,0.0088610877727338,0.2237397910209832,0.0140759296160607,0.6428703492112819,-0.8130515206351545,-0.6633217981271414,-0.5509168768856281,0.1160313545188773,1.877436453556805,0.7481227444025035,-0.8959614114832208,-0.9080534014759472,0.9283967004065752,0.7120392243972873,0.1563055798777413,-0.5748818504219877,9.90031258396266,-1.2518383554294152,0.1466393548944239,-0.987658313204593
1.14,-0.5288926389040252,0.0852636557066391,1.8624901294798637,0.0008189337966287,0.2275439315464607,0.0133394774848146,0.6584092479645127,-0.808021895119941,-0.677391784337267,-0.5366370854978869,0.0985840154572369,1.860075385539207,0.782255919417953,-0.919555869884424,-0.9480534020719936,1.0778671291485409,0.7769449376615389,0.2514812757606732,-0.7034993105062781,9.670591413539114,-1.2507956714005728,0.1536687119808103,-0.990961508448305
1.16,-0.5155507984842655,0.0691662165288712,1.8487807256942848,-0.0058588981080589,0.2307461073816689,0.0126990565299938,0.6750083065805065,-0.8020523286775545,-0.6928956381742557,-0.5215039647347596,0.0805468149355665,1.841714317506708,0.8163890944334025,-0.9431503282856272,-0.98805340266804,1.174238002116664,0.8299529307996878,0.2984783221193277,-0.7751926918494356,9.578263063834129,-1.2502652402008212,0.1592458462755526,-0.9932627861791028
1.18,-0.5018696383859536,0.0531980969823756,1.8347479926253367,-0.0114081398169118,0.2329883627781819,0.0121530257487541,0.6922292654266827,-0.7951398962590829,-0.7096405104063113,-0.505517514596246,0.061919752953866,1.8223532494593075,0.850522269448852,-0.9667447866868304,-1.0280534032640865,1.2497338632579926,0.8610479423088124,0.3456216209235807,-0.8372436116027782,9.517435523202948,-1.2509274301393514,0.1641745910532728,-0.9942684179076288
1.2,-0.4885509424570277,0.0381653224380281,1.8210942619250323,-0.0157100352583742,0.2340523858885307,0.0117306865049423,0.708761140328388,-0.7877630333135486,-0.7267296150043401,-0.4672581751146194,0.0134411021694215,1.7992659671050215,0.7922292669167988,-0.8066598982963696,-0.8096405118964274,1.2447474549534123,0.8265937450852634,0.3688431472767151,-0.8544552299014407,9.460210411724802,-1.2527291585236395,0.1681803875116472,-0.993530221046264
1.22,-0.4741416806809592,0.0223921026466998,1.8067017716228515,-0.0229903822813067,0.2349836396664203,0.0111158371201428,0.7317199636793357,-0.7880078228942765,-0.7099580640698133,-0.4672581751146194,0.0134411021694215,1.7992659671050215,0.7922292669167988,-0.8066598982963696,-0.8096405118964274,1.4216648799455858,1.1479411675473838,-0.0122394790363966,0.8385775467263379,11.62827575837673,-1.2484638069250646,0.173667582043919,-0.9823695418833964
1.24,-0.4592683390249719,0.0067049791296542,1.792641844802442,-0.033232419285816,0.2364554186991876,0.0103029600379772,0.7544052198192858,-0.7800793217839459,-0.6974990122259788,-0.4672581751146194,0.0134411021694215,1.7992659671050215,0.7922292669167988,-0.8066598982963696,-0.8096405118964274,1.3534307784654285,1.1342628069975047,0.3964250555165305,0.6229525921917278,11.084517225220225,-1.2511124079688034,0.1837360026114236,-0.9950635253973312
1.26,-0.4439497884423289,-0.0087619180992457,1.778734611268014,-0.0434161626911528,0.2378329790669016,0.0095203464581579,0.7762859373873527,-0.7669675829268886,-0.6938230610547312,-0.4593358824454514,0.0053745031864578,1.7911695619860573,0.812229267214822,-0.808963898703827,-0.8296405121944506,1.2886001262635522,1.0940358784033488,0.6555869428528649,0.1837975585623763,10.615249809487976,-1.2543003174825549,0.1933956382053951,-1.0045988107332988
1.28,-0.4282040811185264,-0.0239326329819106,1.7648312741760737,-0.0523285879280448,0.2386799829450044,0.0088778066888951,0.797121542848309,-0.7509657811700949,-0.6966725116364775,-0.4434912971071155,-0.0107586947794695,1.7749767517481287,0.8522292678108685,-0.8135718995187416,-0.869640512790497,1.3212678409449872,1.0417802730478154,0.8000900878396833,-0.1424725290873119,10.615249809487976,-1.2581760690093438,0.2024857634989225,-1.0116736466322398
1.3,-0.4128703998369511,-0.0380304688334432,1.7515218083929,-0.0592693836260744,0.2388823190298322,0.008437117710727,0.8158322507135066,-0.7341128457742884,-0.7041475173277227,-0.4276467117687795,-0.0268918927453969,1.7587839415102002,0.892229268406915,-0.8181799003336564,-0.9096405133865436,1.3133808761704897,0.9355353932598788,0.8426467697903284,-0.3737502845622631,10.26434653301476,-1.2627897764010705,0.2101087854646032,-1.0164791356619682
1.32,-0.3963587896744996,-0.0525155005667102,1.7373205708867174,-0.0649753219092444,0.2385356891155706,0.0081548076902517,0.834236526888473,-0.7154987407775787,-0.715719940048499,-0.4098021264006412,-0.04325549075207,1.7405911312424691,0.9322292690029614,-0.8227879011485711,-0.94964051398259,1.4310164691411735,0.9202138087483214,0.930705249835484,-0.5786211360388149,9.998597950918338,-1.2681249988054597,0.2161574812456093,-1.01885898587523
1.34,-0.3794877658388951,-0.0666192092569245,1.7228677145440876,-0.0690975056538285,0.2377381185393385,0.0080501941495367,0.851881158695159,-0.6960691622874734,-0.7290086797052637,-0.3919575410325028,-0.0596190887587432,1.7223983209747384,0.972229269599008,-0.8273959019634858,-0.9896405145786364,1.4709114126638854,0.8822315903342981,0.9714789245052646,-0.6644369828382346,9.791844962816867,-1.273464156814651,0.2206184081952949,-1.0190882542992274
1.36,-0.362263248007569,-0.0803292355333627,1.7081355245093028,-0.0717141047350689,0.2362984621487209,0.0081313670189256,0.8696157824122118,-0.6762866926720721,-0.7434974615798217,-0.3731129556494634,-0.0760978867857892,1.7032055106921065,1.0122292701950544,-0.8320039027784005,-1.0296405151746828,1.5130992884459422,0.8867311858526405,0.9891234807700656,-0.7244390937278966,9.71309324007052,-1.2787399749607713,0.2235758333312381,-1.018530308277955
1.38,-0.3446839913694035,-0.0936399079082594,1.6931020900076663,-0.072936383416494,0.2337654349275309,0.008421918196887,0.8873179190423838,-0.6560612478260079,-0.759073899072373,-0.3532683702515228,-0.092691884833208,1.6830127003945734,1.0522292707911007,-0.8366119035933152,-1.0696405157707292,1.5532704734316372,0.8851068315085975,1.0112722423032072,-0.7788218746275666,9.65621236872812,-1.2853707186958927,0.2254920038120269,-1.0166176223675258
1.4,-0.3276588732252273,-0.1059040757340019,1.6785210552472138,-0.0725529587671602,0.2299578105215742,0.0089337128163219,0.9037856109306608,-0.6361811873730588,-0.7749380995154913,-0.3003180954172842,-0.1264429702995598,1.6551483950540478,0.9873179205325,-0.6111755938235799,-0.7845551771491409,1.5149872404079603,0.8233845944138507,0.994003022647455,-0.7932100221559157,9.598431178647845,-1.2936225689943175,0.2259468799378205,-1.012841946466423
1.42,-0.3092643026785731,-0.1185493053102297,1.6633494357556693,-0.0761064358869649,0.22343708209587,0.0094074049069275,0.9347978988478114,-0.6269319248862213,-0.7388939438403219,-0.3003180954172842,-0.1264429702995598,1.6551483950540478,0.9873179205325,-0.6111755938235799,-0.7845551771491409,2.4220301488330565,1.5506143958575302,0.4624631243418775,1.8022077837584691,9.535309208947185,-1.2936635221515491,0.2275683284601224,-0.9889246170114946
1.44,-0.2902775700448166,-0.1308845141128763,1.6489255307423425,-0.0844246477892003,0.214121703236857,0.0098557391448793,0.9615810185574604,-0.6063057814810985,-0.7055615702619965,-0.3003180954172842,-0.1264429702995598,1.6551483950540478,0.9873179205325,-0.6111755938235799,-0.7845551771491409,2.3737209300564013,1.3391559854824542,1.0313071702561405,1.6666186789162707,13.131085694868489,-1.3094441469133404,0.2378347581762552,-0.9955838235623972
1.46,-0.2718046399928854,-0.1421574229612104,1.6357559717140682,-0.0924052887533146,0.2036365904747258,0.0105410442946675,0.9811140749456896,-0.5814359102589965,-0.6822903366135895,-0.2904449162119593,-0.1325547262377956,1.6473028432825565,1.0073179208305232,-0.6021984630230943,-0.7896514327644945,1.9631614184704895,0.976652819411461,1.2434935611050968,1.16356168242035,11.917909742470329,-1.3286669498375732,0.2487491747160803,-0.996962694894918
1.48,-0.2520205483230573,-0.1534859515366237,1.6223023870383968,-0.099483391799718,0.1918493576193412,0.0115580084532835,0.9957513259348292,-0.5529267688695939,-0.6645301273879602,-0.2706985578013092,-0.1447782381142672,1.6316117397395735,1.0473179214265695,-0.5842442014221231,-0.7998439439952016,1.831969767093705,0.7318625494569797,1.4254570694701318,0.8880104612814632,11.917909742470329,-1.3483512419982029,0.2581788834708042,-0.9935516152373448
1.5,-0.2320028801197902,-0.1642293355837084,1.6091379630921352,-0.1047568340233224,0.1801890323721384,0.012803348510823,1.0048864938807491,-0.5231781928291523,-0.6529866522849033,-0.2509521993906592,-0.1570017499907388,1.6159206361965908,1.087317922022616,-0.5662899398211518,-0.8100364552259088,1.6595789279882047,0.4567583972959921,1.4874288020220785,0.5771737551528489,11.459396865155211,-1.3670372259910106,0.2657820240808525,-0.9882573509184822
1.52,-0.2118557046002248,-0.1743711523668446,1.5961462462050402,-0.1080781324241743,0.1694226148689002,0.0141737809547343,1.0091960158717497,-0.493035165996052,-0.6466549796285366,-0.2292058409502069,-0.1683275487871618,1.599719907092073,1.1273179226186625,-0.5483356782201806,-0.820228966456616,1.5550435082975214,0.2154760995500271,1.5071513416550164,0.3165836328183347,11.070824716716745,-1.3832848678976628,0.271091026713436,-0.9822397355107516
1.54,-0.1926708855477202,-0.1834446022449145,1.5839050084500672,-0.1095222233667084,0.1605566581663829,0.0154950913487564,1.0099864301657384,-0.4640044131201374,-0.642148420118656,-0.2074594825097546,-0.1796533475835849,1.5835191779875544,1.167317923214709,-0.5303814166192093,-0.8304214776873232,1.4694543595452851,0.0395207146994369,1.4515376437957277,0.2253279754940274,10.7722305729867,-1.3977550628910749,0.2746453022273164,-0.9752124884377612
1.56,-0.17248266427244,-0.1923949966742592,1.5711027399319677,-0.1090497299353688,0.1528818388906828,0.0168666739848492,1.0086888086388743,-0.4328168819206339,-0.6383203527731119,-0.1847131240544011,-0.1905302898399836,1.5670636361022685,1.2073179238107554,-0.5124271550182382,-0.8406139889180303,1.57241853807201,-0.0648810763432039,1.5593765599751757,0.1914033672772042,10.68237214547662,-1.4098768959449322,0.2762688823502428,-0.9701883648263748
1.58,-0.1523420890159225,-0.2007136675387293,1.5583677460412555,-0.1058945305646739,0.1469752984937306,0.0182322884129522,1.0052981776578984,-0.401146495711191,-0.6353354101070975,-0.1609667655841465,-0.2009583755563581,1.550353281436215,1.2473179244068018,-0.4944728934172669,-0.8508065001487375,1.599546516847683,-0.1695315490487958,1.583519310472148,0.1492471333007228,10.62717014174541,-1.4206267421935086,0.2754359949151003,-0.9671626840202816
1.6,-0.1322915487509272,-0.2084247545234531,1.545689194873294,-0.100341779344825,0.1432206347780636,0.0195188967621995,0.9998945198179446,-0.3723788034305136,-0.6325739636772906,-0.1020771801330276,-0.2207709923242889,1.526600975535901,1.0919541371448598,-0.3241381663793161,-0.6132818647662018,1.4700384549321568,-0.2701828919976889,1.4383846140338663,0.1380723214903456,10.57827503295266,-1.4289726813717152,0.2725774138623216,-0.9668734107956444
1.62,-0.1132672420839596,-0.2153118508608417,1.5339924860070004,-0.0971114807448107,0.1406409812392363,0.0204816425279937,1.0027543429541843,-0.3524516023758929,-0.5989908687351612,-0.1020771801330276,-0.2207709923242889,1.526600975535901,1.0919541371448598,-0.3241381663793161,-0.6132818647662018,1.9577386164487904,0.1429911568119946,0.996360052731038,1.6791547471064705,10.548831380248885,-1.4260788309451018,0.2692884232600689,-0.9586193898539732
1.64,-0.0931966044919026,-0.2220988249645912,1.522361509547892,-0.0964013941945998,0.1377812048411424,0.0213221440748626,1.003954132556244,-0.3271993877605595,-0.5661764140383942,-0.1020771801330276,-0.2207709923242889,1.526600975535901,1.0919541371448598,-0.3241381663793161,-0.6132818647662018,2.071172539356773,0.0599894801029732,1.2626107307666667,1.6407227348383455,12.647370190263246,-1.4351953680007563,0.2721519999516277,-0.9712618405397606
1.66,-0.0731287338667977,-0.2283613258496537,1.511335656752057,-0.0964542261591452,0.1353564984590466,0.0220756400386055,1.002686887691609,-0.3004017381110222,-0.5380527941849981,-0.091157638761579,-0.224012373988082,1.520468156888239,1.109285329042252,-0.3087365005129411,-0.6088711556980227,1.943359160027189,-0.063362243231746,1.3398824824768674,1.4061809926698088,12.370869514776132,-1.4444560884316695,0.2758756580479106,-0.9859796249878028
1.68,-0.0541075581668795,-0.2338051917962543,1.5013468879974003,-0.0963663595179223,0.1339724041985342,0.0227209019398484,0.9996990276346904,-0.2741330457942291,-0.514816142073053,-0.0693185560186818,-0.2304951373156684,1.508202519592915,1.1439477128370366,-0.2779331687801912,-0.6000497375616645,1.7599101575972802,-0.1493930028459378,1.3134346158396537,1.1618326055972517,11.891774611032815,-1.4534884274408544,0.2799661306548176,-1.0048265335571374
1.7,-0.0341541476386276,-0.238992842626909,1.4912837964714305,-0.0956172994439513,0.1336412993126887,0.0233450040248813,0.995865966290982,-0.2461448300285226,-0.4928337892318588,-0.0474794732757846,-0.2369779006432547,1.495936882297591,1.1786100966318211,-0.2471298370474413,-0.5912283194253062,1.7897321150434315,-0.1916530671854155,1.3994107882853268,1.0991176420597104,11.891774611032815,-1.4605637240090783,0.2830595813356825,-1.0229787892528557
1.72,-0.0142815657535582,-0.2436158092104716,1.4816362109862042,-0.0937113964275082,0.1344381641741975,0.0239485270853918,0.9917473253837876,-0.217819411011885,-0.4730279201413359,-0.0239072713431482,-0.2419204973842035,1.4841123159090848,1.2132724804266055,-0.2163265053146913,-0.5824069012889479,1.7403771256694902,-0.2059320453597191,1.4162709508318785,0.9902934545261448,11.754119439045098,-1.4652617543837865,0.2846712158192908,-1.0408200896050073
1.74,0.0055131289746711,-0.2476809449492241,1.4723830918352865,-0.0905542238952704,0.1362255557557943,0.0245534670489803,0.9881087461470918,-0.1906186969129132,-0.4532667454097188,-0.0003350694105117,-0.2468630941251523,1.4722877495205786,1.2479348642213903,-0.1855231735819413,-0.5735854831525896,1.69087413275591,-0.181928961834793,1.360035704948591,0.9880587365808546,11.64806075406068,-1.467371307733755,0.2846360283291152,-1.0570942850778575
1.76,0.0242622550390263,-0.2510505617339544,1.463959950238071,-0.0867962400807762,0.1385378432621658,0.0251335293417291,0.985779203226274,-0.1658188958431405,-0.434373460276006,0.0241036921169942,-0.2510356075727824,1.4606837185854815,1.2825972480161747,-0.1547198418491914,-0.5647640650162314,1.563180353049516,-0.1164771460408886,1.239990053488632,0.9446642566856428,11.683244166068109,-1.4679945001411536,0.2836444498626983,-1.075136596905952
1.78,0.0439622352621654,-0.254103356913946,1.4554828295056592,-0.08229609838854,0.1412247738115216,0.0257703226635795,0.9844440415488191,-0.1410561188740345,-0.4143357188138047,0.0494090132393698,-0.2544380377270938,1.4493002231037933,1.3172596318109593,-0.1239165101164415,-0.5559426468798732,1.5941211237172757,-0.0667580838727366,1.2381388484553015,1.0018870731100638,11.707657280195235,-1.4682483205742831,0.2819880454893694,-1.0938345444583164
1.8,0.0636468050474711,-0.2566729095807871,1.447404865922151,-0.077373954938003,0.1438574456121689,0.0264515807912757,0.984133166336449,-0.1174843382912966,-0.3944898608188394,0.0931844373396064,-0.2611561628576477,1.434766043564969,1.0170345239327858,-0.0412709995789143,-0.3549959198268929,1.5407656885415224,-0.0155437606185138,1.1785890291368937,0.992292899748265,11.711390716242022,-1.4685795185192432,0.2802451813389248,-1.1147219485086446
1.82,0.0825398756074115,-0.2587332821662541,1.4402462508708307,-0.0743374364827015,0.1408771826095248,0.0274047766643114,1.0032898471233558,-0.0995527732366701,-0.3601029768113933,0.0931844373396064,-0.2611561628576477,1.434766043564969,1.0170345239327858,-0.0412709995789143,-0.3549959198268929,2.162739718401928,0.95783403934534,0.8965782527313267,1.7193442003723052,11.711390716242022,-1.46216602629141,0.2781307357946318,-1.1208738962256135
1.84,0.1027419553568495,-0.2605041959375626,1.4334163144044536,-0.0730281074900785,0.1286804376745045,0.0289378606229122,1.0145555484163098,-0.0784271635888598,-0.3247920402750076,0.0931844373396064,-0.2611561628576477,1.434766043564969,1.0170345239327858,-0.0412709995789143,-0.3549959198268929,2.13311371455578,0.5632850646477006,1.0562804823905154,1.7655468268192864,12.988815847076694,-1.486927790354155,0.2826193560696636,-1.1396511129851596
1.86,0.1230560647140162,-0.2618494857295435,1.427255904756205,-0.0726671200031417,0.1115119716381457,0.0307582018377492,1.0153235149955542,-0.0571669625833953,-0.2931699389339048,0.1033547825789342,-0.2615688728534369,1.4312160843667,1.023552620409579,-0.0213139757198902,-0.3431279600295105,1.9056122458979976,0.0383983289622191,1.0630100502732256,1.5811050670551383,12.774937751128164,-1.5161952681636437,0.2875437816511599,-1.1464585630686606
1.88,0.1432808033449525,-0.2627716564559976,1.421679129462501,-0.0729646184491943,0.0927646963843913,0.0326497809146108,1.0065352799277545,-0.0361123094363584,-0.2660753818845999,0.1236954730575899,-0.2623942928450152,1.4241161659701622,1.0365888133631658,0.0186000719981578,-0.3193920404347459,1.771049488613298,-0.4394117533899844,1.052732657351844,1.3547278524652429,12.475941891894765,-1.5444507870415105,0.2922086988137903,-1.1450624517402253
1.9,0.1622516131565141,-0.2632583612935374,1.416844703966403,-0.0736911466776092,0.0758890978199664,0.0343604993032296,0.990615235486362,-0.0161757998768302,-0.2441793564475561,0.1440361635362457,-0.2632197128365934,1.4170162475736243,1.0496250063167525,0.0585141197162059,-0.2956561208399811,1.6810325386297114,-0.796002222069625,0.9968254779764084,1.0948012718521916,11.964904102024777,-1.5722619850724675,0.2971721968641156,-1.1411344815763171
1.92,0.1818313807091049,-0.2633617296649606,1.412177082612457,-0.0748012035655732,0.0608165151762543,0.0359584356477338,0.9680067299012376,0.0048068869341066,-0.2238697888654263,0.1650286636625807,-0.2620494304422693,1.411103125156825,1.0626611992703388,0.098428167434254,-0.2719202012452165,1.8465482704031575,-1.1304252792562142,1.049134340546845,1.015478379106488,11.964904102024777,-1.594608534149323,0.301643501207629,-1.1348801245045192
1.94,0.2009059705866965,-0.2630403669929667,1.4078947439932448,-0.076055374287656,0.0497292492725791,0.0372682191476376,0.9407503107587728,0.0262701797381836,-0.2053869944541175,0.1860211637889158,-0.2608791480479452,1.405190002740025,1.0756973922239257,0.1383422151523021,-0.2481842816504517,1.965450973513448,-1.3628209571232508,1.0731646402038493,0.9241397205654408,11.767826853331826,-1.6110307736361862,0.3058058778747984,-1.131612420546433
1.96,0.2193984618829147,-0.2622742675356306,1.4039729316699308,-0.0768692737706562,0.0434994865682698,0.038251633088383,0.9099388102554864,0.0491010872295369,-0.1877285182677013,0.2073395687390905,-0.2587110144606698,1.3998702783130947,1.088733585177512,0.1782562628703502,-0.224448362055687,2.1109362149109194,-1.5405750251643149,1.1415453745676671,0.8829238093208125,11.78590604719102,-1.621436243378295,0.3091664822541382,-1.134118010259625
1.98,0.2363817674210876,-0.2611129227336539,1.4005756609959037,-0.076600730822716,0.0427160133305655,0.0388651070900729,0.8799873761374221,0.0718140832708667,-0.1707254187710633,0.2289838785131048,-0.2555450296804433,1.3951439518760334,1.1017697781310989,0.2181703105883982,-0.2007124424609223,2.062809969068153,-1.4975717059032168,1.1356498020664887,0.8501549748319001,11.802466258270217,-1.6221244755623296,0.3108983372924066,-1.1429013335308975
2.0,0.253670561622492,-0.2594198724635569,1.3973611390319087,-0.0748068699310224,0.0463258760226273,0.0392750373527216,0.8509781245263575,0.0961404708751755,-0.1515454149461288,0.2803811362279588,-0.2575222185701105,1.3920393900573502,0.8473851367372737,0.1718139133976291,-0.0707254172809471,2.122016941281115,-1.45046258055323,1.2163193802154408,0.9590001912467228,11.802466258270217,-1.6174803834442175,0.3110441113192423,-1.160158819799653
2.02,0.2705569478822309,-0.2571941999428357,1.3946033386484449,-0.0700472638886564,0.0486231867958813,0.0399864106713551,0.8393840413803823,0.123931782249415,-0.1248126573014912,0.2803811362279588,-0.2575222185701105,1.3920393900573502,0.8473851367372737,0.1718139133976291,-0.0707254172809471,2.013343042791423,-0.5797041572987605,1.3895655687119737,1.3366378822318814,11.877983239149216,-1.6015923519018618,0.3071316806339915,-1.1769204981934436
2.04,0.2863854091216667,-0.2546264050110913,1.3925104811670632,-0.063848105519402,0.0449869883701181,0.0411664485352088,0.826569197479802,0.144648476563237,-0.0969069552826167,0.2803811362279588,-0.2575222185701105,1.3920393900573502,0.8473851367372737,0.1718139133976291,-0.0707254172809471,1.8521135579755896,-0.6407421950290149,1.0358347156911023,1.3952851009437215,12.473675987195747,-1.614357512834432,0.3038051235280922,-1.1931301977391615
2.06,0.302728275753264,-0.2515411151997394,1.390885590029161,-0.0575731271506006,0.0376373038877862,0.0425602406390968,0.8078726822717042,0.1627407875364716,-0.0670700936052979,0.2888549875953315,-0.2558040794361342,1.3913321358845407,0.840864688857244,0.1918138794229816,-0.0507254169829239,1.9793494588060443,-0.9348257604048892,0.9046155486617288,1.4918430838659409,12.51713416871644,-1.6266478916689242,0.2998031474708199,-1.2007755314236843
2.08,0.3186420063130574,-0.248120043149611,1.3898519699334468,-0.0522685789830831,0.0289584126101227,0.0438949361736545,0.7840776905388466,0.1785376724014128,-0.0378521110554733,0.305802690330077,-0.2523678011681816,1.3899176275389218,0.8278237930971847,0.2318138114736865,-0.0107254163868774,2.042935209009835,-1.1897495866428798,0.7898442432470578,1.4608991274912306,12.51713416871644,-1.6386247224731978,0.296642844482054,-1.2051746037295326
2.1,0.3340321272489043,-0.2443997676182242,1.38939388592165,-0.0481217180916632,0.0207525215084306,0.0450639420838552,0.7559368069940747,0.1928380738681532,-0.0094790186873398,0.3227503930648224,-0.248931522900229,1.3885031191933028,0.8147828973371253,0.2718137435243915,0.0292745842091689,2.1221705747424027,-1.4070441772385922,0.7150200733370234,1.4186546184066755,12.500742232133234,-1.6490928643537222,0.2940754227578489,-1.208112784256013
2.12,0.3480932167392338,-0.2406117780084326,1.3894785379621852,-0.0452822790366866,0.0147281177864575,0.0459715304209045,0.7255215929439198,0.2054341344896824,0.0169364195320285,0.3390460510115649,-0.2434952480297412,1.3890886108774865,0.8017420015770659,0.3118136755750965,0.0692745848052154,2.110403613778206,-1.5207607025077452,0.6298030310764576,1.3207719109684175,12.483165312685742,-1.6548549990757615,0.2921813593239624,-1.2101684656097254
2.14,0.3622376323221876,-0.2363715523479489,1.3901135393893085,-0.0433481331598496,0.0115713493283264,0.0466824237888993,0.6904940157782758,0.2180907407050972,0.0451754367612848,0.3553417089583074,-0.2380589731592534,1.3896741025616697,0.7887011058170066,0.3518136076258015,0.1092745854012618,2.33696541323436,-1.7513788582821987,0.6328303107707419,1.4119508614628162,12.499880706659496,-1.6524189796224906,0.2908727686846094,-1.216030189245633
2.16,0.3756728178377618,-0.231874496745372,1.3913197111890974,-0.0422336112816879,0.0123979306215669,0.0471477806791298,0.6553292545827701,0.2310567701191145,0.0740289626183109,0.3713113445110484,-0.2316226999874979,1.3912595942607542,0.7756602100569472,0.3918135396765064,0.1492745859973083,2.3649547052132838,-1.7582380597752856,0.6483014707008655,1.4426762928513035,12.580161113402935,-1.6443106754934544,0.2904231188519677,-1.2297200007976916
2.18,0.3884248298168498,-0.2271158535284641,1.3931146397600995,-0.0416691952466628,0.0164921077200581,0.0474263710679491,0.6221222807145166,0.2441925296049374,0.1040152024883961,0.386954957669788,-0.2241864285144748,1.3938450859747398,0.7626193142968879,0.4318134717272113,0.1892745865933547,2.3315369782090904,-1.6603486934126777,0.6567879742911453,1.4993119935042618,12.62604461432511,-1.6318177298864716,0.2905233340845604,-1.249513430989604
2.2,0.3999497489903662,-0.2223490034533421,1.3953876168847963,-0.0415320314551624,0.0225613561305849,0.0475634846737437,0.5930779366328156,0.2569373389658974,0.1337300628609092,0.4195309438525756,-0.2149062270482173,1.3983153998845197,0.540238768277173,0.3313627430658597,0.2040152039785123,2.1731181604674625,-1.452217204085049,0.6372404680479976,1.4857430186256508,12.702338963151306,-1.616128444673698,0.291096116792615,-1.2733287374353788
2.22,0.4116166340234216,-0.2169828913239893,1.3982338002718866,-0.0389878778968064,0.0268951121070038,0.0479510632552571,0.5752384016303653,0.2778776916477857,0.1484917183319635,0.4195309438525756,-0.2149062270482173,1.3983153998845197,0.540238768277173,0.3313627430658597,0.2040152039785123,1.560972334629625,-0.891976750122514,1.047017634094416,0.7380827735527173,12.790801330282193,-1.6072407533561146,0.2899322150296008,-1.3045476264329467
2.24,0.4229360051578721,-0.211270996662567,1.4013746679549082,-0.0339495667234204,0.0254591833730822,0.0487219280914438,0.5571719258411421,0.2919216552436254,0.1651156271395363,0.4195309438525756,-0.2149062270482173,1.3983153998845197,0.540238768277173,0.3313627430658597,0.2040152039785123,1.4142001316701582,-0.9033237894611634,0.7021981797919852,0.8311954403786389,11.56193080591038,-1.605643130838773,0.2847606618739426,-1.30825296337009
2.26,0.4333221420766877,-0.2056259824904588,1.404700055292274,-0.0294115188212489,0.0202316673860596,0.0495322002547136,0.5365057774291894,0.3017260885051372,0.1840382697671433,0.4249333315353473,-0.2115925996175587,1.4003555519243045,0.5238620657897043,0.3487967857580442,0.2240152042765355,1.4843205564975048,-1.0333074205976345,0.4902216630755907,0.946132131380352,11.806711889181315,-1.60800504906208,0.2793716339844145,-1.3052390174796975
2.28,0.4437838807487748,-0.1995041846174737,1.408610079527007,-0.0257213430856875,0.0127488664328946,0.0503188774435214,0.5103651175193193,0.3101320533716313,0.2060307940092647,0.4357381069008907,-0.2049653447562415,1.4044358560038748,0.4911086608147668,0.383664871142413,0.2640152048725819,1.7590234992748923,-1.3070329954935012,0.4202982433247043,1.0996262121060685,12.004924587015012,-1.6117746616248794,0.2751971613946498,-1.3001175331979826
2.3000000000000003,0.4536771532431142,-0.1932253723885492,1.4129750593688162,-0.0233433986821337,0.005001738987291,0.0509771659276098,0.4800282860033593,0.3175762170977195,0.2293933035369763,0.4465428822664342,-0.1983380898949243,1.408516160083445,0.4583552558398294,0.4185329565267819,0.3040152054686284,1.9503498221094653,-1.5168415757980005,0.3722081863044096,1.1681254763855828,12.164950555313226,-1.615060046447209,0.2724854288932936,-1.2951278048927546
2.32,0.4629224085896294,-0.1868071998470895,1.4178204670711925,-0.0223514697257649,-0.0015107928319027,0.0514797091669121,0.4459300436010688,0.3241240909105369,0.2539413138997807,0.4557099873832308,-0.1899674307643886,1.4145964641928177,0.4256018508648919,0.4534010419111508,0.3440152060646748,2.1261288761304518,-1.7049121201145268,0.3273936906408675,1.227400518140219,12.281262759115634,-1.6163165013643706,0.2713270939890054,-1.291525617908295
2.34,0.47104106824416,-0.1805956745528118,1.4228823217776208,-0.0229166185915047,-0.0053122867801853,0.0517833310857859,0.4103260361124845,0.329630552105931,0.277623945608737,0.4648770925000274,-0.181596771633853,1.42067676830219,0.3928484458899545,0.4882691272955197,0.3840152066607213,2.155709575062006,-1.780200374429214,0.2753230597697054,1.1841315854478118,12.396579186073724,-1.6131471076041966,0.2718171570893439,-1.2920424305343992
2.36,0.4788373999223922,-0.1739361234467623,1.4287038091272188,-0.0250750514678658,-0.0057304818503202,0.0519026637905547,0.371605440318526,0.336198703017679,0.3033462189286751,0.4732253624924505,-0.1723544103687081,1.427757072426464,0.360095040915017,0.5231372126798886,0.4240152072567678,2.3473711305331624,-1.9360297896979264,0.3284075455874002,1.2861136659969046,12.545377725048638,-1.6026283453556658,0.2739486000132432,-1.2987864684597012
2.38,0.4858720378132553,-0.1671219556667356,1.435051925777449,-0.0282243936670798,-0.0028064256752218,0.0518560317713846,0.3341633777364771,0.3452128927708843,0.3302339249819621,0.4807547973605003,-0.1622403469689541,1.435837376565639,0.3273416359400796,0.5580052980642575,0.4640152078528142,2.348463542463893,-1.8721031291024424,0.4507094876602641,1.3443853026643526,12.545377725048638,-1.5872653386874604,0.277250560094153,-1.310897410660533
2.4,0.4921801195792353,-0.1600991153098961,1.4419515561706646,-0.031210276450241,0.0026635998031767,0.0517274550087564,0.298908512774193,0.3565993846413527,0.3584459820925621,0.5025802067000791,-0.1498613110281914,1.451563622026547,0.234163376246361,0.4080416123868206,0.4266899535030231,2.3283459080626794,-1.762743248114207,0.5693245935234237,1.4106028555299992,12.62076021543362,-1.5690583299276395,0.2804969336953512,-1.3273888342031857
2.42,0.4978342821879936,-0.1526989278169053,1.4492139056099926,-0.029059591243029,0.008837372388635,0.0519179738882295,0.268542213215887,0.3812292617263981,0.3653651368213813,0.5025802067000791,-0.1498613110281914,1.451563622026547,0.234163376246361,0.4080416123868206,0.4266899535030231,1.985332274614602,-1.5183149779152971,1.231493854252269,0.3459577364409577,12.707379050051712,-1.5641273373250912,0.2796408569481133,-1.3511669185036317
2.44,0.5026708226425737,-0.1453128949920452,1.4562477945311585,-0.0216999011387941,0.0138065045737636,0.0525055721727857,0.2421236007291304,0.394132972039355,0.3748260960274145,0.5025802067000791,-0.1498613110281914,1.451563622026547,0.234163376246361,0.4080416123868206,0.4266899535030231,1.5443109909149997,-1.3209306243378294,0.6451855156478448,0.4730479603016646,11.486285469648465,-1.5507853810974437,0.2697989270192527,-1.3623297144955937
2.46,0.5072363918185074,-0.1373567478543763,1.4638892872304083,-0.0135377216728019,0.0178918176195095,0.0531908934693764,0.2158413957257287,0.400782547163599,0.3889770955600088,0.5049218404625427,-0.1457808949043232,1.4558305215615772,0.2141633759483378,0.4206073563100078,0.4459811592072352,1.5290699272313255,-1.3141102501700876,0.3324787562121983,0.707549976629715,11.486285469648465,-1.5371128588103484,0.2589960546247893,-1.3716738790818244
2.48,0.511286289411113,-0.1293088872502493,1.4718478448030183,-0.0068097128316668,0.0207890205605904,0.0537932188673071,0.1904295677863688,0.4039333541230857,0.4062584281748788,0.5096051079874699,-0.1376200626565868,1.4643643206316377,0.1741633753522913,0.4457388441563823,0.4845635706156596,1.544614062364244,-1.2705913969679932,0.1575403479743359,0.8640666307434985,11.750920018497707,-1.5245138390552246,0.2498509391834196,-1.379516768716949
2.5,0.5148323381962298,-0.1212172362497164,1.480177532939585,-0.0020372593164435,0.0226356929189257,0.0542554115653219,0.1653914316944154,0.4054282095190534,0.4259158748401948,0.5142883755123971,-0.1294592304088504,1.472898119701698,0.1341633747562449,0.4708703320027568,0.523145982024084,1.5933910858713976,-1.251906804597669,0.0747427697983832,0.9828723332657968,11.95037944070009,-1.5141734141403418,0.243196003925737,-1.3857014088320885
2.52,0.5178783669887825,-0.113104435218957,1.488923021509539,0.0007944335033085,0.0236400846871509,0.0545665506524257,0.1403774980822278,0.4062959314842211,0.4476234508976601,0.5169716430075221,-0.1200418237687952,1.48336103934218,0.0941633741601984,0.4960018198491313,0.5617283934325084,1.6565541603388705,-1.250696680609381,0.0433860982583855,1.0853788028732685,12.111507052170056,-1.506272337880732,0.239166201916318,-1.3880249960299718
2.54,0.5203063482429666,-0.1053835944156805,1.4976411292147342,0.0019179503593628,0.02405857411932,0.0547347159835832,0.1164011071474363,0.4066790567137197,0.4689735306729972,0.5196549105026469,-0.1106244171287401,1.4938239589826616,0.0541633735641519,0.5211333076955059,0.6003108048409328,1.605334866634284,-1.1988195467395748,0.0191562614749313,1.0675039887668518,12.246635811364284,-1.4992111649203606,0.2370395540819268,-1.3897435152815638
2.56,0.52236361008002,-0.0972450201069153,1.507263473785268,0.0015571756296783,0.0242991854986778,0.0547863313462862,0.0905986292011289,0.4072901869984293,0.4921686766749608,0.5213381779828706,-0.1005787232925256,1.5052514389083538,0.0141633729681055,0.5462647955418803,0.6388932162493571,1.735047655287154,-1.2901238973153712,0.0305565142354774,1.1597573000981825,12.362518005152197,-1.4918333530162966,0.236857566756427,-1.390899546961048
2.58,0.5239000809250655,-0.0890892990204697,1.517356978005406,-0.0002440823020102,0.0247621485641335,0.0547223132143717,0.0643951282206265,0.4083842691403308,0.5160494322137448,0.5220214454481933,-0.0899047422601517,1.5176434791192568,-0.0258366276279408,0.5713962833882549,0.6774756276577815,1.7734929972173383,-1.3101750490251176,0.0547041070950771,1.1940377769391968,12.416372125753696,-1.484144021746674,0.238508389610506,-1.3922961800284888
2.6,0.5249105047097503,-0.0808969095531237,1.5279369229733315,-0.0031297576675234,0.0257634541483587,0.0545684510982853,0.0380817014103087,0.4111507799912867,0.5407447876621297,0.5271198373360968,-0.0686700855634532,1.5431594496160932,-0.0356048732694895,0.4590241629999557,0.5782618062750908,1.8096343508513573,-1.31567134051589,0.138325542547793,1.2347677724192485,12.474580914547914,-1.476617205231313,0.2414510891957476,-1.3949363489069446
2.62,0.5253558583051233,-0.0729690436572179,1.5381606710712528,-0.0036605306598517,0.0278095037197989,0.0545589456602251,0.0104709850485187,0.4220517414482,0.5342302866316939,0.5271198373360968,-0.0686700855634532,1.5431594496160932,-0.0356048732694895,0.4590241629999557,0.5782618062750908,1.5195569604097432,-1.3805358180895004,0.5450480728456691,-0.3257250515217913,12.474580914547914,-1.4811771587938996,0.2434224794628727,-1.4047534378172188
2.64,0.5252840008015003,-0.064443505625772,1.548801698930541,-0.0010705063206875,0.0310737778027053,0.0547513146681936,-0.01597100593714,0.4296892535409127,0.530554058115311,0.5271198373360968,-0.0686700855634532,1.5431594496160932,-0.0356048732694895,0.4590241629999557,0.5782618062750908,1.3883669673006689,-1.3220995492829417,0.3818756046356342,-0.183811425819147,10.436764279808813,-1.4691976535932234,0.2392098566129665,-1.4080950979746378
