t,x,y,z,roll,pitch,yaw,v_x,v_y,v_z,ref_x,ref_y,ref_z,ref_v_x,ref_v_y,ref_v_z,a_com,a_x,a_y,a_z,thrust,wind_x,wind_y,wind_z
0.0,-0.436081846492434,-1.773579562830201,2.6961167322926203,0.0219261236140648,0.1500069543756403,0.0287779282817435,0.0010219198514379,0.0064142047916268,-0.0032747569069151,-0.4360520171174225,-1.773340687987171,2.6960210054842757,0.1010007929148476,0.1075614032216392,-0.1032127503866957,0.3636975944760972,0.0510959925718956,0.3207102395813409,-0.163737845345758,10.65871279870953,-1.4132068700573626,0.1694937661786184,-1.281055058259762
0.02,-0.4361530944307096,-1.7737523719160686,2.6958327951875027,0.0143330792280958,0.1521891398468675,0.0282884308388972,-0.0080877299638123,-0.0190927576027207,-0.0260807159141914,-0.4360520171174225,-1.773340687987171,2.6960210054842757,0.1010007929148476,0.1075614032216392,-0.1032127503866957,1.7703831623300637,-0.4554824907625115,-1.2753481197173802,-1.140297950363815,10.659389451116112,-1.408417839876598,0.1771212132819057,-1.270214218703789
0.04,-0.4363857681987926,-1.7741535107439808,2.6950301441251625,-0.0011033345964622,0.1574080830275207,0.027261949401191,-0.0155391506493773,-0.0210305128739979,-0.0571516773803327,-0.4360520171174225,-1.773340687987171,2.6960210054842757,0.1010007929148476,0.1075614032216392,-0.1032127503866957,1.600533670494832,-0.3725710342782523,-0.0968877635638569,-1.5535480733070628,9.291588329516344,-1.397216131131984,0.1953542348662758,-1.269022771708152
0.06,-0.4367496713358811,-1.774519676754258,2.693550176752966,-0.0181510582532643,0.1645040675215956,0.0260421200970689,-0.0201331738877483,-0.0150566966715843,-0.089161128599162,-0.435042009188274,-1.7722650739549546,2.6949888779804083,0.1210007932128708,0.1275614035196624,-0.1232127506847189,1.6442296804777057,-0.2297011619185505,0.2986908101206797,-1.600472560941467,8.816505023367881,-1.3864419129875694,0.2147586839520342,-1.269833045845451
0.08,-0.4371739685775506,-1.774721037861881,2.69145053303636,-0.0346433009087081,0.1722340414550305,0.0247479600742968,-0.0218033789320744,-0.0050129651980323,-0.1191425382143037,-0.4330219933299771,-1.7701138458905217,2.6929246229726744,0.1610007938089172,0.1675614041157088,-0.1632127512807654,1.5831543270586577,-0.0835102522163028,0.5021865736775992,-1.4990704807570836,8.882613322140969,-1.375492441990303,0.2335609556504575,-1.2720401911980062
0.1,-0.4376044569859009,-1.7746865105234058,2.6887758245972893,-0.0503719640300068,0.1800358695107719,0.0234036201140154,-0.0209593570790089,0.0083060637315002,-0.146889416434342,-0.4310019774716802,-1.767962617826089,2.6908603679649405,0.2010007944049637,0.2075614047117553,-0.2032127518768118,1.539478934146075,0.0422010926532732,0.6659514464766279,-1.387343911001916,9.006962643055886,-1.365400027264532,0.2506650344160993,-1.2747542283139677
0.12,-0.4379770542728284,-1.774377957454478,2.6857386202623204,-0.0646023871350833,0.187245911433433,0.0221011689082539,-0.018150855243421,0.0237921731576264,-0.1714817998640532,-0.4269819615835808,-1.763811389731854,2.686796112927404,0.2410007950010101,0.2475614053078017,-0.2432127524728583,1.459873787757343,0.1404250917793947,0.7743054713063094,-1.2296191714855602,9.25538391439386,-1.3554685036841074,0.2679157539042545,-1.2780850309910876
0.14,-0.4382948936522116,-1.7736993567754085,2.6820401312767386,-0.0786270762076311,0.1944911694254128,0.0207422684142758,-0.0136119873596612,0.0434445022178718,-0.1970986335576386,-0.4229619456954816,-1.7596601616376188,2.682731857889868,0.2810007955970566,0.2875614059038482,-0.2832127530689048,1.63021281405466,0.226943394187993,0.9826164530122732,-1.280841684679268,9.25538391439386,-1.3462097929169965,0.2841953597239865,-1.2819866914374454
0.16,-0.4385067624790735,-1.772573770901327,2.677831171427988,-0.090707695634552,0.2013368703749013,0.0194894408998563,-0.007635524544058,0.0676844389769804,-0.2225323712469569,-0.4179419297924812,-1.7545089335284825,2.6776676028374307,0.321000796193103,0.3275614064998947,-0.3232127536649512,1.7819705768621157,0.298823140780158,1.211996837955427,-1.2716868844659168,9.29389676784649,-1.337634889172013,0.2976452015723758,-1.2859311310440849
0.18,-0.4385840168453846,-1.7710295290107672,2.673364549771631,-0.0998314083427063,0.2074634584372924,0.0184616104083137,-0.0006566716862567,0.0931331630711523,-0.2463591959118546,-0.4119219138745795,-1.748357705404445,2.671603347770092,0.3610007967891495,0.3675614070959411,-0.3632127542609976,1.7776807354274156,0.3489426428900636,1.272436204708597,-1.1913412332448816,9.339305005419192,-1.329476309221599,0.3090816822109269,-1.290545132051421
0.2,-0.4385088577467237,-1.7688714526187757,2.66817642588006,-0.1071006455858152,0.2135239314894419,0.0175635194549104,0.0079543081199503,0.1210048201080061,-0.2711723273952087,-0.4386168504296975,-1.7663728708572095,2.6610465899760385,0.0993433298038593,0.1931331645612684,-0.3463591974019707,1.914856217326205,0.4305489903103586,1.3935828518426885,-1.2406565741677076,9.389551394911903,-1.3222971687833356,0.3177984152097792,-1.295333640408169
0.22,-0.4382302041743638,-1.7660097841761575,2.662581919825094,-0.1081647826933175,0.2191835882900635,0.0171488569558307,0.0197783007175051,0.162142219816901,-0.2863546940376683,-0.4386168504296975,-1.7663728708572095,2.6610465899760385,0.0993433298038593,0.1931331645612684,-0.3463591974019707,2.2707910034955243,0.5911996298777392,2.0568699854447448,-0.7591183321229766,9.427775551127525,-1.3164792527549545,0.3197611247240553,-1.303283208270509
0.24,-0.4376984321544466,-1.7624109981626197,2.6567040115501386,-0.1025423116640259,0.2244449135367869,0.0172880279375057,0.0329428300318061,0.1943279166597219,-0.3006760869938731,-0.4386168504296975,-1.7663728708572095,2.6610465899760385,0.0993433298038593,0.1931331645612684,-0.3463591974019707,1.8803764314167892,0.6582264657150481,1.6092848421410455,-0.7160696478102441,10.049355444116372,-1.3112215645773937,0.3143570674374899,-1.3164405394971492
0.26,-0.4369417430646376,-1.7584671431381933,2.6508436518583816,-0.0953770235348045,0.229104417481446,0.0176321822217674,0.0461568829626317,0.2188471011185419,-0.3154728594997191,-0.4376234171316589,-1.7644415392115969,2.657582998002019,0.1193433301018825,0.2131331648592916,-0.366359197699994,1.5769797699828452,0.6607026465412817,1.225959222940999,-0.7398386252922967,10.049355444116372,-1.3053709875488195,0.3060043754295413,-1.3274770122555537
0.28,-0.4358673722081252,-1.7538546913567197,2.6443567055928474,-0.0878354444082407,0.2336865011542369,0.0180743881465209,0.0606719527360129,0.2409948246817564,-0.3325327295714541,-0.4356365505355817,-1.760578875920371,2.6506558140539798,0.159343330697929,0.2531331654553381,-0.4063591982960404,1.574998473350987,0.7257534886690609,1.1073861781607284,-0.852993503586752,9.956648513150869,-1.2996296715038986,0.297363919030249,-1.3366011521696497
0.3,-0.4344964963665351,-1.748823410104489,2.637514065838893,-0.0809886944744709,0.2379685406215682,0.0185383547564017,0.0757721146125585,0.2610098017731777,-0.3509505620900929,-0.4336496839395045,-1.756716212629146,2.64372863010594,0.1993433312939754,0.2931331660513845,-0.4463591988920868,1.5554989162264197,0.7550080938272755,1.000748854571064,-0.9208916259319412,9.86386611877333,-1.2943858940173762,0.2897710477320285,-1.343574151495249
0.32,-0.4328176599900556,-1.743409096238561,2.6302903871087504,-0.0750432061404416,0.2419751174609142,0.0189987639851355,0.0914429137739104,0.279517094487364,-0.3705195514692579,-0.429662817313625,-1.7508535493081183,2.6348014461280984,0.2393433318900219,0.333133166647431,-0.4863591994881333,1.5580750746400789,0.7835399580675945,0.9253646357093164,-0.9784494689582508,9.79368350173445,-1.289197618519569,0.2827758964648659,-1.3496812739847184
0.34,-0.4309259518852745,-1.737933231576405,2.623060908871772,-0.0702302890494431,0.2455416952770265,0.0194246467552874,0.1069688300384773,0.2960749523185751,-0.3895219566199658,-0.4256759506877455,-1.7449908859870906,2.6258742621502567,0.2793433324860684,0.3731331672434775,-0.5263592000841798,1.4801251073174455,0.776295813228349,0.8278928915605555,-0.9501202575353918,9.739186096795493,-1.2844488690180378,0.2768586354590962,-1.354781766695424
0.36,-0.4286095676526329,-1.7318300246443492,2.6150568956197007,-0.065753945752,0.2490577392458791,0.019874263048716,0.1239291185670495,0.3133137707182063,-0.4099019945847745,-0.4206890840469648,-1.7381282226511618,2.6159470781575136,0.3193433330821148,0.4131331678395239,-0.5663592006802262,1.5812765367219328,0.8480144264286081,0.8619409199815575,-1.0190018982404374,9.709168677352864,-1.2799859795659163,0.2716799384977159,-1.359069665530499
0.38,-0.4259471549312477,-1.7253863894589945,2.6066433694412114,-0.0615573974462427,0.2523431334015418,0.0203426717246376,0.1415406781488992,0.3300760738708802,-0.4304385407398416,-0.414702217391283,-1.730265559300332,2.6050198941498697,0.3593433336781612,0.4531331684355703,-0.6063592012762726,1.591297871130971,0.8805779790924833,0.8381151576336954,-1.0268273077533556,9.709168677352864,-1.2755915021065327,0.2670596570139718,-1.3627157468025417
0.4,-0.4229259528210423,-1.7186145699092608,2.5978175185163,-0.0575049573289057,0.2554105748595089,0.0208348357598722,0.1597710670746966,0.3461446502178636,-0.4511273170042098,-0.4188701210238028,-1.7088825857654502,2.5851214424042195,0.2415406796390153,0.4300760753609963,-0.5304385422299578,1.5957534971932212,0.911519446289874,0.8034288173491722,-1.034438813218408,9.704127142559628,-1.2708796811477443,0.2623920629119584,-1.3665518881544882
0.42,-0.4196704076679028,-1.7118885974965954,2.589199941971475,-0.0540008157119452,0.2580572384627634,0.0213097997211718,0.1822809382947371,0.3611271561908321,-0.4540902739679875,-0.4188701210238028,-1.7088825857654502,2.5851214424042195,0.2415406796390153,0.4300760753609963,-0.5304385422299578,1.3601000896460158,1.125493561002025,0.7491252986484204,-0.1481478481888842,9.704127142559628,-1.2677320176444071,0.2588016076520068,-1.3755809051393548
0.44,-0.415775325037659,-1.7045174774420842,2.580074436867137,-0.051164232678695,0.2605373854945762,0.0217802885537486,0.2060073074471859,0.3753742381190254,-0.4586053581590342,-0.4188701210238028,-1.7088825857654502,2.5851214424042195,0.2415406796390153,0.4300760753609963,-0.5304385422299578,1.40205734715022,1.1863184576224373,0.7123540964096675,-0.2257542095523368,10.853567250728702,-1.2653403581517262,0.2559718033542366,-1.380368030113219
0.46,-0.4114125493126744,-1.6968618291708542,2.5708181856094483,-0.0491423471547195,0.2628111398851683,0.0222154500392119,0.2291357290486894,0.3895985338213049,-0.4667961710745505,-0.4164547142274126,-1.7045818250118403,2.57981705698192,0.2615406799370385,0.4500760756590196,-0.550438542527981,1.4180478572845907,1.1564210800751733,0.7112147851139755,-0.4095406457758133,10.626386487504533,-1.2628681214444857,0.2541537217924047,-1.3837479255640923
0.48,-0.4065906769335469,-1.6889244064804012,2.561368912559312,-0.0476481226616758,0.2649360351246016,0.0226304991843502,0.2507978274406489,0.4027776513486256,-0.477172940544602,-0.4116239006346323,-1.6959803035046204,2.5692082861373207,0.3015406805330849,0.490076076255066,-0.5904385431240274,1.3698658603823777,1.083104919597977,0.6589558763660353,-0.5188384735025753,10.277491208939864,-1.2600037364726964,0.252851211581204,-1.3868046500191653
0.5,-0.4015892986997215,-1.6811329175952792,2.552167557630928,-0.0467924266469359,0.2668431019955072,0.0229981720308519,0.273414407512633,0.4160492710181888,-0.4902980567290069,-0.406793087041852,-1.6873787819974004,2.558599515292721,0.3415406811291314,0.5300760768511125,-0.6304385437200739,1.466214733301479,1.130829003599204,0.6635809834781597,-0.6562558092202436,10.277491208939864,-1.25753488268418,0.2524813495131368,-1.3911448954518897
0.52,-0.3958845996680992,-1.6726765575222489,2.542206733563181,-0.0466233086518206,0.2687466150833197,0.0233456634425252,0.2959482374788877,0.4289659722341221,-0.5052053101794848,-0.3999622734192694,-1.676777260460378,2.54599074441832,0.3815406817251778,0.5700760774471589,-0.6704385443161204,1.4973650762978263,1.1266914983127374,0.6458350607966651,-0.7453626725238943,10.151747518720184,-1.255650946309724,0.2530904864904041,-1.3949184514380897
0.54,-0.3897275784599011,-1.663963383503119,2.53193920430786,-0.0473083822609604,0.2705467637950233,0.0236443777565277,0.3186646024941789,0.4417979860750383,-0.5208098650088282,-0.3931314597966868,-1.666175738923356,2.5333819735439187,0.4215406823212244,0.6100760780432054,-0.7104385449121668,1.5200295639751509,1.135818250764559,0.64160069204581,-0.780227741467171,10.059729153842454,-1.254555952418518,0.2547045664363749,-1.3978081767695636
0.56,-0.3834553557756512,-1.655436251306749,2.521892723180641,-0.0484565682498657,0.2721602213333962,0.0239036390335537,0.3404682831978268,0.4551108771097489,-0.5359443028560875,-0.385300646159203,-1.6545742173714326,2.519773202654616,0.4615406829172708,0.6500760786392518,-0.7504385455082132,1.484658857180043,1.0901840351823957,0.6656445517355281,-0.7567218923629659,10.02562972800115,-1.2520902812981645,0.257096450722815,-1.4015371039046038
0.58,-0.3764034923638397,-1.6461782756662875,2.511001930780936,-0.0497242815851348,0.2737598442436718,0.0241836726037779,0.3636017692888298,0.4699681112857377,-0.5523681668237753,-0.376469832506818,-1.641972695804608,2.505164431750412,0.5015406835133173,0.6900760792352982,-0.7904385461042597,1.601279873813376,1.1566743045501509,0.7428617087994388,-0.8211931983843901,10.02562972800115,-1.249509594551097,0.2596122881110898,-1.4055002810395454
0.6,-0.3688869144528253,-1.6366123317042576,2.499778433165339,-0.0506168507935839,0.2752636790706169,0.024501851595704,0.3869318113348952,0.4858257472981438,-0.5691798157718654,-0.3582234038993982,-1.6226798701020009,2.483383522439747,0.4199445983076611,0.5699681127758538,-0.6523681683138914,1.6419401801884814,1.1665021023032656,0.792881800620307,-0.8405824474045032,9.99462931668586,-1.2468329052602365,0.2616754806520555,-1.4097150379909131
0.62,-0.360768198385976,-1.6266546887833844,2.488461673729732,-0.0490701382965197,0.2746768421123561,0.0251059290648168,0.4235178913198666,0.5083281892487029,-0.5615823428999993,-0.3582234038993982,-1.6226798701020009,2.483383522439747,0.4199445983076611,0.5699681127758538,-0.6523681683138914,2.180953195533867,1.8293039992485745,1.1251220975279557,0.3798736435933036,11.659460658590431,-1.2460537538993175,0.2611453956140657,-1.4165431595907232
0.64,-0.3523790506471833,-1.6168131036706437,2.4778309966086667,-0.0449998969192331,0.2702254695825739,0.0260477089369398,0.45716830182104,0.5258584168299327,-0.5577297516744536,-0.3582234038993982,-1.6226798701020009,2.483383522439747,0.4199445983076611,0.5699681127758538,-0.6523681683138914,1.9068963429473185,1.68252052505867,0.8765113790614898,0.1926295612772854,11.659460658590431,-1.254220552607745,0.256843280551515,-1.4147236868384474
0.66,-0.3429049234399278,-1.6061389117095737,2.4666759896614496,-0.0400474591465927,0.2621259624968067,0.0272031790856115,0.4878536403891187,0.5404516598059427,-0.5580774885910558,-0.3540239579163216,-1.616980188974242,2.476859840756608,0.4312131641114273,0.589968113073877,-0.6723681686119146,1.6990244734535531,1.534266928403935,0.7296621488004973,-0.0173868458301085,11.302009439958056,-1.2670704765814766,0.2514646080451718,-1.40671576222277
0.68,-0.3328721574418842,-1.5951979704758523,2.4554678021104213,-0.0353387442502089,0.2517520126526091,0.0283753006082117,0.513337821722028,0.5528474728456848,-0.5628197874698038,-0.3456250659501684,-1.605580826718725,2.4638124773903303,0.4537502957189598,0.6299681136699234,-0.7123681692079611,1.4366532965369687,1.2742090666454624,0.6197906519871066,-0.2371149439373998,10.624462312742253,-1.2825154181584153,0.2463234895087925,-1.3946830658392044
0.7000000000000001,-0.3229194747132313,-1.5845908356355447,2.444689708543749,-0.0314138944403451,0.2407712178908606,0.0294314126243037,0.5326594368953309,0.5631337701933106,-0.5713676763912499,-0.3372261739840151,-1.594181464463208,2.4507651140240525,0.4762874273264924,0.6699681142659699,-0.7523681698040076,1.174945882841378,0.9660807586651444,0.5143148673812881,-0.4273944460723045,10.624462312742253,-1.2982948762046045,0.2420854618658758,-1.3807314799623107
0.72,-0.3120968833825815,-1.5732268797825435,2.4331352695664763,-0.0279935900562647,0.2289759250105667,0.030443035906615,0.548183877591658,0.5727821673065455,-0.5837364935999557,-0.3277004254374853,-1.5807821021778885,2.435717750627972,0.4988245589340248,0.7099681148620164,-0.792368170400054,1.103502905445694,0.776222034816354,0.4824198556617476,-0.6184408604352931,10.33786265739218,-1.314662158563567,0.2385064072153113,-1.3652630585468926
0.74,-0.3010084616336214,-1.5616784055294786,2.421308637947137,-0.0253309447638355,0.2177218325852156,0.0313377965416725,0.5595955894528106,0.5816678259124128,-0.5983588274890436,-0.3181746768909554,-1.567382739892569,2.420670387231892,0.5213616905415573,0.7499681154580629,-0.8323681709961005,1.028341802157681,0.570585593057632,0.4442829302933659,-0.7311166944543923,9.93327592742844,-1.329877311532397,0.2358470968233939,-1.3498454424966793
0.76,-0.2897264585122318,-1.549950080912894,2.40916753921515,-0.0231167468063784,0.2074695068356429,0.0321380486295111,0.5678727937686572,0.5906828958081987,-0.6149646009440188,-0.3080855000542373,-1.5529833775923485,2.404623023820911,0.5438988221490898,0.7899681160541092,-0.8723681715921469,1.0314253590906783,0.4138602157923277,0.450753494789291,-0.8302886727487635,9.93327592742844,-1.342596122421054,0.2338202074463085,-1.3362257750205109
0.78,-0.2783070895420853,-1.5380441698355205,2.396676499561408,-0.0210512410411627,0.1983949218038543,0.0328688217282439,0.5735412513201491,0.5993899453003859,-0.6332711383295028,-0.2974328949273308,-1.5375840152772269,2.3875756603950284,0.5664359537566223,0.8299681166501557,-0.9123681721881932,1.052465477959473,0.2834228775745961,0.4353524746093629,-0.9153268692741968,9.80466949167112,-1.3542124005462524,0.2318553465812803,-1.3232169269375822
0.8,-0.2673748847445179,-1.5265764453313726,2.3844555112528982,-0.019156282756552,0.190964449462353,0.0335070027032028,0.5768842862351676,0.6072436119152318,-0.6522073651769299,-0.2496300269760778,-1.5080746725705012,2.365012942644933,0.5188467403238074,0.699389946790502,-0.7332711398196189,1.0385526574967174,0.1671517457509264,0.3926833307422939,-0.9468113423713564,9.688904512462614,-1.363889417180364,0.2299622054169685,-1.3117817107340364
0.8200000000000001,-0.2556054789994555,-1.514319919527254,2.371490724264593,-0.0167018174118499,0.1795872152094598,0.0342449901155899,0.599347965385931,0.617667935803879,-0.6415095405496285,-0.2496300269760778,-1.5080746725705012,2.365012942644933,0.5188467403238074,0.699389946790502,-0.7332711398196189,1.3488206527188489,1.1231839575381708,0.5212161944323612,0.53489123136507,9.582052458553337,-1.3773199513021226,0.2275202990432423,-1.296310731485408
0.84,-0.2434428345106272,-1.50188922780341,2.3587300781878517,-0.0142907188144998,0.1608544103345129,0.0350492310171553,0.6143236943776806,0.6250149630214551,-0.6350472664597738,-0.2496300269760778,-1.5080746725705012,2.365012942644933,0.5188467403238074,0.699389946790502,-0.7332711398196189,0.8944443165766943,0.7487864495874796,0.3673513608788037,0.3231137044927334,11.656750251137964,-1.401886949343703,0.2255400226199765,-1.2717462485581226
0.86,-0.2317157862991353,-1.489956763652586,2.346653803634085,-0.0126765114530554,0.1390347882656645,0.0357695806870889,0.6184260791823699,0.6307818568508438,-0.6363114178125201,-0.2444415595728398,-1.501080773102596,2.3576802312467366,0.5079078381245391,0.7193899470885252,-0.7532711401176421,0.3594603739212318,0.2051192402344637,0.2883446914694332,-0.0632075676373133,11.033852582946563,-1.431487367683666,0.224158606465249,-1.2381702421996514
0.88,-0.21939056422788,-1.4772904885965494,2.3338497161145244,-0.0119477921896276,0.1144178364370902,0.0364396416893161,0.6129892899963215,0.6355997879759748,-0.6442824378398446,-0.2340646247663636,-1.4870929741667862,2.3430148084503446,0.4860300337260024,0.7593899476845717,-0.7932711407136885,0.539231622904407,-0.2718394593024198,0.2408965562565534,-0.3985510013662263,10.480736283103395,-1.461763800826033,0.2238900865932701,-1.2019520499599667
0.9,-0.2072690978857271,-1.4645390915724523,2.3208190648188483,-0.0126002649151403,0.090171168447658,0.0369993576924913,0.5987761496027216,0.6394119196117009,-0.6586191368630996,-0.2236876899598875,-1.473105175230976,2.328349385653952,0.4641522293274657,0.7993899482806182,-0.833271141309735,1.0272373707421325,-0.7106570196799944,0.1906065817863012,-0.7168349511627481,10.031821280848815,-1.4899149916015324,0.2250711217721059,-1.1660989226475311
0.92,-0.1955124534000354,-1.451719387518223,2.307440823171852,-0.0150125114140384,0.067901459940431,0.0374451937983774,0.5773357227558704,0.6426902670394047,-0.6784510177836474,-0.2144046453733382,-1.4571173762653638,2.311683962827757,0.442274424928929,0.8393899488766646,-0.8732711419057815,1.4694752176191144,-1.0720213423425606,0.1639173713851915,-0.9915940460273888,9.663016811876332,-1.5132815987127004,0.2278085117223211,-1.1337651740803307
0.94,-0.1847923851289113,-1.4394656986973953,2.294339366743978,-0.018665424704804,0.0495161595698671,0.0377990335805676,0.5520956675237727,0.6474433706322249,-0.6996499154486321,-0.2051216007867888,-1.4411295772997512,2.295018540001563,0.4203966205303923,0.8793899494727111,-0.913271142501828,1.6651168458203756,-1.2620027616048857,0.2376551796410109,-1.0599448832492364,9.385175665505358,-1.5328471116172115,0.2318889993193059,-1.101499784029748
0.96,-0.1740650045409579,-1.426443115179119,2.2800975908008274,-0.0228334723523096,0.0336162519457027,0.0381628454549552,0.5218901920917967,0.654662550740931,-0.7234733403773996,-0.1963855013102029,-1.4241417783192378,2.277353117160467,0.3985188161318556,0.9193899500687576,-0.9532711430978744,1.9570659690275325,-1.5102737715988024,0.3609590054353073,-1.1911712464383772,9.26669599991692,-1.5475334567206909,0.2361824455441437,-1.0746420325997124
0.98,-0.163974361250642,-1.4132611739214984,2.2653665979875424,-0.0267073256123359,0.0215831426198111,0.0385227884172543,0.4888767677961513,0.6631503717242944,-0.7484165541938302,-0.1881963469435805,-1.4061539793238231,2.2586876943044696,0.376641011733319,0.959389950664804,-0.9932711436939208,2.1119263743452947,-1.6506712147822675,0.4243910491681657,-1.2471606908215305,9.195269652526347,-1.5574706051155036,0.239980907297583,-1.0556450201749354
1.0,-0.1550193908526069,-1.400573289679078,2.2509030537083863,-0.0299230275302737,0.0138274504819336,0.0388372906738636,0.4555075151107917,0.6719291207702989,-0.7728056805814109,-0.1395305228608344,-1.3801036553352837,2.227945770277851,0.4168845269499942,0.7631503732144105,-0.78875929118309,2.1127014374619324,-1.668462634267981,0.4389374523002254,-1.2194563193790309,9.15166906282957,-1.5638368991345644,0.2434922468100485,-1.0419637156320332
1.02,-0.1463111897781432,-1.386950200819623,2.235593346100732,-0.0305580379007476,0.0104466750905602,0.0392317829895831,0.4172478409255656,0.6892328880105008,-0.7546551526760703,-0.1395305228608344,-1.3801036553352837,2.227945770277851,0.4168845269499942,0.7631503732144105,-0.78875929118309,2.2872826086347966,-1.912983709261301,0.8651883620100942,0.9075263952670276,12.01392966829826,-1.567739102422076,0.2446496456922686,-1.036351697781253
1.04,-0.1383560601680138,-1.3730109336153578,2.2206867400512413,-0.0275519787612604,0.0122548922125369,0.0397144737980298,0.3808400879696792,0.703309466795937,-0.737103939549806,-0.1395305228608344,-1.3801036553352837,2.227945770277851,0.4168845269499942,0.7631503732144105,-0.78875929118309,2.139929687982179,-1.820387647794322,0.7038289392718111,0.8775606563132143,12.01392966829826,-1.5646007343830413,0.2427628204380068,-1.0464972820256269
1.06,-0.1314453626918496,-1.3595524369530394,2.206795153835128,-0.0233288741921366,0.0174136238205366,0.0401740782851028,0.3489136739971511,0.7124585580239462,-0.7260015757448584,-0.1353616775913345,-1.3724721516031395,2.22005817736602,0.4024860787807628,0.7831503735124337,-0.7968278385809419,1.7509028110528329,-1.596320698626405,0.457454561400461,0.5551181902473834,11.596162540777186,-1.5580029714677868,0.2392561347861428,-1.0612629108442169
1.08,-0.1247926344142984,-1.345228864550544,2.192354615869127,-0.0190703588313845,0.0253007620251033,0.0406024075889885,0.3184718893598984,0.7194544594551651,-0.7188297417686306,-0.1270239870523346,-1.3572091441388514,2.204282991542358,0.3736891824423,0.8231503741084801,-0.8129649333766458,1.6024045145645816,-1.522089231862636,0.3497950715609432,0.3585916988113891,11.19879901816239,-1.5478345107736329,0.2356764482024125,-1.0788701134659024
1.1,-0.1187160069088615,-1.3307803217391363,2.1780152788593408,-0.0155638870422018,0.0347322391316646,0.0409690715107832,0.2910931431359788,0.7251707137726547,-0.7156180680946923,-0.1186862965133347,-1.341946136674563,2.188507805718696,0.3448922861038371,0.8631503747045266,-0.8291020281723497,1.4076453353063378,-1.368937311195978,0.2858127158744838,0.1605836836969132,10.898586280172822,-1.5353432288175393,0.2326361873728344,-1.0978170935633962
1.12,-0.1131553880790481,-1.3162252733657045,2.1637068408655065,-0.0129417289762033,0.044940561958326,0.041279421601283,0.2666679783945129,0.7302066398461968,-0.7155132641434118,-0.111788450791258,-1.3246831291804726,2.1719257651552493,0.3160953897653743,0.9031503753005732,-0.8452391229680536,1.2469565027840148,-1.2212582370732972,0.2517963036771042,0.005240197564027,10.66459916149688,-1.522141523153048,0.2304149362359168,-1.11594947748339
1.14,-0.1082966291099927,-1.302310222491092,2.150106058702593,-0.0113367300005649,0.0547621295356774,0.0415203336412709,0.246234388350362,0.7344937276750428,-0.7161569958372124,-0.1048906050691812,-1.307420121686382,2.1553437245918023,0.2872984934269115,0.9431503758966197,-0.8613762177637575,1.044419832536544,-1.021679502207544,0.2143543914423007,-0.0321865846900304,10.46365098925071,-1.507769958247003,0.2289080888357267,-1.134363968271698
1.16,-0.1035761398641588,-1.2875695975928845,2.135771840364346,-0.0103931515656308,0.064784940939817,0.0417270743862024,0.2271494218790042,0.7393754271756686,-0.7172650659885292,-0.098712681755566,-1.2891571141773903,2.1383582566584627,0.2585015970884486,0.983150376492666,-0.8775133125594613,0.9865276918154636,-0.9542483235678868,0.244084975031289,-0.0554035075658432,10.46365098925071,-1.4939469940702488,0.2281756754111034,-1.1517303081612644
1.18,-0.0992118393509827,-1.272729773282881,2.1214094731949804,-0.0100328424607157,0.0742344621066217,0.0418943088031568,0.2104703463627506,0.7443839885862314,-0.7189583030763013,-0.0932546808504125,-1.2698941066534974,2.1209693613552303,0.2297047007499858,1.0231503770887125,-0.8936504073551652,0.8748489859908343,-0.8339537758126805,0.2504280705281414,-0.0846618543886013,10.44672434568929,-1.4815570280756158,0.2280379372962704,-1.167033804730554
1.2,-0.0951571897046885,-1.257788292392372,2.107005199483052,-0.0101860770815332,0.0829276480226125,0.0420236794136451,0.1960042321663037,0.7495405050595249,-0.7214082998897744,-0.0886883220328452,-1.2355105738535694,2.0854615580411653,0.2064228394082297,0.8443839900763476,-0.7344199034619076,0.7775934131505001,-0.7233057098223458,0.2578258236646702,-0.1224998406736566,10.42348214539652,-1.469465623523737,0.228422733404898,-1.1816831486614576
1.22,-0.0915815324201096,-1.2434395353522516,2.093487405556541,-0.0089769864466235,0.0917592195888995,0.0422274218018682,0.1817147680831796,0.7598892780996371,-0.7014130458767178,-0.0886883220328452,-1.2355105738535694,2.0854615580411653,0.2064228394082297,0.8443839900763476,-0.7344199034619076,1.3333192324658247,-0.7144732041562032,0.517438652005614,0.9997627006528288,10.393147211819269,-1.457907937929589,0.2275119089780594,-1.1978777513054253
1.24,-0.0880707699980546,-1.228162807442581,2.0796573014368844,-0.0058874733975507,0.1023809727351844,0.0425680942433656,0.1705721219070923,0.7668730049479064,-0.6829360016760447,-0.0886883220328452,-1.2355105738535694,2.0854615580411653,0.2064228394082297,0.8443839900763476,-0.7344199034619076,1.1339446270545337,-0.5571323088043658,0.3491863424134656,0.9238522100336544,11.93581451942282,-1.4455193793703376,0.2247365185859263,-1.220683433342167
1.26,-0.084746693711145,-1.2127793675214618,2.066150243833749,-0.0028181977172124,0.1134451273845536,0.0429263987900344,0.1627730475840412,0.7712406244341191,-0.668721887552328,-0.0866240936387629,-1.227066733952806,2.078117359006546,0.2056133380173255,0.8643839903743707,-0.7375122235390288,0.8395574736056852,-0.3899537161525565,0.2183809743106335,0.710705706185838,11.66191368491036,-1.4329211403516875,0.2219604816012445,-1.2414430820403912
1.28,-0.0817056905088961,-1.1980965717993892,2.0535506820953144,-0.0005479922738707,0.1238979335328339,0.0432384774542591,0.1580076201398929,0.7743161364062591,-0.658293492612298,-0.0824956368505983,-1.210179054151279,2.063428960937308,0.2039943352355171,0.9043839909704172,-0.7436968636932714,0.5935475836895073,-0.2382713722074131,0.1537755986069977,0.5214197470015003,11.425849433062467,-1.419543906050584,0.219684502433423,-1.2620883283967417
1.3,-0.0785761451204181,-1.182584493726604,2.0404776062617245,0.0009239843889473,0.1345755433305229,0.0435116974676468,0.1554855930089579,0.7768649801757416,-0.6496972766614936,-0.0783671800624337,-1.193291374349752,2.04874056286807,0.2023753324537087,0.9443839915664636,-0.7498815038475138,0.4657041820814637,-0.1261013565467511,0.127442188474125,0.4298107975402199,11.251205192855195,-1.406636506511661,0.2184364725096212,-1.2812096169435518
1.32,-0.0754724677691705,-1.1670278677482695,2.0275544029640757,0.0011591811534677,0.1447815709825961,0.0436955769997514,0.1552664998689683,0.7788063883483624,-0.6431627589401938,-0.0743196734133595,-1.1744036945184226,2.03374293279112,0.2007563296719004,0.9843839921625102,-0.7560661440017563,0.3410168227034038,-0.0109546569994831,0.0970704086310392,0.326725886064988,11.12756629647447,-1.3942678107232278,0.2185893666033295,-1.2985053791027223
1.34,-0.0723490710878752,-1.1514376149580787,2.014753761771177,-0.0002341703840711,0.1544473370842944,0.0437489502147252,0.1573237764464294,0.7803915143411015,-0.6372664810589865,-0.0702721667642853,-1.1555160146870935,2.0187453027141693,0.199137326890092,1.0243839927585567,-0.7622507841559989,0.3221455578672538,0.1028638288730551,0.0792562996369594,0.2948138940603639,11.027161878955669,-1.3830891626349118,0.2205073869350111,-1.3132480121863637
1.36,-0.0693238854324119,-1.1365844551624606,2.002700483868574,-0.0029486983695944,0.1631026376610149,0.0436752792738514,0.161199739490146,0.7833406955623786,-0.6318359048999589,-0.0662651351847564,-1.1356283348408631,2.0035930566333637,0.1975183241082836,1.064383993354603,-0.7684354243102414,0.3647324937923349,0.1937981521858339,0.1474590610638537,0.2715288079513822,11.027161878955669,-1.3719054037516651,0.2243409574298671,-1.3282506502181624
1.38,-0.0660304220413123,-1.120860923036883,1.9901215469215916,-0.0063235490541852,0.1713222622273514,0.0435298587154142,0.16809978009116,0.7889950176890647,-0.6263827691754411,-0.0622985786747726,-1.1147406549797314,1.9882861945487007,0.1958993213264752,1.1043839939506497,-0.774620064464484,0.5227776971093555,0.3450020300506978,0.282716106334302,0.2726567862258888,11.039629077709831,-1.3618857595035232,0.2289509700078411,-1.3431187826771755
1.4,-0.0625719423859163,-1.105004773332086,1.9776484290715253,-0.0094450158609585,0.1780296819594524,0.0433808720228805,0.1774579944404802,0.7963237830024811,-0.621231298186326,-0.0576254330367543,-1.0814111721524298,1.9588024084628195,0.1592661910588676,0.8889950191791808,-0.6285292635174553,0.6477357296356536,0.4679107174660121,0.3664382656708209,0.2575735494557529,11.064595095815092,-1.3539216489669104,0.2333055001811111,-1.3558333038928585
1.42,-0.0588499646666847,-1.0889120006196604,1.9654339580671247,-0.0095958585192947,0.1818428187557956,0.0434482407428713,0.1939202513307033,0.8113464299872244,-0.600461071700218,-0.0576254330367543,-1.0814111721524298,1.9588024084628195,0.1592661910588676,0.8889950191791808,-0.6285292635174553,1.523226946840275,0.8231128445111535,0.7511323492371658,1.0385113243054025,12.170799307691595,-1.3487256590987482,0.234011156229542,-1.3658965796956914
1.44,-0.0550049908851038,-1.0733853041996135,1.9542050989619464,-0.0065267478571833,0.1820013817431133,0.0437605447895909,0.2097815012053538,0.8218500516780397,-0.5825831792516447,-0.0576254330367543,-1.0814111721524298,1.9588024084628195,0.1592661910588676,0.8889950191791808,-0.6285292635174553,1.3053010712213284,0.7930624937325228,0.5251810845407656,0.8938946224286648,12.170799307691595,-1.351246737969671,0.230718124247059,-1.3720037052520728
1.46,-0.050636774588184,-1.056874587473808,1.9427234245846388,-0.0021512715916585,0.1784330118911513,0.0441695425446866,0.2258941333736376,0.8284513567026206,-0.5666148016069277,-0.0560327711261657,-1.072521221960638,1.9525171158276449,0.1574994732524091,0.908995019477204,-0.6289585623858581,1.1812950817029897,0.8056316084141896,0.3300652512290447,0.7984188822358518,11.980594942468995,-1.3590224401207196,0.225723690280487,-1.370355466723179
1.48,-0.0459765809222917,-1.0402624789079826,1.9315326053021595,0.0018532071231079,0.1713879432861765,0.0445183886236531,0.238724192204601,0.8324631445351304,-0.5533144457894664,-0.0528474473049883,-1.0547413215770545,1.939946530557296,0.1539660376394922,0.9489950200732504,-0.6298171601226639,0.9455214382684972,0.6415029415481707,0.2005893916254886,0.6650177908730626,11.578951503748613,-1.3706539852762596,0.2213075222213448,-1.3627554501976389
1.5,-0.0411048444313239,-1.0235880956164605,1.920581497767481,0.0049362890504888,0.1620678693934011,0.044750478334071,0.2472789214029683,0.8349920462362157,-0.5423760542158945,-0.049662123483811,-1.0369614211934708,1.9273759452869463,0.1504326020265753,0.9889950206692968,-0.6306757578594695,0.705739232450521,0.427736459918368,0.1264450850542664,0.5469195786785952,11.578951503748613,-1.3846513549319717,0.2176143528233717,-1.3504577446885353
1.52,-0.0363597505241876,-1.0077094639196378,1.910363374105733,0.0069059221440979,0.1521464577287656,0.0448589506521783,0.2514016334347356,0.836556336997533,-0.5337078547369719,-0.0466534714432795,-1.017181520780085,1.9147624301297568,0.1468991664136583,1.0289950212653434,-0.6315343555962751,0.4862649542410379,0.2061356015883642,0.0782145380658627,0.4334099739461305,11.408427538138312,-1.399281934846558,0.2151142233325942,-1.336121885056789
1.54,-0.0313207251191893,-0.990971162104352,1.8997778162483252,0.007860236042456,0.1414779721384199,0.0448633997246769,0.2519237383391941,0.8372921892888368,-0.5253072709932478,-0.0436448194027479,-0.9974016203666988,1.902148914972568,0.1433657308007414,1.06899502186139,-0.6323929533330809,0.4224449057604975,0.0261052452229237,0.0367926145651897,0.4200291871862049,11.268166727839343,-1.414018794921178,0.2140101305498463,-1.3209517362349212
1.56,-0.0263106137755772,-0.9742182415889687,1.8893519637924527,0.0075890042011973,0.1313239963049825,0.0447722074801897,0.2488348874780345,0.8380706997458572,-0.5176642865372296,-0.0407245032525394,-0.9766217199384118,1.889513934871958,0.1398322951878244,1.1089950224574363,-0.6332515510698865,0.414011743701529,-0.1544425430579796,0.0389255228510243,0.3821492228009093,11.20138045639942,-1.4269578058962809,0.2143105762221113,-1.307184355838392
1.58,-0.0216381571157851,-0.958287029889713,1.87958357492856,0.0063261478246819,0.1226562461502234,0.0446233965909359,0.2430424156562812,0.8389524098032687,-0.5109514004507919,-0.0378925229926537,-0.9548418194952236,1.8768574898279284,0.1362988595749075,1.148995023053483,-0.6341101488066923,0.4455136979954597,-0.2896235910876663,0.0440855028705722,0.3356443043218859,11.140328376711295,-1.4389561144228995,0.2158669769120086,-1.2941916544612366
1.6,-0.016863416011971,-0.9414950912748288,1.8694348259517888,0.0040037725943283,0.114887801337634,0.0444173883206032,0.2346117021807506,0.8403566011687212,-0.5042886234914657,-0.009486036332971,-0.9163394093995496,1.8540360049060205,0.1901776852981574,0.9389524112933848,-0.4754706441381832,0.541851639997132,-0.421535673776531,0.0702095682726278,0.3331388479663077,11.092708192009924,-1.4487671465800749,0.2185950963805883,-1.2834240212083785
1.62,-0.0122147951632813,-0.9246047993747624,1.8596054091023848,0.002747474343432,0.1072832650593079,0.0443005396570556,0.2305129215144225,0.8481337670123994,-0.4779861296539061,-0.009486036332971,-0.9163394093995496,1.8540360049060205,0.1901776852981574,0.9389524112933848,-0.4754706441381832,1.3866375640245727,-0.2049390333164036,0.3888582921839079,1.3151246918779806,11.057462486080112,-1.4570680017884603,0.2201013530742643,-1.2773693811834428
1.64,-0.0076751465216697,-0.9075826837275356,1.8503192940968631,0.0034405636374153,0.0988827341715812,0.0443103434070856,0.2232987782505713,0.8535719287290263,-0.4520336186739825,-0.009486036332971,-0.9163394093995496,1.8540360049060205,0.1901776852981574,0.9389524112933848,-0.4754706441381832,1.3739999017927669,-0.3607071631925612,0.271908085831346,1.2976255489961812,12.444252371230505,-1.4689012448104122,0.2195734778674721,-1.2690419341673826
1.66,-0.0035292343656849,-0.8913303437805629,1.8419503412569267,0.0047774840392029,0.0909323739759196,0.0443482782654679,0.2132649001951718,0.8569772109062432,-0.430190260136932,-0.0075842594799894,-0.9069498852866158,1.8492812984646387,0.1796047392265326,0.958952411591408,-0.4683744928756614,1.2138852578757513,-0.5016939027699715,0.1702641088608458,1.092167926852522,12.256502205507786,-1.480796220388307,0.2181365524377453,-1.2602115081760488
1.68,0.0005991466204142,-0.8741697038430325,1.8335661602426307,0.0061365992520847,0.0831372282163234,0.0443649228296975,0.1998891685542914,0.8589567221814698,-0.4094719508178878,-0.0037807057740263,-0.8881708370607481,1.839771885581875,0.1584588470832831,0.9989524121874545,-0.4541821903506179,1.2370095016381193,-0.6687865820440203,0.0989755637613276,1.035915465952214,12.0540357666996,-1.491760276794253,0.2167125843444126,-1.2519344976114473
1.7,0.0044307569098272,-0.8569855928719163,1.8255711138358897,0.0067322754726677,0.0764028898404898,0.0443170765040454,0.1838265616673914,0.8595590524550948,-0.3910528639632462,2.284793193682404e-05,-0.8693917888348803,1.8302624726991112,0.1373129549400336,1.0389524127835008,-0.4399898878255744,1.222326574938591,-0.8031303443450016,0.0301165136812497,0.9209543427320775,11.898639521336918,-1.5008075295075898,0.216132995315411,-1.2450177512600331
1.72,0.0077502744127146,-0.840659308337306,1.8183014297181477,0.0060810663105138,0.0714589626865895,0.0441895046717012,0.1663152811421165,0.8592050169159967,-0.3750937726582906,0.0027691070307374,-0.8486127405792103,1.8214626749426,0.1161670627967841,1.0789524133795472,-0.4257975853005309,1.1847603999097542,-0.8755640262637462,-0.0177017769549037,0.7979545652477826,11.76239294453535,-1.5083487167920362,0.2169321249289826,-1.2395907015071057
1.74,0.0108657929779712,-0.8234846606813097,1.810974643211059,0.0036740269960247,0.0683959170714735,0.043950362916906,0.1460491440393566,0.8585683413014661,-0.3584239905684094,0.0055153661295381,-0.8278336923235403,1.812662877186088,0.0950211706535346,1.1189524139755938,-0.4116052827754874,1.3124436214844788,-1.013306855137991,-0.0318337807265312,0.8334891044940562,11.67191612340048,-1.513075619242195,0.2197071517647815,-1.2371381376956248
1.76,0.0135640687902025,-0.8062941748294599,1.803982213470999,4.56399675539492e-05,0.0680128171201379,0.0436410645455427,0.1251548754683784,0.8608357474927819,-0.3416564090309354,0.0077329779247576,-0.8060546440529691,1.8042178869927028,0.0738752785102851,1.15895241457164,-0.397412980250444,1.3443059366904029,-1.0447134285489117,0.1133703095657912,0.8383790768736993,11.681730149845862,-1.5136456329607604,0.2236130610384907,-1.239986628771732
1.78,0.0157510276017455,-0.7898972479403417,1.7976522101682006,-0.0034033200543909,0.0696929188662456,0.0433463522292289,0.1063497665664854,0.8650595087914991,-0.3255090520515635,0.0094219424163958,-0.7832755957674968,1.7961277043624435,0.0527293863670356,1.1989524151676865,-0.3832206777254005,1.257188746509318,-0.940255445094651,0.2111880649358577,0.8073678489685959,11.681730149845862,-1.5118031030126835,0.22782579236185,-1.2469662312964438
1.8,0.0176831938198281,-0.7725372627035182,1.7913225236166246,-0.0066211909782425,0.0729695073851206,0.0430524077324047,0.0880857291755968,0.8707140042798116,-0.3083128937979955,0.0210685159300698,-0.7466442725007667,1.7813767575656223,0.0994893650850954,0.9650595102816152,-0.2960521031900838,1.2857451533302404,-0.9132018695444304,0.2827247744156269,0.8598079126784036,11.694757119211316,-1.5081394920033386,0.2316453021220093,-1.2569857569866478
1.82,0.0192064181492002,-0.7549721874970567,1.7853288716242823,-0.0065690562959173,0.0790242220333502,0.0429590230219224,0.0656606929966451,0.8846578097745093,-0.2919560880585555,0.0210685159300698,-0.7466442725007667,1.7813767575656223,0.0994893650850954,0.9650595102816152,-0.2960521031900838,1.553107412012308,-1.1212518089475847,0.6971902747348824,0.8178402869719964,11.710494288316111,-1.5023087507396564,0.2318518166383671,-1.2677674027702068
1.84,0.0203276703168968,-0.7371786526744744,1.779654031259616,-0.0024938994738463,0.088392819372323,0.0431393087632557,0.048221758711765,0.8932372406893208,-0.2763629745511087,0.0210685159300698,-0.7466442725007667,1.7813767575656223,0.0994893650850954,0.9650595102816152,-0.2960521031900838,1.2458614014713976,-0.8719467142440054,0.4289715457405751,0.7796556753723399,11.712704292070155,-1.4902323697601347,0.2274287050236468,-1.2916742483457229
1.86,0.0211158490775351,-0.7201701235657605,1.7745412736860922,0.0021031515934327,0.0986687250886206,0.0433943745043425,0.0360127809577839,0.8967346485379176,-0.2626352915753489,0.0220634095809208,-0.7369936773979505,1.7784162365337215,0.0981172847888174,0.9850595105796384,-0.2901607134177878,0.9350672159524104,-0.6104488876990513,0.1748703924298433,0.6863841487879913,11.63269558691718,-1.4761461008439347,0.2217480751276934,-1.3149150422403566
1.88,0.0217347251296018,-0.7022215480352878,1.76943204345643,0.0061980887322805,0.1099478382223979,0.0436537237110969,0.0269053160711009,0.8981189877831739,-0.2490784213370856,0.0240531968826227,-0.7176924871923183,1.77249519446992,0.0953731241962614,1.0250595111756848,-0.2783779338731959,0.8195288928177409,-0.45537324433415,0.0692169622628136,0.6778435119131634,11.562629284086142,-1.4613995387917176,0.2168170316902226,-1.3369008530533049
1.9,0.022206458258405,-0.6842569619332368,1.764584827393375,0.0090692059302369,0.1211542384109686,0.0438594945904815,0.0210557352102284,0.8985281194384984,-0.2363845394448922,0.0260429841843246,-0.6983912969866859,1.7665741524061185,0.0926289636037054,1.0650595117717314,-0.266595154328604,0.69914165669811,-0.2924790430436251,0.0204565827662261,0.6346940946096724,11.49471113378604,-1.446695371047406,0.2132870728917272,-1.357378557482371
1.92,0.0225921994524752,-0.6662915434181709,1.759985479507858,0.0105663573712125,0.1319950021383294,0.0439833916296538,0.0181076225314462,0.8983180150990261,-0.2242280691701994,0.0278955634563987,-0.6770901067512513,1.761242249319546,0.0898848030111494,1.1050595123677778,-0.2548123747840121,0.6255303384723832,-0.1474056339391094,-0.0105052169736163,0.6078235137346372,11.49471113378604,-1.4331604204239896,0.2114754387005058,-1.3753948067993718
1.94,0.0229308301723059,-0.6492329809889951,1.7558386719298409,0.0105434516261356,0.1417752491265531,0.0439964714926981,0.0179051409249309,0.8975863523532855,-0.2129236531458006,0.0297481427284728,-0.6557889165158166,1.7559103462329742,0.0871406424185934,1.1450595129638244,-0.2430295952394202,0.5664939338315252,-0.0101240803257653,-0.0365831372870273,0.5652208012199413,11.48984961934002,-1.419594435611846,0.2114500378615625,-1.3927988140445409
1.96,0.0233198611411621,-0.6312827888713965,1.7517046774399356,0.0089947013363949,0.1510259399362082,0.0438801333326266,0.0211938694447202,0.8976074509132431,-0.2010953386183615,0.031532117985733,-0.6334877262654809,1.750873012635017,0.0843964818260374,1.1850595135598707,-0.2312468156948283,0.6138509692631736,0.1644364259894637,0.0010549279978788,0.5914157263719563,11.501392323171784,-1.407119079116417,0.2134272526597225,-1.4085413482464144
1.98,0.0238077916837191,-0.6133189824635267,1.7478081891359267,0.0061989566957734,0.1584701611362134,0.0436387899930482,0.0273877002757837,0.8990889291782381,-0.189169876387832,0.0332474892281793,-0.610186536000244,1.7461302485256744,0.0816523212334814,1.225059514155917,-0.2194640361502364,0.6759714632017955,0.3096915415531721,0.0740739132497503,0.5962731115264754,11.5264893977901,-1.39765989034614,0.2168366655236392,-1.4202166489278978
2.0,0.0244048190197355,-0.5962005403266774,1.7443301811166412,0.003246668610331,0.1635284420607314,0.0433567052112905,0.0350299548173684,0.902802418127566,-0.1775449490917491,0.0251771766975083,-0.5683645360046148,1.7383496953165352,0.0297355612267603,0.9341489996333124,-0.1956335069784198,0.7199531048866425,0.3821127270792379,0.185674447466394,0.5812463648041457,11.558002451337416,-1.390891790202024,0.2209080355321056,-1.4292442345208516
2.02,0.02517084995486,-0.577828824890969,1.7408180545337053,0.0089522822954462,0.1667345728401733,0.043658569443898,0.0411627766887177,0.9301446834796268,-0.1747581935212873,0.0251771766975083,-0.5683645360046148,1.7383496953165352,0.0297355612267603,0.9341489996333124,-0.1956335069784198,1.4079923519835853,0.3066410935674633,1.3671132676030429,0.1393377785230881,11.600019868526031,-1.3862475109410268,0.2132158869923685,-1.435622093051543
2.04,0.0260638940320445,-0.5591273668797403,1.7373362364310962,0.0235023900382944,0.1680514321155298,0.0445593657225896,0.0477698218153137,0.9373126178803036,-0.1735353720300352,0.0251771766975083,-0.5683645360046148,1.7383496953165352,0.0297355612267603,0.9341489996333124,-0.1956335069784198,0.4912423568788361,0.3303522563298015,0.3583967200338378,0.0611410745626025,10.971610470520318,-1.3846221019480582,0.193789507863828,-1.4427674915890214
2.06,0.0270865240050259,-0.5403973944503696,1.733857003373971,0.0392522260550732,0.1678408082187983,0.0454809570241381,0.0540591240564018,0.9349211589447086,-0.174453966861652,0.0254745323097759,-0.5590230460082817,1.736393360246751,0.0302051334169556,0.9411610137243271,-0.1969262330965374,0.339551965776468,0.3144651120544031,-0.1195729467797501,-0.0459297415808371,10.912975790299242,-1.38479643032375,0.1735993062334472,-1.4442306653361436
2.08,0.0281698217257041,-0.5227171795658727,1.7305160628916951,0.0528406686428047,0.1664646135092379,0.0461657781300415,0.0595530633396396,0.9265537572909672,-0.1771591548284523,0.0260692435343111,-0.5403400660156154,1.7324806901071823,0.0311442777973462,0.955185041906357,-0.1995116853327725,0.5184467697330642,0.2746969641618923,-0.4183700826870695,-0.135259398340018,10.789017723393044,-1.3866911286907695,0.1541441509978628,-1.4421102399893466
2.1,0.0294152867233059,-0.504315707625542,1.7269313971224325,0.0647124082465161,0.1639640924304046,0.0465957376865314,0.0645804629815746,0.9142956184058556,-0.1811825299018938,0.0266639547588463,-0.5216570860229491,1.728568019967614,0.0320834221777369,0.9692090700883867,-0.2020971375690077,0.6923226543093979,0.2513699820967489,-0.6129069442555812,-0.2011687536720749,10.691497934682957,-1.3901456468746478,0.1380153342567912,-1.4369465677102362
2.12,0.0307510509962009,-0.4861855583707462,1.7232586167679946,0.0738975371098598,0.1605920174740763,0.0467115693323048,0.0686018285964903,0.8996931149469085,-0.1858724472399666,0.027305623202401,-0.5022729046211813,1.724526077216234,0.0330225665581275,0.9832330982704164,-0.2046825898052428,0.7927796246677637,0.2010682807457871,-0.7301251729473546,-0.234495866903639,10.631700920740514,-1.394786862685152,0.1254583862355164,-1.4298947791976224
2.14,0.0321534717404923,-0.4683649803332886,1.719487013166839,0.0804681088605217,0.1566321348754567,0.0465369925230783,0.0712851510638149,0.8836809785964727,-0.1909819425445267,0.0279472916459558,-0.4828887232194136,1.7204841344648538,0.0339617109385182,0.9972571264524464,-0.207268042041478,0.8510224324833027,0.1341661233662264,-0.8006068175217929,-0.2554747652280018,10.599710590188806,-1.4000829444398888,0.1167909319199749,-1.421448382650371
2.16,0.0335211947454451,-0.4517359092816567,1.715810458792556,0.0847272253990744,0.1526623048129184,0.0461662940532357,0.0724205307694079,0.8679799141181733,-0.1957088649575667,0.0286124386990203,-0.4631539411130951,1.7163775554075678,0.0349008553189088,1.011281154634476,-0.2098534942777131,0.8218216173940754,0.0567689852796524,-0.7850532239149666,-0.2363461206520006,10.57471111814266,-1.4061126225057432,0.1104393967403993,-1.411489503174144
2.18,0.0349680038118539,-0.4345540604394012,1.711846994192321,0.0875898266907535,0.1486848214632962,0.0456393426610769,0.072045843838336,0.8513021786776672,-0.2003329128973532,0.0293010643615945,-0.4430685583022259,1.712206340044376,0.0358399996992995,1.0253051828165058,-0.2124389465139483,0.8655476143304796,-0.0187343465535942,-0.8338867720253051,-0.2312023969893287,10.57471111814266,-1.41191945029277,0.1062922411254921,-1.4015780352593166
2.2,0.0363904581583935,-0.4177101013920962,1.7077956269177517,0.0890220894318221,0.1454056998817631,0.0450431634173093,0.0700914795808236,0.8341189993065453,-0.2045231711072048,0.0385702960037707,-0.3919889515055178,1.7018303485474533,0.0323622634397765,0.8345044368026148,-0.1851055904306818,0.8897182936418968,-0.0977182128756193,-0.8591589685560952,-0.2095129104925763,10.585235213928172,-1.4168201016517123,0.1039979553614419,-1.392631604802914
2.22,0.0378444695796154,-0.4010862192575799,1.7037365990400246,0.0931620111195223,0.1407923687587569,0.0444845727835131,0.0755113273017337,0.8272283253808816,-0.2009511566440226,0.0385702960037707,-0.3919889515055178,1.7018303485474533,0.0323622634397765,0.8345044368026148,-0.1851055904306818,0.4733271167830375,0.2709923860455008,-0.3445336962831835,0.1786007231591085,10.603734895548769,-1.4203160001167598,0.098023363400149,-1.389194882758514
2.24,0.0393120407179238,-0.3855101660999054,1.6999512482146784,0.0998743395726282,0.1331489255489976,0.0437765665400442,0.0781182662957898,0.8123260248690488,-0.197693489578967,0.0385702960037707,-0.3919889515055178,1.7018303485474533,0.0323622634397765,0.8345044368026148,-0.1851055904306818,0.7737685154011684,0.1303469497028066,-0.7451150255916417,0.1628833532527782,11.059442459943057,-1.432576394755277,0.0885782049170565,-1.374482947836703
2.26,0.0408636532858007,-0.3694747592188701,1.69602625351026,0.1066836375383264,0.1233288524734949,0.0427374178569379,0.076447708125234,0.7920199336279641,-0.1949574879926129,0.0388939186381685,-0.3836439071374917,1.6999792926431463,0.0244255473600646,0.8311448884276043,-0.1820601259373475,1.027878653797472,-0.0835279085277904,-1.0153045620542367,0.1368000793177073,11.014489210399006,-1.4466114290398058,0.0794514793164017,-1.356243948916698
2.28,0.0423359342069283,-0.3538758349137296,1.6921502473782284,0.1121444899476678,0.1130556577860232,0.0414578744479232,0.0705138600807497,0.769115775760794,-0.1927432752842725,0.039541163906964,-0.3669538184014393,1.6962771808345327,0.0085521152006407,0.8244257916775833,-0.1759691969506789,1.188185316077687,-0.2966924022242134,-1.145207893358502,0.1107106354170217,10.933627719246942,-1.4607563494014344,0.0720706468710415,-1.3368607537245871
2.3000000000000003,0.0436484477178621,-0.3387523933008805,1.6883159527015787,0.1158829630323698,0.1034102460521164,0.0400523750990224,0.0608536067429802,0.7448383930656896,-0.1907157227968603,0.0401884091757596,-0.3502637296653871,1.6925750690259191,-0.007321316958783,0.8177066949275623,-0.1698782679640103,1.3103651916199337,-0.4830126668884777,-1.2138691347552244,0.1013776243706091,10.933627719246942,-1.473066792498333,0.0670589979353327,-1.3193092604999512
2.32,0.0446873198725034,-0.32484114585202,1.6847124772411968,0.1179135442555356,0.095475752422587,0.0387068092839471,0.0489258274992317,0.7211353450655941,-0.1886339651469852,0.0400419828365839,-0.3339095957668359,1.689177503666639,-0.0231947491182068,0.8109875981775413,-0.1637873389773417,1.3308269206542611,-0.5963889621874247,-1.1851524000047742,0.1040878824937543,10.919819758998528,-1.4839891360898738,0.0636812571420628,-1.3031485674102654
2.34,0.0455136365575942,-0.3106877685091931,1.680968501624091,0.1185140542076415,0.0888219878090866,0.0373564817479173,0.0341963937753149,0.6956142319333841,-0.1858099797855178,0.0398955564974082,-0.3175554618682846,1.6857799383073588,-0.0390681812776307,0.8042685014275204,-0.1576964099906731,1.480083043832421,-0.7364716861958384,-1.2760556566104977,0.1411992680733692,10.92503156127168,-1.4925251766697103,0.0622572163364722,-1.2890317315957207
2.36,0.0460180837363209,-0.297057545085202,1.6772884370947845,0.1170665842772372,0.0845426654183969,0.0361354554534899,0.0169340584096125,0.6690598726582367,-0.1822831468120954,0.039352294354247,-0.3013693053884839,1.6825346461727453,-0.0549416134370545,0.7975494046774994,-0.1516054810040046,1.5933932107408426,-0.8631167682851201,-1.3277179637573688,0.1763416486711175,10.96538569297536,-1.4980274486539786,0.0632064482337455,-1.278391790497891
2.38,0.0461604337920291,-0.2845990654266443,1.6738661806828006,0.1135186521538834,0.0833744382786354,0.0351652273973745,-0.0007915832490861,0.6444513835733578,-0.1780338172692078,0.0384121964071001,-0.2853511263274337,1.6794416272627983,-0.0708150455964783,0.7908303079274784,-0.145514552017336,1.5312028840239098,-0.8862820829349348,-1.2304244542439446,0.212466477144381,11.017508694390015,-1.499391168543073,0.0666672194108151,-1.273338048202125
2.4,0.0459598351846063,-0.2719545435696583,1.6703638125620484,0.1085293101675841,0.0848785028181558,0.0343669678602533,-0.0180431675202927,0.6216654492615274,-0.1723460319918269,0.0461208546295748,-0.2523764962479765,1.66496448981934,-0.0072410474919915,0.6008740291720078,-0.1513361071127671,1.4570233900757952,-0.862579213560331,-1.13929671559152,0.2843892638690476,11.058915143974446,-1.4973949915380766,0.0716026847330073,-1.273564819546254
2.42,0.0453789599788723,-0.2596393053340322,1.6669717377225275,0.1064465793131938,0.0898762995212468,0.0341411919355093,-0.038646419242724,0.6098697450371263,-0.1673853251220559,0.0461208546295748,-0.2523764962479765,1.66496448981934,-0.0072410474919915,0.6008740291720078,-0.1513361071127671,1.212684246140784,-1.0301625861215662,-0.5897852112200563,0.2480353434885479,10.99967469305102,-1.491791589538256,0.0733680595461647,-1.277899499401081
2.44,0.0444896051864034,-0.2481961948021323,1.6638415352497613,0.1083796193154779,0.0979581833659012,0.0345557698309458,-0.0534150742260507,0.5949200820855268,-0.1623904501915091,0.0461208546295748,-0.2523764962479765,1.66496448981934,-0.0072410474919915,0.6008740291720078,-0.1513361071127671,1.0799934814094605,-0.7384327491663331,-0.7474831475799748,0.2497437465273394,10.99967469305102,-1.4798741259742798,0.0700628828214718,-1.2909437758809503
2.46,0.0432993867198681,-0.2364984646134847,1.6606525846773776,0.1122689739231079,0.108074962546051,0.0353187761334584,-0.0643641249160725,0.5752040871846122,-0.1568005916375426,0.0460484441546549,-0.2463677559562564,1.6634511287482123,-0.0085309403405726,0.5921585582917378,-0.1459965650814789,1.161732203004321,-0.5474525345010902,-0.985799745045729,0.2794929276983243,11.030174388564774,-1.4662142126533169,0.0646132089649057,-1.3052082850144593
2.48,0.0419319127354691,-0.2252339603448342,1.6575775459905815,0.1161051792048111,0.1187686974259938,0.036176134051051,-0.0714585064288408,0.5523100303179157,-0.1509755828232319,0.0459036232048151,-0.2343502753728162,1.660424406605957,-0.0111107260377347,0.5747276165311979,-0.1353174810189026,1.2332870879797635,-0.3547190756384148,-1.1447028433348272,0.2912504407155389,11.07159983191741,-1.451865007179317,0.0592909920368461,-1.3191990536150848
2.5,0.0404579060774695,-0.2144464527015935,1.6546238715194563,0.1190021093806282,0.1294480287116967,0.036993423851614,-0.0752667121902217,0.5278987977450557,-0.1446861370918981,0.0457588022549752,-0.2223327947893761,1.6573976844637015,-0.0136905117348969,0.5572966747706578,-0.1246383969563263,1.2747233370958084,-0.1904102880690449,-1.220561628643002,0.314472286566686,11.167779357740072,-1.4383504989033875,0.0553341212208462,-1.3315953643084142
2.52,0.039023555233576,-0.2046583265908605,1.6519389414215673,0.1206519411806582,0.1390230474820894,0.037638124956085,-0.0753659274616505,0.5039261210071583,-0.1382520179920003,0.0454849920202773,-0.2111868612939629,1.6549049165245753,-0.016270297432059,0.5398657330101178,-0.1139593128937501,1.2410650287570355,-0.0049607635714397,-1.198633836894869,0.32170595499489,11.167779357740072,-1.4248021622060458,0.0525132675622038,-1.343831342562417
2.54,0.0375472261528157,-0.1948509103201604,1.6492490749792803,0.1210555251561589,0.1477894901254396,0.0380646308482532,-0.0721156372494828,0.4782113087836381,-0.1310502965812675,0.0452111817855794,-0.2000409277985497,1.6524121485854488,-0.0188500831292212,0.5224347912495778,-0.1032802288311738,1.3450657469358367,0.162514510608383,-1.2857406111760088,0.3600860705366443,11.222293035943949,-1.4131289040690247,0.0513452648865049,-1.354054661628111
2.56,0.036164685300515,-0.185567376217072,1.6467074605637149,0.1196222577169349,0.1546632484801729,0.0381195137594384,-0.0662703740164749,0.4516452033692031,-0.1234287221707774,0.0448728769084524,-0.1893307678471501,1.6501863577478866,-0.0214298688263833,0.5050038494890378,-0.0926011447685975,1.4124565972523395,0.2922631616503954,-1.3283052707217495,0.3810787205245032,11.276499535490984,-1.404122068738579,0.0524281257303554,-1.3613346041120222
2.58,0.0349195340548208,-0.1768129283796513,1.6443266018514275,0.1159724146296045,0.1593466330640261,0.0377345279519107,-0.0586989553127654,0.4259137037973848,-0.1149416413939464,0.0444700773888963,-0.1790563814397639,1.648227544011889,-0.0240096545235455,0.4875729077284977,-0.0819220607060212,1.4066511574603553,0.3785709351854769,-1.2865749785909153,0.4243540388415512,11.385447604654471,-1.3980673758070628,0.056036479694652,-1.3643509213398604
2.6,0.0338848020030597,-0.1689433680162645,1.6422332370723185,0.1113958066381058,0.1617700727664574,0.0370375187501,-0.0507820636553916,0.4040878351699895,-0.1057878627293264,0.0319845862891825,-0.1555172431897821,1.63857951978173,-0.0503057207394607,0.4048597302120176,-0.1028013058788049,1.2478355046797702,0.3958445828686919,-1.0912934313697664,0.4576889332309978,11.385447604654471,-1.394987931236823,0.0612202385272493,-1.365251702729266
2.62,0.0329245346400972,-0.1611204945835331,1.6401141806589568,0.1047537648222936,0.1628928391482472,0.036007420245994,-0.0458502321362055,0.380417635197984,-0.1070010500481148,0.0319845862891825,-0.1555172431897821,1.63857951978173,-0.0503057207394607,0.4048597302120176,-0.1028013058788049,1.2104473886943976,0.2465915759593029,-1.183509998600274,-0.0606593659394215,11.4421498166339,-1.3934461150752364,0.0687192801516737,-1.362502241985018
2.64,0.0320589320527577,-0.1537136775045253,1.6379733000549308,0.0967823597217453,0.1632420671734161,0.0348051430356376,-0.0409899913627715,0.3617738994912698,-0.1068232448976226,0.0319845862891825,-0.1555172431897821,1.63857951978173,-0.0503057207394607,0.4048597302120176,-0.1028013058788049,0.9633826292666626,0.2430120386716999,-0.9321867853357064,0.0088902575246123,10.710395310505191,-1.392947688570204,0.0779050886859837,-1.3571223605132507
