t,x,y,z,roll,pitch,yaw,v_x,v_y,v_z,ref_x,ref_y,ref_z,ref_v_x,ref_v_y,ref_v_z,a_com,a_x,a_y,a_z,thrust,wind_x,wind_y,wind_z
0.0,-2.152539156933206,1.2330608152542903,1.9908742844874003,0.0232496154353205,0.1500732445973847,0.0288212094707893,0.0020405569197417,-0.0052815354951084,-0.0038262953824367,-2.1524828300574934,1.2330048042169728,1.990759411089286,0.0969463477656969,-0.102772494882808,-0.1038296467482426,0.3416834283457898,0.1020278459870887,-0.2640767747554212,-0.1913147691218373,10.662649742970643,-1.4129166875489318,0.1678193649786238,-1.278767708502388
0.02,-2.1526046028207126,1.2332056121092645,1.9905902637606152,0.0299676396825441,0.1521843984851656,0.0293306503646357,-0.0083268209642039,0.0158599557127209,-0.0258076062411454,-2.1524828300574934,1.2330048042169728,1.990759411089286,0.0969463477656969,-0.102772494882808,-0.1038296467482426,1.6106079611022968,-0.5183688941972878,1.057074560391467,-1.099065542935436,10.663025022598958,-1.407445064338943,0.1596995166107843,-1.277441050162371
0.04,-2.1528579066015263,1.2335494184649207,1.989747474646416,0.044317212798861,0.1576572728786496,0.0305041734916927,-0.0160344796555026,0.0166471969555866,-0.0576313776293666,-2.1524828300574934,1.2330048042169728,1.990759411089286,0.0969463477656969,-0.102772494882808,-0.1038296467482426,1.637666156948497,-0.3853829345649354,0.0393620621432886,-1.5911885694110568,9.27562969660221,-1.396347370282487,0.143432269302349,-1.282920265311872
0.06,-2.153205688901485,1.2338146946845572,1.988354276889879,0.0585797944705801,0.1643695859471985,0.0317964610285022,-0.0199001841478837,0.0109505865262877,-0.0874297705793143,-2.1515133665798363,1.2319770792681446,1.9897211146218037,0.1159514839575418,-0.1227724951808312,-0.1238296470462658,1.5291658379694375,-0.1932852246190514,-0.2848305214649488,-1.489919647497388,8.854220273303781,-1.3849284262937789,0.1256732496411293,-1.2889339963655864
0.08,-2.153619313451981,1.2339399920784564,1.9862917033574183,0.0731095807779408,0.1720509397046783,0.0332448596200935,-0.0209729567207157,0.0015619343314731,-0.1172163017155866,-2.1495744396245224,1.2299216293704884,1.9876445216868384,0.1539617563412317,-0.1627724957768777,-0.1638296476423123,1.562478054374154,-0.0536386286415998,-0.4694326097407265,-1.4893265568136158,8.938939406224108,-1.3731745655332874,0.1085618298071007,-1.2941116067201774
0.1,-2.15402595104333,1.2338471975565468,1.9836535587311723,0.0869688971182859,0.1798168483504079,0.0347395745958756,-0.0193939207211581,-0.0106691972593993,-0.1450578360481589,-2.1476355126692086,1.2278661794728325,1.9855679287518735,0.1919720287249216,-0.2027724963729241,-0.2038296482383587,1.5225348671483174,0.0789517999778806,-0.6115565795436279,-1.3920767166286117,9.16860083665324,-1.362582812628666,0.0931586870616783,-1.2978403414524973
0.12,-2.154360417527872,1.2335070767126028,1.980650612024756,0.099508260881339,0.1870015446527908,0.0361718774658543,-0.015723962757587,-0.024762461927275,-0.1697028317990523,-2.1437960720947102,1.2238107295453735,1.9814913357871065,0.2299823011086114,-0.2427724969689706,-0.2438296488344052,1.4313145321825032,0.183497898178552,-0.704663233393782,-1.232249787544673,9.16860083665324,-1.3524996838131893,0.0778328958337171,-1.3011992877789504
0.14,-2.154618828273825,1.2328351939930626,1.976986737162804,0.1120693945482681,0.1942269689555408,0.0376670377401691,-0.0101281119994015,-0.0419526827421054,-0.1954192895570489,-2.139956631520212,1.2197552796179154,1.9774147428223392,0.2679925734923014,-0.2827724975650171,-0.2838296494304517,1.5717453968354251,0.279792537909278,-0.8595110407415233,-1.285822887899829,9.282012921257774,-1.3430327089431626,0.0632083337727592,-1.3055585278412
0.16,-2.1547476186372427,1.2317949128286156,1.9728126241351789,0.1240024566923645,0.2010506939657216,0.0391286065218443,-0.002858959537537,-0.0614708239295708,-0.2207203518975612,-2.135166934136121,1.2146998296755558,1.9723381498426709,0.3060028458759912,-0.3227724981610635,-0.3238296500264981,1.6385528435834402,0.3634576230932212,-0.9759070593732684,-1.265053117025615,9.313252708529944,-1.3331116854603933,0.0492798084432568,-1.308614495707983
0.18,-2.1547138093468843,1.230340439581072,1.968138999210839,0.135334239160991,0.2074536554066644,0.0405391500788858,0.0060263880717193,-0.0832388524367079,-0.2454320729085302,-2.129426979942438,1.2086443797182949,1.9662615568481012,0.344013118259681,-0.3627724987571099,-0.3638296506225445,1.7054805939593818,0.4442673804628217,-1.0884014253568572,-1.235586050548447,9.360537905580712,-1.3237190917088235,0.0366942640826832,-1.3105354559186866
0.2,-2.154502600144646,1.2285275281216832,1.9632458613829888,0.1453238850528941,0.2131522161850106,0.0418020193129766,0.0158809959961404,-0.1065342296881215,-0.2684235681896537,-2.154412489943298,1.2261784969592366,1.955867395565412,0.0954177462684547,-0.1832388539268241,-0.3454320743986463,1.709090952737493,0.4927303962210548,-1.1647688625706754,-1.1495747640561742,9.413589305685491,-1.3145680011635392,0.0244368137917191,-1.3117607492602037
0.22,-2.154039417604224,1.225969140170882,1.957703660789396,0.1503666107144972,0.2187652530096512,0.0426994287157624,0.0301517785792224,-0.1461082254197967,-0.2837732984813237,-2.154412489943298,1.2261784969592366,1.955867395565412,0.0954177462684547,-0.1832388539268241,-0.3454320743986463,2.239068217881746,0.7135391291540978,-1.9786997865837603,-0.7674865145835014,9.469644714571588,-1.3061770446757393,0.0190243844774614,-1.3100174244551936
0.24,-2.1532768281679,1.2226918299577862,1.9518793467668825,0.1492639108540948,0.2239983622809418,0.0430803105441243,0.0454824720306403,-0.1791362915763843,-0.2979253095265188,-2.154412489943298,1.2261784969592366,1.955867395565412,0.0954177462684547,-0.1832388539268241,-0.3454320743986463,1.9533066402696493,0.7665346725708976,-1.6514033078293813,-0.7076005522597545,10.16195971214347,-1.2995453368139445,0.0207765419107439,-1.3100962579770614
0.26,-2.1522010290038893,1.2187966384489224,1.9457632844155797,0.1450171926456331,0.2288898611619604,0.0431457782039929,0.0614214852868586,-0.2079407782492722,-0.3129236106760111,-2.153458312480613,1.2243461084199685,1.9524130748214257,0.1132960179078018,-0.2032388542248473,-0.3654320746966695,1.8087976900702167,0.7969506628109163,-1.4402243336443936,-0.749915057474615,10.103136274678944,-1.293627426728611,0.0259243803323241,-1.3094051069848618
0.28,-2.1508788991359715,1.2146061642678718,1.9396658307047807,0.1400916261167309,0.2332421914861518,0.0430594036514797,0.0770471097046079,-0.2315377501269037,-0.328138829901553,-2.1515499575552446,1.220681331341432,1.9455044333334528,0.1490525611864959,-0.2432388548208937,-0.4054320752927159,1.6066114311802298,0.7812812208874621,-1.179848593881576,-0.760760961277096,10.01851413848908,-1.2871340221052396,0.0323176533039024,-1.3084883967361274
0.3,-2.1491610908580583,1.209738207420791,1.932924002948381,0.1350839136896191,0.2375347645027354,0.0428981144410924,0.0939967284689244,-0.2539695554414759,-0.3453117473239211,-2.1496416026298752,1.2170165542628957,1.93859579184548,0.1848091044651901,-0.2832388554169402,-0.4454320758887624,1.6472587522320346,0.8474809382158256,-1.12159026572861,-0.8586458711184075,9.937350308120584,-1.2806719225166971,0.0383316190275462,-1.3077799285687357
0.32,-2.147098802682897,1.204437767594949,1.9258268507538905,0.130653595769191,0.2415529458178033,0.0427016219477984,0.1114813306472748,-0.2750054771904554,-0.363555919674616,-2.1459454205405715,1.2113517771545566,1.9296871503277049,0.2205656477438842,-0.3232388560129866,-0.4854320764848088,1.6439823158463576,0.8742301089175196,-1.0517960874489751,-0.9122086175347404,9.855941574443024,-1.2747932173451328,0.0433029173490028,-1.3070142895690855
0.34,-2.144809371281697,1.1990222145092175,1.9187425430882596,0.1270406796146038,0.2451306839490883,0.0424938138785314,0.1287150196857388,-0.2940789102159453,-0.3812651069363792,-2.142249238451268,1.205687000046218,1.9207785088099292,0.2563221910225784,-0.3632388566090331,-0.5254320770808554,1.5607780100998667,0.8616844519232016,-0.953671651274493,-0.8854593630881619,9.775159784113384,-1.2687896067780744,0.0477087798650136,-1.305915350056423
0.36,-2.14203905193127,1.1929296268600424,1.9109175144717043,0.1236068145725972,0.2486594708783592,0.0422409597879236,0.1474890900860744,-0.3140905180998104,-0.4003172410607074,-2.1376591427799965,1.199022222922978,1.910869867277253,0.2920787343012725,-0.4032388572050795,-0.5654320776769017,1.670264937207359,0.9387035200167788,-1.0005803941932567,-0.9526067062164106,9.775159784113384,-1.263180016702134,0.0515921574079794,-1.3045123925942337
0.38,-2.138886321457876,1.1864401498320758,1.902709538903468,0.1202460839235777,0.2519596717097306,0.0419366878266534,0.1669206880923197,-0.3337256538539713,-0.4195205579068194,-2.132175133526758,1.1913574457848366,1.8999612257296756,0.3278352775799667,-0.443238857801126,-0.6054320782729482,1.682180827863649,0.9715799003122638,-0.9817567877080464,-0.9601658423055992,9.755543337562813,-1.257857611498574,0.0553372103789551,-1.3026509634569663
0.4,-2.1353385255803974,1.17956365979453,1.894116114284337,0.1168208193257675,0.2550442344096449,0.0415756954674581,0.1869583544365804,-0.3527690334512681,-0.4388449315590004,-2.13054028705326,1.1697538671393772,1.881733511008127,0.2559918277855799,-0.4337256553440874,-0.5195205593969355,1.686408755358386,1.001883317213037,-0.9521689798648396,-0.966218682609052,9.749331228083976,-1.253109960777142,0.0589145584968241,-1.3006269515427675
0.42,-2.131538266224874,1.1726744691810145,1.8857815792959107,0.1138082526709545,0.2576899461481985,0.0411943946539219,0.2120962107288385,-0.3715198680870445,-0.4375277427972709,-2.13054028705326,1.1697538671393772,1.881733511008127,0.2559918277855799,-0.4337256553440874,-0.5195205593969355,1.5694271285587609,1.2568928146129046,-0.9375417317888212,0.0658594380864741,9.741604406454826,-1.246892006175329,0.0624965597159382,-1.2936151314518725
0.44,-2.127023134527274,1.1650544520858734,1.877019817760914,0.1113688019135842,0.2601598732994669,0.0407885305033359,0.2380701300760634,-0.389636841112099,-0.4390085496412746,-2.13054028705326,1.1697538671393772,1.881733511008127,0.2559918277855799,-0.4337256553440874,-0.5195205593969355,1.585135630439822,1.2986959673612437,-0.905848651252722,-0.074040342200185,11.014369910486494,-1.2448033073242084,0.0648140857452519,-1.2959146632976175
0.46,-2.12199608132284,1.1570729622775409,1.8681859896710944,0.1095824896431247,0.2624223993386934,0.0403876036857369,0.2633464230411565,-0.4076208607217731,-0.4444592106498776,-2.127980368775404,1.1654166105859365,1.8765383054141576,0.2738060557242319,-0.4537256556421107,-0.5395205596949587,1.5748219366082823,1.2638146482546546,-0.8992009804837081,-0.2725330504301487,10.738940433721837,-1.2427202162159667,0.0663468853670637,-1.297383150183331
0.48,-2.1164693211894674,1.1487371383596292,1.8592069620779803,0.108190820462164,0.2645412723902972,0.0399824336718864,0.288124290738126,-0.4250695708383175,-0.453159204241577,-2.122860532219692,1.1567420974790543,1.8661478942262189,0.309434511601536,-0.4937256562381571,-0.5795205602910052,1.5764597210485047,1.2388933848484744,-0.8724355058272182,-0.4349996795849686,10.512972335164704,-1.2405304678814215,0.067360508722426,-1.297818956441379
0.5,-2.110760271251952,1.1405004716942178,1.850492768880456,0.107238672092762,0.2663805274928719,0.0395908350559973,0.3116153641879884,-0.4410878400972614,-0.4636835213726976,-2.1177406956639806,1.1480675843721728,1.85575748303828,0.3450629674788401,-0.5337256568342036,-0.6195205608870517,1.515896379172446,1.1745536724931198,-0.800913462947192,-0.5262158565560282,10.337973161676018,-1.2380773601998485,0.0679440629137353,-1.2974691615161964
0.52,-2.1042664342833146,1.1315083497800886,1.841084169394044,0.1067571644778522,0.2679649079330166,0.0391637653790188,0.336520656380001,-0.4572995939275521,-0.4767042184516195,-2.110839436314404,1.1373930712354887,1.843367071820539,0.3806914233561442,-0.5737256574302501,-0.6595205614830981,1.6222153786138542,1.2452646096006297,-0.8105876915145388,-0.6510348539460947,10.20395982782793,-1.235833812737545,0.0678638692636969,-1.29630702669302
0.54,-2.097270104838762,1.122194555717972,1.831404731147038,0.1069268689971777,0.2689617161747317,0.0387059987983585,0.3618090978089865,-0.4733285706015321,-0.4905653825833398,-2.1039381769648267,1.1267185580988046,1.8309766606027984,0.4163198792334483,-0.6137256580262965,-0.6995205620791446,1.6496705990960123,1.2644220714492782,-0.8014488336989978,-0.6930582065860197,10.089953862755465,-1.2342725209701244,0.0670567954339061,-1.2940046956273628
0.56,-2.089760931467356,1.1125486733905987,1.821442073657903,0.1073936831063581,0.269094647752296,0.0381620594816433,0.3877892767143385,-0.4904206998643723,-0.5049992692865659,-2.0961462062183176,1.1150440449472194,1.817586249370156,0.4519483351107524,-0.6537256586223429,-0.739520562675191,1.7142401115751675,1.299008945267596,-0.8546064631420103,-0.721694335161302,10.053593245086631,-1.2335151559749258,0.0657799392228066,-1.2904923663424697
0.58,-2.0821397963843227,1.1030590297246026,1.8117040256329875,0.1075342922857783,0.2679870342944823,0.0374767356185772,0.4130423867193605,-0.5075008264479813,-0.5192889195425154,-2.087463524074876,1.102369531780733,1.8031958381226123,0.4875767909880564,-0.6937256592183894,-0.7795205632712374,1.6834818037888089,1.2626555002511002,-0.8540063291804512,-0.7144825127974763,10.02986624757068,-1.2342912687322936,0.0647983332028201,-1.285130549590052
0.6,-2.073598472230078,1.0927153878784537,1.801153188932439,0.1069848036723347,0.2650960806404154,0.0365066064283755,0.4396692184538451,-0.5258667460057659,-0.5350291171416655,-2.061487677048355,1.0776839884022036,1.7857395796558615,0.5130423882094766,-0.6075008279380975,-0.6192889210326316,1.7986446215691534,1.33134158672423,-0.9182959778892276,-0.7870098799575009,10.002653670670044,-1.23711234781402,0.064581620384413,-1.2771809192430843
0.62,-2.064487048060063,1.081947736316511,1.7905573923400433,0.1046136141188101,0.2611544206021621,0.0352902858167719,0.4702025470464985,-0.5497360569869524,-0.5222523398506459,-2.061487677048355,1.0776839884022036,1.7857395796558615,0.5130423882094766,-0.6075008279380975,-0.6192889210326316,2.040388565695177,1.5266664296326695,-1.193465549059325,0.6388388645509779,9.956420547500784,-1.2407110995174144,0.0668396740662875,-1.260228629594475
0.64,-2.054788590072325,1.070737400517066,1.780220169465304,0.1005542056547644,0.2576037556993407,0.0340087363196002,0.4979603205103964,-0.5697116022419823,-0.512199364736023,-2.061487677048355,1.0776839884022036,1.7857395796558615,0.5130423882094766,-0.6075008279380975,-0.6192889210326316,1.7822588929249668,1.387888673194898,-0.9987772627514936,0.5026487557311443,11.872910301296542,-1.246550333577557,0.0702584025309839,-1.257704222279267
0.66,-2.045083562056935,1.0597454260201322,1.770528800861919,0.0964740374328699,0.254698544766492,0.0328403239331864,0.5221531391612245,-0.5862206688404689,-0.5083963928365879,-2.05635725316626,1.0716089801228226,1.7795466904455353,0.5330423885074997,-0.6275008282361206,-0.6392889213306547,1.4767399479029928,1.209640932541403,-0.8254533299243305,0.1901485949717563,11.418659205344738,-1.2514526452938444,0.0741457181372238,-1.254950830194531
0.68,-2.034391504057393,1.0478568168610078,1.7603572712341389,0.0924157239952674,0.2520461240239547,0.0316842418720308,0.545647818656562,-0.6017121581348759,-0.5091516628084223,-2.0460964054020705,1.0594589635640608,1.7671609120248826,0.5730423891035462,-0.6675008288321671,-0.6792889219267012,1.407619122736787,1.1747339747668728,-0.7745744647203512,-0.0377634985917196,11.0148903897707,-1.255485819527357,0.077818945372962,-1.25139534554516
0.7000000000000001,-2.0232483497855416,1.0356732020566752,1.7501205622360565,0.0887974453503078,0.2497746828363211,0.0306107972383594,0.5674368488655105,-0.6158939631906758,-0.5144361404572172,-2.035835557637881,1.0473089470052988,1.75477513360423,0.6130423896995927,-0.7075008294282136,-0.7192889225227477,1.3264719523116535,1.0894515104474256,-0.7090902527899956,-0.2642238824397458,10.695251452709272,-1.2585731417757016,0.081009529390377,-1.2473211676116436
0.72,-2.0116843820113823,1.0232171574287134,1.7397417069213124,0.0856599006717568,0.2478594257255821,0.029616934134865,0.587824298487249,-0.6290504202249507,-0.5231594776135384,-2.023574709843889,1.0331589304167346,1.7403893551537748,0.6530423902956392,-0.74750083002426,-0.7592889231187941,1.2892217370535064,1.0193724810869276,-0.6578228517137463,-0.4361668578160615,10.430753982840542,-1.2608194764314853,0.0835487670945493,-1.2431411080850137
0.74,-2.0003299207392,1.011147679800639,1.729703857951666,0.0831533871250772,0.2463972448955437,0.0287478810031775,0.60633256662474,-0.6408382548405055,-0.5330030016240771,-2.011313862049897,1.0190089138281702,1.72600357670332,0.6930423908916856,-0.7875008306203065,-0.7992889237148406,1.2025015585426342,0.925413406874548,-0.5893917307777385,-0.4921762005269336,10.220916201012187,-1.2625261237790024,0.085687256098401,-1.2383844104142825
0.76,-1.988000314523576,0.9981988979029516,1.7189210379451412,0.0807628524655505,0.2451238329821439,0.0278825925886339,0.6256258425272145,-0.6533375055082815,-0.544806327271075,-1.998053014241004,1.003858897224705,1.7106177982379638,0.733042391487732,-0.8275008312163529,-0.839288924310887,1.292072229631516,0.9646637951237268,-0.6249625333888009,-0.5901662823498965,10.120736787567694,-1.2641372666383437,0.0875446326679211,-1.2341154636402505
0.78,-1.9752845650415505,0.985002359039412,1.7078875848953,0.0783343531938539,0.2437578291892936,0.0270172223412337,0.6449566707939868,-0.665565632558759,-0.5579797634170457,-1.98379216641721,0.987708880606338,1.6942320197577063,0.7730423920837785,-0.8675008318123993,-0.8792889249069334,1.3197986897004654,0.966541413338612,-0.6114063525238744,-0.6586718072985331,10.031549001205349,-1.2656949364264545,0.0894359309818375,-1.2294831564111257
0.8,-1.962181864500139,0.9715664839875338,1.6965751385010306,0.0757584002674119,0.2418569215403526,0.0261114144428961,0.6642802285856528,-0.677256060786742,-0.57256112863822,-1.943036731501851,0.951724077411474,1.679988596724448,0.7449566722841029,-0.7655656340488751,-0.6474659302518769,1.3441374646913455,0.9661778895833028,-0.5845214113991526,-0.7290682610587129,9.950852249351556,-1.267740810659225,0.0913776000483027,-1.2242651618965337
0.8200000000000001,-1.949288311118281,0.958554969180971,1.685905454889923,0.0728139789764464,0.2392289581841513,0.0251681704334174,0.6918115018390381,-0.6913874314288789,-0.5497818156690811,-1.943036731501851,0.951724077411474,1.679988596724448,0.7449566722841029,-0.7655656340488751,-0.6474659302518769,1.9213040770034224,1.3765636626692612,-0.7065685321068438,1.138965648456941,9.869919259667768,-1.26445718941775,0.0937373266375128,-1.2094818369512677
0.84,-1.9351689524964304,0.944597735403966,1.6751137401498188,0.0695922018264139,0.2355402497923437,0.0241213062464501,0.7184092281674662,-0.7035441368008871,-0.531055958877469,-1.943036731501851,0.951724077411474,1.679988596724448,0.7449566722841029,-0.7655656340488751,-0.6474659302518769,1.7362907618856198,1.329886316421408,-0.6078352686004096,0.9362928395806048,12.386207358170395,-1.2728775378974864,0.0964727650139453,-1.2106920158832333
0.86,-1.9205458185398183,0.9304130595526569,1.664613791136429,0.0667447153183413,0.2308424068111747,0.0230562933815374,0.7423584699498779,-0.7143094738613012,-0.5201614027240534,-1.93558716477901,0.9440684210709852,1.6735139374219292,0.7649566725821261,-0.7855656343468983,-0.6653631636188432,1.4213989743881394,1.1974620891205825,-0.5382668530207024,0.5447278076707807,11.29543403578009,-1.2817762219973057,0.0987910535084607,-1.2093938574234602
0.88,-1.9054763666324503,0.9160254344163472,1.654256100066038,0.0643633401432949,0.2250475599673732,0.0219779475036376,0.7630653893007295,-0.7240043463524213,-0.5160543547170452,-1.920688031333328,0.9287571083900076,1.6605646188168917,0.8049566731781725,-0.8255656349429448,-0.7011576303527757,1.16150215771821,1.0353459675425836,-0.4847436245560055,0.2053524003504114,11.29543403578009,-1.2913487274843565,0.1005745376519563,-1.2045072811492192
0.9,-1.8908127583061087,0.9021852492662076,1.6444427265453978,0.0625700583220193,0.2190057703685661,0.0209767828416072,0.779244799663649,-0.7324609369719688,-0.5170846605345416,-1.9057888978876456,0.9134457957090302,1.647615300211854,0.844956673774219,-0.8655656355389912,-0.7369520970867082,0.914260322167505,0.8089705181459739,-0.4228295309773755,-0.0515152908748206,10.886712239527697,-1.300233435530497,0.1018324980768015,-1.1968553705386058
0.92,-1.875080120619509,0.8874516339804273,1.634049938676828,0.061306646907769,0.2126945018130099,0.0199930742487287,0.7929498153814825,-0.7404866538820826,-0.5223046195534822,-1.8888897644121612,0.8961344829982504,1.63287625827012,0.8849566743702655,-0.9055656361350376,-0.7727465638206407,0.8358940720970078,0.6852507858916723,-0.4012858455056889,-0.2609979509470284,10.55401334162434,-1.308368400389404,0.1023924248957699,-1.1879952954993886
0.94,-1.8591018842607387,0.872564346476777,1.6235264201538326,0.060928388201905,0.2069541137654477,0.0191242696984754,0.8040328211159472,-0.7479031254061714,-0.5298477422688997,-1.8719906309366767,0.8788231702874705,1.6181372163283858,0.924956674966312,-0.9455656367310842,-0.8085410305545732,0.7660544469514683,0.5541502867232373,-0.3708235762044432,-0.3771561357708786,10.27899110634644,-1.3152065448484995,0.102073899329725,-1.1791669694537936
0.96,-1.8429215793711289,0.8575221427547259,1.6128308590293423,0.0612947332324202,0.202087615731117,0.018371751159695,0.8133414805114823,-0.755940006207504,-0.5392910261818863,-1.854091497446292,0.8605118575617895,1.6025033127183033,0.9649566755623584,-0.9855656373271308,-0.8443354972885057,0.7752712490125336,0.4654329697767523,-0.401844040066629,-0.4721641956493272,10.027304906595418,-1.32095975305067,0.1009537421015685,-1.1707483052439085
0.98,-1.8273930068809816,0.8430774069969669,1.602480342961694,0.0619796675615227,0.1984213022042095,0.0177459530118609,0.8207051348885767,-0.7641198593541045,-0.5497371149221008,-1.8351923639410048,0.8412005448212074,1.5859745474398723,1.0049566761584048,-1.025565637923177,-0.8801299640224381,0.7587064209127394,0.3681827188547204,-0.4089926573300262,-0.5223044370107233,10.027304906595418,-1.3253753960284855,0.0994755724250072,-1.1631338210806417
1.0,-1.8109105246968336,0.8277003301499354,1.59135636992373,0.0628111750182394,0.1958044670493758,0.0171788095982838,0.8270680486241662,-0.7731440846158057,-0.5621614971614868,-1.786357750136553,0.8048714140292617,1.574993487215589,0.9207051363786928,-0.8641198608442207,-0.6108542238333766,0.8310965449495786,0.3181456867794752,-0.4512112630850606,-0.6212191119693011,9.930404355214703,-1.3281808584545307,0.0979196794345468,-1.156751431039828
1.02,-1.794213193299349,0.8120651267307887,1.5803753946545127,0.0619819774560185,0.1942203296923053,0.0165696339169759,0.8427380768552574,-0.7896312638512972,-0.5331927813145018,-1.786357750136553,0.8048714140292617,1.574993487215589,0.9207051363786928,-0.8641198608442207,-0.6108542238333766,1.8415776943491804,0.7835014115545602,-0.8243589617745739,1.4484357923492508,9.838028557139296,-1.3219271898263916,0.0977322324570233,-1.1439105459515784
1.04,-1.7772016977618748,0.7961182783218544,1.5699881890840508,0.0585203734152248,0.1931837924458197,0.0158284574077518,0.8576036494050163,-0.8035584242390015,-0.5071757865384897,-1.786357750136553,0.8048714140292617,1.574993487215589,0.9207051363786928,-0.8641198608442207,-0.6108542238333766,1.6521463773467708,0.7432786274879477,-0.6963580193852126,1.3008497388006024,12.72885171710368,-1.326073458724088,0.1005763045286926,-1.149016104851039
1.06,-1.7607793015648596,0.7807535492817607,1.560527835979208,0.0544201718367217,0.1925159403192385,0.0151078774662779,0.8703245481295625,-0.8129429550385916,-0.489928056957196,-1.777150698772766,0.7962302154208194,1.5688849449772553,0.940705136676716,-0.8841198611422438,-0.6230776456156318,1.1698021824202254,0.6360449362273091,-0.4692265399795059,0.8623864790646835,12.161163147965452,-1.3295829827391292,0.1044813462413609,-1.1534741021195003
1.08,-1.7432450935892911,0.764415502424917,1.550860667100502,0.0503871092491889,0.1920040414834617,0.0144026974239013,0.8823719673858029,-0.8203711086620278,-0.4779747522568139,-1.7587365960451924,0.778947818203935,1.556667860500588,0.9807051372727624,-0.9241198617382904,-0.6475244891801422,0.9262819093682796,0.6023709628120211,-0.3714076811718092,0.597665235019107,11.631928028133188,-1.3306979125412326,0.1080550645476801,-1.1565254704448116
1.1,-1.7254835024534148,0.7479458863119368,1.5413675702834753,0.0470723454665494,0.191652729738877,0.0137782038618495,0.893196859559935,-0.8263681798850099,-0.4719110337238484,-1.7403224933176185,0.7616654209870506,1.5444507760239203,1.0207051378688088,-0.9641198623343368,-0.6719713327446525,0.6890425173422448,0.5412446087066036,-0.2998535611491049,0.303185926648275,11.2229516866455,-1.3315180185547395,0.1109428737048968,-1.158557382127027
1.12,-1.7075157157783587,0.7313662239159852,1.5319490450470672,0.0445526188561423,0.1914519059547587,0.0132369405098192,0.903057862578215,-0.8314826285886997,-0.4702419632305825,-1.7199083905602424,0.7423830237403639,1.5310113493690272,1.0607051384648551,-1.0041198629303831,-0.6964181763091628,0.5616555046928057,0.4930501509139984,-0.2557224351844911,0.0834535246632961,10.628736435397514,-1.3320463351640188,0.1129554948025283,-1.1596657565653838
1.14,-1.6902679548724655,0.7155268342625377,1.523014713517018,0.0429247628515643,0.1914201460703176,0.0128008021140513,0.9120264254993604,-0.8357300022996839,-0.4702967656309231,-1.699494287802866,0.7231006264936771,1.5175719227141342,1.1007051390609015,-1.0441198635264295,-0.7208650198736732,0.4961811856932593,0.4484281460572725,-0.2123686855492079,-0.0027401200170307,10.628736435397514,-1.3321961803391165,0.1142671619543377,-1.1598605514767717
1.16,-1.6719264620589245,0.6987629192880933,1.5135960889045783,0.0418362406276853,0.191431985559194,0.0124041620472293,0.9216415349903938,-0.8404393521943333,-0.4716139285764086,-1.6780801850305886,0.7028182292320893,1.5035213249701282,1.140705139656948,-1.084119864122476,-0.7453118634381836,0.5393589370256028,0.4807554745516695,-0.2354674947324719,-0.065858147274278,10.461682221091904,-1.332082611692074,0.1149105855674601,-1.1600380545812938
1.18,-1.653391302463029,0.6819044530574975,1.50413654682717,0.0411673543145194,0.1912372970100434,0.0120445283839317,0.9313421849261204,-0.8451587792992231,-0.4742599740251036,-1.6556660822434102,0.6815358319556002,1.4888595561370097,1.1807051402529944,-1.1241198647185224,-0.7697587070026939,0.5553763541294389,0.4850324967863362,-0.2359713552444908,-0.1323022724347505,10.461682221091904,-1.3322292840205188,0.1151394247887914,-1.159670641266945
1.2,-1.6356043418259751,0.6658015756820133,1.495089110176213,0.0408195174784894,0.190721329410366,0.0117238795387706,0.9404194787862306,-0.8496282321461245,-0.4779554059531971,-1.6068241932167229,0.6396465140925363,1.4804235481259147,1.0313421864162369,-0.9451587807893392,-0.4942860934509965,0.5385849276312837,0.4538646930055012,-0.2234726423450683,-0.1847715964046703,10.38988046549366,-1.3327820135598227,0.1150771020533611,-1.158637017811799
1.22,-1.6165823102891494,0.6487013194936586,1.4858571515303514,0.0392793434748576,0.1884754946693055,0.0112515879051077,0.9617084214945916,-0.8598574091377595,-0.4430658766174021,-1.6068241932167229,0.6396465140925363,1.4804235481259147,1.0313421864162369,-0.9451587807893392,-0.4942860934509965,2.1066171940099703,1.0644471354180562,-0.5114588495817529,1.7444764667897488,10.317803876638209,-1.3313204698780603,0.1160270449997056,-1.1500074963604627
1.24,-1.5971303272818005,0.6314253950472785,1.477349737997404,0.0361169657876776,0.1828399431916723,0.010563891614905,0.981816461762572,-0.8668525624589651,-0.4098776845917048,-1.6068241932167229,0.6396465140925363,1.4804235481259147,1.0313421864162369,-0.9451587807893392,-0.4942860934509965,1.971497871759219,1.0054020133990205,-0.3497576660602797,1.659409601284864,13.129252097063729,-1.3398446001672797,0.1189928450586587,-1.1500206696417978
1.26,-1.5773324422428554,0.6140438782662458,1.4694309745738905,0.0329650808973452,0.1746855187982527,0.0098318224848852,0.9964132779981442,-0.8709781602373349,-0.383919768906829,-1.5965107713525604,0.6301949262846429,1.4754806871914048,1.0513421867142598,-0.9651587810873624,-0.498291317336175,1.5032473082855262,0.7298408117786037,-0.2062798889184869,1.297895784243791,12.626502907834038,-1.3511123095558306,0.1218752310711693,-1.1456113396190637
1.28,-1.5583096448406364,0.5974719906185629,1.4623190006020694,0.0306572097826352,0.1659601923901053,0.0091966099087278,1.0049669624463973,-0.8734439483534818,-0.3659378095068684,-1.5758839276242356,0.6112917506688561,1.4655949653223848,1.0913421873103064,-1.0051587816834089,-0.5063017651065322,1.0032403656849271,0.4276842224126553,-0.1232894058073474,0.8990979699980306,12.090620053543716,-1.3637272970571146,0.1241801251594828,-1.1375986440911907
1.3,-1.5381604358599978,0.5799866782605642,1.455150118256985,0.0291957253022987,0.1569313670410635,0.0086392676602874,1.0092064656117166,-0.8750797952280355,-0.3521108080397149,-1.5552570838959108,0.5923885750530693,1.455709243453365,1.1313421879063528,-1.0451587822794552,-0.5143122128768893,0.727728231653827,0.2119751582659645,-0.0817923437276824,0.6913500733576716,11.277721786561417,-1.37560018485611,0.1254542336277349,-1.1275413013300548
1.32,-1.517972416048466,0.562478963714576,1.4482028167791952,0.0290786236714259,0.1490196503375775,0.0082343866954808,1.009338723106565,-0.8758369724838051,-0.3432786041129881,-1.5326302401377836,0.5714853994074802,1.4454229991958272,1.1713421885023991,-1.0851587828755016,-0.5223226606472464,0.4432793578683946,0.0066128747424176,-0.0378588627884812,0.4416101963363394,11.277721786561417,-1.385193536671376,0.1253937079724212,-1.118837849547301
1.34,-1.497814998889469,0.5449606859879336,1.4414106337734922,0.0306220283104421,0.1429320047039379,0.0080087961003252,1.006326904121923,-0.8762117234119422,-0.3363689142894608,-1.5100033963796566,0.550582223761891,1.4351367549382894,1.2113421890984457,-1.1251587834715482,-0.5303331084176036,0.3773436938380783,-0.1505909492320989,-0.0187375464068551,0.3454844911763649,10.978073139610387,-1.3930238579186072,0.1237248547802567,-1.110911003523862
1.36,-1.478742751218295,0.5282975466644647,1.4350749893570829,0.0334552621673943,0.1394630711777179,0.0079604625299355,1.0014030397657054,-0.8781239441753956,-0.3308911422095075,-1.4863765526066284,0.5286790481014008,1.4246502494864923,1.251342189694492,-1.1651587840675943,-0.5383435561879607,0.3804832959754221,-0.246193217810875,-0.0956110381726715,0.2738886039976684,10.802711360747708,-1.397716684715492,0.120567697070149,-1.107090475395933
1.38,-1.4587774546043517,0.5106907120074468,1.4285120488069716,0.0368291039791404,0.1386157591834576,0.008032009124751,0.9956968539609308,-0.8825467883148451,-0.3257335789008395,-1.461749708818699,0.5057758724260094,1.413963482840437,1.2913421902905384,-1.205158784663641,-0.5463540039583179,0.4436286904704009,-0.2853092902387333,-0.2211422069724744,0.2578781654334006,10.762081994807886,-1.3981209089475746,0.1169450989350777,-1.1077264344650612
1.4,-1.4389115246872102,0.4929777944650286,1.4220474593712642,0.0398491851652222,0.1400486740450274,0.0081719748678763,0.9914562323038072,-0.8884322182415778,-0.3209949852095185,-1.408992611906305,0.4665633725917045,1.4122253698619296,1.095696855451047,-0.9825467898049612,-0.3184527434846715,0.4332303879945807,-0.2120310828561844,-0.2942714963366344,0.2369296845660479,10.762081994807886,-1.3957932396332808,0.1136802770291535,-1.1111721255627167
1.42,-1.419034932916026,0.4750508941215688,1.4159586943288267,0.0398064261122718,0.1417856798742485,0.0081235372536794,0.9962732513362466,-0.9027248244063832,-0.2880808209938856,-1.408992611906305,0.4665633725917045,1.4122253698619296,1.095696855451047,-0.9825467898049612,-0.3184527434846715,1.8102654980380408,0.2408509516219736,-0.7146303082402661,1.645708210781646,10.741701414368436,-1.3904899368002397,0.1132678255732436,-1.1113610412307533
1.44,-1.400064364397556,0.4577936243554835,1.410775605178716,0.0363172939883173,0.1426525340232872,0.0078195922325401,1.0003268386986202,-0.9124500511116648,-0.2592011732476015,-1.408992611906305,0.4665633725917045,1.4122253698619296,1.095696855451047,-0.9825467898049612,-0.3184527434846715,1.5370797465673056,0.20267936811868,-0.4862613352640765,1.443982387314202,12.671421450545497,-1.3902010733127448,0.1167551552842865,-1.1158573021283549
1.46,-1.38002421222119,0.4394883724913602,1.405869825696431,0.0315525544276433,0.1431346976713106,0.0074257890546509,1.003424266852439,-0.9174024592962238,-0.2331020725744056,-1.3980356433517944,0.4567379046936549,1.4090408424270828,1.11569685574907,-1.0025467901029843,-0.3169965764014379,1.3372391932113097,0.1548714076909263,-0.2476204092279554,1.304955033659798,12.367415318870371,-1.3907432758983267,0.1215038578154551,-1.119897702476634
1.48,-1.359933715885407,0.4211174467826526,1.4014384784686496,0.0273457002724228,0.143520790816646,0.0070880130387905,1.0054515453633712,-0.9195508214704972,-0.2115346161784571,-1.3761217062427735,0.4370869688975556,1.4026717875573895,1.1556968563451169,-1.042546790699031,-0.3140842422349707,1.088439816415998,0.1013639255466269,-0.1074181087136694,1.078372819797424,12.053568149000968,-1.391226116447256,0.1255533208966131,-1.1236311538307182
1.5,-1.339812394729669,0.4027215914412045,1.3973948165031207,0.0242881652583545,0.1440711166107014,0.0068541453991562,1.006639856850314,-0.9202532439108038,-0.1939111720388072,-1.3542077691337526,0.4174360331014564,1.396302732687696,1.195696856941163,-1.0825467912950772,-0.3111719080685035,0.8838711229840096,0.0594155743471436,-0.0351211220153302,0.8811722069824931,11.759924852654876,-1.3914495574621903,0.1287396867105693,-1.1274210783732708
1.52,-1.3206798766586052,0.3852400339710223,1.3938529843065202,0.0225451221571677,0.1448923722042791,0.0067362702663263,1.0073237715078085,-0.9201668411636624,-0.1798060561286073,-1.3302938319949291,0.3957850972755549,1.3900792945263258,1.2356968575372094,-1.1225467918911236,-0.3082595739020363,0.7060975490922338,0.0341957328747088,0.0043201373570667,0.7052557955099958,11.529921837789516,-1.391456122763968,0.1307083533415778,-1.1312101921167332
1.54,-1.30052620289058,0.3668461366255415,1.390405876662872,0.0220795886077171,0.1461490327758275,0.0067316164740086,1.0080809901517582,-0.9193755069178944,-0.1656836993156424,-1.306379894856106,0.3741341614496533,1.383855856364956,1.275696858133256,-1.1625467924871702,-0.3053472397355691,0.7082382224858518,0.0378609321974976,0.039566712288408,0.706117840648246,11.363337157699789,-1.3909482278336676,0.131261838142161,-1.1349862603975338
1.56,-1.280349487923616,0.348463684899096,1.3872351566025265,0.0230551424295349,0.1476561355730973,0.0068472902102792,1.0096146178860137,-0.9190189397709284,-0.1521249708242195,-1.2814659577023817,0.3514832256088506,1.3777052265577474,1.3156968587293023,-1.2025467930832163,-0.3024349055691019,0.6824922572119333,0.0766813867127624,0.0178283573482873,0.6779364245711461,11.32828279921614,-1.3899656863015917,0.1304213929235131,-1.1393864641806632
1.58,-1.261145776657242,0.3310010164041537,1.3844707837898076,0.025115586574849,0.1490187878091204,0.0070470610922611,1.0117621874359204,-0.9192821087648984,-0.1395483004804092,-1.255552020533756,0.3278322897531468,1.3716274051047008,1.355696859325349,-1.242546793679263,-0.2995225714026348,0.6380712143404368,0.1073784774953456,-0.0131584496984915,0.6288335171905148,11.300496088713771,-1.389116470418929,0.1283188051772736,-1.1442733512244925
1.6,-1.240882064184973,0.3125979530098166,1.3818172784576543,0.0280682649521868,0.1501909508372021,0.0073170395950988,1.014504238150666,-0.9212884071409616,-0.1264820136817866,-1.210557667285446,0.2850369109659088,1.377493368765787,1.1117621889260365,-1.0192821102550145,-0.1167522265519338,0.6750406024823427,0.1371025357372768,-0.1003149188031626,0.6533143399311298,11.289177846477289,-1.3885554443432893,0.1253693032320942,-1.1493207478093015
1.62,-1.2204847822409297,0.2940679706194639,1.3795723411896057,0.0289824848039552,0.1493752095481721,0.0073980471821136,1.0252352784245444,-0.930967085213639,-0.0978427449627573,-1.210557667285446,0.2850369109659088,1.377493368765787,1.1117621889260365,-1.0192821102550145,-0.1167522265519338,1.603932470020869,0.536552013693925,-0.4839339036338708,1.4319634359514644,11.286876126970128,-1.3868866189091356,0.1243295471656374,-1.1521803783568585
1.64,-1.199877435942082,0.2753737127224828,1.3779101715932822,0.0269350105645808,0.144860321122489,0.0071832652528906,1.0344893297483533,-0.9377389543728464,-0.0698466972985917,-1.210557667285446,0.2850369109659088,1.377493368765787,1.1117621889260365,-1.0192821102550145,-0.1167522265519338,1.5126750829468811,0.4627025661904427,-0.3385934579603622,1.3998023832082789,12.459047592180468,-1.3942980600412196,0.1265369697318753,-1.1501603114457546
1.66,-1.1801747920528567,0.25752011310316,1.376814080908014,0.0237935155924614,0.1383676233192905,0.0068689426705703,1.0386506657508665,-0.940999868632338,-0.0468845006932828,-1.1994400453961858,0.2748440898633586,1.3763258465002677,1.1317621892240597,-1.0392821105530377,-0.1121930117662387,1.1781476478718915,0.2080668001256613,-0.163045712974591,1.1481098302654436,12.265209791164123,-1.404936303659165,0.13022544680058,-1.1430652958587886
1.68,-1.1594008431219458,0.2386939339614562,1.3760970394429848,0.0208288052508417,0.130928720951084,0.006590028739917,1.038224733036491,-0.941586681392019,-0.0261820872466911,-1.177204801617665,0.2544584476582583,1.373990801969229,1.1717621898201065,-1.0792821111490842,-0.1030745821948486,1.0357553890829143,-0.0212966357187593,-0.0293406379840432,1.0351206723295845,11.976405374590286,-1.415279937833485,0.1335291886238036,-1.1341265275315815
1.7,-1.1386835755651252,0.2198725698984218,1.375752233330194,0.0189735356378905,0.1243139896047407,0.0064415821676489,1.0334452493194295,-0.9408518984923812,-0.009317372968699,-1.1549695578391443,0.234072805453158,1.3716557574381905,1.2117621904161526,-1.1192821117451306,-0.0939561526234584,0.8772142813896293,-0.2389741858530802,0.0367391449818899,0.8432357138996076,11.72271902014836,-1.4241371437788417,0.1356185978361413,-1.1261705156984254
1.72,-1.119127037304556,0.2020144506012562,1.375710708923871,0.0185229833072822,0.1199252523394261,0.0064489364906855,1.0253216982910325,-0.9392362739075144,0.0041061398509846,-1.1307343140308213,0.2116871632182554,1.3697766343857212,1.251762191012199,-1.159282112341177,-0.0848377230520682,0.788658703956298,-0.4061775514198618,0.0807812292433318,0.6711756409841835,11.486729738830036,-1.4307576196527938,0.1364189608243879,-1.1198761766901633
1.74,-1.0987350985721678,0.1832551009721369,1.375932960639867,0.0198409999190011,0.118477039311418,0.0066513491714959,1.0145450615877871,-0.9369870584203258,0.0173648870541785,-1.1064990702224982,0.1893015209833528,1.367897511333252,1.2917621916082456,-1.1992821129372235,-0.0757192934806781,0.8616687970730793,-0.5388318351622678,0.1124607743594352,0.6629373601596958,11.327429109649527,-1.4331003408657164,0.135358892085336,-1.1195425378106303
1.76,-1.0785459267452508,0.1645277535468983,1.3764169939066793,0.0229377205059625,0.120153569639796,0.0070483607510623,1.0052506122517215,-0.9362670975999124,0.0303501922124104,-1.081263826399274,0.165915878733549,1.3662463490200676,1.331762192204292,-1.23928211353327,-0.0666008639092879,0.7992547811806054,-0.4647224668032801,0.0359980410206683,0.649265257911592,11.274994370995046,-1.4312955513153425,0.132483254996244,-1.1257099537523636
1.78,-1.0585179928971726,0.1457816702610658,1.3771656532151686,0.0266283978950449,0.1239010850380934,0.0075489547112646,0.9983230010470456,-0.938478555920282,0.0438404778298905,-1.0550285825611487,0.1415302364688441,1.364823147446168,1.3717621928003385,-1.2792821141293165,-0.0574824343378978,0.7662736961214907,-0.3463805602337999,-0.1105729160184754,0.6745142808740084,11.255780218449218,-1.42723662763558,0.1291477756035585,-1.13427978393551
1.8,-1.0395944235384202,0.1279131699026114,1.3781340776014497,0.0298163838877994,0.1284657695527342,0.008047275642896,0.9941763440991452,-0.9422187606164673,0.0574017853623542,-1.0086018428448202,0.0988577424650517,1.3793576771066631,1.0983230025371618,-0.9991139736200958,0.0636510258820823,0.7333023881779439,-0.2073328473950086,-0.187010234809265,0.6780653766231819,11.294083638587836,-1.4215887555283044,0.1259278659233543,-1.1446885121218688
1.82,-1.0196833495951654,0.1088219697951395,1.3794844884763384,0.0262808135613861,0.1321766650561691,0.008072492822862,0.9971506787404578,-0.9640289155836782,0.0773568538323829,-1.0086018428448202,0.0988577424650517,1.3793576771066631,1.0983230025371618,-0.9991139736200958,0.0636510258820823,1.4855422275181214,0.1487167320656235,-1.0905077483605474,0.9977534235014344,11.35286571227698,-1.414989884635751,0.1297502364996628,-1.154361441663805
1.84,-0.9997164084569428,0.0894538533907518,1.3812442766690896,0.0155827542181234,0.1335531895010982,0.0075420667073068,0.999200812935295,-0.9705563832376352,0.0975686299959268,-1.0086018428448202,0.0988577424650517,1.3793576771066631,1.0983230025371618,-0.9991139736200958,0.0636510258820823,1.0669193735651918,0.1025067097418563,-0.3263733826978476,1.0105888081771957,11.82862554411986,-1.4138350576608143,0.1412771027345138,-1.1561403724209285
1.86,-0.9797284688487966,0.0700630900726673,1.3833734560253808,0.0042682145361807,0.1336558671139095,0.0069699532787623,0.9994019631636072,-0.9681929219078862,0.1143294129094488,-0.9976186128194486,0.0888666027288507,1.379994187365484,1.118323002835185,-1.0112410571600583,0.0676131354925206,0.8463897665168527,0.0100575114156065,0.118173066487448,0.8380391456761018,11.733123092081769,-1.414406870693738,0.152947320566077,-1.1563547745982223
1.88,-0.9607535772804427,0.0517365483610505,1.3856743220314662,-0.0048923042766567,0.1333355210010997,0.0065647109662848,0.9979422705386652,-0.9614696023179756,0.1270186205341956,-0.9756521527687052,0.0688843232564488,1.3812672078831256,1.1583230034312315,-1.0354952242399842,0.0755373547133973,0.7217162167557893,-0.0729846312470916,0.3361659794955285,0.6344603812373374,11.500296062103189,-1.4156453099658524,0.1636051559189173,-1.1562757396575614
1.9,-0.9408233130536324,0.0326070708614004,1.3883326184223608,-0.012237609458152,0.1331742169615603,0.0063272650220366,0.995167894804215,-0.9522053936204016,0.1380333995683274,-0.953685692717962,0.0489020437840469,1.3825402284007673,1.198323004027278,-1.0597493913199096,0.083461573934274,0.732884848865873,-0.1387187867225137,0.4632104348786969,0.5507389517065919,11.295047747447825,-1.4166709968634406,0.171859427207167,-1.1569532883257645
1.92,-0.9209578914504708,0.0136786015989442,1.391189835270767,-0.0171336802861438,0.1336248345081519,0.0062772109930111,0.9916400612021758,-0.9417359966357488,0.147139984863908,-0.9297192326374164,0.0277070559576487,1.3842094598794528,1.2383230046233242,-1.084003558399835,0.0913857931551507,0.7158627293197012,-0.176391680101956,0.523469849232644,0.4553292647790322,11.05830635588336,-1.4166627686184714,0.1773109520313793,-1.1580745319598271
1.94,-0.90215221191062,-0.0041066908404999,1.394066277852085,-0.0198219487314109,0.1347826673880367,0.0063706475766632,0.988220609685594,-0.9314482317735108,0.1551861298525608,-0.905752772556871,0.0065120681312505,1.3858786913581382,1.2783230052193708,-1.1082577254797608,0.0993100123760274,0.675039264993845,-0.1709725758290869,0.5143882431118962,0.4023072494326374,11.05830635588336,-1.4155933715955562,0.180935785188692,-1.16081943722008
1.96,-0.8824178918219918,-0.0226234167692929,1.3972589928336276,-0.0210629348675005,0.1366316034684085,0.0065814780315708,0.985505388300158,-0.9209303004770052,0.1636585933451218,-0.8807863124614242,-0.0152892738721458,1.3877460283173455,1.3183230058154172,-1.1325118925596862,0.1072342315969041,0.6888068371516152,-0.1357610692718003,0.52589656482529,0.4236231746280516,11.028990856232667,-1.4135188341890106,0.1828686346320247,-1.1651804172465918
1.98,-0.8627270240481246,-0.0409275344288464,1.400622884416143,-0.0207703172894194,0.1387865702134963,0.006906462677127,0.9838077867756684,-0.910153389851798,0.1723101031282339,-0.8548198523510764,-0.0376969700525402,1.389811470757075,1.3583230064114635,-1.156766059639612,0.1151584508177808,0.6961901232546613,-0.0848800762244916,0.5388455312603568,0.4325754891556024,11.03661905547142,-1.4110936309683897,0.1832127984584756,-1.1703337559555913
2.0,-0.8430593306540844,-0.0590153338580612,1.4041636262913129,-0.0187949159604253,0.1409372443179206,0.0073625965298006,0.9830952446258964,-0.8994031234913841,0.1813238204741156,-0.8135366347093412,-0.0864352039214363,1.4092383895725549,1.0838077882657844,-0.9182018348381412,0.1862597925835643,0.7023586041448072,-0.0356271074886005,0.5375133180206937,0.4506858672940858,11.05518163051056,-1.4088159067603612,0.1819011353694712,-1.1756003166404856
2.02,-0.8243287948616362,-0.0762000279389016,1.4077183332086542,-0.0216371805690289,0.1412788943405838,0.0075130567889165,0.9883001107758276,-0.9070612511959494,0.1923853667071911,-0.8135366347093412,-0.0864352039214363,1.4092383895725549,1.0838077882657844,-0.9182018348381412,0.1862597925835643,0.7212755309945663,0.2602433074965604,-0.3829063852282655,0.5530773116537754,11.083105490658454,-1.406359842388032,0.1855116566982159,-1.1806345451329667
2.04,-0.8045228105867613,-0.0943031654458675,1.411683044077201,-0.0304424186925904,0.1387056972145915,0.0073661081655718,0.9917641001038388,-0.9018999360028276,0.2034670560800512,-0.8135366347093412,-0.0864352039214363,1.4092383895725549,1.0838077882657844,-0.9182018348381412,0.1862597925835643,0.6352996063745913,0.1731994664005642,0.2580657596560842,0.5540844686430026,11.26340187597907,-1.4098061267317807,0.195560906428215,-1.174967927390631
2.06,-0.7846792593804316,-0.1122129785246156,1.4158442140353822,-0.0397573639668628,0.134285506655704,0.0073065657664598,0.992152921038578,-0.8892999577929709,0.2119855137455598,-0.8026985568266833,-0.0956172222698177,1.4111009874983902,1.1038077885638076,-0.91981152383541,0.1890497304746303,0.7607147192069117,0.0194410467369676,0.6299989104928405,0.42592288327543,11.029837635851436,-1.4158503712730284,0.2061794291773033,-1.1664762110729692
2.08,-0.764869526401636,-0.1298247649117169,1.4201454651874297,-0.04748841112133,0.1293699494373022,0.0074512617766922,0.9886463443660704,-0.8729589768648859,0.2177484687137008,-0.7810224010613677,-0.1139812589665805,1.4148261833500615,1.143807789159854,-0.9230309018299474,0.1946296062567625,0.8839335207144187,-0.1753288336253877,0.8170490464042501,0.2881477484070527,10.878211522291169,-1.4224796074697563,0.2147233268294603,-1.1579081179253692
2.1,-0.7461519966459498,-0.1462352088965141,1.4243194601802698,-0.0528747334636457,0.1256354686434096,0.0077368558605992,0.9817098714674624,-0.8557886359962991,0.2213593926426773,-0.759346245296052,-0.1323452956633433,1.4185513792017328,1.1838077897559005,-0.9262502798244848,0.2002094820388946,0.9433637069516708,-0.3468236449303941,0.858517043429341,0.1805461964488219,10.878211522291169,-1.4286166398540288,0.2216024190895075,-1.150773913340638
2.12,-0.7266235036002436,-0.1631534525792154,1.428777445315741,-0.0566161428242384,0.1241470176383298,0.0080800077412289,0.971559449471484,-0.8372943073791291,0.2242200110279609,-0.735670089500934,-0.150870301259833,1.4225555688425109,1.2238077903519469,-0.929469657819022,0.2057893578210268,1.0644886040284085,-0.5075210997989299,0.9247164308584964,0.1430309192641837,10.774634297084958,-1.431398306642945,0.226454584385663,-1.148526212041263
2.14,-0.7072989390191603,-0.1796984886820695,1.4332891995283072,-0.0586122042398261,0.1256992602241412,0.0083937982713608,0.961761648013161,-0.8184344762867032,0.2268096547325824,-0.711993933705816,-0.1693953068563227,1.4265597584832883,1.2638077909479934,-0.9326890358135594,0.2113692336031589,1.070509687915569,-0.4898900729161437,0.9429915546212976,0.1294821852310723,10.714528921543206,-1.429782272971294,0.2295539883981541,-1.152203741359176
2.16,-0.6881465670477815,-0.1958634523157395,1.4378574000336517,-0.0589434964039125,0.1295057575592249,0.0087052105984097,0.9542780067574966,-0.7991745953849928,0.2299030723745871,-0.6873177778957968,-0.1880007969026759,1.4307034450186198,1.3038077915440398,-0.9359084138080968,0.2169491093852911,1.0446496200872994,-0.3741820627832182,0.962994045085519,0.1546708821002343,10.714528921543206,-1.425552506118819,0.2309382403759239,-1.159606578929341
2.18,-0.6700646778449446,-0.2108583058890577,1.4422648643228209,-0.0574927872960199,0.1342751770867511,0.0090706731789,0.9496705489900932,-0.7804625790471122,0.2338760535293224,-0.6616416220708765,-0.2066867713988924,1.4349866284485042,1.3438077921400862,-0.9391277918026342,0.2225289851674232,0.9838099432352224,-0.2303728883701672,0.9356008168940276,0.1986490577367688,10.75151808899409,-1.419647364053152,0.2304931143510278,-1.1699122629501053
2.2,-0.6510987375729346,-0.2262663259125174,1.4469982264841093,-0.0541186463585742,0.1396620543741046,0.0095850868721283,0.9473702602398858,-0.7618607402237523,0.2393196374754258,-0.6225811503954399,-0.2498814348414134,1.453958666999287,1.0496705504802093,-0.7197363946491764,0.2510942856841687,0.9759000232130182,-0.1150144375103745,0.9300919411679986,0.2721791973051682,10.822826358866225,-1.4133774749430836,0.2280509902568488,-1.18151116765765
2.22,-0.6320896800452818,-0.2415660655652895,1.451867847287458,-0.0574290712830167,0.1428479525283661,0.0097722603335268,0.9531839471997398,-0.7648306101500146,0.2471827178563004,-0.6225811503954399,-0.2498814348414134,1.453958666999287,1.0496705504802093,-0.7197363946491764,0.2510942856841687,0.5109968603675298,0.2906843479926979,-0.1484934963131179,0.3931540190437316,11.031688985927758,-1.407369249616416,0.2323121277888636,-1.1900121114661657
2.24,-0.6139370520680322,-0.2559997839857181,1.4566340896857697,-0.0672025581989595,0.1426234214756818,0.0096916556981795,0.9571056271391668,-0.7532682510764317,0.2540853089245291,-0.6225811503954399,-0.2498814348414134,1.453958666999287,1.0496705504802093,-0.7197363946491764,0.2510942856841687,0.7012729218160366,0.1960839969713579,0.578117953679147,0.3451295534114301,11.004617656474691,-1.407714851732066,0.2442784247374093,-1.187389300307921
2.26,-0.5947731956059644,-0.2708544417532279,1.461777410035399,-0.0783696925879633,0.1401574399324889,0.0097447200687546,0.958849899881012,-0.7326306870482755,0.2598194385475683,-0.6120844448906378,-0.2570787987879052,1.4564696098561287,1.0696705507782325,-0.7075911577695893,0.2545379321151379,1.0745135864055022,0.0872136370922482,1.0318782014078098,0.2867064811519604,11.004617656474691,-1.4112165485322126,0.257433437946812,-1.1817104301290249
2.28,-0.5756063873582358,-0.2852401562171948,1.467016371004165,-0.0880257719767468,0.1365927153728057,0.010057904266536,0.9575837471855544,-0.7073674149665026,0.2638280780709289,-0.5910910338810337,-0.2714735266808887,1.461491495569812,1.109670551374279,-0.6833006840104149,0.2614252249770764,1.2805323597572131,-0.06330763477288,1.2631636040886465,0.2004319761680306,10.927829123379524,-1.416873953726275,0.2690206357772136,-1.1745377469701503
2.3000000000000003,-0.556499103218444,-0.2990936324771031,1.4723235186167014,-0.0954401571811871,0.1332459489305309,0.0105723220156194,0.9530955870371968,-0.6797911923403457,0.2667380150797214,-0.5700976228714295,-0.2858682545738722,1.4665133812834954,1.1496705519703254,-0.6590102102512405,0.2683125178390149,1.4045100295475028,-0.22440800741787,1.3788111313078444,0.1454968504396248,10.799017836960047,-1.4228430489109656,0.2778180546577832,-1.1680741289928522
2.32,-0.5384591929292833,-0.3117328652491916,1.477415075890488,-0.1004096317635017,0.1315370197444559,0.0111080312185623,0.9460691686884938,-0.6525430728170881,0.2691135838173492,-0.547104211832023,-0.299048458778897,1.4718796316402756,1.1896705525663718,-0.6347197364920661,0.2751998107009533,1.4119790182505512,-0.351320917435155,1.3624059761628782,0.1187784368813893,10.799017836960047,-1.4266737128090958,0.2848772587818434,-1.165009975492932
2.34,-0.5196220751491555,-0.324477662932344,1.4828263481669743,-0.1038272577138952,0.1320917375186804,0.0115881853133762,0.938306252415071,-0.6236754683228984,0.2719167167036413,-0.5241108007926165,-0.3122286629839219,1.477245881997056,1.2296705531624184,-0.6104292627328918,0.2820871035628918,1.501215351206602,-0.3881458136711369,1.443380224709484,0.1401566443146096,10.7896358738426,-1.4263127715727877,0.2901142370942337,-1.1676948800311626
2.36,-0.5009234947302439,-0.3366358879314319,1.48829960614014,-0.105505753081845,0.1346023537416168,0.0120024699819193,0.9321930860280048,-0.593884046208754,0.2753134326903839,-0.5001173897383088,-0.3248016053449673,1.4827843146753847,1.2696705537584647,-0.5861387889737175,0.2889743964248303,1.5300631640178153,-0.3056583193533135,1.4895711057072214,0.1698357993371285,10.859812401392446,-1.4232363595718631,0.2935696444973728,-1.1741359295252385
2.38,-0.4823254770607386,-0.3481872187309596,1.4938519733685005,-0.1051197492011757,0.1382840370998707,0.0124509987190304,0.928129402462315,-0.5631252239333205,0.2797594067228056,-0.4751239786691,-0.3367672858620334,1.488494929675262,1.309670554354511,-0.5618483152145431,0.2958616892867688,1.5671513623376707,-0.2031841782844878,1.5379411137716736,0.222298701621082,10.936014590053674,-1.4189088680020343,0.2951360650427328,-1.1846374961132895
2.4,-0.4647119678360912,-0.3585869587873913,1.499220508417083,-0.1025148052798468,0.1422032897911633,0.0130054390448585,0.9262529895064248,-0.5335424713366755,0.2851476985394122,-0.4359190069376228,-0.3763434799276256,1.5078399437046406,1.0281294039524311,-0.4631252224432044,0.3076284915727592,1.5063979101454643,-0.0938206477945069,1.47913762983225,0.269414590830333,10.936014590053674,-1.4139611251697992,0.2942795425950164,-1.1970502218582475
2.42,-0.4461386312615691,-0.3690185916053897,1.5049798687385447,-0.0999723854349773,0.1445498722136084,0.0137747960256495,0.9311504885135168,-0.5106704149495711,0.2903834666299802,-0.4359190069376228,-0.3763434799276256,1.5078399437046406,1.0281294039524311,-0.4631252224432044,0.3076284915727592,1.198467487458006,0.244874950354601,1.1436028193552217,0.2617884045284013,11.024659280654303,-1.408412205378026,0.2929116317746864,-1.2033271394161862
2.44,-0.4274722230101627,-0.3789840548760682,1.5108570250325433,-0.0993485097172365,0.1435648028570438,0.0147559343874616,0.9350050931052986,-0.486849419515206,0.2971569648493284,-0.4359190069376228,-0.3763434799276256,1.5078399437046406,1.0281294039524311,-0.4631252224432044,0.3076284915727592,1.253174048337399,0.1927302295890831,1.1910497717182529,0.3386749109674097,10.959664342810356,-1.410875661773542,0.2941527737262621,-1.205752829072732
2.46,-0.4087504417560428,-0.3884646875708004,1.5168807525917694,-0.1000603971642423,0.1403962695202373,0.0158733140049203,0.9367594369673132,-0.4623139815514458,0.3049100839837523,-0.4256377128980985,-0.3809747321520577,1.510916228620368,1.0481294042504543,-0.4431252221451812,0.3132023085427499,1.2895505949479884,0.0877171931007336,1.2267718981880116,0.3876559567211918,11.076073767434536,-1.4155326287727017,0.2967180840858446,-1.204694076508679
2.48,-0.3909598543302157,-0.3970088533714747,1.522750723563881,-0.1016767684682497,0.136434470972079,0.0169809612132714,0.9356862368956916,-0.438243622428766,0.3125932931620579,-0.4050751248190499,-0.3902372366009217,1.5170687984518234,1.088129404846501,-0.4031252215491347,0.3243499424827314,1.2644817614007948,-0.0536600035810796,1.2035179561339897,0.3841604589152808,11.127785104416034,-1.421869895681376,0.3005567437038868,-1.201770369562115
2.5,-0.3722877400816872,-0.405496923927152,1.5290880360208643,-0.1039968960679442,0.1325524126562636,0.0180960407802289,0.9313545134960908,-0.4116242860844458,0.3207178506142874,-0.3845125367400013,-0.3994997410497858,1.5232213682832785,1.1281294054425473,-0.3631252209530883,0.3354975764227129,1.408333526563642,-0.2165861699800486,1.3309668172160087,0.4062278726114754,11.143884992639869,-1.4278790686115506,0.3051686272640037,-1.1993870323963325
2.52,-0.3537366680592427,-0.413432056665664,1.5355859779394052,-0.1061652149978244,0.1304091081388149,0.0190611364904217,0.9238389861392736,-0.3832922781365731,0.328668155940522,-0.3619499486311504,-0.4067622454688476,1.5299313198117328,1.1681294060385936,-0.3231252203570419,0.3466452103626943,1.518546328392506,-0.3757763678408465,1.4166003973936383,0.397515266311732,11.15637740375314,-1.43185096740412,0.3096795696490896,-1.1999169250996389
2.54,-0.3353500067350437,-0.420788980355108,1.542243544097539,-0.1076771396011206,0.1310220197579982,0.0197921291407896,0.9156395901497058,-0.353990200031185,0.3366812712132894,-0.3393873605222994,-0.4140247498879094,1.5366412713401871,1.2081294066346402,-0.2831252197609953,0.3577928443026758,1.5732545028242113,-0.409969799478399,1.465103905269402,0.4006557636383689,11.168046843011323,-1.4311004043683666,0.3133056871297546,-1.2051132497947674
2.56,-0.3180167105040866,-0.4272191423883643,1.5487201349437267,-0.1080036517854112,0.1336507438004331,0.0203505378446462,0.9095990321533768,-0.3245841752323794,0.3446598012687573,-0.3158247723985473,-0.42028725429207,1.5436299137171408,1.2481294072306863,-0.2431252191649489,0.3689404782426572,1.5531094433595052,-0.3020278998164483,1.4703012399402804,0.3989265027733946,11.178024451192869,-1.4278343980473651,0.3162561807813592,-1.2167302951261658
2.58,-0.299871486543836,-0.433376727610862,1.5557102687057085,-0.1065968379974542,0.1377006125091313,0.0209297720629872,0.9054843230891084,-0.2929101165045315,0.3539779959426999,-0.291262184259894,-0.4255497586813294,1.550897246942594,1.288129407826733,-0.2031252185689025,0.3800881121826387,1.6635846679386523,-0.2057354532134236,1.583702936392395,0.4659097336971285,11.299276518215263,-1.4231228161060407,0.3173184808986117,-1.2315099193200187
2.6,-0.2817832200916106,-0.4389006625542392,1.5628986473909754,-0.1030940250149685,0.1422678121766628,0.0216136836830174,0.9037463633841416,-0.2616798043517493,0.3644837713170368,-0.2545972703893806,-0.4480222334360885,1.5734091685028435,1.0054843245792244,-0.1929101150144154,0.3624625271366715,1.649791060492453,-0.0868979852483298,1.561515607639108,0.5252887687168473,11.299276518215263,-1.4181937880529767,0.3159737370309561,-1.2473952651173752
2.62,-0.2636772016117366,-0.44379988454821,1.5701786639698752,-0.09698963479077,0.1451892576476881,0.0226633170299172,0.906629883951658,-0.2311480594891974,0.363129117825016,-0.2545972703893806,-0.4480222334360885,1.5734091685028435,1.0054843245792244,-0.1929101150144154,0.3624625271366715,1.534875582334526,0.1441760283758086,1.5265872431275973,-0.0677326746010398,11.384621711381442,-1.410684936479336,0.3108379965183719,-1.2558984862047473
2.64,-0.2464343037544358,-0.4479579371427176,1.5770883100121345,-0.0903761726749796,0.1456277316473964,0.0239483277875623,0.9081153826619536,-0.2080428896386927,0.3642914213136017,-0.2545972703893806,-0.4480222334360885,1.5734091685028435,1.0054843245792244,-0.1929101150144154,0.3624625271366715,1.1591015158718188,0.0742749355147898,1.1552584925252338,0.0581151744292851,10.644504028910887,-1.4121325959959197,0.3050090392647407,-1.2630559084826267
