t,x,y,z,roll,pitch,yaw,v_x,v_y,v_z,ref_x,ref_y,ref_z,ref_v_x,ref_v_y,ref_v_z,a_com,a_x,a_y,a_z,thrust,wind_x,wind_y,wind_z
0.0,-0.9377328251153432,0.8927637444012878,2.290819675383706,0.0116185729219671,0.1362840037148795,0.02572588965212,0.0016497147561085,-0.0039990824240251,-0.0035219402070699,-0.9376818516272416,0.8925704121791571,2.290712596672807,0.0092411199825012,-0.1058105690424957,-0.10355622077352,0.2789188136037318,0.0824857378054271,-0.1999541212012583,-0.1760970103534983,10.541241016380807,-1.2847271927458117,0.1643959325953735,-1.1594366071929278
0.02,-0.9377994625511508,0.8929568183017871,2.290525509495641,0.0187918058239095,0.1380318301143368,0.0262573340541478,-0.0081134474456511,0.0192792016600335,-0.0270184212245308,-0.9376818516272416,0.8925704121791571,2.290712596672807,0.0092411199825012,-0.1058105690424957,-0.10355622077352,1.7242987460703478,-0.4881581100879846,1.1639142042029351,-1.174824050873044,10.541241016380807,-1.3092711935185557,0.1598028878469747,-1.177122419593427
0.04,-0.9380438202229314,0.8933660634851975,2.289732052861548,0.032876419119234,0.1428265430199324,0.0273541828493288,-0.0165576398066004,0.0219015324214702,-0.0551787870548456,-0.9376818516272416,0.8925704121791571,2.290712596672807,0.0092411199825012,-0.1058105690424957,-0.10355622077352,1.4757940294535132,-0.4222096180474627,0.1311165380718343,-1.4080182915157422,9.132346337614308,-1.3016548493311455,0.1437462962258217,-1.161226306925709
0.06,-0.938433176413816,0.8937662157245823,2.288321343771974,0.0484015233736873,0.1500133953677752,0.0287006564434434,-0.0215266194710291,0.0176013622461108,-0.0843759716047303,-0.9375894404274164,0.8915123064887321,2.2896770344650714,0.0107518840821587,-0.1258105693405189,-0.1235562210715432,1.4963771316771868,-0.2484489832214354,-0.2150085087679696,-1.4598592274942312,8.899048887600202,-1.2879665466391348,0.1271124924125736,-1.1496217364873629
0.08,-0.9388849488475814,0.8940406180885785,2.286337716885296,0.0634226894888165,0.1581766975345431,0.0301572748357819,-0.0230822828584315,0.0097355359063039,-0.1124872654379189,-0.9374046180277664,0.8893960951078823,2.287605910049601,0.0137734122814738,-0.1658105699365654,-0.1635562216675897,1.461622517580011,-0.0777831693701205,-0.3932913169903436,-1.4055646916594304,8.924576933864955,-1.2750390981676731,0.111599866183616,-1.140431639189336
0.1,-0.9393349799581856,0.8941273696240267,2.283804424990863,0.0777529102732797,0.1665106261688017,0.0316774627244886,-0.0216122807033824,-0.0009650994598977,-0.1394570282186242,-0.9372197956281164,0.8872798837270324,2.285534785634131,0.0167949404807888,-0.2058105705326118,-0.2035562222636361,1.4526119647240383,0.0735001077524539,-0.5350317683100875,-1.3484881390352643,8.983009464720908,-1.2638611927534475,0.0979926110672471,-1.1321315593892434
0.12,-0.9397071788255548,0.8939867750673138,2.280906491150955,0.0907175805968111,0.1740011333398539,0.0331276119555527,-0.0175293017816572,-0.0135469206168871,-0.1642615588323298,-0.9368838968185008,0.8831636723163802,2.2814636611888583,0.0198164686801039,-0.2458105711286583,-0.2435562228596826,1.405558322756457,0.204148946086261,-0.6290910578494688,-1.2402265306852815,9.043425033247331,-1.2542231991246056,0.0847358572876052,-1.1251165521361952
0.14,-0.9399946899336888,0.8935564361214389,2.277342006206761,0.1036970813221067,0.1809986842257263,0.0345984034667697,-0.0113311124164267,-0.0290949570322158,-0.1909242535990961,-0.936547998008885,0.8790474609057279,2.277392536743585,0.022837996879419,-0.2858105717247048,-0.283556223455729,1.5740539063238814,0.3099094682615214,-0.7774018207664337,-1.333134738338314,9.09641951051799,-1.2481484833896452,0.0724944597409208,-1.1196685380902638
0.16,-0.940138256472284,0.8927911645187478,2.273241822722339,0.116010112475,0.1867671764532368,0.0359461853325201,-0.0033494625815147,-0.0469122079549345,-0.2177701029209973,-0.9361365609942864,0.8739312494801745,2.272321412283412,0.0258595250787341,-0.3258105723207512,-0.3235562240517755,1.6597144259966037,0.3990824917456033,-0.8908625461359353,-1.3422924660950588,9.074955117143872,-1.2440755285900051,0.061710278598049,-1.1130790797300123
0.18,-0.9401086458136856,0.891646350004522,2.268606133255085,0.1276758683104475,0.1911382044675318,0.0371133497639393,0.0058492698680873,-0.0669236329180524,-0.2444615494222286,-0.9356495857747048,0.8678150380397199,2.2662502878083366,0.0288810532780491,-0.3658105729167976,-0.3635562246478219,1.7302507940049872,0.4599366224801049,-1.0005712481558946,-1.334572325061567,9.080579171793032,-1.2421318772543604,0.0512132221873977,-1.1048584476260566
0.2,-0.939902639306063,0.8901680661484475,2.2637103069483477,0.1381787428270319,0.1939899401527072,0.0380193742956302,0.0152912487351713,-0.0878884031415448,-0.2695527681605523,-0.9398161823202812,0.8883001683586194,2.256383055783973,0.0181320800420161,-0.1669236344081685,-0.3444615509123447,1.70164759367554,0.4720989433541987,-1.048238511174622,-1.2545609369161852,9.099783814703189,-1.242046178842228,0.0415205243270513,-1.095088238882028
0.22,-0.9394426866054884,0.8880062717490066,2.2581708947240653,0.1442283752074993,0.1953642793239113,0.0383764831037871,0.0302562507802676,-0.1252456257906365,-0.2820122878850323,-0.9398161823202812,0.8883001683586194,2.256383055783973,0.0181320800420161,-0.1669236344081685,-0.3444615509123447,2.106390871863676,0.7482501022548135,-1.8678611324545824,-0.6229759862239975,9.12212333456864,-1.2314927777528308,0.0363875032678201,-1.0775767394227622
0.24,-0.9386823379381936,0.8851652855142661,2.2524030743034533,0.1447437919114921,0.1948118269393527,0.0380352333821572,0.0448593610076202,-0.1563869678106799,-0.2941124642777394,-0.9398161823202812,0.8883001683586194,2.256383055783973,0.0181320800420161,-0.1669236344081685,-0.3444615509123447,1.823080003631326,0.7301555113676294,-1.55706710100217,-0.6050088196353581,10.079469495905869,-1.234170822023967,0.0362144316020049,-1.0712790085170627
0.26,-0.9376981371769758,0.8819134437420395,2.2466774314876963,0.1424596900186758,0.1925842513586922,0.0372478487061856,0.0578840188546936,-0.18404736350315,-0.3078905759389141,-0.9396348615198612,0.8866309320145377,2.2529384402748502,0.0205886420768018,-0.1869236347061917,-0.364461551210368,1.6767345965038318,0.6512328923536707,-1.3830197846235042,-0.6889055830587354,9.93937850594284,-1.238879036047004,0.0387460234901632,-1.0625312266567564
0.28,-0.936408879125208,0.8779573390528701,2.240348993113874,0.1382258108819482,0.1884755555871741,0.0360338495782501,0.0701555976737879,-0.209631591138914,-0.3242305728448735,-0.9392722199190208,0.8832924593263742,2.246049209256604,0.0255017661463733,-0.2269236353022382,-0.4044615518064144,1.6371773341017448,0.6135789409547149,-1.279211381788202,-0.8169998452979693,9.779037613367109,-1.2457960123294751,0.0429789733943306,-1.0517827635174952
0.3,-0.9349004586886066,0.8735223193735224,2.2336768612432856,0.1336387053686789,0.1829443409181183,0.0346096144844981,0.0797487026873158,-0.2324794890940936,-0.3421827644233801,-0.9389095783181804,0.8799539866382109,2.2391599782383564,0.0304148902159448,-0.2669236358982846,-0.4444615524024609,1.5299798097052415,0.4796552506763959,-1.1423948977589775,-0.8976095789253291,9.499090559555045,-1.254013014923092,0.0472731897756579,-1.0394799346848471
0.32,-0.9332326978804126,0.8686495734723924,2.22662769477757,0.1293485583009093,0.1768521227666193,0.0331512119631252,0.0863638480709993,-0.2536688469095158,-0.3617772620916325,-0.9383012805138616,0.8746155139202452,2.2302707471903074,0.0353280142855163,-0.3069236364943311,-0.4844615529985073,1.4804504145262791,0.3307572691841731,-1.0594678907711124,-0.9797248834126192,9.499090559555045,-1.2622037628294698,0.0513898869364574,-1.0253796870864438
0.34,-0.9315498020783608,0.8636386179983566,2.219560340387011,0.1257651766542105,0.1711952937984872,0.031836235250258,0.0903669629413405,-0.2728044919691486,-0.381144144632635,-0.9376929827095428,0.8692770412022796,2.221381516142258,0.0402411383550878,-0.3469236370903776,-0.5244615535945538,1.3759305758925309,0.2001557435170615,-0.956782252981636,-0.9683441270501248,9.382794539140376,-1.2687954235238896,0.0549253661017547,-1.0103557072970777
0.36,-0.929715606712752,0.8579713049755862,2.211715214989946,0.1223281149763921,0.1658390647885679,0.0305675666048294,0.092716526684695,-0.2928313901018509,-0.4023544546274799,-0.9369618568034844,0.8629385684694126,2.2114922850793075,0.0451542624246593,-0.386923637686424,-0.5644615541906002,1.4632791502983438,0.1174781871677278,-1.0013449066351154,-1.0605154997422428,9.314913158571471,-1.2728216998688748,0.057957794968627,-0.995736235046206
0.38,-0.927854438306579,0.8519064111856997,2.2034377977860053,0.1189449655070104,0.1615328466673811,0.0294456713614365,0.0932095922548727,-0.312497070458293,-0.4242710696978136,-0.936107902795687,0.8556000957216446,2.2006030540014563,0.0500673864942308,-0.4269236382824704,-0.6044615547866466,1.4725149521137544,0.0246532785088848,-0.9832840178221086,-1.0958307535166856,9.24953950323652,-1.2753893600943729,0.0607408518291627,-0.982980798298116
0.4,-0.9260933251516938,0.8457863063403401,2.19516215826484,0.115693218764971,0.158875688839603,0.0285584998837177,0.0921152354172475,-0.3305922932169821,-0.4457117624409689,-0.9231939586938354,0.836281557662785,2.1822242443011146,0.119824181871529,-0.4124970719484092,-0.5242710711879297,1.403867879183284,-0.0547178418812618,-0.904761137934454,-1.072034637157765,9.197774755844875,-1.276000404727956,0.0636394950630621,-0.971258053228209
0.42,-0.9242772129533569,0.8389656494848082,2.186237437728767,0.112629164931007,0.1593641220976274,0.0280338947636629,0.0901553215049739,-0.3506942899306376,-0.4445081563147544,-0.9231939586938354,0.836281557662785,2.1822242443011146,0.119824181871529,-0.4124970719484092,-0.5242710711879297,1.0116573062633445,-0.0979956956136784,-1.0050998356827767,0.0601803063107253,9.146481515701453,-1.26652454059217,0.0663063883412778,-0.9557594716324316
0.44,-0.922466324065302,0.8317553519411836,2.1773339532082523,0.1103542082845801,0.1635380304876417,0.0279743439558397,0.0914240515798942,-0.3694235899646633,-0.4463532630172985,-0.9231939586938354,0.836281557662785,2.1822242443011146,0.119824181871529,-0.4124970719484092,-0.5242710711879297,0.943134103019468,0.063436503746015,-0.9364650017012838,-0.0922553351272059,10.58729382016918,-1.259780328575581,0.0673821206766343,-0.9636246379035178
0.46,-0.9206038819621604,0.824173900893517,2.168330478487308,0.1086696457745591,0.1695717338663706,0.0281493026194754,0.0950872162309822,-0.3878167103498063,-0.453904138516396,-0.92199571687512,0.8321565869433009,2.1769815335892355,0.1251470997948603,-0.4324970722464323,-0.5442710714859529,1.0108676638984635,0.1831582325543986,-0.9196560192571508,-0.3775437749548749,10.217138580686878,-1.253275257548799,0.068242591903278,-0.9714119365588352
0.48,-0.9187479723637318,0.8166360173930716,2.1595983757985024,0.1073421946707228,0.1760844865539955,0.0284069562136492,0.100318426861179,-0.4047126073252785,-0.4648967278971606,-0.9195992332376896,0.8239066455043327,2.166496112165477,0.1357929356415228,-0.4724970728424788,-0.5842710720819994,1.041241951418293,0.2615605315098385,-0.8447948487736057,-0.5496294690382292,9.927292533260696,-1.2462861975151596,0.0691117500916446,-0.9787943134837392
0.5,-0.916670629308422,0.8083635924871292,2.150149593665324,0.1062832534784091,0.1832059936332105,0.0287176954982521,0.107338881283903,-0.4216223216144801,-0.4795541037145642,-0.9172027496002588,0.8156567040653645,2.1560106907417182,0.1464387714881854,-0.5124970734385252,-0.6242710726780458,1.1726720380146654,0.3510227211362036,-0.8454857144600841,-0.7328687908701836,9.719350903556917,-1.2394772162672096,0.069803820546177,-0.9853936550756524
0.52,-0.9144383708377596,0.7997594376895651,2.140380724005915,0.1056931670087684,0.1902853040890081,0.0290458688427087,0.1157101106043318,-0.4379440842203711,-0.4967082644600841,-0.9142739741704952,0.805406762596594,2.143525269288157,0.1570846073348479,-0.5524970740345717,-0.6642710732740923,1.2557295148452572,0.4185614660214366,-0.8160881302945483,-0.8577080372759949,9.554681273699316,-1.2326187299155476,0.0701770055749221,-0.9904278867026592
0.54,-0.9120215173514818,0.7908333735197297,2.1302557094594494,0.1056633122573025,0.1970683037440108,0.029373911346469,0.1257036824358256,-0.4538898422757415,-0.5149462741679601,-0.9113451987407316,0.7951568211278235,2.131039847834596,0.1677304431815104,-0.5924970746306182,-0.7042710738701388,1.31030881476106,0.4996785915746905,-0.7972879027685176,-0.911900485393799,9.4337652011327,-1.2266420385401573,0.0701457170338872,-0.9939426161846112
0.56,-0.9095195857571332,0.7820494422407446,2.1202915564669538,0.1058729444800306,0.2028352391370263,0.0296250079887225,0.1371847356910029,-0.469850119290574,-0.5329941456775189,-0.9081502774148013,0.7839068796441518,2.117554426366134,0.1783762790281729,-0.6324970752266645,-0.7442710744661851,1.3344199978492088,0.5740526627588657,-0.7980138507416273,-0.9023935754779387,9.395142697419942,-1.2212518411174536,0.0698981369797234,-0.996387139690921
0.58,-0.9066358578104646,0.7724714647271483,2.109424225906905,0.1059168366383637,0.2077921048201485,0.029752108433665,0.1506033791866231,-0.4870425620065526,-0.552812009798259,-0.9046892101927044,0.771656938145579,2.103069004882771,0.1890221148748354,-0.672497075822711,-0.7842710750622316,1.473421034627299,0.6709321747810082,-0.859622135798932,-0.9908932060370024,9.37295871706192,-1.217687296249309,0.0698522904633631,-0.9971366578783578
0.6,-0.9034728283963566,0.7625439766072449,2.0981534345186685,0.105412730447866,0.2114011068574847,0.0296891363895418,0.1649920573609577,-0.5047454278371584,-0.5732736465199106,-0.8991056888511335,0.7481193366268207,2.081783625416992,0.1831003009047437,-0.5870425634966687,-0.6528120112883751,1.5322402679980094,0.7194339087167295,-0.8851432915302854,-1.0230818360825844,9.338303115780036,-1.2158329080214256,0.0703109834823298,-0.9958486876184176
0.62,-0.8999550229340468,0.7522077274475568,2.0867512947559668,0.1032633902757427,0.2136667134821289,0.0293590505459816,0.1859696907036693,-0.5274349874324683,-0.5658503066834211,-0.8991056888511335,0.7481193366268207,2.081783625416992,0.1831003009047437,-0.5870425634966687,-0.6528120112883751,1.5890116343331002,1.0488816671355805,-1.134477979765497,0.3711669918244786,9.313359250598296,-1.2093871445785058,0.0718935010362377,-0.9882055737035844
0.64,-0.8962282884540405,0.7420038546591425,2.076033633900392,0.1000131737522686,0.2146874241737622,0.0288366019189973,0.2051356582631225,-0.545322525937586,-0.5627328348145788,-0.8991056888511335,0.7481193366268207,2.081783625416992,0.1831003009047437,-0.5870425634966687,-0.6528120112883751,1.3200539544987386,0.9582983779726592,-0.8943769252558853,0.1558735934421129,10.99743838890754,-1.2123878483764217,0.0746671995083677,-0.9895183869619428
0.66,-0.8919226693105048,0.7309199260879785,2.064762437777346,0.0965038182116683,0.2145495038544945,0.0281574583021179,0.2242910667437374,-0.5620305186529578,-0.5647696348674549,-0.897274685842086,0.7422489109918541,2.075255505304108,0.1895996852483678,-0.6070425637946919,-0.6728120115863983,1.2749855382430109,0.957770424030746,-0.8353996357685911,-0.1018400026438048,10.62088048194346,-1.2151385416156624,0.077342256726848,-0.9901631099214756
0.68,-0.88724375327561,0.7195169878000421,2.053399756196121,0.0931826270285773,0.2129793525098371,0.0273573299741668,0.242533172214841,-0.5773686234606437,-0.5715578273607029,-0.8936126798239912,0.7305080597219207,2.0621992650783407,0.202598453935616,-0.6470425643907384,-0.7128120121824447,1.239063586378652,0.912105273555179,-0.7669052403842913,-0.3394096246624012,10.289696595565148,-1.2192076540442849,0.0798966179806799,-0.9876147967975576
0.7000000000000001,-0.8822104947658747,0.7078199556959911,2.0418561676636635,0.0901544265960348,0.2096867126641923,0.0264272146160937,0.259737045485816,-0.5915816158043496,-0.5823985393628909,-0.8899506738058963,0.7187672084519873,2.0491430248525733,0.2155972226228642,-0.6870425649867848,-0.7528120127784912,1.2404670930746176,0.8601936635487528,-0.7106496171852994,-0.5420356001093973,10.018604357790537,-1.2247203872634678,0.0821118848845585,-0.9820824697801668
0.72,-0.8771245857101964,0.6964532854505208,2.0306599244510184,0.087604472248126,0.2048433776697558,0.025426025558069,0.2744521996493414,-0.6042460341096894,-0.5955428469898684,-0.885638729353439,0.7050263571522516,2.034086784597004,0.2285959913101125,-0.7270425655828313,-0.7928120133745377,1.172279911179024,0.7357577081762684,-0.6332209152669854,-0.6572153813488746,9.797736853129209,-1.2330328570999842,0.0842249268676761,-0.9726348627211492
0.74,-0.8714989887459337,0.6842357358772432,2.0185910676235994,0.085348016525323,0.1984809263045486,0.0243098808489624,0.2870239433440253,-0.616897853465804,-0.6106694486649956,-0.8813267849009817,0.6912855058525159,2.0190305443414336,0.2415947599973607,-0.7670425661788778,-0.8328120139705841,1.1693281733355936,0.6285871847341945,-0.6325909678057295,-0.7563300837563625,9.616224114573924,-1.2420838908706018,0.0859267595068559,-0.960506574052285
0.76,-0.8656496562518254,0.6717600739038877,2.0062059208304928,0.083254176874825,0.1915363888662195,0.0231756442143941,0.297039756652555,-0.6299137430124012,-0.6270144513951961,-0.8766898712313432,0.676544654537879,2.0029743040709627,0.2545935286846089,-0.8070425667749241,-0.8728120145666305,1.1585432784005112,0.5007906654264871,-0.6507944773298635,-0.8172501365100227,9.516391210725487,-1.2502536807228848,0.0873341727167706,-0.9478890092375232
0.78,-0.8599304835373128,0.659668639152671,1.99412640272524,0.0811389658407882,0.1848457334869433,0.0221025323934655,0.3043145241203356,-0.6420716472157902,-0.6436403094466256,-0.8717279883445235,0.6608038032083411,1.9859180637855909,0.2675922973718572,-0.8470425673709706,-0.912812015162677,1.0921950744662654,0.3637383733890276,-0.6078952101694512,-0.8312929025714788,9.433736364961078,-1.2582111755866758,0.0888647780478884,-0.934173426188702
0.8,-0.8537838863923038,0.6466975935324727,1.9810570137460224,0.0787693556238545,0.1780740436290647,0.0210095271696125,0.3097909911680493,-0.6542726992899544,-0.6624526233457946,-0.8447147573312961,0.6275650567918816,1.9619443872529083,0.3476456778111506,-0.7420716487059064,-0.7436403109367418,1.1540802802253658,0.2738233523856881,-0.6100526037082055,-0.9406156949584464,9.348214657503377,-1.2653204143272234,0.0904723252038036,-0.9206122968133146
0.8200000000000001,-0.8475550081365677,0.6334569327230279,1.967910857049518,0.0760704353128795,0.1738359685813777,0.0201171225045291,0.312748413267065,-0.6690439632298629,-0.6496322663424575,-0.8447147573312961,0.6275650567918816,1.9619443872529083,0.3476456778111506,-0.7420716487059064,-0.7436403109367418,0.9890628614339976,0.1478711049507808,-0.7385631969954287,0.6410178501668529,11.26679581146982,-1.26700551114543,0.0925614331044746,-0.8999837081012393
0.84,-0.841279426697703,0.6199443012554183,1.9550109055430505,0.0734398391140557,0.1745195362158946,0.0196215428499178,0.3153148554011263,-0.6815200251696459,-0.6412432101843232,-0.8447147573312961,0.6275650567918816,1.9619443872529083,0.3476456778111506,-0.7420716487059064,-0.7436403109367418,0.7625860770711711,0.1283221067030659,-0.6238030969891506,0.4194528079067172,11.26679581146982,-1.2641248784005306,0.0936754790071042,-0.9067471272275764
0.86,-0.835245224443601,0.6068866318517031,1.9428407834941583,0.0713036066028068,0.1780976331694461,0.0193966093600562,0.3200602308004429,-0.6923724780546016,-0.6402537197369657,-0.8412383005531846,0.6201443403048225,1.954507984143541,0.3563119085493135,-0.7620716490039295,-0.763640311234765,0.5942924630306884,0.2372687699658315,-0.5426226442477811,0.049474522367876,10.72607352126488,-1.2592932826555026,0.0948031225520862,-0.915029903635688
0.88,-0.8287754444665105,0.5929289127348506,1.9299954166281932,0.0694545944753116,0.1834342186312827,0.0192996837403959,0.3269116608030358,-0.7028560452466094,-0.6445887888355601,-0.8342853869969615,0.6053029073307044,1.9396351779248064,0.3736443700256395,-0.802071649599976,-0.8036403118308114,0.6626463955975338,0.3425715001296431,-0.5241783596003913,-0.2167534549297245,10.303353978373709,-1.2541845499494086,0.0958283960434958,-0.9228962410651236
0.9,-0.8221527074973497,0.5787689296750544,1.917016019428804,0.0680474722727821,0.1895055476943075,0.0192836640716789,0.3352159930185997,-0.7126197848218241,-0.6533175053000103,-0.8273324734407386,0.5904614743565862,1.924762371706072,0.3909768315019655,-0.8420716501960225,-0.8436403124268579,0.7753757720547988,0.4152166107781962,-0.4881869787607351,-0.4364358232225085,10.000069658344728,-1.2491811342220525,0.0966436342705889,-0.9298495790364346
0.92,-0.815351449853422,0.5644225907395316,1.903822755552136,0.0672202972912822,0.1958117343424533,0.0193245955292112,0.3446914967646143,-0.7215895130225317,-0.6655801870706378,-0.8195129368106993,0.5736200413526658,1.9078895654575343,0.4083092929782915,-0.882071650792069,-0.8836403130229044,0.8952856519611299,0.473775187300729,-0.4484864100353813,-0.6131340885313752,9.775405478197172,-1.2447667698257048,0.0970718331764301,-0.9355072541674068
0.94,-0.8086965318196954,0.5506330963256468,1.8910484915200787,0.0671570132012752,0.2015943333324265,0.0194032168614395,0.3554453786988096,-0.7295750172286508,-0.6784776806422002,-0.8116934001806599,0.5567786083487453,1.8910167592089973,0.4256417544546175,-0.9220716513881154,-0.9236403136189508,0.9297305987610732,0.5376940967097649,-0.3992752103059549,-0.6448746785781168,9.60651186492396,-1.2401896268968975,0.0969317981024371,-0.9400508048463356
0.96,-0.8014529622013733,0.5359478673805146,1.877326370690408,0.0677425607452628,0.2069767477470331,0.0194907065537904,0.3684135000926926,-0.7385365177190725,-0.6931012863675198,-0.8034405520137125,0.5389371753299237,1.873143952945559,0.4429742159309435,-0.962071651984162,-0.9636403142149972,1.0750936098032526,0.6484060696941518,-0.4480750245210829,-0.7311802862659811,9.508381652343814,-1.236866089983237,0.0962825454709411,-0.9431997541613252
0.98,-0.7939347279947901,0.5210762283541294,1.8633015231979968,0.0686210672936703,0.2112233724764323,0.0195289877821647,0.3827084987889225,-0.7481357744449978,-0.708638714775144,-0.7947543923098569,0.5200957422962009,1.8542711466672197,0.4603066774072695,-1.0020716525802082,-1.0036403148110435,1.1596383045345244,0.7147499348114927,-0.479962836296266,-0.7768714203812088,9.508381652343814,-1.2349119197525786,0.0954111645161635,-0.944636468776147
1.0,-0.7861219922791537,0.5060058852332322,1.8489569088356888,0.069458676984942,0.2141240326760375,0.0194778926617788,0.397746437998084,-0.7583508800663598,-0.7250238601290572,-0.7747993030553441,0.4836694396318794,1.8278695874592397,0.439505325211137,-0.8481357759351139,-0.8086387162652601,1.2236839734822085,0.7518969604580761,-0.5107552810680982,-0.8192572676956611,9.47389146988553,-1.2338670427170877,0.0945684106809122,-0.944786656085026
1.02,-0.7783676190184289,0.4914431803880324,1.8353316649758376,0.0689690238673946,0.2161899579404292,0.019295285577338,0.4178221387739307,-0.7735616361773069,-0.708388837460678,-0.7747993030553441,0.4836694396318794,1.8278695874592397,0.439505325211137,-0.8481357759351139,-0.8086387162652601,1.5092422289724874,1.0037850387923375,-0.7605378055473566,0.8317511334189565,9.43599468224238,-1.2283642070805827,0.0946598114669622,-0.9360205005638688
1.04,-0.7697933054486196,0.4758258753883528,1.8213008412100609,0.0667580023547351,0.2181264414925753,0.0189709836811723,0.4384860027907609,-0.787219595729483,-0.6960182367752916,-0.7747993030553441,0.4836694396318794,1.8278695874592397,0.439505325211137,-0.8481357759351139,-0.8086387162652601,1.3843472257278948,1.033193200841506,-0.682897977608804,0.6185300342693212,11.525571661215508,-1.2286386117704275,0.0960665192185973,-0.9447383221450654
1.06,-0.7608116379484152,0.4599590471937803,1.807433986288248,0.0636435271812878,0.2194315396438338,0.0185456256837009,0.4585661092913942,-0.7984953718799775,-0.6912234729839776,-0.7704042498032326,0.4751880818725283,1.8197832002965868,0.4508646904955798,-0.8681357762331371,-0.8286387165632833,1.1761627913338937,1.004005325031665,-0.5637888075247288,0.2397381895657024,11.042535177969512,-1.22926035375369,0.0981859298754504,-0.950804137959718
1.08,-0.7519150692162012,0.4446989608460378,1.7942932464280117,0.0606469894164232,0.2197863289916188,0.0180895157426838,0.4767916164774953,-0.8072549286409898,-0.6922188068167279,-0.7616141432990099,0.458225366353826,1.8036104259712815,0.4735834210644657,-0.9081357768291836,-0.8686387171593297,1.012286565502373,0.9112753593050554,-0.4379778380506127,-0.049766691637515,10.618725875723612,-1.2318104159149763,0.1005895998716042,-0.9549504547106747
1.1,-0.7421880163446272,0.4284706308472814,1.7803939291970658,0.057860648247193,0.2191638446602516,0.0175857278896476,0.4948481419169391,-0.8151466804862855,-0.6978527214490915,-0.7528240367947872,0.4412626508351238,1.7874376516459765,0.4963021516333515,-0.94813577742523,-0.9086387177553762,1.024766866435693,0.902826271972193,-0.3945875922647834,-0.2816957316181812,10.28378769797655,-1.2350425552204003,0.1027151820038243,-0.9560159203243344
1.12,-0.732109995792233,0.4120934445837418,1.766338855758092,0.0555930906653113,0.2174218018490378,0.0170672689848938,0.5119512786672497,-0.8222358559703797,-0.707514423508372,-0.7428979937621201,0.4222999352866192,1.769264877290869,0.5190208822022373,-0.9881357780212764,-0.9486387183514228,1.044176927568324,0.855156837515525,-0.3544587742047134,-0.4830851029640259,10.01137603373536,-1.2387941067582224,0.1043963538893855,-0.9541678593597454
1.14,-0.721697815092947,0.3955817253500386,1.7520656471756637,0.053906744642795,0.2143834767802905,0.0165325852360785,0.5282914945806934,-0.8286975164403902,-0.7192769882790937,-0.7329719507294531,0.4033372197381146,1.7510921029357611,0.541739612771123,-1.028135778617323,-0.9886387189474692,1.057253094241249,0.817010795672185,-0.3230830235005255,-0.5881282385360842,9.788209017832742,-1.2431760230513669,0.1055329441454245,-0.9495350587573126
1.16,-0.7115089677203477,0.3797714676675889,1.738273709326591,0.052614990922092,0.2100874870591457,0.0159847950658883,0.5432392159766588,-0.8351710452914959,-0.7318699011312468,-0.7224779394325639,0.3833745041747088,1.7319193285657526,0.5644583433400089,-1.0681357792133694,-1.0286387195435156,1.0294688009107222,0.7473860697982726,-0.3236764425552818,-0.6296456426076569,9.592449656847748,-1.2491047837930205,0.1064432209484692,-0.94209090660754
1.18,-0.7004968691707555,0.3629974849730899,1.723483411374635,0.0513533170004279,0.2041167520246403,0.0153555481608029,0.5568375548225933,-0.8418406250130089,-0.7465098216920448,-0.7114159598714526,0.3624117885964019,1.7117465541808428,0.5871770739088946,-1.1081357798094158,-1.068638720139562,1.0532395110526214,0.6799169422967266,-0.3334789860756526,-0.7319960280398996,9.592449656847748,-1.256949065911534,0.1073113987139144,-0.9316658384461672
1.2,-0.6892405169676401,0.3460910916000284,1.708384850821993,0.0500967543572698,0.197252042584392,0.0146998839826066,0.5678406547793748,-0.8484080382134808,-0.7626341426291413,-0.6726549914296258,0.3209054537224395,1.6861579202900328,0.6410102134448582,-0.9418406265031252,-0.8402467012196136,1.0297971286704295,0.5501549978390752,-0.3283706600235914,-0.8062160468548241,9.491015471096944,-1.2647093122055515,0.1081184854419555,-0.9197798482048058
1.22,-0.6777961339768483,0.3290146070374063,1.6933221916858985,0.0480586500103865,0.192521343189378,0.0141172102324498,0.5760164351113187,-0.8585974618804566,-0.7409381322427459,-0.6726549914296258,0.3209054537224395,1.6861579202900328,0.6410102134448582,-0.9418406265031252,-0.8402467012196136,1.266278608154528,0.4087890165971941,-0.5094711833487919,1.084800519319773,11.867482071233098,-1.2663039650462806,0.1093983704017447,-0.8976034982612121
1.24,-0.6667776317558025,0.3126297620401037,1.679404347969993,0.0455837030971425,0.1925327962838484,0.0137621996431225,0.583907417112928,-0.8655538169652651,-0.7254521316842031,-0.6726549914296258,0.3209054537224395,1.6861579202900328,0.6410102134448582,-0.9418406265031252,-0.8402467012196136,0.9360484580336244,0.3945491000804657,-0.3478177542404259,0.7743000279271384,11.867482071233098,-1.2652310973942944,0.1110164339726039,-0.907559791643595
1.26,-0.6549977690075249,0.2952589349589932,1.6649921165039507,0.0432841924981453,0.1953356045750671,0.013548006160045,0.5939130931468054,-0.8711992739811563,-0.7169518304894007,-0.6662448892951772,0.3114870474574082,1.6777554532778367,0.6578447451693111,-0.9618406268011482,-0.8589940771251274,0.7145625553713636,0.5002838016938682,-0.2822728507945571,0.4250150597401192,11.18547275936271,-1.263198881531111,0.1126145132679591,-0.9185235031420044
1.28,-0.6430056333353941,0.2777866045362981,1.650675057320112,0.0415670379041897,0.1996303818737762,0.0134451776524778,0.6050519356741587,-0.8758819661595186,-0.7151838933958178,-0.65342468502628,0.2926502349273457,1.6609505192534444,0.6915138086182171,-1.0018406273971947,-0.8964888289361549,0.610587873391982,0.5569421263676655,-0.2341346089181184,0.0883968546791458,10.706758512294982,-1.2604870523084608,0.1138042631188896,-0.928113502273308
1.3,-0.630779807277541,0.260229426050311,1.636342838273844,0.0405721284745791,0.2046212176546415,0.0134272280798607,0.6171740308662872,-0.8797106903955068,-0.7181491850735011,-0.6406044807573829,0.2738134223972832,1.644145585229052,0.7251828720671231,-1.041840627993241,-0.9339835807471824,0.6526815376889508,0.606104759606424,-0.1914362117994061,-0.1482645838841667,10.356772167922829,-1.257181078611672,0.1145495631030012,-0.9372724435451688
1.32,-0.6189323660252602,0.2434869486522168,1.622637736196441,0.0405640453733815,0.2095962795368324,0.0134924030691801,0.6294663718792096,-0.8826006120712987,-0.7243642490612326,-0.6261008233160404,0.2529766098374184,1.6254659136141083,0.758851935516029,-1.0818406285892874,-0.97147833255821,0.7037050433984826,0.6146170506461213,-0.144496083789597,-0.3107531993865764,10.107228202266016,-1.2537037816746652,0.1144990958656923,-0.94526919165959
1.34,-0.6061975116205877,0.2258090249295758,1.6080698896947845,0.0418669486292976,0.2148291030107784,0.0136643804862823,0.6435101489839568,-0.8851772050665675,-0.732159321602114,-0.6115971658746979,0.2321397972775535,1.6067862419991648,0.792520998964935,-1.121840629185334,-1.0089730843692375,0.8133720900496455,0.7021888552373567,-0.12882964976344,-0.3897536270440704,9.923375284151916,-1.2499647054833214,0.113316360299888,-0.9519217007527758
1.36,-0.5931701769383882,0.2080687258044324,1.593337956289062,0.0444365730485812,0.219910620947772,0.0139355779049699,0.6586500886689002,-0.8889098249335591,-0.740671147955194,-0.5962517818471328,0.2103029847027876,1.5871692015889454,0.8261900624138409,-1.1618406297813804,-1.0464678361802648,0.8882587075286267,0.7569969842471713,-0.1866309933495791,-0.4255913176539949,9.870559977408448,-1.2466019991934305,0.1110760909153296,-0.9578264181728572
1.38,-0.5798227942573346,0.1902313502033733,1.578428444263957,0.0474586037158029,0.2245543755131082,0.0142374231386555,0.675379109929802,-0.8947243332367958,-0.7498727367279941,-0.580064671233345,0.1874661721131204,1.5666147923834504,0.8598591258627468,-1.2018406303774267,-1.0839625879912924,0.9979202061034692,0.8364510630450905,-0.2907254151618355,-0.4600794386400098,9.830921640355882,-1.2433683099273831,0.1085462074993681,-0.9629834847311448
1.4,-0.56681717089525,0.1731645548883475,1.564086772477244,0.0500619668155499,0.2281178787552282,0.0144792740542755,0.6927485603302501,-0.9014206918710866,-0.7593130764176332,-0.5460538387608446,0.1454951335415335,1.540934807427557,0.7753791114199181,-0.9591840818029465,-0.792890399789613,1.0436223450420707,0.8684725200224064,-0.3348179317145427,-0.4720169844819544,9.830921640355882,-1.2406413877028604,0.1060942657617878,-0.9672929851863604
1.42,-0.5526377212502167,0.1548572116459455,1.5492272251939334,0.0465590217667809,0.2301128322628216,0.0142152437616409,0.7247198774463531,-0.9267606026504466,-0.7237083978284847,-0.5460538387608446,0.1454951335415335,1.540934807427557,0.7753791114199181,-0.9591840818029465,-0.792890399789613,2.707383115612248,1.5985658558051508,-1.2669955389679963,1.7802339294574254,9.808685683890872,-1.2287129483537844,0.108470587445088,-0.95572305360826
1.44,-0.5378047074357217,0.1361710957169759,1.5351202182878405,0.0359634513953434,0.2296285938549529,0.0133541441933293,0.7567136173373473,-0.939220436257655,-0.6893092429340347,-0.5460538387608446,0.1454951335415335,1.540934807427557,0.7753791114199181,-0.9591840818029465,-0.792890399789613,2.4300970676005287,1.5996869945497094,-0.6229916803604185,1.7199577447225,13.107386951172884,-1.232051353614648,0.1175908816667311,-0.9703715090091424
1.46,-0.5223511284888596,0.1173348431779715,1.5216006954729648,0.0238029605924854,0.2262435766764375,0.012334722408466,0.7868095571737306,-0.9432989040348208,-0.6642881803773294,-0.5383000476466454,0.1359032927235041,1.533005903429661,0.7953791117179413,-0.9720760315161766,-0.8014939324019367,1.967519418907436,1.5047969918191628,-0.2039233888582903,1.2510531278352666,12.54486092899424,-1.2393796443343326,0.1279590574391255,-0.9801735676117324
1.48,-0.5063294702868558,0.0984761392159573,1.5084974777643616,0.0122032030171558,0.2197075387125984,0.0113782443736949,0.8131984124913257,-0.9423026339985155,-0.6471731169624035,-0.522792465418247,0.1167196110874451,1.5171480954338687,0.8353791123139878,-0.9978599309426368,-0.8187009976265842,1.573443385266168,1.319442765879758,0.0498135018152601,0.8557531707462929,11.396318230048564,-1.2507960951097614,0.1387063328877552,-0.9833432000222744
1.5,-0.4906713522017692,0.080613321521106,1.4963030524584606,0.0024711646149771,0.211440373235298,0.0106503828830387,0.8332793700968679,-0.93819029673096,-0.6372287243950655,-0.5072848831898487,0.0975359294513862,1.5012902874380765,0.8753791129100342,-1.0236438303690971,-0.8359080628512318,1.139130281937756,1.0040478802771091,0.2056168633777777,0.4972196283669017,11.396318230048564,-1.2641093449446477,0.1483659235998871,-0.9812780127892352
1.52,-0.4738299156666857,0.0619184119814436,1.4836186775073843,-0.0061454466463011,0.2016688089653765,0.010120867229757,0.849365640560615,-0.931648852233528,-0.631925931125732,-0.4897773009316479,0.0770630528440043,1.4845721261810518,0.9153791135060808,-1.0494277297955574,-0.8531151280758793,0.9078521493105248,0.8043135231873555,0.3270722248716051,0.2651396634666736,10.960930670642483,-1.2777852390145792,0.1565504594648133,-0.9755219622699508
1.54,-0.4567145349109864,0.0433750599474358,1.471002916693037,-0.0129444728345116,0.1917672260097084,0.0098327132147252,0.861102738018319,-0.923373313462792,-0.6298483406280629,-0.4722697186734472,0.0565901762366223,1.4678539649240272,0.9553791141021272,-1.0752116292220175,-0.8703221933005268,0.7255349422212565,0.5868548728852008,0.4137769385367973,0.1038795248834545,10.61589822624046,-1.2906646039883642,0.1630740485957787,-0.9676513409944716
1.56,-0.4393988180557998,0.0250028882558216,1.4584049143548976,-0.0182094795967348,0.1823079520627917,0.0097369474954154,0.8696600784278954,-0.9145053627549712,-0.6300122412910855,-0.4537621364003454,0.0354727021435789,1.4507056270363865,0.9953791146981736,-1.1009955286484778,-0.8875292585251743,0.6162294379308817,0.4278670204788171,0.4433975353910324,-0.008195033151126,10.43232369967336,-1.3020975479887753,0.167960152838646,-0.9590614401356
1.58,-0.4228178576620494,0.007719390870833,1.446415034939512,-0.0220514593168313,0.1739998791372153,0.0097800994014041,0.8751364992957631,-0.9054769912009676,-0.6320399578526115,-0.4342545541123425,0.0137106305648739,1.4331271125181293,1.03537911529422,-1.126779428074938,-0.9047363237498218,0.5376204815970209,0.2738210433933852,0.45141857770018,-0.1013858280763002,10.28939134835673,-1.313025830767755,0.1719918286527245,-0.9497285851522248
1.6,-0.4052769819827277,-0.0102847623466596,1.433736036465775,-0.0250484781532942,0.1661937847111252,0.0099299076760284,0.8785054777319217,-0.8955719225231072,-0.635809771047854,-0.3790610326972612,-0.0375544586892153,1.4148130370468814,0.9751365007858792,-0.9246096910183867,-0.5879067268087959,0.5560393258202565,0.1684489218079288,0.4952534338930225,-0.1884906597621249,10.164035699936903,-1.3226286922254198,0.1750361714569571,-0.9406509420506702
1.62,-0.3875907906669247,-0.0281839740015927,1.4214331178034565,-0.0306260867882681,0.1588669577133824,0.0099399207792678,0.8900781113638987,-0.8929789785465873,-0.5919466198265965,-0.3790610326972612,-0.0375544586892153,1.4148130370468814,0.9751365007858792,-0.9246096910183867,-0.5879067268087959,2.271907371958769,0.5786316815988513,0.1296471988259995,2.193157561062875,13.422375403712977,-1.3208641375496222,0.1781202364475925,-0.9140821859925684
1.64,-0.370590247625953,-0.0450531155401373,1.4105945285417674,-0.0383262711313804,0.1519361864391152,0.0098607807214272,0.8985989633162499,-0.8824993886463929,-0.5514318956879883,-0.3790610326972612,-0.0375544586892153,1.4148130370468814,0.9751365007858792,-0.9246096910183867,-0.5879067268087959,2.135339314077308,0.4260425976175597,0.5239794950097187,2.0257362069304063,12.936068032006006,-1.3322876298664803,0.1866383640553344,-0.9219598886687838
1.66,-0.3525595896742122,-0.06254105920353,1.3999511807953715,-0.045995150394313,0.1451335610372226,0.0098789620316068,0.9037653992964376,-0.8668936893514347,-0.5153292030890381,-0.3693096676894024,-0.0468005555993992,1.4089339697787937,0.9951365010839024,-0.9284362309818706,-0.5790800806000327,1.9834530017852297,0.2583217990093922,0.7802849647479071,1.8051346299475133,12.936068032006006,-1.3438137037148017,0.194968698922641,-0.9285552902696828
1.68,-0.3344644850411029,-0.0796879916197202,1.3899644744674935,-0.0521494938426883,0.1394374355699587,0.0100282753650709,0.9052515075318406,-0.8488373603726942,-0.4853770035157736,-0.3498069376736848,-0.0652927494197669,1.3971758352426176,1.035136501679949,-0.9360893109088382,-0.5614267881825065,1.7502669747444966,0.0743054117701425,0.9028164489370272,1.4976099786632224,12.089820884035362,-1.3532206176196906,0.2017781269626519,-0.9319020602168336
1.7,-0.3163753392453285,-0.0964593211594431,1.380526275285233,-0.056465645892844,0.1356385680981657,0.0102597443214737,0.903420265235365,-0.8295516668858716,-0.4601042844684224,-0.3303042076579672,-0.0837849432401346,1.3854177007064417,1.075136502275995,-0.9437423908358058,-0.5437734957649802,1.5921697064559583,-0.0915621148237788,0.9642846743411316,1.2636359523675589,12.089820884035362,-1.3603023400298984,0.2067497985730291,-0.9357131384397396
1.72,-0.2992482326969595,-0.1120275963663935,1.3719933687635963,-0.058803757213099,0.1345275462549049,0.010490713902587,0.89984052992752,-0.8106782253484278,-0.4393396211328113,-0.3088014776124473,-0.1026597910568508,1.374542230791142,1.1151365028720417,-0.9513954707627734,-0.526120203347454,1.41438373840236,-0.1789867653922527,0.9436720768721872,1.0382331667805582,11.81575136653737,-1.364720216017034,0.2104175479962489,-0.9428988334601346
1.74,-0.2812830793523528,-0.128024297167394,1.3634373234960155,-0.0594927785144911,0.1357319095551421,0.0107355183984218,0.8971165968456669,-0.7901877207480602,-0.4173432972983357,-0.2872987475669274,-0.1215346388735669,1.3636667608758424,1.1551365034680885,-0.959048550689741,-0.5084669109299277,1.509237267996003,-0.1361966540926518,1.0245252300183805,1.0998161917237763,11.62081803376168,-1.365673589728223,0.212390625746213,-0.9523942188453036
1.76,-0.2633515537948923,-0.1436038610905257,1.355326451152008,-0.0579820880949959,0.1385593449063107,0.0110519252608334,0.8963956771666803,-0.769041928051475,-0.3948271846035247,-0.2647960175065064,-0.1406008136884572,1.353232623270981,1.1951365040641346,-0.9667016306167088,-0.4908136185124015,1.544862133683729,-0.0360459839493287,1.0572896348292615,1.125805634740551,11.652968026283816,-1.3650615254238598,0.2125477928676085,-0.9640174098057376
1.78,-0.2454117776851272,-0.1587638442837806,1.3476752296899637,-0.0540155945689292,0.1421389241603722,0.0115141871566019,0.8977782209594694,-0.7489102176170919,-0.3714070403980362,-0.2412932874311841,-0.1598583155015216,1.3432398179765577,1.235136504660181,-0.9743547105436764,-0.4731603260948753,1.545720177586089,0.0691271896394507,1.0065855217191555,1.1710072102744271,11.70085736193414,-1.3641935096446718,0.2106160620220967,-0.977561587544357
1.8,-0.228324104355987,-0.1728252029741441,1.340850095987355,-0.0490313243422384,0.145605464675474,0.0120552014141011,0.9009262433788184,-0.7326421618798837,-0.3482119173650962,-0.2005228666371538,-0.1962093551646352,1.3291048776700618,0.9977782224495856,-0.7024770072441671,-0.2769900271700966,1.4252836692522448,0.1574011209674541,0.8134027868604066,1.1597561516469983,11.763160409236662,-1.362316678142498,0.207376729014014,-0.9917319258438048
1.82,-0.2101669486823921,-0.1875490794478278,1.3342951218147798,-0.0511051161234517,0.1468023839680711,0.0122521762794754,0.9147055566541752,-0.7374323035812156,-0.3079148592369351,-0.2005228666371538,-0.1962093551646352,1.3291048776700618,0.9977782224495856,-0.7024770072441671,-0.2769900271700966,2.142818136032346,0.6889656637678376,-0.2395070850665925,2.0148529064080543,13.02481314762099,-1.353853263015406,0.2096075078834749,-0.9961505188500852
1.84,-0.191734883535108,-0.2021854429903327,1.3285626394078274,-0.0611176556727529,0.1433468797427053,0.0121754503643178,0.9273133193235596,-0.7248227212709971,-0.2675231457779357,-0.2005228666371538,-0.1962093551646352,1.3291048776700618,0.9977782224495856,-0.7024770072441671,-0.2769900271700966,2.207627551082617,0.6303881334692174,0.6304791155109235,2.0195856729499724,13.02481314762099,-1.360490644338885,0.2211052615570906,-1.0079305745901563
1.86,-0.1731000384342797,-0.2164645071194518,1.323605235429406,-0.0719234406804024,0.1366249672783266,0.0123356059002793,0.9349800832383476,-0.7036189813176814,-0.2302425662292105,-0.1905450844126579,-0.2032341252370769,1.3263349773983608,1.0177782227476089,-0.6931903651695821,-0.2581066245245086,2.178428027513045,0.3833381957393966,1.0601869976657852,1.864028977436255,12.929430515585407,-1.3735519133843228,0.2335459878367894,-1.0169332748416944
1.88,-0.1553076373266216,-0.2295877342637638,1.3195578471658334,-0.0808304179691521,0.1289883119268288,0.0127790248690114,0.9372318654447618,-0.6791680220705512,-0.1976467550244415,-0.1705895199636662,-0.2172836653819602,1.3207951768549588,1.0577782233436552,-0.6746170810204122,-0.2203398192333328,2.0404698229249147,0.1125891103207155,1.2225479623565128,1.6297905602384504,12.740049838755112,-1.3885975215982835,0.2455813808406216,-1.023271703991227
1.9,-0.1365802078932254,-0.242875364355406,1.3159472368273917,-0.0881461225621347,0.1211154536860728,0.0134771900621889,0.9351373136359225,-0.6511839684237646,-0.1651937062475946,-0.1506339555146745,-0.2313332055268435,1.3152553763115569,1.0977782239397016,-0.6560437968712423,-0.1825730139421569,2.1451659496986166,-0.1047275904419664,1.3992026823393289,1.622652438842347,12.5684614581578,-1.4028134715967029,0.255696003683564,-1.0283570916886342
1.92,-0.1179399740761079,-0.2555838694320402,1.3129656829236616,-0.0931322663559493,0.1146510401908877,0.0142891466714189,0.9288839352223,-0.6216823999562869,-0.1345623487384307,-0.1286783910358805,-0.2444540814642684,1.3116039160327138,1.137778224535748,-0.6374705127220723,-0.1448062086509811,2.149259957799105,-0.312668920681125,1.4750784233738825,1.5315678754581965,12.39406321516526,-1.416268996738646,0.2637959580698823,-1.0373041623249109
1.94,-0.1003826824718058,-0.267103820365233,1.3106967002901764,-0.0958527891952868,0.1109330048429477,0.0150173162727582,0.9195153481351018,-0.5929944184049187,-0.1057972769425794,-0.1067228265570864,-0.2575749574016933,1.3079524557538706,1.1777782251317943,-0.6188972285729024,-0.1070394033598052,2.0845863288207425,-0.468429354359906,1.43439907756841,1.438253589792564,12.39406321516526,-1.4280918505490825,0.270584077389,-1.0512752308725422
1.96,-0.0821059328030046,-0.2786368898494293,1.3089027492934615,-0.0967020564967299,0.1103362961348907,0.0156286577628475,0.909041269317184,-0.5620785956918334,-0.0750987416924987,-0.0837672620633912,-0.2702315012353888,1.305245165607307,1.217778225727841,-0.6003239444237325,-0.0692725980686294,2.240476783862828,-0.5237039408958977,1.5457911356542675,1.534926762504034,12.42720830293365,-1.4325626313786215,0.2750859639277034,-1.0696089413104362
1.98,-0.064020970392295,-0.2895391379007158,1.3077296767338216,-0.0949745091937122,0.1124486793970787,0.0161716581986393,0.9002815433549253,-0.5300086996468282,-0.0437142238193964,-0.0598116975547949,-0.2824237129653552,1.3034820455930225,1.2577782263238872,-0.5817506602745626,-0.0315057927774536,2.2859347067438227,-0.4379862981129301,1.6034948022502604,1.5692258936551162,12.47645593407924,-1.4325130367615797,0.2767861003897979,-1.0900340712292589
2.0,-0.0460871658435289,-0.2998074725723125,1.307197411209486,-0.0904096073740906,0.1163372643471557,0.0167615388181905,0.8938273960620944,-0.4993689120241468,-0.0109891528087494,-0.0190068932245488,-0.3160395728830572,1.3055439655428518,0.9669263460444776,-0.4398193991693234,0.0562857776707197,2.264609721062583,-0.3227073646415446,1.531989381134066,1.6362535505323494,12.551701595781196,-1.4316465093161197,0.2762140343139498,-1.1182455607206028
2.02,-0.0290445553886612,-0.3091472308471768,1.307209770816344,-0.0882075814380551,0.1173698441714149,0.0174276204157618,0.8999387173628386,-0.48358152612269,0.0104600474163917,-0.0190068932245488,-0.3160395728830572,1.3055439655428518,0.9669263460444776,-0.4398193991693234,0.0562857776707197,1.3662521655432451,0.3055660650372105,0.7893692950728393,1.072460011257059,11.91674939009954,-1.4273491261214382,0.2776280622730068,-1.146953158734651
2.04,-0.0110050652556833,-0.3186002595820266,1.3076775371134666,-0.0894969890596333,0.1125027824721261,0.0184177263441932,0.9028257396828616,-0.462286775458066,0.0353723322025199,-0.0190068932245488,-0.3160395728830572,1.3055439655428518,0.9669263460444776,-0.4398193991693234,0.0562857776707197,1.6450100584874645,0.1443511160011457,1.0647375332312026,1.245614239306411,11.91674939009954,-1.438779870768223,0.2824605719208858,-1.1562378320246751
2.06,0.0070270808544752,-0.3275951222929997,1.3086635933056228,-0.092580614393623,0.1043523888231342,0.0196099477731753,0.8997158952789613,-0.4378493007233119,0.0619142672387674,-0.009337629764104,-0.3204377668747504,1.306106823319559,0.980255306582388,-0.4217815390738225,0.0762857779687429,1.8106184158296523,-0.1554922201950082,1.2218737367377024,1.3270967518123733,12.138282786882884,-1.4513815073414684,0.2893119008323693,-1.1643335089368771
2.08,0.0240432526296732,-0.3356523664539959,1.3100948949657434,-0.0956015039279067,0.0957811631575036,0.0208569712396461,0.891380312950376,-0.4116155848172891,0.0874006349846566,0.0100008971567855,-0.3292341548581369,1.3072325388729735,1.006913227658209,-0.3857058188828206,0.1162857785647893,1.875663032019106,-0.4167791164292667,1.311685795301143,1.2743183872944603,12.245873625784952,-1.466620565085882,0.2969220779174541,-1.171933602728944
2.1,0.0417354060178638,-0.3435800720108035,1.3121286486426615,-0.0980812174525393,0.0876054184906718,0.0221794016276786,0.8780889989334971,-0.3826801280691658,0.1146441584832655,0.029339424077675,-0.3380305428415234,1.308358254426388,1.0335711487340298,-0.3496300986918187,0.1562857791608358,2.095309796985309,-0.6645657008439443,1.4467728374061628,1.362176174930444,12.303575283148348,-1.480649243191297,0.3038159670659079,-1.1805227986794276
2.12,0.0591145123582177,-0.3509167270343292,1.3147098284457572,-0.0994869362333676,0.0817548661761883,0.0233776321109473,0.8604093256943534,-0.3527170656254328,0.1420879320636414,0.0500108470523556,-0.3450231448153598,1.3114839700096046,1.0602290698098509,-0.3135543785008168,0.1962857797568822,2.215579306400968,-0.8839836619571884,1.4981531221866489,1.3721886790187965,12.376258714194591,-1.492439097166133,0.3094087336844468,-1.1918896445587956
2.14,0.0752614642037512,-0.3573241146975282,1.317670761906083,-0.099543371568307,0.0797526771291902,0.0242648131734065,0.8404909022766195,-0.3234705786519509,0.1681973241519071,0.0706822700270363,-0.3520157467891961,1.314609685592821,1.0868869908856715,-0.2774786583098149,0.2362857803529287,2.1987501830340848,-0.9959211708866932,1.462324348674096,1.3054696044132854,12.502078810916828,-1.4997040918347828,0.3140621698478813,-1.211699474740385
2.16,0.0918600910361968,-0.3634590187433399,1.3213313936819857,-0.0977517325305714,0.0815244054955465,0.0249489652501127,0.8208575307161807,-0.2917762658106625,0.1965273270078785,0.0920201410286124,-0.3581064557582575,1.3187354011909391,1.1135449119614926,-0.241402938118813,0.2762857809489751,2.341253834556949,-0.981668578021938,1.5847156420644186,1.416500142798567,12.502078810916828,-1.498259696776137,0.3162622420685812,-1.2380816313013858
2.18,0.1080938200814416,-0.3689645960696678,1.3255731948782512,-0.0937915123200678,0.0862119975848288,0.0255123409462457,0.8039331917700419,-0.2611040481432538,0.2263294995018128,0.114024460057084,-0.3632952717225438,1.323861116803958,1.1402028330373135,-0.2053272179278111,0.3162857815450215,2.2996671882899227,-0.8462169473069436,1.5336108833704398,1.4901086246967148,12.585917047394105,-1.4918947471127926,0.315615052010915,-1.2664038930158903
2.2,0.1240249913008415,-0.3738873136806825,1.3304325203948413,-0.0887118619186693,0.0927109083220274,0.0260097624823163,0.7904314063621326,-0.2331095495058158,0.2580761826085571,0.1482904796699437,-0.3820197984768305,1.336889669853342,0.820588452467049,-0.1611040466531376,0.3263295009919289,2.2213971118660845,-0.6750892703954625,1.3997249318718972,1.587334155337217,12.82901896171461,-1.4803210400597178,0.3130771971718973,-1.2981609353320422
2.22,0.1390733707137752,-0.3780829616628346,1.3354667178837711,-0.0837480401153161,0.0949990869330074,0.0268525910307239,0.7935471693179992,-0.2100441977745278,0.2702026042885343,0.1482904796699437,-0.3820197984768305,1.336889669853342,0.820588452467049,-0.1611040466531376,0.3263295009919289,1.3122200006532818,0.1557881477933287,1.153267586564398,0.6063210839988592,12.82901896171461,-1.470803753979568,0.3093364415994236,-1.3195404012350809
2.24,0.1549397847047115,-0.3820488950011975,1.3410392456624831,-0.0790590743848712,0.0895148046932068,0.0283512127605307,0.7919294030591197,-0.1877072756860535,0.2866972508879754,0.1482904796699437,-0.3820197984768305,1.336889669853342,0.820588452467049,-0.1611040466531376,0.3263295009919289,1.3907090120648846,-0.0808883129439719,1.116846104423716,0.8247323299720555,11.537701601751904,-1.4839562591244846,0.306985935376137,-1.3273288029247137
2.26,0.1706968568555577,-0.3855806639451026,1.3469817025098338,-0.0752883907710748,0.0796090047410303,0.0300957672175006,0.7831905466652775,-0.1664312711451209,0.3066836497405369,0.1564963641946142,-0.3836308389433618,1.3401529648632613,0.8239195046064505,-0.1411040463551144,0.3463295012899521,1.5235584329060488,-0.4369428196921099,1.0638002270466296,0.9993199426280768,11.834707686160073,-1.4990040904242328,0.3051368854329676,-1.32604541663201
2.28,0.1862042312559517,-0.3886947330928588,1.353342782081544,-0.0724109140372594,0.0683438220360412,0.0318372329533135,0.7676654548632801,-0.1458774275507818,0.3283871627508906,0.1729081332439551,-0.3868529198764246,1.3466795548831,0.8305816088852533,-0.1011040457590679,0.3863295018859985,1.6841403140412572,-0.776254590099873,1.0276921797169574,1.0851756505176806,12.024785614623395,-1.5133910472270071,0.3041925466874172,-1.3224012902408495
2.3000000000000003,0.2005934965271667,-0.3912770511152179,1.359797309808359,-0.0704094721950064,0.0585328742356611,0.0333441332987438,0.7477348485860252,-0.1268283168834697,0.3499145776610523,0.1893199022932961,-0.3900750008094873,1.3532061449029384,0.8372437131640562,-0.0611040451630215,0.426329502482045,1.7489477382905894,-0.9965303138627424,0.9524555333656036,1.076370745508087,12.14673851090265,-1.5254145409225837,0.3039488047999965,-1.3200890119917252
2.32,0.2152887112327162,-0.3936089996849655,1.3670436510657284,-0.0690222623089691,0.0506963112268575,0.0346829293980289,0.722677583609417,-0.1073262834609246,0.3736058692243091,0.2060647765565773,-0.3912970817127478,1.3617327349525794,0.8439058174428591,-0.0211040445669751,0.4663295030780914,1.9808288237864384,-1.2528632488304103,0.975101671127257,1.1845645781628389,12.240741789751157,-1.5330521563012809,0.3044418651441632,-1.321342983803589
2.34,0.2294383530556571,-0.3955567402528901,1.3747663671396455,-0.0684873272511616,0.0470144576483614,0.0356642434016325,0.6937538233600783,-0.0883266443536265,0.3974421011928183,0.2228096508198584,-0.3925191626160082,1.37025932500222,0.850567921721662,0.0188959560290713,0.506329503674138,2.101033167054592,-1.4461880124669368,0.9499819553649016,1.191811598425463,12.41672220282453,-1.534704020302033,0.3057401103709557,-1.3279195395032954
2.36,0.2430079907421677,-0.3971156051842008,1.3829710096313672,-0.0685468049194093,0.0480746797315143,0.0362744051369126,0.6652856604812143,-0.0685247806966552,0.4218361545034791,0.2397210776901096,-0.3927412435043675,1.3797859150667622,0.8572300260004648,0.0588959566251178,0.5463295042701843,2.119917415201693,-1.4234081439432,0.9900931828485676,1.2197026655330372,12.455457844125704,-1.5271129651223698,0.3073137125896045,-1.3398109641063518
2.38,0.2553965272409156,-0.3982205419533546,1.3912299195634743,-0.0687388043057118,0.0525038997737942,0.0366057512869413,0.6406672898586849,-0.0488407743769316,0.4463030839010909,0.2567990571673308,-0.3919633243778256,1.3903125051462055,0.8638921302792677,0.0988959572211642,0.5863295048662308,1.995090794331712,-1.230918531126468,0.9842003159861804,1.22334646988059,12.455457844125704,-1.5132104524061032,0.3087977432081217,-1.3557599214202138
2.4,0.2679680826192737,-0.398971984443187,1.4004439873438748,-0.06874968535543,0.0595115112790803,0.0368016358931114,0.618214615101459,-0.0273787672381553,0.4738906195317172,0.2874298917338499,-0.4006625806722012,1.413545073758529,0.609201945727692,0.0511592271131845,0.546303085391207,2.0771449614493243,-1.122633737861295,1.073100356938813,1.3793767815313134,12.542338224624473,-1.495778398586186,0.3099551857007834,-1.3747973717192643
2.42,0.28023503678225,-0.3992385695246498,1.4100147241403382,-0.0663900686235609,0.0639328450916042,0.037336590800599,0.6096639864612048,-0.0011775645763204,0.4807784034695077,0.2874298917338499,-0.4006625806722012,1.413545073758529,0.609201945727692,0.0511592271131845,0.546303085391207,1.420438170639403,-0.4275314320127121,1.3100601330917454,0.3443891968895246,11.193517888147651,-1.4897250752144884,0.309170969977198,-1.394309020026156
2.44,0.2923381261014482,-0.3990405170871142,1.4197339775675633,-0.0616867499904583,0.061551487021263,0.0384745002733207,0.6002108269795259,0.0192896880491919,0.4909218866378875,0.2874298917338499,-0.4006625806722012,1.413545073758529,0.609201945727692,0.0511592271131845,0.546303085391207,1.236083436716353,-0.4726579740839454,1.0233626312756188,0.5071741584189909,11.193517888147651,-1.4938176459757757,0.3049797583657305,-1.3969537965632333
2.46,0.3036113251513092,-0.3985117674347554,1.429196775425792,-0.0574052350172758,0.0552405682832302,0.0397578785784023,0.5864075128987697,0.0354777346420059,0.5046217708774848,0.2935219111911268,-0.4001509884010693,1.419008104612441,0.6029088769014934,0.0711592274112077,0.5663030856892302,1.2651789994715053,-0.6901657040378095,0.8094023296407017,0.6849942119798669,11.513719347955885,-1.503294177873933,0.3007408827731983,-1.3940088259312522
2.48,0.315140104825427,-0.3976420761952646,1.4394682523076563,-0.0539162949383084,0.0468062999741126,0.0410944212610145,0.5668125611117767,0.0508310430652911,0.5219013661913494,0.3057059501056807,-0.3991278038588056,1.4299341663202652,0.5903227392490963,0.1111592280072541,0.6063030862852766,1.51514902673469,-0.97974758934965,0.7676654211642604,0.8639797656932291,11.766477659573866,-1.5138016027226882,0.2978546315421928,-1.388532438575907
2.5,0.3262264825025396,-0.3964737264299953,1.450106598391063,-0.0516381377737705,0.0385658883367094,0.0422964393883226,0.5426050463802502,0.0654550100949973,0.5411174555604222,0.3178899890202345,-0.3981046193165419,1.440860228028089,0.5777366015966992,0.1511592286033006,0.6463030868813231,1.7096215018266463,-1.2103757365763246,0.7311983514853099,0.960804468453641,12.11150392034142,-1.5230128898509612,0.2961062071658297,-1.3823049182699676
2.52,0.3362697593374086,-0.3950995189553855,1.460585835313285,-0.0506174417906623,0.0324708843149696,0.0432447992969773,0.5157518827480561,0.0786571758639412,0.5609669297148355,0.3294447210521685,-0.3950814347444759,1.4537862897657157,0.565150463944302,0.191159229199347,0.6863030874773696,1.795404691326436,-1.3426581816097072,0.6601082884471955,0.9924737077206648,12.11150392034142,-1.5268040755709658,0.2954014416402463,-1.3759308613120491
2.54,0.3462573536029874,-0.393387282874871,1.472032448519386,-0.0509196435181508,0.029305601957246,0.0439691999939378,0.4843925134280645,0.0920057290523592,0.5826702264082356,0.3409994530841025,-0.3920582501724099,1.4667123515033422,0.5525643262919049,0.2311592297953935,0.726303088073416,2.020288966790025,-1.5679684659995778,0.6674276594208988,1.085164834670005,12.253804163930909,-1.524997262006477,0.2963666533538639,-1.3744380511393526
2.56,0.3556091446214401,-0.3913973997579807,1.4839214093787914,-0.0524849798669233,0.0302301429374667,0.0443886962253267,0.4529238887717657,0.1064171504272359,0.6051574159310569,0.3522395316747265,-0.3880350655854427,1.48063841325587,0.5399781886395076,0.27115923039144,0.7663030886694624,2.063756948164288,-1.5734312328149396,0.7205710687438339,1.1243594761410625,12.343549894648277,-1.5172749309283364,0.2986643971575219,-1.3783869383101586
2.58,0.3639306151551436,-0.3892243249520188,1.4956446238195231,-0.0546121629943578,0.03415317222998,0.0445709948458887,0.4250159919673349,0.1216495498217805,0.6277534807336236,0.3631649568240406,-0.3830118809835744,1.4955644750232986,0.5273920509871105,0.3111592309874864,0.8063030892655089,1.9502941059770151,-1.3953948402215393,0.7616199697272286,1.129803240128335,12.46641611960058,-1.5052691894391297,0.3019409732433831,-1.3863241961218542
2.6,0.3721484932351279,-0.3866024843425375,1.5084649056838688,-0.0568065278528698,0.0404055602116684,0.0446312865656147,0.3986478855290516,0.1397310718108834,0.6531642845062607,0.3851814147535103,-0.3831418474609298,1.5270322978562043,0.3592449039632227,0.2216495513118966,0.7238767663252259,2.0420133587678344,-1.3184053219141625,0.9040760994551456,1.270540188631858,12.46641611960058,-1.491165566512905,0.3052558202958826,-1.397216266297169
2.62,0.3799328104544135,-0.3835449079420123,1.521568593502849,-0.0561273503124631,0.0454781703343515,0.0449426857018207,0.3810534567521298,0.1643668152112375,0.6547353304641179,0.3851814147535103,-0.3831418474609298,1.5270322978562043,0.3592449039632227,0.2216495513118966,0.7238767663252259,1.5157110231471964,-0.8797214388460928,1.2317871700177077,0.0785522978928587,12.574102826660235,-1.487877587442621,0.3059742860395809,-1.4092993116161086
2.64,0.3873767349296484,-0.3800388361503906,1.5347077346322908,-0.0517626991220292,0.0467922538838815,0.0457127024441736,0.3639955687129906,0.1841992221501371,0.6592635092059708,0.3851814147535103,-0.3831418474609298,1.5270322978562043,0.3592449039632227,0.2216495513118966,0.7238767663252259,1.327403774350599,-0.8528944019569579,0.9916203469449782,0.2264089370926425,10.873437785590797,-1.4835549399827976,0.3013429620703137,-1.4145665675292391
