t,x,y,z,roll,pitch,yaw,v_x,v_y,v_z,ref_x,ref_y,ref_z,ref_v_x,ref_v_y,ref_v_z,a_com,a_x,a_y,a_z,thrust,wind_x,wind_y,wind_z
0.0,-1.6643072389322482,1.5311017401613205,2.994756293967495,0.0238493291586015,0.1500939264221283,0.0288651141997343,0.0018409267933508,-0.0052508223650982,-0.001862261292753,-1.6642571543959233,1.5310523922232584,2.9947006443108277,-0.0022013532979221,-0.1025973154480227,-0.1018580975763565,0.2933775898512814,0.0920463396675415,-0.2625411182549104,-0.0931130646376512,10.663676957809912,-1.4129744823590236,0.1671354758403724,-1.279504372141777
0.02,-1.664363676588439,1.5312658942369703,2.994472075956872,0.0314875563804352,0.151603950656357,0.029422439902941,-0.0068374888281649,0.0158424926670155,-0.0266998306898913,-1.6642571543959233,1.5310523922232584,2.9947006443108277,-0.0022013532979221,-0.1025973154480227,-0.1018580975763565,1.686081025856577,-0.4339207810757887,1.0546657516056868,-1.2418784698569163,9.18075808111098,-1.4073006792498848,0.158601624749549,-1.2770591802892688
0.04,-1.664569308611054,1.5315824524619128,2.993685772411467,0.0451790680525007,0.1554226854769679,0.030490682761012,-0.0139722223171725,0.015899910167724,-0.0547956746978335,-1.6642571543959233,1.5310523922232584,2.9947006443108277,-0.0022013532979221,-0.1025973154480227,-0.1018580975763565,1.449382773154816,-0.3567366744503825,0.0028708750354282,-1.4047922003971112,9.18075808111098,-1.3993191329179813,0.1416061950712336,-1.2806272176250486
0.06,-1.6649035111531552,1.5318403190150467,2.9922782059078044,0.0601296345546015,0.1611749892008661,0.0317793315066502,-0.0187459831344035,0.0095260991758124,-0.0844948309533981,-1.6642791679289024,1.5300264190687782,2.993682063335064,-0.0029845488307805,-0.1225973157460459,-0.1218580978743797,1.537411900885044,-0.2386880408615488,-0.3186905495955824,-1.4849578127782304,9.001917257025525,-1.38960890640469,0.1239680478698123,-1.284570947786495
0.08,-1.6653025418738694,1.5319330260306327,2.990285519509254,0.0745676804777494,0.1678004683844193,0.033151896811578,-0.0206607858997906,-0.0002417773544759,-0.1133324079550532,-1.664323194994861,1.5279744727598177,2.9916449013835367,-0.0045509398964972,-0.1625973163420924,-0.1618580984704262,1.5253554740352144,-0.0957401382693543,-0.4883938265144182,-1.4418788500827533,9.020598983213858,-1.379032596830865,0.1069961693977518,-1.2884885552084164
0.1,-1.6657110168822518,1.5318011139037466,2.987724838134441,0.088330906731527,0.1745531003256573,0.0345561306035,-0.0199134079415154,-0.0127499101515542,-0.1413348327350968,-1.6643672220608194,1.5259225264508574,2.9896077394320093,-0.006117330962214,-0.2025973169381389,-0.2018580990664726,1.5339065759066468,0.0373688979137613,-0.6254066398539146,-1.4001212390021804,9.083117069183572,-1.3692984079329522,0.0917233931908322,-1.2909565308937323
0.12,-1.6660627445435432,1.531419986923106,2.9847797706967154,0.1007745952941599,0.1805821060079877,0.0358681827816388,-0.0170581739923307,-0.0269832535352964,-0.1673086988895506,-1.6644895686800636,1.5218705801120946,2.98557057745068,-0.0076837220279307,-0.2425973175341853,-0.2418580996625191,1.4877685873427824,0.1427616974592354,-0.711667169187113,-1.2986933077226883,9.145787024931453,-1.3605377520085593,0.0765276087383622,-1.293172463861928
0.14,-1.6663579787003773,1.530703182180476,2.98114147308768,0.1132257111987269,0.1862006932223753,0.0371752138089776,-0.0125247037409373,-0.0442108713176338,-0.1952053440088834,-1.664611915299308,1.517818633773332,2.9815334154693502,-0.0092501130936475,-0.2825973181302318,-0.2818581002585656,1.6549667488265227,0.2266735125696671,-0.8613808891168708,-1.3948322559666408,9.199172605150125,-1.3527695147426215,0.0620774971753256,-1.2950260603246164
0.16,-1.6665460891947754,1.52961831585951,2.976943367547669,0.1250327415172335,0.190840259162608,0.0383541344055569,-0.0065111830422388,-0.0636644742142356,-0.2232361870459379,-1.664773421695195,1.512766687419668,2.97649625347312,-0.0108165041593642,-0.3225973187262782,-0.321858100854612,1.732291299277008,0.3006760349349273,-0.9726801448300856,-1.401542151852722,9.185949210457691,-1.3459077774574366,0.0490394320557135,-1.2948550058692598
0.18,-1.666602073618267,1.5281216556801305,2.9721856081038105,0.1362169408797029,0.1943806860579299,0.0393607351947372,0.0005797774522433,-0.0852673069597887,-0.2511594937116841,-1.6649740878677253,1.5067147410511028,2.970459091461988,-0.0123828952250809,-0.3625973193223246,-0.3618581014506584,1.8004687990326025,0.3545480247241089,-1.0801416372776576,-1.3961653332873136,9.20094021526802,-1.3393626252942874,0.0360306737507833,-1.2925042108724998
0.2,-1.6665164950559834,1.5262586106302172,2.967147486943868,0.1455875158470469,0.1967320198507952,0.0400824129701567,0.0080155052134409,-0.1094733392887306,-0.2777236275445048,-1.6665730847456548,1.523858290332141,2.959627633418226,-0.0041586590939333,-0.1852673084499048,-0.3511594952018003,1.834989955515036,0.3717863880598787,-1.210301616447094,-1.3282066916410318,9.224298436778554,-1.3345621667814385,0.0246216791967247,-1.2883270135592078
0.22,-1.66621383671442,1.5236400851170668,2.961420761620063,0.1496460332381003,0.1974637242488914,0.0401496275113156,0.0219702933733904,-0.1492768574757838,-0.2924988843499418,-1.6665730847456548,1.523858290332141,2.959627633418226,-0.0041586590939333,-0.1852673084499048,-0.3511594952018003,2.2345941389448982,0.6977394079974767,-1.9901759093526608,-0.7387628402718505,9.251887780982544,-1.3303617902664469,0.0201439059725459,-1.2794397749312447
0.24,-1.665625540055737,1.520293958533229,2.9554224343820343,0.1472491551645093,0.1955082797730315,0.0393285176915852,0.0359458741997406,-0.1825427468206175,-0.3065014955598556,-1.6665730847456548,1.523858290332141,2.959627633418226,-0.0041586590939333,-0.1852673084499048,-0.3511594952018003,1.9352063029768731,0.698779041317508,-1.6632944672416827,-0.7001305604956903,10.068546313027582,-1.3327812493304698,0.0228341282181066,-1.2701949273801478
0.26,-1.6648206376889956,1.5165533614150115,2.9494504438775717,0.1422085570678916,0.1911738284547804,0.0379828546958899,0.0476978499376195,-0.2089561172155481,-0.3212591407076631,-1.666614671336594,1.522005617247642,2.956116038466208,-0.0051063464031686,-0.205267308747928,-0.3711594954998235,1.622931883715473,0.5875987868939454,-1.320668519746533,-0.7378822573903765,10.068546313027582,-1.3393090761764468,0.0290475172825141,-1.2561052004893425
0.28,-1.663768129584059,1.512120024630332,2.94284701554054,0.1363089216817654,0.1847454537344885,0.036279952206585,0.0565608830371067,-0.2328333801233389,-0.3383350533509223,-1.6666978445184728,1.5183002710786435,2.949092848562172,-0.0070017210216393,-0.2452673093439745,-0.4111594960958699,1.5331860880944834,0.4431516549743629,-1.19386314538954,-0.853795632162957,9.912228316466098,-1.348065543927797,0.035788882697455,-1.2394938453635411
0.3,-1.6625762343132509,1.5072341115839578,2.9358820118298863,0.1307543831060287,0.1774741375650439,0.0345215569042319,0.0619420579151114,-0.2545682291579252,-0.3572411936194208,-1.6667810177003517,1.5145949249096458,2.942069658658136,-0.0088970956401099,-0.285267309940021,-0.4511594966919164,1.465266908685982,0.2690587439002356,-1.0867424517293154,-0.9453070134249286,9.756310836459306,-1.355994519608234,0.0415579943426075,-1.2228900256989967
0.32,-1.6613741766551404,1.5022044543503763,2.928900071449809,0.126074308863048,0.1705679826168373,0.0329272863026562,0.0641945618478115,-0.2738473723372349,-0.3767202965225209,-1.6669589596131538,1.5088895787108454,2.9330464687242976,-0.0107924702585806,-0.3252673105360674,-0.4911594972879628,1.3749496223541349,0.1126251966350022,-0.9639571589654812,-0.9739551451550033,9.500294984496575,-1.3634920178087409,0.0467630676249883,-1.2054643585807616
0.34,-1.6600875826235215,1.4965259471582049,2.9211409590591986,0.1218978534553465,0.1638856189696803,0.0314061530905201,0.0642193444297944,-0.2930507850575773,-0.3982036754347703,-1.6671369015259558,1.503184232512045,2.92402327879046,-0.0126878448770513,-0.3652673111321139,-0.5311594978840093,1.4407526190948454,0.0012391290991432,-0.9601706360171242,-1.0741689456124692,9.418895191457525,-1.369122841350179,0.0509274065096937,-1.189263300750287
0.36,-1.6588213644872942,1.4904615701613484,2.912943813704417,0.1181986964741201,0.1582187262060025,0.0300655365189512,0.0622923634262123,-0.3123376039155305,-0.4204322187356082,-1.66736222780422,1.4964788862983434,2.91400008884172,-0.014583219495522,-0.4052673117281603,-0.5711594984800556,1.4746209468240394,-0.0963490501791043,-0.9643409428976596,-1.111427165041895,9.418895191457525,-1.3733004003615117,0.0545326701373882,-1.174257979510977
0.38,-1.657614359769611,1.484015265565876,2.904294700020275,0.1146175152502933,0.1540271012847409,0.0289253365496194,0.058455017594749,-0.3311847834863254,-0.4433201747172189,-1.6676349384479456,1.4887735400697406,2.9029768988780797,-0.0164785941139926,-0.4452673123242067,-0.6111594990761021,1.4948243457177388,-0.1918672915731615,-0.9423589785397424,-1.1443977990805376,9.366031735435172,-1.3755681006121243,0.0578208000571758,-1.161711955437285
0.4,-1.656554797998345,1.4775482566346771,2.8956480992852107,0.1112434855753765,0.1519050771236167,0.028068733690027,0.0532644347512702,-0.3484760888677821,-0.4656692606123587,-1.6546916088898735,1.4674560263915597,2.882128691284414,0.0810109704864565,-0.4311847849764415,-0.5433201762073351,1.4365001152089647,-0.2595291421739421,-0.8645652690728367,-1.1174542947569892,9.317287857694282,-1.375485941050398,0.0612092658790423,-1.1512741441557397
0.42,-1.6555548166123986,1.4703850337853956,2.8863057975436,0.1082337367248611,0.1531531338803967,0.0275951094395614,0.0476641665467007,-0.3671786300416645,-0.4663090440366609,-1.6546916088898735,1.4674560263915597,2.882128691284414,0.0810109704864565,-0.4311847849764415,-0.5433201762073351,0.9766746811936524,-0.2800134102284738,-0.9351270586941184,-0.0319891712151076,9.26908884603472,-1.3707816861514204,0.0645419915827573,-1.1385448884426228
0.44,-1.6546303980000243,1.4628576217159337,2.8769454311938416,0.1061903444032464,0.1579409926206877,0.0275658186593044,0.0454515817950609,-0.3847538823118921,-0.4701468166306896,-1.6546916088898735,1.4674560263915597,2.882128691284414,0.0810109704864565,-0.4311847849764415,-0.5433201762073351,0.9062470994833688,-0.1106292375819901,-0.8787626135113802,-0.1918886297014366,10.66420907900556,-1.3629158166247346,0.0659023590415692,-1.1453349210427568
0.46,-1.653722422454896,1.4549808970411815,2.8674486258193617,0.1048530019968045,0.1644901082184102,0.027761842467268,0.0457961765451452,-0.402068945302056,-0.479341972976151,-1.653881499185009,1.4631441785417951,2.8766954895223407,0.0855221610647979,-0.4511847852744647,-0.5633201765053583,0.9804094197229648,0.0172297375042141,-0.8657531495081944,-0.4597578172730709,10.01590833948194,-1.3538663346012287,0.0666760641456706,-1.1526733633264263
0.48,-1.652833155483796,1.447182504613958,2.8582201590912577,0.1040263820806763,0.1714267488906645,0.0280440908655907,0.0480333562759787,-0.4179601642756647,-0.4916297399386067,-1.6522612797752798,1.4545204828422664,2.8658290859981936,0.0945445422214809,-0.4911847858705112,-0.6033201771014047,1.0106001070389443,0.1118589865416741,-0.7945609486804339,-0.6143883481227852,10.01590833948194,-1.3434587318338698,0.0671130167003419,-1.1601640721674498
0.5,-1.6518330938213015,1.4386547763106066,2.8482243652464243,0.103694179412489,0.1789420406052798,0.0283926704126707,0.0520696355912475,-0.4339857917078318,-0.5074489755819315,-1.6506410603655508,1.4458967871427375,2.854962682474047,0.1035669233781639,-0.5311847864665576,-0.6433201776974512,1.1438536856221289,0.201813965763441,-0.8012813716083589,-0.7909617821662357,9.821020573409442,-1.3327283105291603,0.0670320841359342,-1.16708931691523
0.52,-1.650735997925964,1.4298103902842432,2.8378871657705784,0.1040070367631647,0.1863724702248708,0.0287725358010837,0.0576280466611816,-0.4496771380485466,-0.5255859994778218,-1.6485697218979876,1.4352730914134066,2.842096278920098,0.1125893045348468,-0.5711847870626041,-0.6833201782934977,1.2309203055099929,0.2779205534967025,-0.7845673170357392,-0.9068511947945168,9.55712582562137,-1.3219686894666418,0.0662823753727867,-1.1734892875362126
0.54,-1.6495112509707366,1.4206532506901592,2.827175888020229,0.1049990804158004,0.1935480355990854,0.029172145138432,0.0647547941884933,-0.4653186120150366,-0.5446553725413766,-1.6464983834304243,1.4246493956840756,2.829229875366149,0.1216116856915298,-0.6111847876586506,-0.7233201788895441,1.2836347097202712,0.356337376365588,-0.782073698324498,-0.9534686531777414,9.55712582562137,-1.3119315791388413,0.0649303576133531,-1.1785540491260988
0.56,-1.648201465191966,1.411651839225187,2.816641055000533,0.1062229813026699,0.2000490845797626,0.0295394358626085,0.0729063742731324,-0.4813409816828929,-0.563330429406661,-1.644201485433944,1.4130256999398432,2.815363471797299,0.1306340668482128,-0.651184788254697,-0.7633201794855905,1.296073239222356,0.4075790042319518,-0.8011184833928181,-0.9337528432642184,9.527708449720194,-1.3019454601210572,0.0631785231482203,-1.183362719807617
0.58,-1.6466420215487017,1.4018398688509062,2.8051613578678984,0.1073005830041724,0.2065275584542693,0.0298726640329347,0.0827588338120252,-0.4989636114125849,-0.5836931981308053,-1.6416790279085467,1.4004020041807097,2.800497068213548,0.1396564480048958,-0.6911847888507434,-0.803320180081637,1.4337628706208128,0.4926229769446441,-0.8811314864845959,-1.0181384362072166,9.514331848917209,-1.292708232922787,0.0616423286074102,-1.1879475594260542
0.6,-1.6448725389063106,1.3916658402292967,2.793268302479276,0.1076989337961175,0.212626975256013,0.0301142863182971,0.0938356922839055,-0.517462006367992,-0.604612026130164,-1.6425040798581003,1.3768916882802769,2.775976697961358,0.1123928866995842,-0.598963612902701,-0.6836931996209215,1.502069218111341,0.5538429235940105,-0.9249197477703558,-1.0459413999679312,9.489494658087096,-1.2839799323471937,0.0608528941000532,-1.191605993284632
0.62,-1.6428122692035452,1.3810665678648673,2.781188631546227,0.1061668308326735,0.2182432613062186,0.0301583063596722,0.1120419057501611,-0.5413274987270695,-0.6010437365687303,-1.6425040798581003,1.3768916882802769,2.775976697961358,0.1123928866995842,-0.598963612902701,-0.6836931996209215,1.511423687053279,0.91031067331278,-1.193274617953877,0.1784144780716812,11.072384859697197,-1.2759681959711926,0.0624627871745363,-1.187128085378519
0.64,-1.6405013474840335,1.3705790178986643,2.769783364411755,0.1027297889393625,0.2228925476338732,0.0299701258305228,0.1303007704688065,-0.5609192487811081,-0.599783943346968,-1.6425040798581003,1.3768916882802769,2.775976697961358,0.1123928866995842,-0.598963612902701,-0.6836931996209215,1.3405315083534155,0.9129432359322716,-0.9795875027019284,0.0629896610881142,11.072384859697197,-1.269986283506118,0.0658471897549279,-1.1917258883769473
0.66,-1.6376890529728714,1.3591734002353542,2.757754447228295,0.0985897508676839,0.2267328112966926,0.0296077503829498,0.149924957925757,-0.5784393244072211,-0.6033835472624128,-1.6413801509911046,1.3709020521512498,2.7691397659651487,0.118319697277096,-0.6189636132007241,-0.7036931999189446,1.327609629784238,0.9812093728475232,-0.8760037813056509,-0.1799801957722391,10.743849965281695,-1.265392788705953,0.0698067499765608,-1.1952556379340915
0.68,-1.6344832818402828,1.3474387719014935,2.745602097334461,0.0945232469010893,0.2291302517100016,0.0290940781122603,0.1695399588715788,-0.594085800020448,-0.6116194180256985,-1.6391322932571128,1.358922779893196,2.7554659019727303,0.1301733184321195,-0.6589636137967706,-0.7436932005149911,1.3204071611149313,0.9807500472910902,-0.7823237806613426,-0.4117935381642845,10.438348479635351,-1.2626053207190562,0.0735005530732157,-1.196279101340307
0.7000000000000001,-1.6310782411451663,1.3360149513248964,2.7338714220802367,0.0909416078441796,0.2299733688678572,0.0284841858134931,0.187773217280941,-0.6076446591267426,-0.6227417164869841,-1.6368844355231211,1.346943507635142,2.741792037980312,0.1420269395871431,-0.6989636143928171,-0.7836932011110376,1.264910960847483,0.9116629204681106,-0.6779429553147309,-0.556114923064277,10.190522649582816,-1.2613780851655616,0.0770580927820066,-1.194772525059677
0.72,-1.627127038643634,1.3237238729779204,2.7212669560014984,0.08761111338405,0.2293547285029482,0.0277369744251201,0.2062960614963191,-0.6207676773724148,-0.6372294094516179,-1.6340438967313784,1.3329642353472857,2.7261181739580915,0.1538805607421667,-0.7389636149888635,-0.823693201707084,1.3464793102206527,0.9261422107689083,-0.6561509122836096,-0.7243846482316907,9.992573391001317,-1.261590630051847,0.0799321383636189,-1.1911671303476086
0.74,-1.6230329295316428,1.3118118552397768,2.7090082917211284,0.0849265738425841,0.2272021243590638,0.0269296192669254,0.2236285943547049,-0.6325514896261115,-0.6523917972208516,-1.6312033579396354,1.3189849630594292,2.7104443099358706,0.1657341818971903,-0.77896361558491,-0.8636932023031305,1.2934188507420992,0.8666266429192895,-0.5891906126848367,-0.7581193884616866,9.822703138085672,-1.2634929311475829,0.0823768576817652,-1.1845718666249208
0.76,-1.6183720847274523,1.2990286925241346,2.695782521705189,0.0823275420710548,0.2230629949199991,0.0259479002065823,0.2413822254250268,-0.6450658383606948,-0.6693873606206397,-1.628066478619017,1.3040056907566715,2.693770445898749,0.1775878030522139,-0.8189636161809564,-0.9036932028991768,1.3789937596922637,0.8876815535160939,-0.6257174367291618,-0.8497781699894069,9.745589618355552,-1.2672721534097915,0.0844792788597942,-1.1754522026138536
0.78,-1.613373804549764,1.2859968223818403,2.68220708972181,0.0796684853698008,0.2170436512956648,0.0248252891568797,0.2571580909384557,-0.6573525717369856,-0.6872063953190647,-1.624633258769523,1.288026418439013,2.6760965818467257,0.1894414242072374,-0.8589636167770028,-0.9436932034952232,1.3391786170462148,0.7887932756714428,-0.6143366688145413,-0.890951734921247,9.675888647970169,-1.2735770209669508,0.0866072690777553,-1.1641980910237182
0.8,-1.608088755636183,1.27272416835685,2.6682667800307613,0.0768787072903948,0.2098337953880361,0.023624480989694,0.2702445003965914,-0.6691461020697861,-0.7058497295628411,-1.600515900002841,1.253129193794991,2.6478467699558568,0.2911230080021688,-0.7573525732271017,-0.7872063968091808,1.282493062302712,0.6543204729067859,-0.5896765166400253,-0.93216671218882,9.610063379306666,-1.2805111698702798,0.0886998118853782,-1.1520900329380632
0.8200000000000001,-1.6028391204479682,1.2598797065263834,2.654939142430947,0.0740519282884946,0.2038504803092988,0.0225655450720271,0.2817257248284414,-0.6822494329326197,-0.6946040110308974,-1.600515900002841,1.253129193794991,2.6478467699558568,0.2911230080021688,-0.7573525732271017,-0.7872063968091808,1.036800341742686,0.5740612215925006,-0.6551665431416831,0.5622859265971836,9.534430743140549,-1.2901574324209022,0.0917124566431953,-1.130041917419593
0.84,-1.5971035886608012,1.2461117130246158,2.6411445411679675,0.0713332970422855,0.2007132801466556,0.0217292115925996,0.2911408534800629,-0.6938893233896423,-0.6859823883288582,-1.600515900002841,1.253129193794991,2.6478467699558568,0.2911230080021688,-0.7573525732271017,-0.7872063968091808,0.8638056427727061,0.4707564325810764,-0.5819945228511259,0.4310811351019628,11.488740779648651,-1.294521167206402,0.0938141605272419,-1.1275985041714296
0.86,-1.5911872533551124,1.2321207965522158,2.6274392918357004,0.0691515033916631,0.2004413282958016,0.0211510192164046,0.3003270441364045,-0.7046730008959908,-0.6849678059091473,-1.5976046699228197,1.24555566806272,2.639974705987765,0.2979159914149114,-0.7773525735251249,-0.807206397107204,0.7101112180883563,0.4593095328170787,-0.5391838753174283,0.0507291209855431,10.996836571022868,-1.294295099280485,0.0952678319153912,-1.1284594449128489
0.88,-1.5853882139913658,1.2186369912688086,2.614383726543461,0.0674725549804285,0.2016900415986941,0.02074190886129,0.3097831663929509,-0.7141915848614583,-0.6893530883955403,-1.591782209762776,1.230408616598178,2.6242305780515816,0.3115019582403966,-0.8173525741211713,-0.8472063977032505,0.7057839459138182,0.4728061128273203,-0.4759291982733726,-0.2192641243196513,10.558889949239529,-1.292014338730031,0.0964422768267726,-1.130219218016237
0.9,-1.5790826412431085,1.204256953616532,2.6005079083841376,0.0661872588178251,0.203727734109484,0.0203998438400189,0.3203576629728267,-0.7233197289643524,-0.6981885701197984,-1.585959749602733,1.215261565133636,2.608486450115398,0.3250879250658818,-0.8573525747172178,-0.8872063982992969,0.8264513445761681,0.5287248289937874,-0.4564072051447043,-0.4417740862129038,10.240563032015416,-1.2886914765539177,0.0971505456299747,-1.1321174494633923
0.92,-1.5725595192276194,1.1897023857352758,2.58641781454291,0.0656006527790977,0.2059279046393961,0.0201230984888113,0.3314704075812327,-0.7317151017118784,-0.7105158387919062,-1.579457991101415,1.1981145136392917,2.590742322149412,0.3386738918913671,-0.8973525753132643,-0.9272063988953434,0.929968990364584,0.5556372304203028,-0.4197686373762999,-0.616363433605388,9.998392123417034,-1.2849700380147853,0.0971605901568589,-1.1336363511276832
0.94,-1.5658070347637782,1.174985871260358,2.5720620568125434,0.06593149807641,0.2078818221006438,0.0199003524095235,0.3432313709587832,-0.7396338102897959,-0.7244329468542225,-1.5729562326000974,1.1809674621449473,2.572998194183426,0.3522598587168523,-0.9373525759093108,-0.96720639949139,0.993368136604276,0.5880481688775252,-0.3959354288958772,-0.6958554031158193,9.745204678069058,-1.2815935935698697,0.0963175975436395,-1.1341442047576535
0.96,-1.559166996111892,1.160849820971515,2.55815665334008,0.066914228054106,0.2092229156305323,0.0197068322338854,0.355083890446393,-0.7479676011281811,-0.7385850946619139,-1.5661148249281425,1.162820410635702,2.554254066202539,0.3658458255423375,-0.9773525765053572,-1.0072064000874363,1.0126914331533374,0.5926259743804868,-0.4166895419192573,-0.7076073903845681,9.745204678069058,-1.278504911255368,0.0946884587425621,-1.134008268952574
0.98,-1.5519317257630625,1.1457924841863167,2.5432185027236733,0.0682981342878162,0.209893486375797,0.0194822662952031,0.3677623375807216,-0.7573382249666976,-0.7545193876569595,-1.5589337680855506,1.143673359111555,2.534509938206751,0.3794317923678227,-1.0173525771014036,-1.0472064006834827,1.1207735120363278,0.633922356716432,-0.468531191925825,-0.7967146497522781,9.699664057385236,-1.2760731244408066,0.0926651392954477,-1.1331172649295884
1.0,-1.5444416311302709,1.1305390284095889,2.52795149681178,0.0697172080806415,0.2096958630126611,0.0192034604977045,0.3805591943638527,-0.7675268943831577,-0.7714046933532077,-1.5335436088840262,1.1079255729379818,2.5054925333408256,0.4086512766335418,-0.8573382264568137,-0.8545193891470756,1.1754595659375435,0.6398428391565542,-0.5094334708230064,-0.8442652848124121,9.642949688580302,-1.2744132416431295,0.0905949569339411,-1.1308930470489602
1.02,-1.5366574703589275,1.115017201875912,2.512656284682665,0.069702375116425,0.2094623955411187,0.0188247343476359,0.3975523985213394,-0.7839381830059009,-0.7556180253026196,-1.5335436088840262,1.1079255729379818,2.5054925333408256,0.4086512766335418,-0.8573382264568137,-0.8545193891470756,1.420667334333117,0.8496602078743365,-0.8205644311371607,0.7893334025294074,9.594190553568296,-1.2720600157265478,0.0903190782210477,-1.1162272748330933
1.04,-1.5289438888010414,1.0999811954793364,2.4984178595166413,0.0677220973271943,0.2098848176974267,0.0183786344371389,0.4135718118110939,-0.7978090244397972,-0.7441318945005618,-1.5335436088840262,1.1079255729379818,2.5054925333408256,0.4086512766335418,-0.8573382264568137,-0.8545193891470756,1.2051483778297132,0.800970664487724,-0.6935420716948137,0.5743065401028868,11.744606365286929,-1.2731306032206582,0.0918573722010395,-1.120262696504342
1.06,-1.5204993195474878,1.083891419644904,2.4835963904233758,0.0643604370375116,0.2104002563394599,0.0178336611837878,0.4299858763333227,-0.8099990686549654,-0.7388946743847378,-1.5294570961176908,1.0993521906734136,2.496947339449355,0.4168290644441059,-0.8773382267548369,-0.8745193894450988,1.055280965725763,0.8207032261114411,-0.6095022107584114,0.2618610057912029,11.247424438070084,-1.2733839110429706,0.0947587925869007,-1.123048488548911
1.08,-1.511733399447457,1.0675882690048004,2.468814007171884,0.0607460721205902,0.2105035678307029,0.0172563594153621,0.4456898530656269,-0.8196109737191015,-0.7398333154151772,-1.52128407058502,1.0822054261442775,2.479856951666413,0.4331846400652339,-0.9173382273508832,-0.9145193900411452,0.9217980407263032,0.7851988366152085,-0.4805952532068058,-0.0469320515219695,10.807342106873875,-1.2736787911288394,0.0979466332651781,-1.1241019138812252
1.1,-1.502662596220291,1.0511111563598634,2.453953586892955,0.0574257423493524,0.2099069664068896,0.0166717305595772,0.4605221138786083,-0.8276532456950422,-0.7461159018139776,-1.513111045052349,1.0650586616151412,2.462766563883472,0.449540215686362,-0.9573382279469298,-0.9545193906371916,0.9002013541670792,0.7416130406490723,-0.4021135987970325,-0.3141293199400208,10.44569564124049,-1.274148209315512,0.100703300213607,-1.1231396272964471
1.12,-1.4937784886624983,1.0353197572572406,2.4396808478924226,0.0547299795337131,0.2085368853454758,0.016118018358946,0.473841579794959,-0.8342836520335717,-0.7559386173867788,-1.5041202407386218,1.045911897056203,2.443676176070728,0.4658957913074901,-0.9973382285429764,-0.9945193912332382,0.8914261070540171,0.6659732958175346,-0.3315203169264757,-0.4911357786400616,9.925524874060102,-1.2750878606448477,0.1031112610584642,-1.1201575313253678
1.14,-1.4841603389932274,1.018569169259862,2.4244345559603016,0.0524799264130883,0.2061204576690695,0.0155410607994493,0.4871813977019364,-0.8405193886508229,-0.7682407835464945,-1.4951294364248946,1.026765132497264,2.424585788257984,0.4822513669286182,-1.0373382291390227,-1.0345193918292848,0.9593988289187856,0.6669908953488679,-0.3117868308625593,-0.6151083079857844,9.925524874060102,-1.27682248588978,0.1048979630019321,-1.1151936554253885
1.16,-1.4742795173334045,1.0016896375700135,2.4089231872760326,0.0505689859397974,0.202488118109941,0.0149434112920829,0.5001092022339517,-0.847071343498082,-0.782235526609704,-1.485729742720639,1.0066183679234242,2.404495400430339,0.4986069425497463,-1.077338229735069,-1.0745193924253311,1.0073592652869277,0.6463902266007654,-0.3275977423629561,-0.6997371531604735,9.808963508714442,-1.2792190331704305,0.1062314547200901,-1.1093535863752992
1.18,-1.4646610777230515,0.9855338628738743,2.39391391319519,0.0487830699372932,0.1976775573115638,0.014329101243557,0.5114521519132739,-0.8531322825786942,-0.7969314972380422,-1.4759211596258557,0.9854716033346832,2.383405012587793,0.5149625181708744,-1.1173382303311157,-1.1145193930213777,0.9764336161197904,0.5671474839661073,-0.3030469540306113,-0.7347985314169136,9.717061388169896,-1.2834952849323067,0.107613657103955,-1.1009110144781835
1.2,-1.4543276116031776,0.9684080359440196,2.377798233252936,0.0468998387598826,0.1914795525856992,0.0136514196731962,0.5210067628045228,-0.8590677952073535,-0.8138943252200299,-1.4390884701273878,0.9428772487449396,2.354067338333288,0.5575241916664725,-0.9531322840688105,-0.8969314987281584,1.0176669796581934,0.4777305445624491,-0.2967756314329661,-0.8481413990993836,9.624251783470754,-1.289014649249665,0.108998090112443,-1.090784064253867
1.22,-1.443805267129494,0.9511352137873256,2.36167831098719,0.0444983001892981,0.1860829050228954,0.0130023820930868,0.5307715159400459,-0.8676290574636132,-0.795452093970991,-1.4390884701273878,0.9428772487449396,2.354067338333288,0.5575241916664725,-0.9531322840688105,-0.8969314987281584,1.1277871127358092,0.4882376567761526,-0.4280631128129819,0.9221115624519438,9.516169994983102,-1.2942441327855372,0.1110670067649989,-1.0695800820233134
1.24,-1.4331165803503934,0.9337196021702792,2.3459174297010974,0.0419356712286757,0.183626341647069,0.0125007697810184,0.5376819625498407,-0.873551188147304,-0.7817669128718361,-1.4390884701273878,0.9428772487449396,2.354067338333288,0.5575241916664725,-0.9531322840688105,-0.8969314987281584,0.8217513095490095,0.3455223304897392,-0.2961065341845426,0.6842590549577476,11.223899782914486,-1.299190535461758,0.1132188978144476,-1.0703572457573505
1.26,-1.4228394023559094,0.9170781830614276,2.331118953162509,0.0399441402511296,0.1836828905467455,0.0121741341819131,0.5440197915672056,-0.8779913719688254,-0.7766550681990793,-1.433513228210723,0.9333459259042516,2.3450980233460066,0.5667385996171123,-0.9731322843668336,-0.9169314990261817,0.4637193789907986,0.3168914508682452,-0.2220091910760668,0.2555922336378413,11.223899782914486,-1.300032250559251,0.1149985718248735,-1.0735202943019664
1.28,-1.411885338811554,0.8994797065061642,2.315583281972922,0.0384954779935781,0.1852050862559025,0.0119477055882129,0.5511718821722731,-0.8816832981920899,-0.7774610395954423,-1.4223627443773936,0.9142832802228754,2.3271593933714434,0.5851674155183917,-1.01313228496288,-0.956931499622228,0.4044511996300619,0.3576045302533748,-0.1845963111632265,-0.0402985698181534,10.348561023227376,-1.2986082788033348,0.1161460779667365,-1.077298768302645
1.3,-1.400782715818179,0.881816264757038,2.2999763511936235,0.0379586238388417,0.1874681787436207,0.0118254365773333,0.5588203714235023,-0.8845462807439053,-0.7833960980694601,-1.4112122605440642,0.8952206345414992,2.30922076339688,0.6035962314196711,-1.0531322855589265,-0.9969315002182744,0.504779595487421,0.3824244625614592,-0.1431491275907692,-0.2967529237008881,10.348561023227376,-1.2957933454226362,0.1164037651490586,-1.0811162187836274
1.32,-1.389522169003499,0.8641028382474507,2.2842084394887827,0.0386318755752063,0.189947604741386,0.0118078464571152,0.5669107386343312,-0.8867665739022139,-0.7932543723963111,-1.3991403359156709,0.8741579888303207,2.289282133392515,0.6220250473209505,-1.0931322861549728,-1.036931500814321,0.647242836998483,0.4045183605414448,-0.1110146579154314,-0.4929137163425523,9.86606079563444,-1.2925222466868729,0.1155530134286888,-1.0843777185827823
1.34,-1.3786685178474123,0.8472378145149393,2.269028225620061,0.0406978739576139,0.1921874371531503,0.0118980214228957,0.5752087264807559,-0.8886026941908975,-0.8041624251175866,-1.3870684112872775,0.8530953431191421,2.269343503388149,0.6404538632222301,-1.1331322867510194,-1.0769315014103673,0.6913999460949761,0.4148993923212385,-0.0918060144341814,-0.5454026360637743,9.86606079563444,-1.2894026178201063,0.1132232216281321,-1.0868824682889815
1.36,-1.3670652411301585,0.829426650788481,2.2528145831377917,0.043992942030449,0.1941533345156887,0.0120671747432081,0.5846940862140939,-0.8927464280092956,-0.8166802867873053,-1.374535766261352,0.8310326973930625,2.248404873368883,0.6588826791235095,-1.1731322873470658,-1.1169315020064137,0.8121567582843497,0.4742679866668986,-0.2071866909199027,-0.6258930834859344,9.74886518641597,-1.286567386690596,0.1097435688741169,-1.0889492753094567
1.38,-1.3552652310739433,0.8115087060830573,2.236340513000157,0.0473186973602774,0.195442511581541,0.012218235983686,0.5947673772576048,-0.8988401053471209,-0.8300886535497641,-1.361542400837895,0.8079700516520817,2.226466243334715,0.6773114950247889,-1.213132287943112,-1.15693150260246,0.892172061854399,0.5036645521755423,-0.3046838668912643,-0.6704183381229412,9.74886518641597,-1.2843930432848978,0.1063963546259485,-1.089757557073926
1.4,-1.3438662941304271,0.7943630727127279,2.220433258157529,0.0500792925711442,0.195907167112682,0.0123035489512372,0.6045294415414029,-0.9055811920100646,-0.8436707135157774,-1.325526862211063,0.7665667008157012,2.1948360803226685,0.6486130473318292,-0.993238238803828,-0.9300886550398804,0.9016824571304248,0.4881032141899055,-0.3370543331471853,-0.6791029983006625,9.71173972946508,-1.2829271677195426,0.1032800327033397,-1.0892689842881498
1.42,-1.3316212399352063,0.7760855172912583,2.2037430353380896,0.0502448468548044,0.1962967723214928,0.0122019346891292,0.6198317148064083,-0.9212083363274154,-0.8228490200046908,-1.325526862211063,0.7665667008157012,2.1948360803226685,0.6486130473318292,-0.993238238803828,-0.9300886550398804,1.5098924856275633,0.765113663250272,-0.7813572158675397,1.0410846755543268,9.666827364603703,-1.276276189967083,0.102769532707807,-1.0741444823521191
1.44,-1.3190646570722204,0.7575259153994621,2.187473508020413,0.0466844079637191,0.1971125465372823,0.0118705574048069,0.6350028514885576,-0.9332796195286336,-0.8056989556046746,-1.325526862211063,0.7665667008157012,2.1948360803226685,0.6486130473318292,-0.993238238803828,-0.9300886550398804,1.2942217500076785,0.7585568341074655,-0.6035641600609154,0.8575032200008104,11.455812102006348,-1.279126745165745,0.1062282121460049,-1.0802170782531435
1.46,-1.306213164761039,0.7387783914649131,2.171451190507126,0.0416396956952841,0.1978121599127344,0.0114429585734374,0.6493527536352638,-0.940551127343112,-0.7973334367388488,-1.3190407317377446,0.7566343184276629,2.1855351937722696,0.6593821813466741,-1.0121178654951692,-0.9500886553379034,0.9066096505808724,0.7174951073353086,-0.3635753907239136,0.4182759432912908,11.455812102006348,-1.2811691077684113,0.1109035258486118,-1.084905566139008
1.48,-1.2937475959687148,0.7208645515226939,2.15631754201865,0.0368840178853654,0.1980228103891873,0.0110352368114714,0.6620282994462356,-0.944741861684718,-0.7960719596800975,-1.306068470791108,0.7367695536515864,2.166933420671472,0.6809204493763639,-1.0498771188778522,-0.99008865593395,0.670490567229918,0.6337772905485928,-0.2095367170803053,0.0630738529375674,10.933900413841002,-1.2829774901788733,0.115820427523564,-1.087144800852805
1.5,-1.280377849498272,0.7019413618253703,2.140357669308636,0.0324736801566732,0.1976792127375769,0.0106453910433857,0.6741667648525566,-0.9473964829410932,-0.8002141166006579,-1.2930962098444716,0.7169047888755098,2.148331647570674,0.7024587174060537,-1.087636372260535,-1.0300886565299965,0.6548794171253862,0.6069232703160454,-0.1327310628187528,-0.2071078460280206,10.518950747905365,-1.2845511974525103,0.1201275001421414,-1.0871708391279806
1.52,-1.2667772823925854,0.6829776092485456,2.124263952043019,0.0288698846048361,0.1967741495401273,0.0103143978427015,0.685203265642771,-0.9489358280841098,-0.8091278418697925,-1.2790470354963506,0.6951520614302991,2.1277298744400746,0.7239969854357435,-1.1253956256432176,-1.0700886571260426,0.7134921711822454,0.5518250395107227,-0.0769672571508339,-0.4456862634567293,9.925843693921706,-1.2861766988661527,0.1236281499466667,-1.0856913614102048
1.54,-1.2536593555343984,0.6649422275477777,2.1087823425151417,0.0262653236996496,0.1953555306768538,0.0100605315524593,0.6950267935245869,-0.9496413682915282,-0.8200377028949508,-1.2649978611482295,0.6733993339850884,2.1071281013094745,0.7455352534654333,-1.1631548790259003,-1.1100886577220892,0.7348886899003247,0.491176394090792,-0.035277010370921,-0.545493051257917,9.925843693921706,-1.2877884392053536,0.1261249495064581,-1.082691584359227
1.56,-1.2396532393006594,0.6459397795414219,2.0922440744013038,0.024106821151844,0.1931533063281626,0.0098355543591328,0.7049990204261787,-0.9505861912480976,-0.8332774266363809,-1.250410230099366,0.6507026252053106,2.085526328163973,0.7670735214951231,-1.2009141324085832,-1.1500886583181356,0.8301028318007964,0.4986113450795915,-0.047241147828464,-0.661986187071506,9.798799973535097,-1.2898597664703522,0.1281670423555528,-1.0784848487990413
1.58,-1.2254522676879478,0.6269195215333077,2.075422984338803,0.0222622808418279,0.1899776999108262,0.0096299385045023,0.714505629659176,-0.9513846565855784,-0.848218215132277,-1.2352841423497605,0.6270619350909659,2.0629245550035717,0.7886117895248128,-1.238673385791266,-1.190088658914182,0.8863412532472587,0.4753304616498643,-0.0399232668740423,-0.7470394247948042,9.694775937951816,-1.292591916979471,0.1298170561671711,-1.0733312949346032
1.6,-1.211068773675542,0.607886371443688,2.0582833400880167,0.0206311926360264,0.1855900681045912,0.0094340919784979,0.7232273467772962,-0.9518907697261734,-0.8649567287646099,-1.189726986204989,0.5793502887040287,2.033012073582189,0.775225000501156,-0.9901680801881594,-0.8747972021495509,0.944063475910636,0.4360858559060099,-0.0253056570297505,-0.8369256816166459,9.596226887389092,-1.2965112012930546,0.1313479421648321,-1.06653670834755
1.62,-1.197150563726357,0.5896066347775271,2.042214665411765,0.0133763953799412,0.180246234719667,0.0088629717377152,0.7410271577205203,-0.9680706639758137,-0.82549814231803,-1.189726986204989,0.5793502887040287,2.033012073582189,0.775225000501156,-0.9901680801881594,-0.8747972021495509,2.310628860238206,0.8899905471612068,-0.8089947124820085,1.9729293223289976,9.49443839563537,-1.291046380833928,0.1372849627973026,-1.0368382719346352
1.64,-1.18216085835732,0.570201846263423,2.026095867488703,0.0004357648721331,0.1736629372906117,0.0079846696083253,0.7565605993276293,-0.9705356721456948,-0.789018087940282,-1.189726986204989,0.5793502887040287,2.033012073582189,0.775225000501156,-0.9901680801881594,-0.8747972021495509,1.986302117530521,0.7766720803554505,-0.1232504084940688,1.8240027188873964,13.341295885630643,-1.3051548800076298,0.1501744302694097,-1.0366168933501207
1.66,-1.166908149236331,0.5508398762175762,2.010587672317384,-0.0132365499422711,0.1663893677574504,0.0071995465745959,0.767613672166802,-0.9651840739389328,-0.7635504353222957,-1.1819747361999775,0.5694486079021471,2.0242641015606937,0.787368874669552,-0.9979247649086757,-0.8801129995530057,1.413693170763286,0.5526536419586336,0.2675799103381004,1.2733826308993168,12.616446634710885,-1.319386513816586,0.1638410883534183,-1.0335859224533788
1.68,-1.1514790226826537,0.5316404346882674,1.995493923025568,-0.0258367172121763,0.1588614899788353,0.0066423729704164,0.7744924857382427,-0.9550577670290576,-0.7470528079114926,-1.1664702361899544,0.549645246298384,2.0067681575177025,0.8116566230063439,-1.013438134349708,-0.8907445943599153,1.027170723357743,0.3439406785720356,0.5063153454937686,0.8248813705401536,11.31482667921955,-1.3313242951445463,0.1758048927570454,-1.0279590368942884
1.7,-1.1367299229859775,0.513621117469742,1.9813910938105936,-0.0361818171071336,0.151901493206127,0.0063482439435068,0.7775476335474106,-0.9424459880126996,-0.7382424933191376,-1.1509657361799313,0.5298418846946208,1.9892722134747116,0.8359443713431359,-1.0289515037907404,-0.9013761891668248,0.784239346930472,0.1527573904583967,0.6305889508178952,0.440515729617752,11.31482667921955,-1.3423885811429404,0.1867189854811498,-1.020507342059424
1.72,-1.1211735969650465,0.4949335971798658,1.966673887998401,-0.0451832635673553,0.1451868809793381,0.0062597413447442,0.7777449371678054,-0.9271599019671376,-0.7341503503353742,-1.1342468487530686,0.5092628546188059,1.971244689691375,0.860232119679928,-1.0444648732317727,-0.9120077839737344,0.791279011333093,0.0098651810197358,0.7643043022781015,0.2046071491881684,10.564502073717447,-1.3518951767867968,0.1957460428402888,-1.0128132477651417
1.74,-1.1056405693153974,0.4765727872088283,1.952010069943359,-0.0521218757538329,0.1395117697555584,0.006356718901814,0.775444442172018,-0.9101331666781004,-0.7323845733265701,-1.1175279613262057,0.4886838245429911,1.9532171659080384,0.8845198680167199,-1.0599782426728053,-0.922639378780644,0.8635970707937413,-0.1150247497893663,0.8513367644518655,0.0882888504402046,10.564502073717447,-1.3594035475002335,0.2024828623967939,-1.0060236588620284
1.76,-1.0909450557713036,0.4594523749329265,1.9381008912366369,-0.0570051638521671,0.1354564028594019,0.006557320365521,0.7714923597946143,-0.8932255030073001,-0.7318030913887247,-1.1002018801909232,0.4677169602311505,1.934923852254529,0.908807616353512,-1.0754916121138376,-0.9332709735875536,0.8686572499650294,-0.1976041188701871,0.8453831835400105,0.0290740968922731,10.4584138416094,-1.3656508266087477,0.2079607175450396,-1.000999284348752
1.78,-1.0755733605246751,0.4417814945560199,1.923463407532138,-0.0606319107505049,0.1329732119220155,0.0068141707958733,0.7658031370310027,-0.8750046630477899,-0.7319970794359455,-1.0822686053472208,0.4463622616832841,1.916364748730847,0.933095364690304,-1.09100498155487,-0.9439025683944632,0.954468302049031,-0.2844611381805806,0.9110419979755092,-0.0096994023610408,10.396433940018142,-1.369858805782639,0.2120308005490126,-0.9985837942836
1.8,-1.060321711625895,0.4244798613304049,1.90881420383114,-0.0628551530281796,0.132542038196307,0.0070730551410407,0.7598831281558592,-0.8563438743862248,-0.7329380932382729,-1.037283203673125,0.3980312614036304,1.8868635535603409,0.8172975454298693,-0.874981302310758,-0.6912205621937523,0.9799962315355388,-0.2960004437571717,0.9330394330782532,-0.047050690116368,10.352503158072976,-1.3714146083974237,0.2148831611908631,-0.999792144723767
1.82,-1.0450780011242315,0.4074752538176244,1.8945252183883925,-0.0670980827312217,0.1321702525749788,0.0072116517552909,0.7644910727614947,-0.8430696229369687,-0.6960420463927571,-1.037283203673125,0.3980312614036304,1.8868635535603409,0.8172975454298693,-0.874981302310758,-0.6912205621937523,1.9740549497501163,0.2303972302817758,0.6637125724628046,1.8448023422757864,10.308150168200882,-1.3647629537525003,0.2180577438378611,-0.9930493863235484
1.84,-1.0305171900534855,0.3916481425482804,1.8816277425951116,-0.0726447473694236,0.1305252019696851,0.0073554194011658,0.7678361629430533,-0.8235416491930698,-0.6635463477696563,-1.037283203673125,0.3980312614036304,1.8868635535603409,0.8172975454298693,-0.874981302310758,-0.6912205621937523,1.9029594161913728,0.1672545090779298,0.976398687194946,1.6247849311550433,12.783751782306354,-1.3725706249319196,0.2252916097976497,-0.9993379299254842
1.86,-1.0151389924059655,0.3754277564299264,1.868674853807986,-0.0777251085203454,0.1277363336962731,0.0076771530272182,0.7696392086717716,-0.7997178551582621,-0.633625025571027,-1.0291102282188265,0.3892814483805228,1.8799513479384031,0.8275964271096427,-0.8749766301633516,-0.6830652587453137,1.9144905707700524,0.0901522864359127,1.191189701740386,1.4960661099314654,12.483235382233032,-1.3812866863329103,0.2319226033385868,-1.0036732758224078
1.88,-0.999744878665153,0.3597027297338143,1.856278177440324,-0.0811989552365896,0.1241606027816912,0.0082127566642322,0.7695091551987331,-0.7743435887323705,-0.6076627565860276,-1.012764277310229,0.3717818223343076,1.866126936694528,0.8481941904691893,-0.8749672858685389,-0.6667546518484363,1.815151316975692,-0.0065026736519258,1.268713321294579,1.2981134492499655,12.206038060653556,-1.390070753994312,0.2370348797289249,-1.005966823151863
1.9,-0.984376018602258,0.344496300453073,1.8443651267558403,-0.082683600491131,0.1201843055730756,0.0089518767626777,0.767241306201706,-0.7480878961203665,-0.5848830403973987,-0.9964183264016316,0.3542821962880925,1.852302525450653,0.868791953828736,-0.8749579415737261,-0.650444044951559,1.7417089332347138,-0.1133924498513516,1.3127846306002,1.1389858094314476,11.963002212430183,-1.3982380328653878,0.2401094834222492,-1.0066933184064035
1.92,-0.9698387609431852,0.3305441172505221,1.8334489791344897,-0.0819118220146901,0.1164972747756768,0.0098163750426702,0.7629964206315846,-0.722304602463723,-0.5652859431278292,-0.9790424873250568,0.336783037456618,1.839293644551622,0.8893897171882826,-0.8749485972789133,-0.6341334380546818,1.6331285211834288,-0.212244278506074,1.289164682832178,0.9798548634784744,11.782258979797009,-1.406806171315385,0.2413287962800445,-1.0079685588527867
1.94,-0.9546433645931232,0.3163868932068742,1.822361843723584,-0.0783399951004522,0.113290260070293,0.0108665903581673,0.7566307043169124,-0.6954881727192808,-0.5443826823469856,-0.961666648248482,0.3192838786251434,1.8262847636525907,0.9099874805478292,-0.8749392529841006,-0.6178228311578045,1.7295877830493618,-0.3182858157336099,1.3408214872221105,1.0451630390421796,11.659055487501064,-1.4144244344009689,0.2399472838244077,-1.010600793230354
1.96,-0.9395909097868642,0.3027319253890408,1.8116993129341277,-0.0727369462826858,0.1113287392670866,0.0119526871644041,0.7488900791198421,-0.6719310686784262,-0.5228669313413721,-0.9437758650879188,0.3017849534010392,1.8136836479259812,0.930585243907376,-0.8749299086892878,-0.6015122242609272,1.6414794931469026,-0.3870312598535153,1.1778552020427269,1.0757875502806769,11.689234199086968,-1.4201342613531749,0.2366517802255804,-1.0155556746783128
1.98,-0.9246961132963456,0.2895196525183817,1.8014736542481755,-0.0662003260440485,0.1107777680414909,0.0129930116781215,0.7411341255200612,-0.6509580698530197,-0.50076254452021,-0.9253701378433666,0.2842862617843054,1.801490297371794,0.9511830072669226,-0.8749205643944751,-0.5852016173640499,1.5721207115803966,-0.3877976799890437,1.0486499412703243,1.1052193410581057,11.716386212035104,-1.4235513443734156,0.2326279886415532,-1.022567964746199
2.0,-0.9106840069462804,0.2773345888106588,1.7921732762614335,-0.059651566863376,0.1112241507978945,0.0139377816850945,0.7343183758061481,-0.633053882421115,-0.4793292310114384,-0.8876394070203426,0.2569717490257307,1.776435527022165,0.7765912895692098,-0.6332048003296376,-0.4672034680321919,1.4373598190125956,-0.3407874856956538,0.8952093715952347,1.0716656754385767,11.74260738189787,-1.4255948918689447,0.2279142960398651,-1.0313041780078709
2.02,-0.8960239479943717,0.2647393888464545,1.782821912014798,-0.0564115572547641,0.111037596603069,0.0147154136038955,0.7320224016010001,-0.625968526639355,-0.4570766741042207,-0.8876394070203426,0.2569717490257307,1.776435527022165,0.7765912895692098,-0.6332048003296376,-0.4672034680321919,1.1732966941632763,-0.1147987102574021,0.354267789088003,1.1126278453608862,11.768643355071616,-1.426090498015164,0.2264716976508554,-1.039756258360511
2.04,-0.8814172772716974,0.2523428126997655,1.7739048146638556,-0.0576797800316624,0.1088727830233276,0.015298695084875,0.7285586853733624,-0.6136439671830073,-0.4357593719059236,-0.8876394070203426,0.2569717490257307,1.776435527022165,0.7765912895692098,-0.6332048003296376,-0.4672034680321919,1.2433015210641498,-0.1731858113818818,0.6162279728173847,1.0658651099148542,11.676457776618918,-1.4303373736286435,0.2288586000775732,-1.0406644373643006
2.06,-0.867623523670761,0.2408290175256609,1.765815591857805,-0.0606580077110007,0.1056202549800374,0.0158164319616459,0.7234357759064054,-0.5986059194682476,-0.4168193540874701,-0.8798734941246505,0.2506397010224343,1.771763492341843,0.7836827223790395,-0.6296541464249611,-0.4604916527345883,1.2360333282737197,-0.2561454733478518,0.7519023857379847,0.9470008909226753,11.676457776618918,-1.4363156712366416,0.2331959715437391,-1.0393919062568469
2.08,-0.8532321114280567,0.2290539307546536,1.7576767657450654,-0.0638755036067245,0.1016109089802713,0.0164175748859986,0.71577408403232,-0.5797435170022817,-0.3981056055935507,-0.8643416683332663,0.2379756050158415,1.7624194229811994,0.7978655879986989,-0.6225528386156083,-0.4470680221393811,1.3826569819148706,-0.3830845937042693,0.9431201232982966,0.9356874246959718,11.531643667540266,-1.4432458270484314,0.2377144772396961,-1.0373164759318096
2.1,-0.839020964656177,0.2176736673851964,1.749899022031786,-0.0662678963297107,0.0978180520962846,0.0170871381571167,0.705541007846105,-0.5594347959317822,-0.3806419929444373,-0.8488098425418821,0.2253115090092488,1.7530753536205554,0.8120484536183583,-0.6154515308062554,-0.4336443915441739,1.4336472426215068,-0.5116538093107525,1.015436053524971,0.8731806324556668,11.531643667540266,-1.4499377419218211,0.2412912493296297,-1.0351580779411187
2.12,-0.8250426667930733,0.2067103300646632,1.7424598799740694,-0.0674212305514147,0.0952225087696832,0.0177804465066758,0.6927340191084576,-0.5382059490574257,-0.3641298226537335,-0.8325688734695149,0.2130024783931237,1.744402465789672,0.8262313192380177,-0.6083502229969024,-0.4202207609489666,1.4894081608564411,-0.6403494368823703,1.0614423437178278,0.8256085145351894,11.466751691489662,-1.4558332338485864,0.2439014584160057,-1.034060826748902
2.14,-0.8120160494913983,0.1966958758598383,1.7356936094281723,-0.0670233770436323,0.0946055020232964,0.0184262835018814,0.6794007128035424,-0.5172726146277501,-0.3489261030470568,-0.8163279043971476,0.2006934477769986,1.7357295779587885,0.8404141848576772,-0.6012489151875496,-0.4067971303537595,1.455278871250953,-0.6666653152457569,1.04666672148378,0.7601859803338384,11.403676502068263,-1.4585395131935794,0.2450132398281503,-1.0367776764560834
2.16,-0.7985692216800455,0.1865867513870978,1.728883498786104,-0.0646326313672149,0.0957340422606078,0.0191281892075883,0.6661802092587419,-0.4949810848885595,-0.3328719287750938,-0.799732363684289,0.1885619498561073,1.7273922808927853,0.8545970504773366,-0.5941476073781967,-0.3933734997585522,1.5243281500761718,-0.6610251772400266,1.1145764869595287,0.8027087135981464,11.403676502068263,-1.4590238476764643,0.2442517850495355,-1.0431078376195693
2.18,-0.7853751624747238,0.1769070440612909,1.7223983040756357,-0.0603456841030815,0.0982236197973335,0.0198795272259593,0.6541234399583166,-0.4747788596617049,-0.3164276172129365,-0.7827822513309389,0.1766079846304498,1.719390574591662,0.868779916096996,-0.5870462995688439,-0.379949869163345,1.4351924721387908,-0.6028384650212659,1.0101112613427303,0.8222155781078683,11.427438753512432,-1.4582602731599348,0.2419094459341157,-1.0522534992870014
2.2,-0.7724067423147093,0.1676024187057405,1.71624789000818,-0.0553164270057906,0.1016061918724585,0.0206384310420076,0.6435221003424391,-0.4570186477003535,-0.2994389128946364,-0.752668990476808,0.1531681010782056,1.7065769232149888,0.687517813911659,-0.4475682366358107,-0.3089568371606918,1.3383101331323854,-0.5300669807938752,0.8880105980675679,0.8494352159150037,11.45815331884114,-1.4559460681946137,0.2385692848910714,-1.0626801433998672
2.22,-0.760253066755949,0.1590219444453359,1.7106659416503478,-0.051965098744185,0.1046121883689997,0.0212805527441684,0.6362532010769102,-0.4461382375091482,-0.2890470258243338,-0.752668990476808,0.1531681010782056,1.7065769232149888,0.687517813911659,-0.4475682366358107,-0.3089568371606918,0.8354812076630029,-0.3634449632764436,0.544020509560264,0.5195943535151293,11.45815331884114,-1.452531494100017,0.236496704521826,-1.0736469428344173
2.24,-0.7476106128010251,0.1502388953953984,1.7049955889376731,-0.0500999518308165,0.1070146511006447,0.0218849603675357,0.6283783876235752,-0.4326240305027689,-0.2785280339723793,-0.752668990476808,0.1531681010782056,1.7065769232149888,0.687517813911659,-0.4475682366358107,-0.3089568371606918,0.9424644124814264,-0.393740672666748,0.6757103503189699,0.5259495925977242,11.053077703616507,-1.451167434776108,0.2358763103357598,-1.0795613826094776
2.26,-0.7351265921195902,0.1417353794062643,1.6995332699180938,-0.0489084558861342,0.109059739675813,0.0224619858828913,0.6204620039515042,-0.4184121680943315,-0.2682425678735543,-0.7457938123376914,0.1486924187118475,1.7034873548433818,0.6941966887023275,-0.4421261120306319,-0.3074626811502429,0.9623369685690488,-0.3958191836035518,0.710593120421868,0.5142733049412512,11.058597318183274,-1.4501967138256566,0.2359200540443525,-1.084958989004924
2.28,-0.7234130418881861,0.1339228731546205,1.6945319122394693,-0.0480243487678216,0.1108908579784649,0.0229988436708982,0.6129962792969195,-0.4047166447367362,-0.2587386874759506,-0.7320434560594582,0.1397410539791313,1.697308218100168,0.7075544382836645,-0.4312418628202742,-0.304474369129345,0.9132745305608668,-0.3732862327292363,0.6847761678797637,0.4751940198801874,11.058597318183274,-1.449243994059026,0.2362188340286925,-1.0904593402990792
2.3000000000000003,-0.7112343061051474,0.1259802132220302,1.6894603929052274,-0.0471926621170155,0.1128502613402398,0.0235554994673719,0.6053345551030178,-0.390312774796024,-0.2489280171151242,-0.718293099781225,0.1307896892464151,1.6911290813569542,0.7209121878650014,-0.4203576136099166,-0.3014860571084471,0.9518701852421482,-0.3830862096950826,0.7201934970356122,0.4905335180413181,11.04873455192319,-1.4481804078076732,0.2366066054228481,-1.0959951817801905
2.32,-0.6992057449371192,0.1183263602533391,1.6845826240136443,-0.0463344846377349,0.1149295386921616,0.0241079504543312,0.5979799051016715,-0.3758471547970389,-0.2393557198286088,-0.703874856023925,0.1223825369742167,1.6850993602147852,0.7342699374463384,-0.4094733643995589,-0.2984977450875493,0.942037570825561,-0.3677325000673137,0.7232809999492523,0.4786148643257715,11.043403504016169,-1.446844258602804,0.2369464972843528,-1.1016730376458397
2.34,-0.6873205321155462,0.110962456750218,1.6798915352312838,-0.04529471513783,0.1171716284062499,0.0246648474136192,0.5910091229657939,-0.3613594789956775,-0.230242417027301,-0.6894566122666249,0.1139753847020184,1.6790696390726163,0.7476276870276755,-0.3985891151892012,-0.2955094330666514,0.9240357699509636,-0.3485391067938825,0.7243837900680727,0.4556651400653852,11.035320842058354,-1.4448111564095747,0.2370724393351311,-1.1076561502986833
2.36,-0.6755676477425889,0.1038898196034692,1.6753784306005275,-0.0438878477970541,0.1195091838595647,0.0252421830915259,0.5847094876836497,-0.346761254700602,-0.2215323791818875,-0.6747044247697915,0.105840338660079,1.67311462573097,0.7609854366090124,-0.3877048659788435,-0.2925211210457535,0.9064467945305784,-0.3149817641072083,0.7299112147537756,0.435501892270676,11.01412766512476,-1.4424202548690872,0.2368531506478806,-1.1144585541030323
2.38,-0.6645127425615889,0.0974402673347474,1.671249423928158,-0.0420490973347665,0.1217066826248858,0.025825788978191,0.579339011751874,-0.333047114898937,-0.2135401605328413,-0.6596182935334246,0.0979773988483986,1.667234320189846,0.7743431861903494,-0.3768206167684859,-0.2895328090248557,0.8378472431886917,-0.2685237965887876,0.6857069900832485,0.3996109324523114,10.986530477744054,-1.4401512381928483,0.2360859946735115,-1.1213943598878582
2.4,-0.6529797995422042,0.0909226508866253,1.6670655953169011,-0.0397272105331754,0.1239066598533176,0.0264705358235874,0.5742961537764179,-0.3195872155648306,-0.2052749032131653,-0.6355457919739952,0.0807879115898005,1.6605724159015158,0.6067492451451855,-0.3079634947977235,-0.1973144816866013,0.829026213707015,-0.2521428987728058,0.6729949667053176,0.4132628659838003,10.986530477744054,-1.4382401469946668,0.234926417592748,-1.1285831696461333
2.42,-0.6414908808583701,0.0846764838127259,1.6631067531135646,-0.0370404167658433,0.1245611110147538,0.0271974321832858,0.5748834138053512,-0.3059213285126108,-0.1906960714371189,-0.6355457919739952,0.0807879115898005,1.6605724159015158,0.6067492451451855,-0.3079634947977235,-0.1973144816866013,0.9995544997896252,0.0293630014466694,0.6832943526109941,0.7289415888023217,10.982906702957736,-1.4356566312429817,0.2333518161941892,-1.1361883520109042
2.44,-0.6299932297528472,0.078688108089707,1.6594446593573275,-0.034187898685266,0.1223806967713422,0.0280292701812333,0.5746189317200354,-0.2936887420174567,-0.1762674264853347,-0.6355457919739952,0.0807879115898005,1.6605724159015158,0.6067492451451855,-0.3079634947977235,-0.1973144816866013,0.945901578230425,-0.013224104265791,0.6116293247577009,0.7214322475892071,11.425258082381331,-1.4391609840144275,0.2317681916308759,-1.13766006554532
2.46,-0.6190941550295336,0.0732164074263438,1.65622130905378,-0.0315992463332592,0.1183221240162192,0.0288607741538146,0.5724715581031026,-0.2829356738315877,-0.1637377263228968,-0.6294782995225433,0.0777082766418233,1.6585992710846498,0.6122312918238477,-0.3029467707774809,-0.1940693459173532,0.8325158782588545,-0.1073686808466423,0.537653409293451,0.6264850081218964,11.282858463805496,-1.4452588372914947,0.2301579656286325,-1.1352676571963571
2.48,-0.6076956096107538,0.0676688148688356,1.6530750546257913,-0.0290973023157657,0.1128229515656334,0.0297354995670505,0.5671853796701262,-0.2724270545089356,-0.1515821252075626,-0.6173433146196396,0.0715490067458688,1.654652981450918,0.6231953851811723,-0.2929133227369955,-0.1875790743788572,0.8457739073901418,-0.2643089216488203,0.5254309661326062,0.6077800557667073,11.282858463805496,-1.4528288775013611,0.2286667885782087,-1.1292300889251894
2.5,-0.596437970012917,0.0623241447549366,1.6501592785917598,-0.0268615657958424,0.1072398977885136,0.0305691431073576,0.5586443788097825,-0.2625890044424985,-0.1406506184990195,-0.6052083297167359,0.0653897368499144,1.6507066918171858,0.634159478538497,-0.2828798746965101,-0.1810888028403612,0.8503437006955479,-0.4270500430171853,0.491902503321856,0.5465753354271587,11.209646899754262,-1.4602598524021095,0.227420920703273,-1.1229466976576103
2.52,-0.5853852430764984,0.0571695691946178,1.6474491242112663,-0.0249017594875336,0.1027003392308027,0.0313330870757541,0.5469425663454358,-0.2533527910820506,-0.1309033364883514,-0.5925251401459659,0.0597321393559842,1.6470849157603786,0.6451235718958216,-0.2728464266560247,-0.1745985313018652,0.8905750372455253,-0.5850906232173325,0.4618106680223943,0.4873641005334023,11.130535922448871,-1.466434606385581,0.2264739923728062,-1.1177588350893926
2.54,-0.5751290662990272,0.0524388570988619,1.645049039780047,-0.0232927267265206,0.1004137257557437,0.0319741643094552,0.5332238288972972,-0.2450646630232666,-0.1222264835056437,-0.579841950575196,0.0540745418620539,1.6434631397035713,0.6560876652531462,-0.2628129786155393,-0.1681082597633692,0.9112966059045832,-0.6859368724069281,0.4144064029392005,0.4338426491353839,11.067665786316866,-1.4703717373000234,0.2257258074482926,-1.115604042805913
2.56,-0.5646194842191894,0.0476262967549798,1.642697420688134,-0.0218449275354887,0.1007181803537727,0.032556291814934,0.5187825884347176,-0.2366454618531362,-0.1134160432562477,-0.566884658670493,0.0486677805691359,1.6400036204352264,0.6670517586104707,-0.252779530575054,-0.1616179882248732,0.9447965810550834,-0.7220620231289832,0.4209600585065171,0.4405220124698017,11.040787185304907,-1.4696876875578606,0.2252002378527334,-1.1198199724646194
2.58,-0.5543841089632878,0.0429791761508426,1.6405195368275616,-0.0206567541277872,0.1032170421260756,0.0330634430524872,0.5057919038804777,-0.2284983930481751,-0.1048277001102261,-0.5536532644318568,0.04351185547723,1.636706357955344,0.6780158519677953,-0.2427460825345685,-0.1551277166863771,0.8787665408035777,-0.6495342277119953,0.4073534402480552,0.4294171573010819,11.014793912395362,-1.466640920207789,0.2249064741000317,-1.127087094475437
2.6,-0.544388613307771,0.03849286377283,1.638512977084891,-0.0197458702264392,0.1071766161172688,0.0335140797597699,0.4946747067476699,-0.2205486008895423,-0.0962770043361352,-0.529094513769264,0.0315542564984338,1.6352781518220505,0.5249498015614755,-0.1993558549625952,-0.1018056521863482,0.8060795024006976,-0.5558598566403866,0.3974896079316392,0.4275347887045415,11.00329286791839,-1.4621677840799596,0.2248575793317205,-1.1359082046747553
2.62,-0.5350488671281166,0.0343694818101172,1.636753309436795,-0.0194194307956128,0.1106844394408839,0.0339028311939925,0.4888733890469581,-0.2137895613488774,-0.0893925909317173,-0.529094513769264,0.0315542564984338,1.6352781518220505,0.5249498015614755,-0.1993558549625952,-0.1018056521863482,0.5628833149503393,-0.2900658850355925,0.3379519770332448,0.3442206702208953,11.00329286791839,-1.45619384074254,0.2253240788801372,-1.1467266633154174
2.64,-0.5253358754629379,0.0301667661302988,1.6350374891520096,-0.0199073849311697,0.1131164566149739,0.0342700347831395,0.4826836936749791,-0.206770125334216,-0.0825718786362765,-0.529094513769264,0.0315542564984338,1.6352781518220505,0.5249498015614755,-0.1993558549625952,-0.1018056521863482,0.5790227261925941,-0.3094847685989499,0.3509718007330728,0.3410356147720387,10.92552332075411,-1.4539447779092078,0.2266677770784114,-1.1516808537137426
