t,x,y,z,roll,pitch,yaw,v_x,v_y,v_z,ref_x,ref_y,ref_z,ref_v_x,ref_v_y,ref_v_z,a_com,a_x,a_y,a_z,thrust,wind_x,wind_y,wind_z
0.0,-2.122677337597659,1.313638382725847,2.019951624258241,0.0223818877434422,0.1500648823577814,0.0287522470365491,0.0020930882533977,-0.0064733498811945,-0.0037541230278131,-2.122619240754876,1.3135389364249102,2.019838359995065,0.0893762895728175,-0.1041602165231047,-0.1037712771135959,0.3885187152146908,0.1046544126698857,-0.3236674940597259,-0.1877061513906576,10.66284621730574,-1.4129279876044782,0.1687020457476929,-1.2784170984287508
0.02,-2.122744283434092,1.3137734758529818,2.0196719372744925,0.0289829393874933,0.1521735090067079,0.0292533523333763,-0.0083169317419283,0.0153788392108368,-0.0258214403546365,-2.122619240754876,1.3135389364249102,2.019838359995065,0.0893762895728175,-0.1041602165231047,-0.1037712771135959,1.637721876891572,-0.5205009997663029,1.092609454601568,-1.1033658663411685,9.267939436421784,-1.4075011012434957,0.1608370364002184,-1.277180594085507
0.04,-2.122996960759824,1.3141114773129698,2.0188324398680533,0.0433333671638404,0.157644106796762,0.0304230943080484,-0.0159751189176629,0.0164858253939216,-0.0572600891294221,-2.122619240754876,1.3135389364249102,2.019838359995065,0.0893762895728175,-0.1041602165231047,-0.1037712771135959,1.618843635139338,-0.3829093587867322,0.0553493091542394,-1.5719324387392826,9.267939436421784,-1.3959214750443965,0.1436828149101897,-1.283162016348957
0.06,-2.123363433442455,1.314386197595418,2.017359425594865,0.0583782251967912,0.1647285727213372,0.031783867981403,-0.019945931928013,0.0105857059665277,-0.0884075696396289,-2.121725477859148,1.312497334259679,2.018800647223929,0.1068558687234942,-0.1241602168211279,-0.1237712774116191,1.5974544651995437,-0.1985406505175037,-0.2950059713696926,-1.5573740255103363,8.953625126953739,-1.3844438255157674,0.1258875261739152,-1.289150528883771
0.08,-2.1237754887871287,1.314504077370952,2.0152844220748105,0.0729217134187128,0.1724204477340777,0.0332333007265199,-0.0207993548020339,0.0011903968432682,-0.1175888240568665,-2.1199379520676915,1.3104141299292171,2.016725221681657,0.1418150270248477,-0.1641602174171744,-0.1637712780076656,1.5334159363061424,-0.0426711437010436,-0.4697654561629752,-1.4590627208618825,9.07242025233245,-1.3733607634056968,0.1095977074650946,-1.2942050248404948
0.1,-2.1241574955634253,1.314414813038029,2.012790013016474,0.0861141228023017,0.1797917822129842,0.0346520858012831,-0.0191759272076271,-0.0103700633153083,-0.1435668248121296,-2.118150426276235,1.308330925598755,2.014649796139385,0.1767741853262011,-0.2041602180132208,-0.203771278603712,1.4240227170526156,0.0811713797203374,-0.57802300792883,-1.2989000377631523,9.07242025233245,-1.3621923649822305,0.0933365265168236,-1.2982680884116031
0.12,-2.124503715294647,1.314056944288936,2.0096437652209245,0.0993395336898726,0.1873445852419392,0.0361583081523879,-0.0153187418019571,-0.0250955833593975,-0.1696688304531077,-2.114614942569711,1.3042477212384906,2.0105743705673107,0.2117333436275545,-0.2441602186092673,-0.2437712791997585,1.5108222250683925,0.1928592702834999,-0.7362760022044605,-1.3051002820489086,9.188430826335209,-1.352057935114181,0.0779835425554816,-1.3016694781776157
0.14,-2.124753203871693,1.313378693106684,2.0059810732392376,0.1119092922439307,0.1945511875751864,0.0376516914302387,-0.0096499160886491,-0.0422563486947397,-0.19535572897307,-2.111079458863187,1.300164516878226,2.0064989449952364,0.246692501928908,-0.2841602192053138,-0.2837712797958049,1.57038546815534,0.2834412856654031,-0.8580382667671093,-1.2843449259981154,9.276384390153908,-1.3431236537271434,0.0640634780510519,-1.3057741687784268
0.16,-2.1248717066172835,1.3123326247872569,2.001808602986165,0.1238504104824795,0.2013553138144396,0.0391111441743421,-0.0023211869766858,-0.0617432903454176,-0.2206597274182431,-2.106669996199129,1.2950813125030605,2.001423519408261,0.2816516602302615,-0.3241602198013602,-0.3237712803918514,1.6384012806748425,0.3664364555981614,-0.9743470825338978,-1.265199922258653,9.35832123919954,-1.3332942248872628,0.050088227138338,-1.308888594731092
0.18,-2.124833424262039,1.310956629502908,1.9973804401338744,0.134636698070508,0.2074305084535354,0.0404505541848952,0.0061151481068836,-0.0823317665415226,-0.2442434553351081,-2.101386554577537,1.2889981081129938,1.9953480938063848,0.3166108185316149,-0.3641602203974066,-0.3637712809878978,1.6211487625882517,0.4218167541784774,-1.0294238098052504,-1.1791863958432514,9.407254108014058,-1.3234059698426064,0.0368064795480851,-1.3109166144869064
0.2,-2.1246053482886995,1.3090588811070525,1.9922368431939257,0.1452567034230967,0.2134228711315286,0.0417856792246803,0.016395706994396,-0.1065010128149271,-0.2688849490761896,-2.0961031129559458,1.282914903722927,1.989272668204508,0.3515699768329684,-0.4041602209934531,-0.4037712815839442,1.800725944068002,0.5140279443756209,-1.2084623136702208,-1.2320746870540715,9.407254108014058,-1.3142734126671298,0.0244482675887246,-1.312153681799778
0.22,-2.124156554182114,1.3066357295410091,1.986602950293314,0.1543578927864941,0.21902690251049,0.0429765306639531,0.0281055044527596,-0.1343736644691338,-0.2932144817261656,-2.124527666856695,1.306840041175832,1.9851682673671187,0.0836968145168529,-0.1823317680316388,-0.3442434568252243,1.940315841376668,0.585489872918178,-1.3936325827103355,-1.2164766324988,9.5015605614808,-1.3062325745622685,0.01444680750999,-1.3122976206211208
0.24,-2.1234248059294805,1.3034619261718017,1.9805993848267327,0.1564291587894662,0.2242594511773446,0.0436082486886894,0.0447608972785218,-0.1796075485077109,-0.3048665085940853,-2.124527666856695,1.306840041175832,1.9851682673671187,0.0836968145168529,-0.1823317680316388,-0.3442434568252243,2.4795544486493,0.8327696412881107,-2.2616942019288544,-0.5826013433959859,9.5015605614808,-1.298421847559872,0.0121419883854364,-1.3083045828111894
0.26,-2.122408888466373,1.2996969218249923,1.9747098345545664,0.1511001725184722,0.2288898233644751,0.0435988562432808,0.0614092952284034,-0.2129364397865085,-0.3143514879811295,-2.124527666856695,1.306840041175832,1.9851682673671187,0.0836968145168529,-0.1823317680316388,-0.3442434568252243,1.92220510231361,0.8324198974940821,-1.6664445639398826,-0.4742489693522089,10.477011953107649,-1.2922380624214131,0.0191712963448522,-1.3068533235613338
0.28,-2.120995174170518,1.2951419082419986,1.9683054300679332,0.1433281044022677,0.2334294038059826,0.0433316590806292,0.0791610799034832,-0.2403936668862494,-0.3256522536129175,-2.1236906987115263,1.3050167234955157,1.9817258327988665,0.0992131477988468,-0.202331768329662,-0.3642434571232475,1.7296910728665864,0.8875892337539878,-1.3728613549870454,-0.5650382815894028,10.357856567724411,-1.2860776849308118,0.0286450015238814,-1.3063752063746337
0.3,-2.119224570316988,1.2900851840192142,1.9616530355636483,0.1354805433614752,0.2376639571617987,0.0429628894056192,0.09711333950109,-0.2637988644055781,-0.3390091459921186,-2.122016762421189,1.3013700881348826,1.9748409636623616,0.1302458143628345,-0.2423317689257084,-0.4042434577192939,1.6190224439520673,0.8976129798803377,-1.170259875966431,-0.6678446189600534,10.207870338873365,-1.280427943121455,0.0375622047556349,-1.3062361549079728
0.32,-2.117207364041629,1.2848743929516682,1.9550686574704992,0.1286857074164534,0.2414334802547387,0.0425819535484452,0.1144094497056558,-0.2835903258872818,-0.353430126280744,-2.120342826130852,1.2977234527742498,1.9679560945258572,0.1612784809268223,-0.2823317695217549,-0.4442434583153404,1.4990180521554513,0.8648055102282927,-0.9895730740851844,-0.7210490144312687,10.072836710385673,-1.2747669254418037,0.0460264965456349,-1.305951250012908
0.34,-2.114725902707334,1.279002783500988,1.9478250493132272,0.1225078242755213,0.2451586548878828,0.0421797907463014,0.1328948237637347,-0.3025834315745604,-0.3702714737215739,-2.117117256512316,1.2920768173838149,1.9590712253595504,0.19231114749081,-0.3223317701178013,-0.4842434589113868,1.570094026912067,0.9242687029039458,-0.9496552843639317,-0.842067372041494,9.958814610283298,-1.269245997936356,0.0531829743301153,-1.305629300858409
0.36,-2.111869672470552,1.2727646097694028,1.9402350090412568,0.1173833549221933,0.2486510515470926,0.0417896372678993,0.1518798685222746,-0.3203698890144826,-0.3879374654642833,-2.11389168689378,1.2864301819933797,1.950186356193244,0.2233438140547978,-0.3623317707138478,-0.5242434595074333,1.572320941315262,0.9492522379269924,-0.8893228719961122,-0.8832995871354721,9.855883000701397,-1.2639048066163867,0.0590313732992593,-1.304682383638121
0.38,-2.1086278262781284,1.2661713081451436,1.9322854893608772,0.1129519488867891,0.2519229444891029,0.0413934594221877,0.1714331910934163,-0.3380242959122707,-0.4061298569985045,-2.109890300611143,1.2797835465880434,1.940301487012036,0.2543764806187855,-0.4023317713098943,-0.5642434601034797,1.600760456953343,0.977666128557085,-0.8827203448894011,-0.9096195767110626,9.792208440152535,-1.2591185529144306,0.0637638124607995,-1.3034484913275248
0.4,-2.105180617524498,1.259585373701621,1.9243930507604428,0.1090374178083498,0.2548376398878522,0.0409921590717845,0.1905154235279055,-0.3542680006613515,-0.4237388891192166,-2.1000561667234576,1.24927009334953,1.911978996510952,0.2566488862957669,-0.4380242974023868,-0.5061298584886207,1.5313944224851523,0.9541116217244612,-0.8121852374540411,-0.8804516060356038,9.773395938766043,-1.254315555227594,0.0683201041164586,-1.3017646026433272
0.42,-2.101105476854088,1.252338900889246,1.9158989403963491,0.1060815616486934,0.2576178570796635,0.0405989905032139,0.2162953488976354,-0.3700308894478888,-0.4239001147638492,-2.1000561667234576,1.24927009334953,1.911978996510952,0.2566488862957669,-0.4380242974023868,-0.5061298584886207,1.5108765739414949,1.2889962684864946,-0.7881444393268683,-0.0080612822316278,9.773395938766043,-1.2482422473792685,0.0715057157435749,-1.2960126791252158
0.44,-2.096510301191259,1.2447776056034687,1.907402150321675,0.1047659208066342,0.2600824120930545,0.0402701286748917,0.241899711508162,-0.3854606961051014,-0.4260992564605494,-2.1000561667234576,1.24927009334953,1.911978996510952,0.2566488862957669,-0.4380242974023868,-0.5061298584886207,1.4987482630285656,1.2802181305263285,-0.7714903328606276,-0.1099570848350106,10.950805339761246,-1.2461450444773194,0.072487277905038,-1.2987142495855095
0.46,-2.091410939190454,1.2369066656636452,1.898817013830114,0.10480525799583,0.2623439574166208,0.040000503610075,0.2668175883042491,-0.4009858448986007,-0.43230342148782,-2.0974896778605,1.244889850375506,1.906917697926066,0.273692025336237,-0.45802429770041,-0.5261298587866439,1.5003520359992832,1.245893839804356,-0.7762574396749655,-0.3102082513635307,10.684796180258672,-1.2440976516482876,0.0719103408149926,-1.3004398919447204
0.48,-2.0861018233384123,1.2291410515623546,1.890517468627896,0.1058550414829573,0.2641450537472319,0.0397660996729811,0.2907738483607122,-0.4157614956882944,-0.4410160377224124,-2.0923567001345846,1.2361293644274582,1.896795100756293,0.3077783034171773,-0.4980242982964564,-0.5661298593826903,1.4732039351386053,1.197813002823156,-0.7387825394846836,-0.4356308117296203,10.470087403652542,-1.2416690608312937,0.0699780179629263,-1.3011719227543284
0.5,-2.0800213725763,1.2206620528513266,1.8815794208821168,0.107962522340713,0.2654188248439966,0.039509444787043,0.3159643201593869,-0.4314692056347768,-0.4524238331665804,-2.087223722408669,1.2273688784794106,1.886672503586521,0.3418645814981175,-0.5380242988925029,-0.6061298599787368,1.590149221062781,1.2595235899337336,-0.7853854973241231,-0.5703897722083989,10.181118120950488,-1.2401069898758967,0.0668267797258143,-1.300387739576851
0.52,-2.073437484127365,1.2118542324905417,1.8723915999122236,0.1107153458163084,0.2659154763924387,0.0391967608936808,0.3410754257312441,-0.4487265507317379,-0.4657710211874853,-2.0803864307787068,1.2166083925015605,1.8745499063869464,0.3759508595790578,-0.5780242994885494,-0.6461298605747833,1.6632280442726055,1.2555552785928596,-0.8628672548480515,-0.6673594010452477,10.088283656870772,-1.2395128577277337,0.0631039681635682,-1.2980920048201938
0.54,-2.0667178040740843,1.2031526026900692,1.8634096024719051,0.1132420707382175,0.2656206317378211,0.0387893523818637,0.3649277717063309,-0.4663687041674812,-0.4790060690358945,-2.0735491391487444,1.2058479065237104,1.8624273091873715,0.410037137659998,-0.6180243000845959,-0.6861298611708297,1.6243048343177704,1.192617298754342,-0.8821076717871662,-0.6617523924204588,10.088283656870772,-1.2395441736157102,0.0592677920837559,-1.2937808815138232
0.56,-2.059152052599239,1.193616080176497,1.8536770253689705,0.1153100565375262,0.2643133179066894,0.0381830604676267,0.390351454961396,-0.486213573790699,-0.4935393864846066,-2.0658596905667586,1.1940874205309593,1.849304711972896,0.4441234157409383,-0.6580243006806422,-0.7261298617668761,1.7687565100102305,1.2711841627532527,-0.9922434811608928,-0.7266658724356029,10.062794392171782,-1.2404805820039095,0.0560668013179869,-1.2880659314382008
0.58,-2.051073991971293,1.18367214087383,1.843647918174795,0.1163345521904625,0.2615165358737953,0.0373074289510124,0.4161099348924986,-0.5070521867445287,-0.508614228383005,-2.0573180850327493,1.181326934523307,1.8351821147435183,0.4782096938218785,-0.6980243012766887,-0.7661298623629226,1.820026055076025,1.287923996555132,-1.0419306476914802,-0.7537420949199181,10.032739211728767,-1.2432749971036254,0.0540457933327026,-1.2801735884872731
0.6,-2.0424813507502617,1.1733006652773188,1.8333099533254047,0.1157739107561681,0.256707024496441,0.0360670100184144,0.4415448427531241,-0.5287856554022664,-0.5243059528312776,-2.030268495226668,1.1583195315366035,1.8182172067556448,0.5046919663213125,-0.6070521882346448,-0.6086142298731211,1.8476393140544876,1.271745393031276,-1.0866734328868866,-0.7845862224136302,10.00466298426727,-1.2485531380064012,0.0538399195937043,-1.2694848896586144
0.62,-2.0338150963129342,1.1629816857764523,1.8234667724786904,0.1124565073283857,0.2510790478272346,0.034570296458008,0.4692378233413228,-0.555409878223354,-0.5108809849873367,-2.030268495226668,1.1583195315366035,1.8182172067556448,0.5046919663213125,-0.6070521882346448,-0.6086142298731211,2.034686816377471,1.3846490294099345,-1.331211141054378,0.6712483921970436,9.963648236379411,-1.253690449202005,0.0571939259557986,-1.2497010281468912
0.64,-2.0241564579826266,1.151634276491874,1.81336219198714,0.1068072207642676,0.2452378948323346,0.0328842371290911,0.4948884235376865,-0.5774604575029844,-0.5006066651358844,-2.030268495226668,1.1583195315366035,1.8182172067556448,0.5046919663213125,-0.6070521882346448,-0.6086142298731211,1.7675852068647933,1.2825300098181809,-1.1025289639815194,0.5137159925726165,11.85874377584514,-1.262450275653554,0.0624749683057479,-1.2434824599981618
0.66,-2.0140194718615607,1.1398855893508444,1.8033894838563196,0.100846650992256,0.2396550132846164,0.0312487755787195,0.5173809344396796,-0.5961085533702382,-0.4970806196818165,-2.025221575563455,1.152249009654257,1.8121310644569133,0.5224083726070753,-0.627052188532668,-0.6286142301711443,1.4714767435256322,1.1246255450996556,-0.93240479336269,0.1763022727033908,10.944719932948829,-1.270044430569598,0.0678356642304385,-1.2372691434192675
0.68,-2.0039997926644277,1.1284030559356053,1.793929608537477,0.0954329145788618,0.2346032033759298,0.0297800537524536,0.5360764973395401,-0.6115913012545813,-0.498816646817333,-2.015127736237029,1.140107965889564,1.799958779859451,0.5578411851786009,-0.6670521891287144,-0.6686142307671907,1.2168127879916677,0.934778144993026,-0.7741373942171559,-0.0868013567758257,10.944719932948829,-1.277339259422268,0.0732477415644329,-1.22958508007817
0.7000000000000001,-1.9930971162792583,1.1160183632303224,1.7838935215810217,0.0902909735905768,0.229759167034849,0.0283590230326465,0.5530083731634899,-0.6260380158575397,-0.504869275761484,-2.0050338969106023,1.1279669221248712,1.7877864952619886,0.5932739977501265,-0.7070521897247609,-0.7086142313632372,1.1532890995675833,0.8465937911974919,-0.7223357301479216,-0.3026314472075464,10.5952958295602,-1.2837318243051727,0.0780620702556022,-1.2212989796257732
0.72,-1.981883442443012,1.1033591773836111,1.773695760324704,0.0858339430553877,0.2257761679335205,0.0270990613934074,0.5673545357537935,-0.6391640577748415,-0.5147390064578908,-1.9931684169556,1.113825878330376,1.773614210634724,0.628706810321652,-0.7470521903208074,-0.7486142319592837,1.0903175472101971,0.7173081295151762,-0.6563020958650911,-0.4934865348203421,10.074815461804064,-1.2886280618345738,0.082127035459818,-1.213239045607429
0.74,-1.970405505311085,1.0904491184977307,1.7632757419497636,0.0820951269645915,0.2231057447685247,0.0260293517019675,0.5796751265978245,-0.6512816193669829,-0.5267379783421723,-1.9813029370005968,1.0996848345358807,1.7594419260074592,0.6641396228931776,-0.7870521909168539,-0.7886142325553301,1.0519120495140484,0.6160295422015516,-0.6058780796070695,-0.5999485942140725,10.074815461804064,-1.2913588212809073,0.0852660660701346,-1.2063355380069478
0.76,-1.959281578785632,1.0779588717581166,1.7531393994861009,0.078910384663046,0.2220075744676571,0.0251750160311023,0.5907122332050431,-0.6627827226003976,-0.5396313206050805,-1.9685516367313065,1.0845437907264843,1.7442696413652934,0.6995724354647032,-0.8270521915129002,-0.8286142331513765,1.0250992300178354,0.5518553303609286,-0.5750551616707344,-0.6446671131454085,9.8576796703328,-1.2914228148660365,0.0880707005029422,-1.2013256385536553
0.78,-1.9473413051119768,1.0645813458888898,1.742189671171019,0.075698647490076,0.2220306464923584,0.0243920767687837,0.6028366512486635,-0.6742640620434516,-0.554729473185533,-1.954914516147728,1.0684027469021868,1.7280973567082265,0.7350052480362287,-0.8670521921089467,-0.868614233747423,1.1255852695883606,0.6062209021810205,-0.5740669721526981,-0.7549076290226275,9.8576796703328,-1.289812652515613,0.0907214023652179,-1.1978902695367737
0.8,-1.9351506408929064,1.0509805067074585,1.7309232519141406,0.0725463368706316,0.2226372915973989,0.0236681628322747,0.615672247994104,-0.6851315337505659,-0.571199805385134,-1.917199472549544,1.0308681427867172,1.7144531975117423,0.7025153389999567,-0.7742640635335677,-0.6547294746756491,1.1769944008805957,0.6417798372720274,-0.5433735853557164,-0.8235166099800517,9.765259686917489,-1.2883419464270196,0.0932486168671351,-1.1951607315986712
0.8200000000000001,-1.9226441186159773,1.037145947752818,1.719652283528654,0.0694076558057143,0.2241160320624662,0.0230171268778628,0.6348711034804794,-0.6977617838011945,-0.5533841682323847,-1.917199472549544,1.0308681427867172,1.7144531975117423,0.7025153389999567,-0.7742640635335677,-0.6547294746756491,1.4538880592110168,0.9599427743187672,-0.6315125025314283,0.8907818576374682,9.69046047822212,-1.281374624337034,0.0958362222580742,-1.1850350115343848
0.84,-1.9103972574241528,1.0237865032958882,1.709271666198542,0.0667684256854723,0.226607217526767,0.0225044254870544,0.6534372803802725,-0.7079625071992593,-0.5404350710093594,-1.917199472549544,1.0308681427867172,1.7144531975117423,0.7025153389999567,-0.7742640635335677,-0.6547294746756491,1.2414072673881054,0.928308844989656,-0.5100361699032441,0.6474548611512643,11.978829862868224,-1.280214673046268,0.0980839879991115,-1.193613867589833
0.86,-1.8971218207278904,1.0095248651208513,1.6985401123318646,0.0645652915836233,0.2296629862917912,0.022038685215927,0.6731806297475772,-0.7177151421658261,-0.5337207872666575,-1.9101743191595444,1.0231255021513816,1.707905902764986,0.7224510765502152,-0.7942640638315909,-0.6747294749736723,1.1510813820143893,0.9871674683652354,-0.4876317483283376,0.3357141871350944,11.43624311883741,-1.2785369086259235,0.099785846170451,-1.2014090692804402
0.88,-1.883449923065811,0.9950762160558108,1.6878792613064884,0.0629221889512888,0.2325387810549138,0.0216057018798346,0.6930261284399123,-0.7266929636159492,-0.5329326540161353,-1.8961240123795453,1.0076402208807105,1.6948113132714728,0.7623225516507326,-0.8342640644276373,-0.7147294755697188,1.0898007276084265,0.9922749346167548,-0.4488910725061523,0.0394066625261091,10.67145866924966,-1.2768255401882571,0.1009329015899404,-1.2073008948751442
0.9,-1.8693829671016904,0.9804575184831756,1.677180128203162,0.0619397846475007,0.2348473414829086,0.0211898768068905,0.7126609361786373,-0.734813708862472,-0.5369976866272242,-1.8820737055995465,0.9921549396100388,1.6817167237779598,0.8021940267512498,-0.8742640650236838,-0.7547294761657652,1.0816615325794354,0.9817403869362528,-0.4060372623261421,-0.2032516305544462,10.415310223729648,-1.2755777774674508,0.1013779025834913,-1.2109179106491026
0.92,-1.855658918105312,0.9664262209614256,1.666906281382046,0.0618073869783172,0.2363976323756302,0.0208184432564138,0.7309562795814956,-0.7418632354621433,-0.5442457162027103,-1.8660298250645213,0.9746696583095652,1.6666221342546446,0.8420655018517671,-0.9142640656197304,-0.7947294767618117,1.0451666712002223,0.9147671701429104,-0.3524763299835642,-0.3624014787743046,10.415310223729648,-1.2748349311873917,0.1009373177116632,-1.2128830177362135
0.94,-1.840840209527853,0.9515161177687274,1.6559271868388352,0.0627570964280805,0.2373940689755349,0.0204724204913917,0.7499092925869358,-0.7488835897857569,-0.5533374275271119,-1.8499859445294964,0.9571843770090914,1.6515275447313291,0.8819369769522845,-0.9542640662157768,-0.8347294773578582,1.108107950088483,0.947650650272014,-0.3510177161806793,-0.4545855662200782,10.216141501970014,-1.2745043403518537,0.0992633083655853,-1.2130576437553755
0.96,-1.8256386372224096,0.9364539722174088,1.64475199259653,0.0646434208089398,0.2376263618809903,0.0201502746666402,0.7691844189327675,-0.7570110699249981,-0.5636980860972265,-1.8329452771169583,0.9386990956937168,1.6354329551931128,0.9218084520528016,-0.9942640668118232,-0.8747294779539045,1.1671864408354198,0.9637563172915808,-0.4063740069620625,-0.5180329285057295,10.074660846280494,-1.274621013301473,0.0965231368111973,-1.2121825452420352
0.98,-1.8100502225300623,0.9212153229723709,1.633357730691937,0.0668892046661349,0.2368378279392244,0.0197898705138597,0.7886048900490162,-0.7665406850660029,-0.5751905298340346,-1.8149078228269075,0.9192138143634409,1.6183383656399952,0.9616799271533188,-1.0342640674078696,-0.914729478549951,1.2247903148666122,0.9710235558124392,-0.4764807570502405,-0.5746221868404067,10.074660846280494,-1.2755069435747022,0.093516177784073,-1.209999623029856
1.0,-1.794881017053814,0.9065480495781274,1.6223086164371647,0.0687149860259421,0.2348405353388031,0.0193415265090379,0.8070878873199041,-0.7767841415830546,-0.5872613010315466,-1.7706199780276115,0.8828882887190707,1.6045982042002351,0.8886048915391324,-0.866540686556119,-0.6466183593976523,1.2168125439391462,0.9241498635443934,-0.512172825852586,-0.6035385598755993,10.015313763712584,-1.2777660110088855,0.0906836775607572,-1.205381652414543
1.02,-1.778416589549322,0.8908137833073517,1.6108289935002438,0.0683404757170115,0.2304790178879046,0.0185532966046311,0.8387196546387896,-0.7957565578635909,-0.5578638853304504,-1.7706199780276115,0.8828882887190707,1.6045982042002351,0.8886048915391324,-0.866540686556119,-0.6466183593976523,2.358351825502892,1.581588365944275,-0.9486208140268126,1.469870785054811,9.9488293256627,-1.27418425794766,0.0900188038787759,-1.1893385482145633
1.04,-1.761336781196936,0.8747161395679468,1.5999528862619996,0.0645605482537139,0.223232172942803,0.017354891883322,0.8670117938062356,-0.8123280110083854,-0.5312942416144755,-1.7706199780276115,0.8828882887190707,1.6045982042002351,0.8886048915391324,-0.866540686556119,-0.6466183593976523,2.1100972520206835,1.4146069583722998,-0.8285726572397234,1.328482185798746,12.96230515743082,-1.2868052590939292,0.0932110137704078,-1.1864268922117482
1.06,-1.7446425870964388,0.8591653667139849,1.5900346470290294,0.0595846906310845,0.2146325898195254,0.0160647411928485,0.8884461653109674,-0.8234825045353541,-0.5139447068814278,-1.7617339291122205,0.8742228818535095,1.5981320206062586,0.9086048918371556,-0.8865406868541422,-0.6609039253103759,1.4873309677903523,1.071718575236591,-0.5577246763484367,0.8674767366523839,11.725993190809277,-1.3017467526805642,0.0981914980311008,-1.179662383127626
1.08,-1.7266876084052096,0.8426033621973671,1.5798801537486775,0.0544395950203428,0.2047597654379537,0.0147397466874762,0.9054744103257024,-0.8320723922698088,-0.5026935380241808,-1.7439618312814378,0.856892068122387,1.5851996534183057,0.948604892433202,-0.9265406874501888,-0.6894750571358229,1.1071767025035597,0.8514122507367439,-0.4294943867227341,0.5625584428623487,11.725993190809277,-1.3150371649981307,0.1029828337251479,-1.1697879573465912
1.1,-1.7084472962208774,0.8258909899402536,1.5698782961534237,0.0499702832401016,0.1949565285113428,0.01354149683281,0.9173681132653309,-0.8387720358610717,-0.4983045447500693,-1.726189733450655,0.8395612543912647,1.5722672862303526,0.9886048930292484,-0.9665406880462352,-0.71804618896127,0.7169530246576011,0.5946851469814218,-0.334982179563148,0.2194496637055759,11.21327883979484,-1.3269718432827504,0.1068765172756537,-1.1591169822405434
1.12,-1.6900164432639595,0.8090587625513598,1.5599024500775769,0.0463511928074945,0.1859576988503264,0.0125077286220997,0.9248947211544174,-0.844205930573075,-0.4997132657775323,-1.70641763559007,0.82023044063034,1.5579063624511271,1.028604893625295,-1.0065406886422816,-0.746617320786717,0.4694718654786863,0.3763303944543328,-0.2716947356001642,-0.0704360513731489,10.40743031994134,-1.338144251069224,0.1101243531526481,-1.147302372314424
1.14,-1.6724010617025262,0.7929767372768692,1.5503654139433884,0.0437692761081692,0.1786964431148686,0.0116924207336481,0.9289751943701368,-0.848563878538745,-0.5040819206325924,-1.6866455377294851,0.8008996268694153,1.543545438671902,1.0686048942213413,-1.0465406892383282,-0.7751884526121642,0.3698888933799268,0.204023660785968,-0.2178973982835008,-0.2184327427530052,10.40743031994134,-1.347172814049983,0.1124260962630266,-1.1357817181757024
1.16,-1.6537947187181925,0.7759551033468273,1.540216117012194,0.0416427713125197,0.1726362419965751,0.0109821272903871,0.931306620937326,-0.853380885055947,-0.510691277010215,-1.665873439853999,0.7805688130935894,1.5284702365970402,1.1086048948173877,-1.0865406898343746,-0.8037595844376113,0.4252137502227026,0.1165713283594549,-0.240850325860098,-0.3304678188811305,10.230602067346808,-1.3540555210869,0.1141074065484866,-1.125784006132872
1.18,-1.635162653219519,0.7588378255052645,1.529915275120476,0.0398010700756609,0.1684380044023794,0.0103999369024306,0.9316734316422148,-0.858078235283407,-0.5191233046619724,-1.6441013419636117,0.7592379993028624,1.5126807562265423,1.148604895413434,-1.126540690430421,-0.8323307162630583,0.4829563633824525,0.0183405352444432,-0.2348675113729992,-0.4216013825878717,10.102478114506084,-1.3587286051103775,0.1155267151867944,-1.1177077630346604
1.2,-1.6165417512369893,0.7416296473770196,1.5194277441586328,0.0381181700145268,0.1665137117768058,0.0099445515860798,0.9304582551722944,-0.8624728060303666,-0.5291933981385413,-1.5885789816374083,0.715933913741094,1.5039591098873777,1.031673433132331,-0.9580782367735232,-0.5602712743251156,0.5527107935663904,-0.060758823496021,-0.2197285373479796,-0.5035046738284421,9.992462439685369,-1.360448667069991,0.1167345283285876,-1.1127933002991133
1.22,-1.598800382388207,0.725168381075615,1.5096161812455493,0.0358994130599682,0.1663701655971725,0.0095527992192002,0.9376023512580466,-0.869719383240721,-0.5011102881624742,-1.5885789816374083,0.715933913741094,1.5039591098873777,1.031673433132331,-0.9580782367735232,-0.5602712743251156,1.4934959458230617,0.3572048042876141,-0.3623288605177188,1.4041554988033556,9.898568445731144,-1.355194899445281,0.1183639557552702,-1.103309117171696
1.24,-1.579966917621161,0.7077207940414129,1.4998917397879787,0.0330781224237184,0.1670646193312952,0.0091564349585534,0.9453581779749192,-0.8745692718795429,-0.4733909358049383,-1.5885789816374083,0.715933913741094,1.5039591098873777,1.031673433132331,-0.9580782367735232,-0.5602712743251156,1.4594834385771205,0.3877913358436291,-0.2424944319410982,1.3859676178767932,12.143646693700248,-1.3571556369489166,0.1210023338806134,-1.111703527966152
1.26,-1.560983304333167,0.6901975989908621,1.4906447268845022,0.0307004163400948,0.1683223940598717,0.0088280258825592,0.9526497693754106,-0.8776025518869374,-0.4530088068407774,-1.578262247306085,0.7063531313733589,1.4983563971441265,1.051673433430354,-0.9780782370715464,-0.5685008682577443,1.0929310063616366,0.3645795700245702,-0.1516640003697222,1.019106448208043,11.670938182815007,-1.3566333599336642,0.1231555832612063,-1.1198391642375545
1.28,-1.5418593092654962,0.6726273570717989,1.4817357399377138,0.0291866247057401,0.1698762085741018,0.0085859923408814,0.959466445624264,-0.8794763276689374,-0.4388975748522276,-1.5576287786434384,0.6871915666378884,1.487150971657624,1.0916734340264007,-1.0180782376675928,-0.5849600561230015,0.7891529937178894,0.3408338124426702,-0.0936887890999993,0.70556159942749,11.670938182815007,-1.3557273451097478,0.1244354422256412,-1.126483506236193
1.3,-1.523567614674774,0.6559097202015707,1.4734897992485914,0.0288230072996661,0.1715004653613874,0.00845057730792,0.9656959765585026,-0.8803651901211702,-0.4298064103292541,-1.5369953099807918,0.6680300019024179,1.4759455461711215,1.131673434622447,-1.0580782382636391,-0.6014192439882587,0.552825479928788,0.3114765467119307,-0.0444431226116426,0.4545582261486769,11.31149492610166,-1.35441502458812,0.1246686754320494,-1.1324776349013694
1.32,-1.5041867616793445,0.6383004160306353,1.4649630121101611,0.0299484815903415,0.1733045189532617,0.0084318112473815,0.9721010265022636,-0.880681415329857,-0.4235040196907692,-1.5143618412883428,0.6468684371371451,1.4639171612913566,1.1716734352184934,-1.0980782388596857,-0.617878431853516,0.4495686569500359,0.3202524971880505,-0.0158112604343396,0.3151195319242433,11.04408579905612,-1.3529178579844263,0.1233325907634444,-1.1378031807185127
1.34,-1.484674695620762,0.6206848791686643,1.4565475972176674,0.0329308914716717,0.1751515821712095,0.0085599978470239,0.9788479844733374,-0.881376909917709,-0.4183636148658661,-1.491728372595894,0.6257068723718723,1.4518887764115915,1.21167343581454,-1.138078239455732,-0.6343376197187733,0.4255258991796373,0.3373478985536915,-0.0347747293926004,0.2570202412451566,10.848738681397665,-1.351293927150819,0.1200821016083651,-1.1426540984863842
1.36,-1.4660037130914716,0.6039044472640048,1.4486428765704915,0.0365648688975766,0.1767099926207606,0.0087450585828815,0.9861720629501584,-0.8850787942547961,-0.4139773350665275,-1.4680949038885438,0.6035453075916983,1.4394489118351947,1.2516734364105864,-1.1780782400517784,-0.6507968075840306,0.465256713164591,0.3662039238410464,-0.1850942168543534,0.2193139899669266,10.802513185407406,-1.349576072373087,0.1161348833786879,-1.1467076915193646
1.38,-1.4461937891623209,0.586144692528046,1.4404073211537078,0.0401900474370785,0.1778653089688792,0.0089202723190515,0.99441815357939,-0.890709540381904,-0.4098272900372772,-1.4434614351662929,0.5803837427966233,1.4265975675621667,1.2916734370066327,-1.2180782406478248,-0.6672559954492878,0.5406620625636823,0.412304531461577,-0.281537306355395,0.2075022514625157,10.785824529765703,-1.3482565194833118,0.1121770380630538,-1.1496917586447035
1.4,-1.42621542334318,0.5682595370827567,1.4322477828324058,0.0432350822304701,0.1783695869349584,0.0090382675450643,1.0029533599949036,-0.8974516740910997,-0.4063541431148398,-1.4188279664440413,0.5572221780015482,1.413746223289139,1.3316734376026793,-1.2580782412438714,-0.6837151833145451,0.5708959297738453,0.4267603207756876,-0.337106685459787,0.1736573461218721,10.76674394188376,-1.3476258686132203,0.108969775436285,-1.151397460664204
1.42,-1.405941274380489,0.5501404079532343,1.4244977768469425,0.0430742919080204,0.1762452159823083,0.0088264686727994,1.024428886207646,-0.9134038752054916,-0.366951203559842,-1.3964728814833514,0.5416092155089508,1.419915956651844,1.094418155069506,-0.99070954187202,-0.3993262051880388,2.3813140238547903,1.07377631063712,-0.7976100557195942,1.970146977749887,10.732228891203704,-1.3446855434964289,0.108398110209408,-1.1457213654154412
1.44,-1.3862841577449032,0.5326623640577802,1.417892711991603,0.0388807067613686,0.1697836132460738,0.0081817116962302,1.0428191941146048,-0.9246178178991592,-0.330355370319231,-1.3964728814833514,0.5416092155089508,1.419915956651844,1.094418155069506,-0.99070954187202,-0.3993262051880388,2.1232115687233226,0.9195153953479362,-0.5606971346833856,1.8297916620305497,13.470633303324576,-1.3548666781587064,0.1127905857270639,-1.14242181093867
1.46,-1.3652848265165438,0.5141046817591455,1.4116331830100466,0.0332731151542716,0.1600463862762298,0.0073748932600938,1.0555121240461487,-0.9303716346776868,-0.2977586270184956,-1.3964728814833514,0.5416092155089508,1.419915956651844,1.094418155069506,-0.99070954187202,-0.3993262051880388,1.7725437593907138,0.6346464965771959,-0.2876908389263688,1.629837165036771,13.02878607166076,-1.368838481305667,0.1185666285142515,-1.132768264582744
1.48,-1.3441039519101377,0.4954708697060512,1.4059477567492251,0.0282647463074117,0.1492049228869385,0.0066580243861239,1.0615602283127024,-0.9329041132748614,-0.2723436609795711,-1.3855286999326564,0.5317021200902307,1.4159226945999637,1.1144181553675292,-1.0107095421700434,-0.3972259882181911,1.3123580988281545,0.3024052133276833,-0.1266239298587379,1.2707483019462256,12.01879814552376,-1.3825703458783996,0.123466293316519,-1.1219259038697345
1.5,-1.3239263559090404,0.47774008662254,1.400960595178516,0.0246009147247797,0.139283734629211,0.0061339045113734,1.0619337414114602,-0.9336574733475876,-0.2538669682583034,-1.3636403368312662,0.5118879292527903,1.4079361704962028,1.1544181559635758,-1.0507095427660895,-0.3930255542784958,0.9247908376360968,0.0186756549378941,-0.0376680036363041,0.9238346360633864,11.615425194181626,-1.395902536373469,0.1274535444204571,-1.110183348718369
1.52,-1.3027249914134365,0.4590693385364063,1.396045950971611,0.0220127233542179,0.1303048325087905,0.0057609286362366,1.0580196110629667,-0.9336218867993982,-0.2387653877254544,-1.341751973729876,0.4920737384153498,1.399949646392442,1.194418156559622,-1.090709543362136,-0.3888251203388004,0.7800311169715195,-0.1957065174246763,0.0017793274094679,0.7550790266424509,11.615425194181626,-1.4070066047765084,0.1301194939920735,-1.0998538895339052
1.54,-1.2816396966470596,0.4404056224619261,1.3914063427699666,0.0207530200961225,0.1236492423084884,0.0055673661370392,1.0505317287059566,-0.9329120372069388,-0.2260298024988696,-1.3178636105986836,0.470259547548107,1.3921731439856662,1.2344181571556685,-1.1307095439581825,-0.3846246863991051,0.7395393831635046,-0.3743941178505072,0.0354924796229672,0.6367792613292386,11.324521144777464,-1.4153232332883736,0.1314720159639369,-1.091428288376425
1.56,-1.2607345111617565,0.4217540120784839,1.3870052175370855,0.0207807831290185,0.1202208549197065,0.0055502842655078,1.0403975059917625,-0.9324170535942908,-0.2147163317580895,-1.2939752474674913,0.4484453566808643,1.38439664157889,1.274418157751715,-1.170709544554229,-0.3804242524594097,0.759838961557258,-0.5067111357097032,0.0247491806323996,0.5656735370390061,11.197890853789431,-1.4195371949753106,0.1315836191731583,-1.0879259147502085
1.58,-1.2410649602792756,0.4040413188768971,1.3830280315720338,0.0218345895597107,0.1201753861614233,0.0056841372459573,1.0309832443798426,-0.932197395955508,-0.2045158295132781,-1.2690868843213976,0.4256311657987204,1.3767251500206064,1.3144181583477614,-1.2107095451502754,-0.3762238185197143,0.6941304222232776,-0.4707130805959969,0.0109828819391477,0.5100251122405669,11.125753934000386,-1.4192224270485094,0.1306146594904486,-1.0903543476793895
1.6,-1.2205327952558231,0.3853958021077096,1.379051273874464,0.0239380900877958,0.1226032982147192,0.0059612727584388,1.0230231217073928,-0.932464327084174,-0.1937039439405628,-1.1895157980602835,0.3574314490791217,1.37280224009637,1.130983245869959,-1.032197397445624,-0.1972108318642343,0.6714381483528259,-0.398006133622486,-0.0133465564333079,0.5405942786357656,11.081131456473486,-1.416407047849802,0.1286699780528306,-1.096377332031412
1.62,-1.200098613499484,0.3666750061728275,1.3754097777126624,0.0250423128303675,0.1259092669137129,0.006204865190488,1.0210252661354111,-0.9392252814253677,-0.1703543450521602,-1.1895157980602835,0.3574314490791217,1.37280224009637,1.130983245869959,-1.032197397445624,-0.1972108318642343,1.219534438566102,-0.0998927785990866,-0.3380477170596752,1.1674799444201314,11.08635088509618,-1.4114435494148896,0.1276231585113182,-1.102773544780146
1.64,-1.1796926039075577,0.3478411830691204,1.3722440921656904,0.0241918956684222,0.1289461794522101,0.0063179693834163,1.0197139487259017,-0.9437143711931452,-0.1475620458816901,-1.1895157980602835,0.3574314490791217,1.37280224009637,1.130983245869959,-1.032197397445624,-0.1972108318642343,1.1633576210347567,-0.0655658704754813,-0.224454488388881,1.1396149585235036,11.974674599654463,-1.408936868088246,0.1286365178290824,-1.110044251751144
1.66,-1.160329272415028,0.3298835701114861,1.3696312528145431,0.0226772041640487,0.1316820850412235,0.0063818494151095,1.018669349458628,-0.9463797157150547,-0.1286190796514815,-1.178205965601584,0.3471094751046655,1.3708301317777276,1.150983246167982,-1.0521973977436472,-0.1957498323344255,0.9579029421717072,-0.0522299633636702,-0.1332672260954792,0.9471483115104304,11.836834303159776,-1.4069474552359285,0.130503092945886,-1.1170664732002409
1.68,-1.139967002664544,0.3109425002800114,1.3672474368895269,0.021050445813321,0.1344926114588382,0.0064544519950558,1.0176841947962576,-0.9476271614136856,-0.1108703265034209,-1.1555863006841849,0.326465527155753,1.3668859151404429,1.1909832467640284,-1.0921973983396938,-0.192827833274808,0.8909894623263135,-0.0492577331185239,-0.06237228493155,0.8874376574030285,11.664207084778354,-1.4050894526490798,0.1324542305837827,-1.123925076713907
1.7,-1.1196218542720415,0.2919912925435823,1.3651962395289263,0.020054279311675,0.1373275108403062,0.0065812214705538,1.0169610281379549,-0.9475216725059392,-0.0952361979941108,-1.1329666357667856,0.3058215792068405,1.3629416985031582,1.2309832473600748,-1.13219739893574,-0.1899058342151905,0.7825600171407983,-0.0361583329151371,0.0052744453873321,0.7817064254655073,11.404355168868278,-1.403176157520835,0.1337996536800707,-1.1309858071755905
1.72,-1.099287436627493,0.2730550895836328,1.363438985523683,0.0203198319819832,0.1402174108358298,0.0068077163090021,1.0166241173086334,-0.9463522835981436,-0.081286021758153,-1.108346970819584,0.2831776312281256,1.3591435818188544,1.2709832479561212,-1.1721973995317865,-0.186983835155573,0.700157832811414,-0.0168455414660706,0.0584694453897693,0.6975088117978895,11.404355168868278,-1.4011977623410858,0.1338988123931615,-1.1375945832835592
1.74,-1.079969970827016,0.2550916976814894,1.3620226804970286,0.0221456575467605,0.1429954994323715,0.0071445880551896,1.0168991223974115,-0.944849585606304,-0.0685125878231694,-1.0837273058723826,0.2605336832494108,1.3553454651345505,1.3109832485521675,-1.212197400127833,-0.1840618360959555,0.6432230242010215,0.0137502544389045,0.0751348995919831,0.6386716967491796,11.31602179190122,-1.398701077550682,0.1322906059956983,-1.1438745331978548
1.76,-1.0596182018583884,0.2361946135040521,1.360792532036772,0.0254820593732874,0.1457709052050568,0.0076077448943355,1.0183338624592186,-0.9453822443787075,-0.0551975473398918,-1.05810764091028,0.2368897352557949,1.3516203984267372,1.350983249148214,-1.2521974007238794,-0.181139837036338,0.6701352615034019,0.0717370030903552,-0.0266329386201746,0.6657520241638782,11.299064927120526,-1.3960905154392969,0.1291468645995734,-1.151341730465068
1.78,-1.0392259621891882,0.2172559007697445,1.3598281152106824,0.0290125676684493,0.1480850859909948,0.0080852387951973,1.0208116628131778,-0.948478113704326,-0.041921398326976,-1.031487975933276,0.2122457872472778,1.3479683816954142,1.3909832497442605,-1.2921974013199258,-0.1782178379767204,0.6927842992023758,0.1238900176979584,-0.1547934662809225,0.6638074506457904,11.299064927120526,-1.393942851944217,0.1257677666120192,-1.1574123968168022
1.8,-1.0187765973062848,0.1982391027553343,1.3591280790985951,0.0320727832091776,0.1497511962432199,0.0085204864625743,1.023958554552871,-0.9529398814249034,-0.0287487271598377,-0.9881853790485292,0.1698319950845281,1.3577320452943336,1.120811664303294,-1.0316971427136683,-0.0193747009190151,0.7129683802443354,0.1573445869846645,-0.223088386028869,0.6586335583569143,11.309993515810676,-1.3926668994777749,0.1229975069117825,-1.1618671582022684
1.82,-0.9992071984521926,0.1799485567575534,1.3588311677342515,0.0301513875547587,0.1487830042064792,0.008523720895799,1.0355281143696409,-0.9700389797563984,-0.0030579011566748,-0.9881853790485292,0.1698319950845281,1.3577320452943336,1.120811664303294,-1.0316971427136683,-0.0193747009190151,1.6479171845307807,0.5784779908384774,-0.8549549165747572,1.2845413001581472,12.34996104464517,-1.3909820010727214,0.1249826329341387,-1.1676361183245538
1.84,-0.9783896633435925,0.1604593940060452,1.359046579147959,0.0228869453071109,0.1434273002207793,0.0080710415679726,1.0449024372052047,-0.9770235372976588,0.0231831030119812,-0.9881853790485292,0.1698319950845281,1.3577320452943336,1.120811664303294,-1.0316971427136683,-0.0193747009190151,1.4363602198369154,0.4687161417782026,-0.3492278770630186,1.3120502084328045,12.34996104464517,-1.3991561108496486,0.1330591221255146,-1.1607580681427223
1.86,-0.9574492615798256,0.1409145030229195,1.3597392086601845,0.0151088002688362,0.1356043090991337,0.0076050382904601,1.0482574536256526,-0.9771532960715386,0.0448112110949424,-0.9769772624054964,0.1595150236573915,1.3575382982851434,1.140811664601317,-1.0483409485155368,-0.0148653614374229,1.0943582957253115,0.1677508210223943,-0.0064879386939831,1.081405404148058,12.151025491442851,-1.409113694397573,0.1412182710371392,-1.1504682214670012
1.88,-0.937548600076836,0.1223825325405779,1.3607541976192243,0.0089369740645182,0.1277558677363482,0.0073210759661231,1.046223971055448,-0.9739425566025056,0.0609633188952808,-0.9545610291194304,0.1388810808031181,1.357150804266763,1.1808116651973637,-1.0816285601192737,-0.0058466824742386,0.8296603005072107,-0.1016741285102318,0.160536973451647,0.8076053900169223,11.498144272243737,-1.4198750438517034,0.1484781232553369,-1.1389021311285064
1.9,-0.916688204835284,0.1029579019831289,1.3621189921514265,0.0042187514984755,0.1205352381202241,0.0072223684077119,1.0397354835425094,-0.9690176431527932,0.0745102062773016,-0.9321447958333646,0.1182471379488447,1.3567633102483827,1.22081166579341,-1.1149161717230105,0.0031719964889457,0.7903692182041748,-0.3244243756469256,0.2462456724856232,0.6773443691010388,11.498144272243737,-1.4293034567814795,0.1538390171759547,-1.1288500840897673
1.92,-0.895999607224283,0.0836395489417215,1.3637229219222171,0.0013269718930583,0.115665540909008,0.0073042647011542,1.029263450748371,-0.9634262307441231,0.0850867734639791,-0.9077285625174965,0.0959488145143845,1.3568267501781617,1.2608116663894564,-1.148203783326747,0.01219067545213,0.7949703406726087,-0.5236016397069387,0.2795706204334947,0.5288283593338765,11.27467490220988,-1.436287507550265,0.1573378050135601,-1.1216315471488028
1.94,-0.8755534498731536,0.0644393657559691,1.365522600234218,0.0002273230857767,0.1145072637245642,0.0075378997128451,1.0163597331602712,-0.9572458117932064,0.094345549654662,-0.8833123292016282,0.0736504910799243,1.3568901901079409,1.300811666985503,-1.1814913949304844,0.0212093544153144,0.8520980614803634,-0.6451858794049747,0.3090209475458461,0.4629388095341434,11.110165932677774,-1.4382229131938655,0.1589767376851447,-1.1212970113035412
1.96,-0.8563526258774611,0.0463099654743085,1.3674024546448469,0.000732733975045,0.1165885211199745,0.0078791378360528,1.005809025539633,-0.9516086758768234,0.1030562886676422,-0.8578960958708588,0.0505199773553707,1.3571790970117992,1.3408116675815491,-1.2147790065342212,0.0302280333784987,0.7398846308516998,-0.5275353810319072,0.2818567958191464,0.4355369506490125,11.043882605194083,-1.4358942587339665,0.1590714780715352,-1.1273503368121798
1.98,-0.8363297336593655,0.0273374731599759,1.369566947210925,0.0027798456364766,0.1209824926844202,0.0083574500943157,0.9973683411848304,-0.9460817578117298,0.1129558109691496,-0.8314798625251884,0.0265572733407236,1.3576934708897372,1.3808116681775957,-1.248066618137958,0.0392467123416831,0.706739905258136,-0.4220342177401359,0.2763459032546822,0.4949761150753684,11.03469560290705,-1.4309473731022688,0.157585204458737,-1.1372639666897977
2.0,-0.8164444741996633,0.00846005421924,1.3719401020410502,0.0060551143095541,0.1265662465572481,0.0089433064621095,0.9918542761162594,-0.942341797818778,0.1238876873771687,-0.786461316600124,-0.0199666147306105,1.3752147377593829,1.0973683426749463,-0.970279667792742,0.1402260144254322,0.6401135370571364,-0.2757032534285442,0.1869979996475923,0.5465938204009563,11.083443856830854,-1.4245854861089553,0.1548175250707518,-1.149380214874103
2.02,-0.7965814788205986,-0.0105996041300566,1.374594460477039,0.0020798379431389,0.130881412201479,0.0090307256372586,0.994700501985802,-0.960560623108091,0.1413863970294299,-0.786461316600124,-0.0199666147306105,1.3752147377593829,1.0973683426749463,-0.970279667792742,0.1402260144254322,1.2710541256346095,0.142311293477132,-0.9109412644656534,0.8749354826130574,11.15327110774706,-1.4176131528242426,0.1590150578916919,-1.160781894936508
2.04,-0.7776609962944023,-0.0288834135515515,1.3774511055789038,-0.0092223251128345,0.1324442834911213,0.0085835659875582,0.9965740360970496,-0.961926390220196,0.1584104571768466,-0.786461316600124,-0.0199666147306105,1.3752147377593829,1.0973683426749463,-0.970279667792742,0.1402260144254322,0.8590606407195286,0.0936767055623732,-0.0682883556052504,0.8512030073708376,11.661507626214188,-1.4159217928747765,0.1720107128868295,-1.161713895068802
2.06,-0.7577266827437938,-0.0480413484799854,1.380782077036009,-0.0219029061581007,0.1325728288150946,0.0080915194559458,0.9966158802887596,-0.9536383152973148,0.1736430628049805,-0.7754876331733745,-0.0296694114085379,1.3766169979036371,1.1173683429729695,-0.9751192497889446,0.1456800551166887,0.8670729656233169,0.002092209585508,0.4144037461440542,0.761630281406693,11.5921787692032,-1.4164613189293267,0.1860598229453983,-1.1607293506403067
2.08,-0.7378118724063791,-0.0669720113229825,1.3843844533274483,-0.0328047218794215,0.1320786867034008,0.0077713680616928,0.9947902325155892,-0.9401132666712844,0.185699643074247,-0.7535402663198756,-0.0490750047643927,1.379421518192146,1.1573683435690163,-0.9847984137813496,0.1565881364992018,0.91052328075322,-0.0912823886585201,0.6762524313015328,0.6028290134633268,11.409640305475476,-1.417628631109283,0.1982596624665651,-1.1586731236619212
2.1,-0.7179505828029376,-0.085598130497137,1.3881992851816778,-0.0409916492144022,0.131706488873636,0.0076707674168506,0.991491650673738,-0.9238495807597142,0.1951987251577578,-0.7315928994663766,-0.0684805981202476,1.3822260384806544,1.1973683441650629,-0.9944775777737545,0.1674962178817148,0.9560605132872958,-0.1649290920925694,0.8131842955785007,0.4749541041755359,11.226921188705091,-1.418674214990868,0.2072580283179741,-1.1575811129116305
2.12,-0.6991518882712092,-0.1029798300597223,1.3919859137422823,-0.0463106579652889,0.1318962781560674,0.007749324629304,0.9875912577432534,-0.9072340670453654,0.2029335434142425,-0.7076455325830754,-0.0883701496757227,1.3855759628382889,1.237368344761109,-1.0041567417661594,0.1784042992642279,0.9369041766167155,-0.1950196465242248,0.8307756857174442,0.3867409128242349,11.096604670928173,-1.4190996558191176,0.2141148451485028,-1.1581680660714406
2.14,-0.6794453310001747,-0.1209351122202495,1.3961288468787956,-0.0497129727912403,0.1328915460945403,0.007967163315838,0.9833814751293132,-0.8895770949435103,0.2109614260208369,-0.6836981656997742,-0.1082597012311978,1.388925887195923,1.2773683453571556,-1.0138359057585644,0.1893123806467409,0.9923933602755268,-0.2104891306970058,0.8828486050927509,0.4013941303297227,11.027667759009091,-1.4185500974900915,0.2186694871785277,-1.1608962337426474
2.16,-0.6598147579847385,-0.1385355342756634,1.4004345307336497,-0.0511981820999167,0.1346005414690264,0.0082981332721255,0.98001300400288,-0.8717528766708802,0.2192088635678293,-0.6587507988015717,-0.128391231886483,1.3925485135881202,1.317368345953202,-1.0235150697509692,0.200220462029254,0.9963302425043562,-0.1684235563216618,0.8912109136315072,0.4123718773496168,11.031571159655869,-1.4168410249335623,0.2212565339609777,-1.165426946534681
2.18,-0.6412181464042893,-0.1549232694077175,1.4046825234153877,-0.0509278600369635,0.1365613761634639,0.0087249210872939,0.9777717667163268,-0.854436256517202,0.2275355900928778,-0.6328034318884682,-0.1487647416415783,1.39644384201488,1.3573683465492483,-1.0331942337433742,0.211128543411767,0.96724202341549,-0.1120618643276616,0.8658310076839093,0.4163363262524255,11.09237652245065,-1.4146796610818746,0.2219761892780967,-1.1708454759700913
2.2,-0.6216786980623278,-0.1718191590152563,1.409332077306968,-0.0487331380868333,0.1387001066454719,0.009316588241478,0.97636685067552,-0.8362690379641692,0.237017244883202,-0.6068560649753646,-0.1691382513966737,1.40033917044164,1.397368347145295,-1.0428733977357791,0.2220366247942801,1.027038700096368,-0.0702458020403418,0.9083609276516412,0.4740827395162114,11.09237652245065,-1.4123547453065315,0.2207289276217681,-1.177231234116442
2.22,-0.6021571580363423,-0.1883684066456129,1.4141800769890798,-0.044840583018646,0.1406833237319485,0.0100472513721022,0.9759114134252368,-0.8201126282510175,0.2473569929195332,-0.592329558068473,-0.1976450822335776,1.4160593029200317,1.077771768206443,-0.8081617733133141,0.2599956016347212,0.9593583628694012,-0.0227718625141593,0.8078204856575844,0.5169874018165612,11.145943356734278,-1.410295507708098,0.2176813636023961,-1.1840292849208425
2.24,-0.582567554561281,-0.2048643383261917,1.4192354856212304,-0.0481936143518326,0.1401817345459869,0.0103987180241068,0.9827117789212044,-0.8258417798214793,0.2575243296585778,-0.592329558068473,-0.1976450822335776,1.4160593029200317,1.077771768206443,-0.8081617733133141,0.2599956016347212,0.6753570999130728,0.3400182747983815,-0.2864575785230916,0.5083668369522301,11.197180036270764,-1.4076365722938364,0.2218338778479069,-1.1873082991668928
2.26,-0.5638511007443726,-0.2204747311901683,1.4242211089487142,-0.0581470135914442,0.1359429979957915,0.0104905425230693,0.9866150775577892,-0.8160188013320028,0.2667677486684707,-0.592329558068473,-0.1976450822335776,1.4160593029200317,1.077771768206443,-0.8081617733133141,0.2599956016347212,0.7020816221130065,0.1951649318292336,0.4911489244738276,0.4621709504946447,11.17054688672124,-1.4138426705498897,0.2339174080446757,-1.1779586974966223
2.28,-0.5441222063604756,-0.2366023753421806,1.4296438031364558,-0.0694254536004152,0.1294318957541828,0.0107485499115819,0.985682090504936,-0.7971106177665611,0.2749517333531087,-0.5815518403864085,-0.2057266999667108,1.418659258936379,1.097771768504466,-0.7989068766725365,0.2664876039430899,1.0312219401074847,-0.0466493526426525,0.945409178272083,0.4091992342318967,11.137756971011186,-1.42289594072946,0.2470209992260852,-1.165835015005438
2.3000000000000003,-0.5244648598572723,-0.2522954249290942,1.4352078324331188,-0.0790980395830325,0.1228413456804195,0.0112329908240339,0.9800213944694705,-0.7735703464054947,0.2810752900740102,-0.5599964050222797,-0.2218899354329771,1.423859170969073,1.1377717691005127,-0.7803970833909813,0.2794716085598273,1.248685110699128,-0.2830348017732798,1.17701356805332,0.3061778360450767,10.93611122288985,-1.4315004023402207,0.257895608715918,-1.1548172106127277
2.32,-0.50593425116384,-0.2667436555906058,1.4405941191489553,-0.0861353950405038,0.1179465053599604,0.0118147532044565,0.9707872036679036,-0.7490119463123731,0.2856350566836393,-0.5384409696581508,-0.2380531708992433,1.4290590830017675,1.177771769696559,-0.7618872901094261,0.2924556131765646,1.3315186502898333,-0.4617095400783366,1.22792000465608,0.2279883304814572,10.881326793212793,-1.4393948039522588,0.2670136454857374,-1.1457865065595836
2.34,-0.4866526256280559,-0.2814414931235527,1.4463545278830994,-0.0913923758843909,0.1157414606015537,0.0123733420011829,0.9578770830688286,-0.7224187046565358,0.2901823861792232,-0.5148855342642196,-0.2532909167014319,1.434908195265299,1.2177717702926054,-0.7433774968278709,0.305439617793302,1.4954513709828818,-0.6455060299537574,1.329662082791866,0.227366474779192,10.881326793212793,-1.4437670930197288,0.273876974679765,-1.142236345793416
2.36,-0.4676319673712664,-0.2956011208739209,1.4522086066236504,-0.0947185978986713,0.1172077598480925,0.0127551946632961,0.9452657917896712,-0.6952283344928095,0.2950332082944425,-0.4913300988702884,-0.2685286625036204,1.44075730752883,1.257771770888652,-0.7248677035463158,0.3184236224100394,1.5181332060805064,-0.630564563957875,1.3595185081863137,0.2425411057609655,10.905943020112318,-1.4423653390783069,0.2789022075186963,-1.1466117331619343
2.38,-0.4488367303787111,-0.3092072492298509,1.458170867082117,-0.0961673928420973,0.1214653505132037,0.01301394938353,0.9353056647151018,-0.6671873990632322,0.3009637659136311,-0.4667746634614561,-0.28330366347377,1.4469310199077798,1.2977717714846984,-0.7063579102647606,0.3314076270267767,1.5171269762134345,-0.498006353728464,1.4020467714788654,0.2965278809594296,10.905943020112318,-1.437498500152803,0.2819743398347284,-1.1560116405286351
2.4,-0.4311346424427144,-0.3216065500986056,1.4639596098057477,-0.0956636327638803,0.1269763009052836,0.0132597843443898,0.928837344540821,-0.6397327015443001,0.3080843221666848,-0.402071447142956,-0.3425666191830125,1.4732190553777986,1.0353056662052178,-0.5671873975731161,0.3392967162374512,1.4545634251262212,-0.3234160087140392,1.3727348759466074,0.3560278126526872,10.976706733475112,-1.430464169388149,0.2831990644918774,-1.1689634187768847
2.42,-0.4126011327545325,-0.3340944102967657,1.4702165018571307,-0.0929047158494972,0.1333052849248426,0.0136427190755021,0.9251032168006564,-0.6108396623632685,0.317323432739739,-0.402071447142956,-0.3425666191830125,1.4732190553777986,1.0353056662052178,-0.5671873975731161,0.3392967162374512,1.5281627754248035,-0.1867063870082286,1.4446519590515794,0.4619555286527105,11.08436086668098,-1.4233748015392382,0.2820478812244992,-1.1835068255820889
2.44,-0.3940621537015153,-0.3461434634874019,1.476617942590243,-0.0919359723336268,0.1375787611155372,0.0141134164258993,0.9288736038319736,-0.5946184756015741,0.3219722560810508,-0.402071447142956,-0.3425666191830125,1.4732190553777986,1.0353056662052178,-0.5671873975731161,0.3392967162374512,0.864514714713433,0.1885193515658634,0.8110593380847186,0.232441167065589,10.850150406435205,-1.416401944004558,0.2823203043567471,-1.1927402243101917
2.46,-0.3763831513545153,-0.3572643899658605,1.4827944807723468,-0.0950574446135695,0.1382024320090824,0.0146068343246403,0.9316383179912296,-0.5760531926184543,0.3279300562644718,-0.3917183904809039,-0.3482384931587437,1.476612022540173,1.055305666503241,-0.5471873972750929,0.3469633063022152,0.9846430313205876,0.1382357079627971,0.9282641491559884,0.2978900091710507,10.850150406435205,-1.416453527698818,0.2873739683593576,-1.1949238224154766
2.48,-0.3577364170832499,-0.3685307301625615,1.4894288620604064,-0.1000423604815456,0.1364876056045426,0.0152552540372195,0.9326859520513708,-0.5512309245791085,0.3352288873569561,-0.3710122771567995,-0.359582241110206,1.4833979568649225,1.0953056670992876,-0.5071873966790464,0.3622964864317433,1.2947156667177089,0.0523817030070594,1.241113401967292,0.3649415546242124,11.002849078559848,-1.4198885400848988,0.2946650710695657,-1.1944810076440115
2.5,-0.3390941783594829,-0.3792614933750955,1.4962153920139754,-0.1048307571639808,0.1334644602221636,0.0160818140030459,0.9312790126243874,-0.5231243415762619,0.3430932610214346,-0.3503061638326952,-0.3709259890616683,1.4901838911896712,1.135305667695334,-0.467187396083,0.3776296665612713,1.4609995378007916,-0.0703469713491722,1.4053291501423315,0.3932186832239254,11.089609554839626,-1.4245407780203965,0.3015299161553433,-1.1927941882206936
2.52,-0.3214383041588472,-0.388915522461349,1.5028128757006305,-0.108448684078952,0.1305622291305274,0.0169663068405428,0.927204290843222,-0.4947520848784293,0.351006462837059,-0.3276000504787885,-0.3802697369833283,1.4977364845208967,1.1753056682913805,-0.4271873954869535,0.3929628466907994,1.4867809780667174,-0.2037360890582762,1.4186128348916276,0.3956600907812191,11.137911236881337,-1.429824946682188,0.3078464042079746,-1.1916174986299914
2.54,-0.3029642944465565,-0.3984895025833557,1.50992689569741,-0.1112174372832232,0.1287582348115468,0.0178588616781636,0.920302347746012,-0.4643039580809383,0.3600228884565974,-0.3048939371248818,-0.3896134849049883,1.505289077852122,1.2153056688874269,-0.387187394890907,0.4082960268203274,1.6248239711934045,-0.3450971548604964,1.522406339874549,0.4508212809769235,11.179821359709422,-1.433531781804182,0.3130958679507504,-1.1930497640992055
2.56,-0.2846397478561374,-0.4074479707539108,1.5172263678725386,-0.1129661416630492,0.1291137438841,0.0185982556664789,0.9127643040271852,-0.4332297815305806,0.3694912812505618,-0.281187823756074,-0.3979572328117471,1.5132250006865855,1.2553056694834732,-0.3471873942948606,0.4236292069498554,1.6673909360813794,-0.3769021859413302,1.5537088275178828,0.4734196396982193,11.239253922540229,-1.4332799474547562,0.3172432697380748,-1.1985222073514448
2.58,-0.266452498180167,-0.4157674760444747,1.5247216443938283,-0.1132657278275354,0.1313104573317109,0.0192406603851719,0.9066050475226596,-0.4005938818801897,0.3795689601851986,-0.256481710372365,-0.4053009807036049,1.5215442530242875,1.2953056700795196,-0.3071873936988142,0.4389623870793835,1.7353659552012028,-0.3079628252262933,1.6317949825195466,0.5038839467318396,11.273127161603044,-1.4307265092330232,0.3198469328013658,-1.2075296754427032
2.6,-0.2492706432852919,-0.4230566050924182,1.5320385489185129,-0.1116240083449996,0.1344493610568671,0.0198751527822528,0.902500239523384,-0.3686484613336283,0.3901381828676543,-0.221122245804034,-0.4357971701384842,1.5437000924030884,1.0066050490127756,-0.3005938803900736,0.4243040342284725,1.6948951374044672,-0.2052403999637797,1.5972710273280732,0.5284611341227818,11.328170440253416,-1.426991101692166,0.320563558695749,-1.2203889456837975
2.62,-0.231211177768119,-0.4300410572968691,1.5398910634466676,-0.1061602231547725,0.1367260416549462,0.0209288348658611,0.9036520107452,-0.3330837158030228,0.3944096353630209,-0.221122245804034,-0.4357971701384842,1.5437000924030884,1.0066050490127756,-0.3005938803900736,0.4243040342284725,1.79194238748369,0.05758856109081,1.7782372765302727,0.2135726247683322,11.4121863886121,-1.421347662474784,0.3166039863338963,-1.2316727717489255
2.64,-0.2131323564161413,-0.4364014177837134,1.5478559146070987,-0.0986091431130179,0.1366204017976453,0.0223827072975981,0.9039909518538936,-0.3050030541776543,0.4020843708430071,-0.221122245804034,-0.4357971701384842,1.5437000924030884,1.0066050490127756,-0.3005938803900736,0.4243040342284725,1.455627015311068,0.0169470554346795,1.4040330812684243,0.3837367739993075,10.974364024764329,-1.424201413965272,0.3106704830290654,-1.2403037078151729
