t,x,y,z,roll,pitch,yaw,v_x,v_y,v_z,ref_x,ref_y,ref_z,ref_v_x,ref_v_y,ref_v_z,a_com,a_x,a_y,a_z,thrust,wind_x,wind_y,wind_z
0.0,0.6785479191388624,0.3518077320243116,2.6651827853227097,0.0227915874322924,0.1500819018038606,0.0287846326846592,0.000803660312836,-0.0057858853454658,-0.0032716518093782,0.6785680593873523,0.3517231762313065,2.6650809362499737,-0.0993117519250936,-0.0713211600379894,-0.1032832190845004,0.3347612757291079,0.0401830156418044,-0.2892942672732908,-0.163582590468913,10.663029799075955,-1.412890159054117,0.1683452045258613,-1.278731988962193
0.02,0.6786782887241596,0.3519103410772078,2.664889412811224,0.02801430011602,0.1452275744870812,0.0290110041099355,0.0117724155701996,0.0129660905437488,-0.0272524910032748,0.6785680593873523,0.3517231762313065,2.6650809362499737,-0.0993117519250936,-0.0713211600379894,-0.1032832190845004,1.617892796270161,0.5484377628681785,0.9375987944607308,-1.1990419596948276,10.663326638264152,-1.4087386554363812,0.1613759934046798,-1.2725657884640529
0.04,0.6789912199536535,0.352238293420897,2.6640416388367734,0.0411241296107916,0.1312607012734901,0.0293898182312401,0.0177390470952441,0.0174050489353084,-0.0562006741018532,0.6785680593873523,0.3517231762313065,2.6650809362499737,-0.0993117519250936,-0.0713211600379894,-0.1032832190845004,1.4944082006487325,0.2983315762522252,0.2219479195779815,-1.4474091549289203,9.03319641753751,-1.4244038913403951,0.1469199068086251,-1.2495641515152818
0.06,0.6793067423962411,0.3525302949069899,2.662699923769323,0.0551073029945356,0.1128651800655089,0.0293749027165584,0.0143717519966398,0.0127377746247034,-0.0834821843434907,0.6775749418681014,0.3510099646309266,2.6640481040591286,-0.1193117522231168,-0.0848863367633769,-0.1232832193825236,1.394097312632882,-0.1683647549302155,-0.2333637155302511,-1.3640755120818744,9.03319641753751,-1.448095810866156,0.1303216959461444,-1.2121685784684295
0.08,0.679477409232769,0.3526954469571253,2.6607354270552173,0.0694487384405825,0.0917271354066524,0.0288844292284301,0.0021914653515254,0.0036782115186856,-0.111482571271078,0.6755887068295995,0.3495835414301668,2.6619824396774385,-0.1593117528191633,-0.1120166902141521,-0.16328321997857,1.5925268714559218,-0.6090143322557185,-0.4529781553008878,-1.4000193463793678,8.998935374421308,-1.473123880018163,0.1147722753995701,-1.170725548155058
0.1,0.6793207361751552,0.3526274455596562,2.6582170571772594,0.082515166982846,0.071504486141901,0.0280198494527192,-0.0175350316985519,-0.0099007358617803,-0.1389295122168719,0.6736024717910977,0.348157118229407,2.6599167752957484,-0.1993117534152097,-0.1391470436649272,-0.2032832205746165,1.8213024632869708,-0.9863248525038708,-0.6789473690233024,-1.3723470472896937,9.002968149526623,-1.4962237895844903,0.1011450062639697,-1.131486873731606
0.12,0.6787075335977407,0.3522531917715365,2.655153421267785,0.0937123305570831,0.053977684627213,0.0269611921659672,-0.0428072153996789,-0.0265440450171516,-0.1660380683743148,0.6696162367227935,0.3453741773561085,2.655851110884256,-0.2393117540112561,-0.1662773971157023,-0.2432832211706629,2.031352274721208,-1.2636091850563498,-0.8321654577685645,-1.355427807872145,9.030098071062184,-1.5152233529798806,0.0904387075633064,-1.0985405866531144
0.14,0.6776203417282797,0.3515711420630065,2.6517349287659737,0.1025604107867689,0.0406896782131544,0.0259528105324036,-0.0702410541995189,-0.0441172818794789,-0.1924131464399043,0.6656300016544893,0.3425912364828099,2.651785446472764,-0.2793117546073027,-0.1934077505664775,-0.2832832217667094,2.095876253551841,-1.3716919399919982,-0.8786618431163613,-1.3187539032794735,9.061520074686996,-1.5257317851184686,0.0808887591566241,-1.0699583349386514
0.16,0.6758873274174532,0.3504766081696697,2.647587862653282,0.1100291763567642,0.0306432125632939,0.0250355792738735,-0.1015822380397131,-0.0641507023867569,-0.2208866609604542,0.6606437665712839,0.339130036773242,2.6467197820463704,-0.3193117552033491,-0.2205381040172527,-0.3232832223627558,2.34219382784509,-1.5670591920097134,-1.0016710253639032,-1.4236757260274984,9.0403199587372,-1.5324616847934225,0.0736054305665538,-1.0460652238067958
0.18,0.6734996157373153,0.3489667614270159,2.6428670143196618,0.1155588917748375,0.0252227124698427,0.0244182643327188,-0.1355145108322576,-0.0853627263496108,-0.2496984559751613,0.6546575314731774,0.3349905782274047,2.6406541176050755,-0.3593117557993955,-0.2476684574680278,-0.3632832229588023,2.4654962124478303,-1.6966136396272244,-1.060601198142693,-1.440589750735352,9.020240462360562,-1.5342713427278896,0.0686314487595047,-1.028957924130774
0.2,0.6705937501899776,0.3471347044006647,2.637847443075722,0.119213275741099,0.0248191886472253,0.0242422151270669,-0.1680588774170212,-0.1060211970496957,-0.2771343706129037,0.6667238901957024,0.3446986251095353,2.630382091520904,-0.2355145123223737,-0.1646072282383628,-0.3496984574652774,2.3657121655429827,-1.627218329238178,-1.0329235350042458,-1.371795731887118,9.020240462360562,-1.5288315053715598,0.0646254612566242,-1.021062242209474
0.22,0.6668573618702918,0.344706257830031,2.6321670270527986,0.1198744295199224,0.0297588037096821,0.0244706863856385,-0.2032097929675555,-0.1351068042688022,-0.2884061891052671,0.6667238901957024,0.3446986251095353,2.630382091520904,-0.2355145123223737,-0.1646072282383628,-0.3496984574652774,2.3497943013536946,-1.7575457775267158,-1.4542803609553234,-0.5635909246181708,9.006850395136098,-1.5172704686607523,0.064408269930778,-1.012605607992058
0.24,0.6624688815774193,0.3417268813797739,2.6262779618090786,0.1168476843075447,0.0396009983193283,0.0250150205793307,-0.2332180276451732,-0.1608317168214873,-0.3000874696598705,0.6667238901957024,0.3446986251095353,2.630382091520904,-0.2355145123223737,-0.1646072282383628,-0.3496984574652774,2.0607750906549867,-1.5004117338808851,-1.286245627634254,-0.584064027730169,9.87617982269694,-1.502672438911904,0.0664253911555641,-1.024833901542165
0.26,0.657534627582278,0.3382794475725789,2.6201175834348778,0.1120492998441368,0.0519806941040579,0.0256865677951507,-0.2581530875699802,-0.182171062415085,-0.3152761569619042,0.6643687450724787,0.3430525528271517,2.626885106946251,-0.255514512620397,-0.1804561286161132,-0.3696984577633007,1.8081904668588404,-1.2467529962403494,-1.0669672796798868,-0.7594343651016883,9.87617982269694,-1.4874686713726182,0.0700485862260487,-1.0396008632888545
0.28,0.6524320389754553,0.3346424586699451,2.6139534108275537,0.107269190759113,0.0644954395283032,0.0263345735306573,-0.2773776945028566,-0.1995115327429804,-0.3328103877527631,0.6596584548260312,0.3397604082623844,2.6198911377969454,-0.2955145132164434,-0.212153929371614,-0.4096984583593471,1.5634310604751027,-0.9612303466438182,-0.8670235163947673,-0.8767115395429459,9.64008657352315,-1.470339810808443,0.0741990325943354,-1.055775996773798
0.3,0.6467089076303809,0.3304811099311454,2.607074410531808,0.1026320548297936,0.0772465491225808,0.0269371325201234,-0.2936246504348822,-0.2156885981226892,-0.3543247010386608,0.6549481645795837,0.3364682636976172,2.61289716864764,-0.3355145138124898,-0.2438517301271148,-0.4496984589553935,1.5720422207436964,-0.8123477966012815,-0.8088532689854419,-1.0757156642948822,9.440778819109257,-1.4535829001409992,0.0780902094658731,-1.070665988936336
0.32,0.640696352455351,0.326011254980682,2.599735363040455,0.0986199786424431,0.0887340967024658,0.0274008454613889,-0.3066332778635097,-0.2305108184174532,-0.3786327094775144,0.6482378743033339,0.3315912290950749,2.603903199468532,-0.3755145144085363,-0.2755495308826156,-0.48969845955144,1.5650893555215395,-0.6504313714313759,-0.741111014738198,-1.2154004219426806,9.264847043711598,-1.438185422360872,0.0814885998679471,-1.0828375602111513
0.34,0.6344524209792928,0.3212562613869476,2.591890707786692,0.0952871116419143,0.0984340858426628,0.0276966567705832,-0.3170762049877317,-0.2443624350396719,-0.4046305081876145,0.6415275840270841,0.3267141944925326,2.594909230289424,-0.4155145150045828,-0.3072473316381164,-0.5296984601474866,1.562696025896927,-0.5221463562111006,-0.6925808311109394,-1.2998899355050024,9.124904149636675,-1.4252781623655058,0.0841780123603638,-1.090999365349863
0.36,0.6283409547183206,0.316482160767485,2.5839458025128503,0.0925053380000277,0.105939207076886,0.027816436374982,-0.3257046706077902,-0.2574458091957369,-0.4303731620079539,0.6338172937359332,0.3210447148711028,2.5849152610954147,-0.4555145156006292,-0.3389451323936172,-0.5696984607435329,1.5069085273980276,-0.4314232810029239,-0.654168707803246,-1.2871326910169734,9.052382587863576,-1.4138300531371706,0.0866792052004008,-1.0959556950033784
0.38,0.6217400916609376,0.3111932541154529,2.575043419762128,0.0897797274000256,0.1122421865363783,0.0277902758974682,-0.3338987344217222,-0.2707043953418366,-0.4585579585240542,0.625107003429881,0.3145827902307855,2.5739212918865046,-0.4955145161966756,-0.3706429331491179,-0.6096984613395794,1.6103691681058043,-0.4097031906966003,-0.6629293073049852,-1.4092398258050114,9.003008827085068,-1.403931364079677,0.0888838517148208,-1.0993830856036066
0.4,0.6149824427634449,0.3056437107037233,2.565567667484676,0.08717852363673,0.1171293837196778,0.0276321983852796,-0.3414690574287934,-0.283517595555506,-0.4875948748627918,0.6050451549398514,0.2976580343483611,2.5521155218359253,-0.4338987359118383,-0.3201958716094128,-0.5585579600141704,1.631433725753073,-0.3785161503535611,-0.640660010683472,-1.4518458169368835,8.945379175921516,-1.3953822668621618,0.0909060887042121,-1.1012263926606325
0.42,0.6081114748413634,0.2997386055183174,2.555738056862186,0.0819239849910458,0.1207956816823642,0.0271716450739968,-0.3453205580912003,-0.3043554077512864,-0.4937184996259728,0.6050451549398514,0.2976580343483611,2.5521155218359253,-0.4338987359118383,-0.3201958716094128,-0.5585579600141704,1.1028908090778702,-0.1925750331203429,-1.0418906097890173,-0.3061812381590478,8.906080799133633,-1.3884884181237915,0.0953252371850438,-1.0994140943083763
0.44,0.6015205184458725,0.2938154654237088,2.5462699239604487,0.0748917676761836,0.1230083285810142,0.0264789454372528,-0.3484098416488682,-0.3177001519343329,-0.5026430507692943,0.6050451549398514,0.2976580343483611,2.5521155218359253,-0.4338987359118383,-0.3201958716094128,-0.5585579600141704,0.8174250475126021,-0.1544641778833927,-0.6672372091523271,-0.4462275571660734,10.231412552962864,-1.3854417695247896,0.1021534163112706,-1.099309122187536
0.46,0.5945141790324533,0.2873497841633971,2.536073911981965,0.0673426631390679,0.1238858936093564,0.0256327148506541,-0.3521765932456558,-0.3279965722683924,-0.5166887847755756,0.600706167580733,0.294456075632267,2.546529942235784,-0.4538987362098616,-0.330094166862928,-0.5785579603121935,0.8909087117414776,-0.1883375798393843,-0.5148210167029765,-0.7022867003140643,9.932033642513488,-1.38340430465853,0.1090838502909319,-1.0971332850014317
0.48,0.5874262706091399,0.2807057038226989,2.525549549489742,0.0603557044941454,0.1233361445883439,0.0247442218986503,-0.3565165683165923,-0.3359001200435966,-0.5350117261705136,0.5920281928624963,0.2880521582000787,2.5353587830355,-0.493898736805908,-0.3498907573699585,-0.61855796090824,1.0210676182477076,-0.2169987535468209,-0.3951773887602067,-0.9161470697469032,9.650757645230442,-1.3815492699934908,0.1152928043312158,-1.0940391359723285
0.5,0.5802455388128894,0.2739222019926079,2.514625237068702,0.0541668453758366,0.1213594139733467,0.023850561438879,-0.3614346639981544,-0.3421258806269709,-0.5564849435106306,0.5833502181442596,0.2816482407678904,2.5241876238352168,-0.5338987374019545,-0.369687347876989,-0.6585579615042865,1.1446034497921076,-0.2459047840781048,-0.3112880291687159,-1.073660867005849,9.257950790612083,-1.3806357552283797,0.1204017098521758,-1.089218851683882
0.52,0.5733257920869419,0.2673749294831129,2.5038260478151666,0.0490886439431251,0.1181363237506579,0.0230149241611287,-0.3668150369361085,-0.3468536165435536,-0.5791807716980303,0.5726722433962205,0.2742544938103506,2.511016464605131,-0.573898737998001,-0.3894839383840195,-0.6985579621003329,1.1899585254961422,-0.2690186468977062,-0.2363867958291354,-1.134791409369984,9.124799108881234,-1.3806028989777768,0.1248979018803445,-1.0820081181478751
0.54,0.5659215816184783,0.2603953515885985,2.4919812824494585,0.0445842992059128,0.113366788667657,0.0221630027287497,-0.3735726389124464,-0.3509319441147587,-0.6041294001690527,0.5619942686481814,0.2668607468528109,2.4978453053750456,-0.6138987385940474,-0.40928052889105,-0.7385579626963794,1.3083692166527086,-0.3378800988168978,-0.2039163785602565,-1.2474314235511208,9.124799108881234,-1.3818101548587116,0.1285188503717499,-1.0721018058951988
0.56,0.558356397425344,0.2533368108429568,2.4796330766383345,0.0407708345876237,0.1077931365166038,0.0213615322750329,-0.382811698202973,-0.3547328357838362,-0.6294409352784501,0.5503162938852412,0.2589720851325953,2.4836741461300584,-0.6538987391900938,-0.4290771193980805,-0.7785579632924258,1.3605888464633484,-0.461952964526327,-0.1900445834538716,-1.2655767554698716,9.0606534008748,-1.3838734630103644,0.1314543919583025,-1.06095665092227
0.58,0.550582061099881,0.2462067646961873,2.466774720553314,0.0374554471894172,0.1022893520217355,0.0206338432118942,-0.3942411403043993,-0.3581036487271537,-0.6551153978566524,0.5376383191073997,0.250588508649704,2.4685029868701704,-0.6938987397861403,-0.448873709905111,-0.8185579638884722,1.4152495851688152,-0.5714721050713134,-0.1685406471658768,-1.2837231289101136,9.034916332795548,-1.3855171022750667,0.1337625455211157,-1.051444108589627
0.6,0.5429663426833322,0.2393749559788892,2.454079439886928,0.0346762869755807,0.0976914752076762,0.0200218024426976,-0.4069116093089515,-0.3608816330517184,-0.679940961767751,0.530870004084661,0.2283015822598297,2.434018950660481,-0.4942411417945154,-0.3985269525696983,-0.7551153993467685,1.4005058061347757,-0.6335234502276132,-0.1388992162282359,-1.241278195554929,8.979912899561896,-1.3864434626903974,0.1358095202899169,-1.043818068199974
0.62,0.5346415028794637,0.2321097231129696,2.4404279382055343,0.0316804859255886,0.0957865661446135,0.019497789994808,-0.4249187216371805,-0.3652953912028197,-0.6827278634346227,0.530870004084661,0.2283015822598297,2.434018950660481,-0.4942411417945154,-0.3985269525696983,-0.7551153993467685,0.9374222318660356,-0.9003556164114468,-0.2206879075550644,-0.1393450833435838,8.979912899561896,-1.386026440251139,0.1380797040164715,-1.0332372691591658
0.64,0.525968236379389,0.2247751843013914,2.4267246195715177,0.0287200294836805,0.0984762534388168,0.0191359055351356,-0.4409769260458585,-0.3679093986401855,-0.6878505940985621,0.530870004084661,0.2283015822598297,2.434018950660481,-0.4942411417945154,-0.3985269525696983,-0.7551153993467685,0.8528501233639417,-0.8029102204339028,-0.1307003718682892,-0.2561365331969711,10.41248602520227,-1.381416394388176,0.1402271456567062,-1.0391730649699706
0.66,0.517459222575486,0.217769286738179,2.413552546797412,0.0262800568656456,0.1035849790235328,0.0188943982413845,-0.4535540501782892,-0.3694716710666341,-0.6984139072399375,0.5259275926667158,0.2243163127341327,2.426467796667014,-0.5142411420925386,-0.4066116133382071,-0.7751153996447917,0.8249368628867384,-0.6288562066215336,-0.0781136213224314,-0.5281656570687687,10.077956711281333,-1.3732946666732326,0.1421536318145117,-1.0489006192461947
0.68,0.5082734598143426,0.2103698257054354,2.3994228064337526,0.0241507547625389,0.110274336982687,0.0187041867342568,-0.4640798192358554,-0.3704323492389841,-0.7142236135122528,0.5160427698308255,0.2163457736827387,2.411365488680078,-0.554241142688585,-0.422780934875225,-0.8151154002408382,0.950870034785164,-0.5262884528783096,-0.048033908617498,-0.7904853136157686,9.755438325734758,-1.3631118275206546,0.1436669764566738,-1.0600377282411186
0.7000000000000001,0.4989024926318842,0.2029574608209045,2.3849300970702365,0.0225097673870659,0.1172932353564693,0.018555434107371,-0.4722923798730961,-0.3708426706079094,-0.734256256639044,0.5061579469949352,0.2083752346313447,2.396263180693143,-0.5942411432846315,-0.4389502564122428,-0.8551154008368846,1.0827295443594485,-0.410628031862037,-0.0205160684462635,-1.0016321563395605,9.295852030071728,-1.3521188536034814,0.1447292811615859,-1.0711004065064995
0.72,0.489866993682733,0.195913539091879,2.3707605441294084,0.0214629822644296,0.1236455438303971,0.0184447594604382,-0.478299183625412,-0.3706654951313343,-0.7562829678674222,0.4942731241292425,0.1995962295030999,2.379160872676405,-0.634241143880678,-0.4551195779492606,-0.8951154014329311,1.141587808719392,-0.300340187615794,0.0088587738287543,-1.101335561418909,9.141720812838685,-1.3417646337903857,0.1452584767690178,-1.080607728819185
0.74,0.4802501173692478,0.1885080864923238,2.355375186527363,0.0210918027933526,0.129565058586089,0.0183686928148003,-0.4829850192100912,-0.3699404277298166,-0.7811745752272234,0.4823883012635499,0.190817224374855,2.362058564659668,-0.6742411444767245,-0.4712888994862785,-0.9351154020289776,1.2669598403441007,-0.2342917792339582,0.0362533700758838,-1.244580367990061,9.141720812838685,-1.331575410112761,0.1451205001181832,-1.0895977593984598
0.76,0.4705498929202611,0.1811169145785017,2.3394807230306287,0.0215562575474682,0.134549587369006,0.0183410935627458,-0.4867476640043656,-0.3692630137347785,-0.8070692130556475,0.4695034783829561,0.1816339862081847,2.3439562566280285,-0.7142411450727708,-0.4874582210232963,-0.975115402625024,1.3087672194032482,-0.188132239713723,0.0338706997519061,-1.2947318914212025,9.062335144638382,-1.322356177783738,0.1441693275702545,-1.0971493631929123
0.78,0.4607825065025182,0.1737378019632112,2.3230590771644035,0.0228267999262647,0.1386696542599197,0.0183632692868549,-0.4897764949269431,-0.3687592120527578,-0.8338081448391274,0.4556186554874612,0.172046515003089,2.3248539485814885,-0.7542411456688173,-0.5036275425603142,-1.0151154032210703,1.3457322410252697,-0.1514415461288748,0.0251900841010316,-1.336946589173993,9.022749040435883,-1.3143486808271092,0.1425194564620541,-1.103260736675495
0.8,0.4514530342525675,0.1667334656733441,2.306956426171866,0.0247369096290758,0.1418566069329024,0.0184286235778466,-0.4921118605615023,-0.3686389099533439,-0.8598730033522393,0.436293681756171,0.1552998413605733,2.281368669922448,-0.5897764964170593,-0.3868467872648788,-0.9338081463292436,1.308477411488966,-0.1167682817279608,0.0060151049706969,-1.3032429256555955,8.98831145332315,-1.3072588794743825,0.1400685671865526,-1.10764093929174
0.8200000000000001,0.4416029111634301,0.1592497138813672,2.289699618389684,0.0241373626220102,0.1452372944984779,0.018326872223967,-0.4924861830027504,-0.3790112711148346,-0.8631975762936583,0.436293681756171,0.1552998413605733,2.281368669922448,-0.5897764964170593,-0.3868467872648788,-0.9338081463292436,0.5449283865730402,-0.0187161220624038,-0.5186180580745353,-0.1662286470709539,8.957480603946351,-1.3003996407227414,0.1401737671347641,-1.1022594190321826
0.84,0.4317671366154501,0.1515929702592728,2.2723826190198464,0.0190372071493714,0.1488871925326607,0.0179198685259455,-0.4910197312209363,-0.3849926614017616,-0.8686865275207347,0.436293681756171,0.1552998413605733,2.281368669922448,-0.5897764964170593,-0.3868467872648788,-0.9338081463292436,0.412480593986414,0.0733225890907074,-0.2990695143463506,-0.2744475613538188,10.428143926089431,-1.296984757201347,0.1448387887257964,-1.1062521990125784
0.86,0.4224587275505146,0.1442650052998311,2.2557717473946237,0.0127374202041573,0.1517816592861316,0.0174189931820733,-0.4889245660929431,-0.3857599177670356,-0.8795210721827483,0.4303959167920004,0.1514313734879245,2.2720305884591547,-0.6097764967150825,-0.390464302307303,-0.9538081466272668,0.5530952840080537,0.104758256399659,-0.0383628182637013,-0.5417272331006806,10.110772147596435,-1.2931509674699733,0.1513325041631934,-1.1108636101884866
0.88,0.4127063100635926,0.136568581849155,2.238017608453583,0.0060722815966416,0.1538185791155707,0.0168799998563646,-0.486496632729556,-0.3837118564994174,-0.8955222999480957,0.4186003868636592,0.143694437742627,2.25335442553257,-0.649776497311129,-0.3976993323921515,-0.9938081472233132,0.8156725834725148,0.1213966681693545,0.1024030633809097,-0.8000613882673702,9.79690027336892,-1.2893750237930912,0.1578762264066044,-1.1143172412520443
0.9,0.4030019335485049,0.1289338275575035,2.219902704202742,-7.308607513132066e-05,0.1546277674079476,0.0163822560510805,-0.4841587525942453,-0.379833615510913,-0.9153060441058284,0.406804856935318,0.1359575019973294,2.234678262605985,-0.6897764979071754,-0.4049343624769999,-1.0338081478193597,1.0147696408429514,0.116894006765536,0.1939120494252239,-0.9891872078866272,9.352062697699694,-1.2862952054422838,0.1639012387112051,-1.116039418623787
0.92,0.3933429231430771,0.1213911187475588,2.20136135465477,-0.0054941574704469,0.1540876187812833,0.0159566185168533,-0.4819121135682405,-0.3746499496101464,-0.9379419222592924,0.3930093269771745,0.1278588147477894,2.214002099649598,-0.7297764985032219,-0.4121693925618482,-1.0738081484154058,1.166512707670181,0.1123319513002374,0.259183295038326,-1.1317939076732009,9.352062697699694,-1.284280283614462,0.1689572446647857,-1.116173062011819
0.94,0.3842109016695033,0.1143324120379878,2.1833142779757737,-0.0098851943951538,0.1520359467635429,0.0156405900696961,-0.4795627310491598,-0.3687397882665292,-0.9605911460465438,0.379213797019031,0.1197601274982494,2.1933259366932107,-0.7697764990992684,-0.4194044226466967,-1.1138081490114524,1.176262028093178,0.1174691259540366,0.2955080671808607,-1.132461189362577,9.209011520703823,-1.2841620191736325,0.1734769436856487,-1.113106565467729
0.96,0.3746414222364592,0.1070291739065978,2.163846706572613,-0.0137787446820406,0.1480514817921827,0.0154112781103611,-0.477645867511574,-0.3619420951514958,-0.9849787147507792,0.3644182670459863,0.1114805644965882,2.1716497737219225,-0.8097764996953147,-0.4266394527315451,-1.1538081496074988,1.2694846442668202,0.0958431768792872,0.3398846557516738,-1.219378435211771,9.15771431412304,-1.286096952324701,0.1772326544798035,-1.107221420547138
0.98,0.3650937298622599,0.0998681971578801,2.143889690140884,-0.0169899364851387,0.1424130688695997,0.0152909342575872,-0.4775464224957423,-0.3545632672699873,-1.009477546684256,0.3486227370580405,0.1030201257428058,2.148973610735733,-0.8497765002913612,-0.4338744828163935,-1.1938081502035451,1.2793062146343643,0.004972250791585,0.3689413940754227,-1.2249415966738395,9.107592682909852,-1.2898196062417515,0.1802786059220968,-1.0985731274223336
1.0,0.355523562720201,0.0928604398377004,2.123442352705341,-0.0195350498695722,0.1358513004019104,0.015270763440628,-0.4797223861335308,-0.346712839135196,-1.0339985089385604,0.3412164087374728,0.0821400337943807,2.0934158128066715,-0.5775464239858585,-0.3424125782417838,-1.1094775481743722,1.2919381075824778,-0.1087981818894218,0.3925214067395627,-1.2260481127152167,9.107592682909852,-1.293832622710584,0.1825318704847789,-1.08936960773248
1.02,0.3463331821091013,0.0862739565728901,2.103807176149129,-0.0240242064365825,0.1316207857332922,0.0151020006223503,-0.4875729561951567,-0.3452413057513598,-1.0316592913567455,0.3412164087374728,0.0821400337943807,2.0934158128066715,-0.5775464239858585,-0.3424125782417838,-1.1094775481743722,0.416139398781567,-0.3925285030812964,0.0735766691918105,0.1169608790907439,9.094509414403548,-1.2963675651778022,0.1862029737171447,-1.068282455864575
1.04,0.3364977609773711,0.0794371063015214,2.0831619655045563,-0.0309650859745315,0.131603257142384,0.0147001557790832,-0.495067017549104,-0.3380273835510141,-1.03336700984134,0.3412164087374728,0.0821400337943807,2.0934158128066715,-0.5775464239858585,-0.3424125782417838,-1.1094775481743722,0.5270624524475103,-0.3747030676973656,0.3606961100172862,-0.0853859242297305,10.665417358567538,-1.296498579859165,0.193337541077128,-1.071700117979186
1.06,0.3265382993779389,0.0727869895970421,2.0624165558242846,-0.0382031329933035,0.1342480818383259,0.0142126842334859,-0.5002561363923064,-0.3271981230850457,-1.041354821078502,0.3354409444976142,0.0787159080119629,2.082321037324928,-0.5975464242838817,-0.3399824404361431,-1.1294775484723951,0.7211188615082684,-0.2594559421601167,0.5414630232984191,-0.3993905618580928,9.93300015054865,-1.2936453773226964,0.2004536930526317,-1.077900080973975
1.08,0.3169987614346178,0.066692311414532,2.042505196350467,-0.0445277723404556,0.1378866044501621,0.0137480713611054,-0.5034858966747909,-0.3149322564232559,-1.0541657559042308,0.3238900160178971,0.0718676564471272,2.06013148636144,-0.6375464248799282,-0.3351221648248617,-1.169477549068442,0.9013918231770696,-0.161488014124228,0.6132933330894902,-0.6405467412864407,9.93300015054865,-1.2885061657399162,0.2073900130561282,-1.085329887260555
1.1,0.3069069993390504,0.0605418974742985,2.021241544310513,-0.0503561572589924,0.1419768233101828,0.0133050113683317,-0.5054101613507563,-0.3007938083188377,-1.071708459005326,0.3123390875381799,0.0650194048822915,2.037941935397953,-0.6775464254759747,-0.3302618892135803,-1.2094775496644885,1.130646873959409,-0.0962132337982701,0.7069224052209111,-0.8771351550547646,9.4512044925832,-1.2817766439206306,0.2134345486343027,-1.0923450989104029
1.12,0.2967895345045727,0.054686538783446,1.999588798465436,-0.055210623505311,0.1457108619572317,0.0129507515358304,-0.5062030305347059,-0.2856137394860289,-1.0926751759129345,0.2987881590286604,0.0584141670980199,2.013752384404663,-0.7175464260720211,-0.3254016136022989,-1.2494775502605346,1.29486133349817,-0.0396434591974803,0.7590034416404406,-1.0483358453804217,9.4512044925832,-1.2753520127142852,0.2182761348208611,-1.0980481316001631
1.14,0.2866672081419585,0.0491434835114149,1.977501263368706,-0.0590779535751674,0.1487199483943535,0.0127139457289228,-0.5060073180977696,-0.269648322978095,-1.1150190792861496,0.2852372305191409,0.0518089293137483,1.9895628334113733,-0.7575464266680676,-0.3205413379910176,-1.2894775508565812,1.3731194827666626,0.0097856218468195,0.7982708253966964,-1.1171951686607562,9.238038831796985,-1.2692308446042395,0.2223487659146247,-1.1018818697157808
1.16,0.2770579324440465,0.0441803801285524,1.9560969631551388,-0.0618135272796526,0.1508310971882723,0.0126111806931402,-0.5055227612432319,-0.2538168266143388,-1.1369355219711996,0.2706863019947202,0.0453251984197587,1.9643732824031823,-0.797546427264114,-0.3156810623797361,-1.3294775514526276,1.3520369192703157,0.0242278427268816,0.7915748181878096,-1.0958221342525,9.238038831796985,-1.2639366876766496,0.2254325978814733,-1.1045597960095872
1.18,0.2669545460278685,0.0392833092628024,1.933107737667947,-0.0637475519904381,0.1523541200423435,0.0126287079340568,-0.5048580379926513,-0.2368888183930197,-1.1608619259389523,0.2551353734553984,0.0389629744160512,1.9381837313800905,-0.8375464278601604,-0.3108207867684547,-1.369477552048674,1.465837752079847,0.0332361625290322,0.846400411065952,-1.1963201983876348,9.207702094147862,-1.2592757927239684,0.2275637818096141,-1.106471529773546
1.2,0.2568653542774181,0.0347316726323319,1.909632799303876,-0.0646017638467509,0.153230450832568,0.0127809016072741,-0.5041177431053998,-0.2192356675022675,-1.185422344889398,0.2417116441282359,0.0274388683431514,1.8750646413709997,-0.576628400548632,-0.22247107601401,-1.2608619274290684,1.512775554992522,0.0370147443625734,0.88265754453761,-1.2280209475222903,9.163769374305955,-1.2554482301628327,0.2285673252500047,-1.1072644701515026
1.22,0.2472680188748253,0.0307339815222877,1.8871287300223745,-0.0648103599009462,0.1556077016455024,0.0128832735755215,-0.5055619245471265,-0.2023468831558052,-1.1822536675253088,0.2417116441282359,0.0274388683431514,1.8750646413709997,-0.576628400548632,-0.22247107601401,-1.2608619274290684,0.8622024312416884,-0.0722090720863322,0.8444392173231174,0.1584338682044661,9.137345261205157,-1.2531715119188724,0.2284793892535932,-1.1028471770407542
1.24,0.2371648306358552,0.0268833876563128,1.863479141379074,-0.0645120396013678,0.160897644912888,0.0128622519298574,-0.5043253313344532,-0.1836925130699744,-1.1832596389419667,0.2417116441282359,0.0274388683431514,1.8750646413709997,-0.576628400548632,-0.22247107601401,-1.2608619274290684,0.9361178672633842,0.061829660633661,0.9327185042915368,-0.0502985708328962,10.75910649648722,-1.247152677814032,0.22912929014569,-1.1155511188932736
1.26,0.2271085353939891,0.0234172002640108,1.839740373830926,-0.0628293253312371,0.1676024061723308,0.0128671479210338,-0.5010472007200325,-0.1641648979970118,-1.1905545155213864,0.2359453601227496,0.0252141575830113,1.8624560220967088,-0.5909824730598281,-0.2195875275382081,-1.2808619277270916,1.055093734072908,0.1639065307210363,0.9763807536481316,-0.3647438289709814,10.07105618352034,-1.2390978493066227,0.2281070083516927,-1.1279395371331986
1.28,0.2171363620438521,0.0203370897042552,1.815805912695049,-0.0592829089730583,0.1748952097975953,0.0129964666331778,-0.4960574210479125,-0.1455840369570957,-1.202504582456811,0.2244127921117769,0.0207647360627311,1.8372387835481276,-0.6196906180822204,-0.2138204305866042,-1.3208619283231382,1.1324204143361498,0.2494889836059999,0.9290430519958036,-0.5975033467712332,10.07105618352034,-1.2298916502893822,0.225210996610853,-1.140189225733576
1.3,0.2077697465378681,0.0177326108478407,1.7928121679560745,-0.0547923960708805,0.1819432987358544,0.0132287485011363,-0.4899471898224152,-0.1299363879993858,-1.2172871581959,0.2128802241008043,0.0163153145424509,1.812021544999546,-0.6483987631046126,-0.2080533336350003,-1.3608619289191846,1.1188257114209792,0.3055115612748654,0.7823824478854976,-0.7391287869544461,9.828461512358444,-1.219690964450506,0.2207578635292554,-1.15218990935919
1.32,0.1980492001055386,0.0152923279640623,1.768274647816258,-0.0493960717167754,0.1892423470599735,0.0135714774505425,-0.4822474365985828,-0.1152453288883825,-1.2358245684822804,0.199912248838712,0.0121542478697509,1.7848043064211625,-0.6771069081270049,-0.2022862366833964,-1.400861929515231,1.243733288969658,0.3849876611916186,0.7345529555501634,-0.9268705143190226,9.642310296497271,-1.2092180956143432,0.2154286188857142,-1.1633191053607803
1.34,0.1885039748200557,0.0131307927876726,1.7433490878149989,-0.0435494581388746,0.196070760449611,0.0140152321868846,-0.4725154625303729,-0.1019484802225229,-1.2558517184897953,0.1869442735766198,0.0079931811970508,1.7575870678427783,-0.7058150531493972,-0.1965191397317925,-1.4408619301112775,1.29673073643932,0.4865987034104929,0.6648424332929802,-1.0013575003757436,9.48546632925354,-1.1990147767910415,0.2095133560062999,-1.1733080385491568
1.36,0.179634438001064,0.0113124645991367,1.719289236795054,-0.0376362287335901,0.2016827879777028,0.0145397863478966,-0.4615781185606825,-0.0904532537885337,-1.2757573427051985,0.1732585946889677,0.0039762919481409,1.7293698292494937,-0.7345231981717895,-0.1907520427801886,-1.480861930707324,1.272791812596285,0.5468671984845241,0.5747613216994587,-0.9952812107701604,9.428986561254533,-1.1902780261699812,0.2034419071416457,-1.1813616672737564
1.38,0.1705355021626482,0.0096186348671769,1.6935445966724847,-0.0311592340973744,0.2064121206626818,0.0151885845864787,-0.4488681084047186,-0.0798155764699146,-1.2976982590202886,0.1588552121757558,0.0001035801230211,1.7001525906413075,-0.7632313431941817,-0.1849849458285847,-1.5208619313033702,1.3748712172832365,0.6355005077981923,0.5318838659309578,-1.0970458157545049,9.396261303400024,-1.182376945179317,0.1967200037673531,-1.1881017120517294
1.4,0.1617015162745786,0.0081231325816006,1.6673533525036708,-0.0245099178415126,0.2097697550370897,0.0159177235144937,-0.4351942326237499,-0.0705401050128485,-1.3203420388465503,0.1480920967424123,0.0056278560436811,1.6286596837214702,-0.4873938946555483,-0.0640502708614036,-1.3216081016157466,1.4015616419234185,0.683693789048434,0.4637735728533022,-1.1321889913130878,9.35002216322846,-1.1760367945738797,0.1897577165625637,-1.1928197560827971
1.42,0.1532140610657594,0.0067477802517089,1.641196276631084,-0.0197893487135618,0.2128904163945505,0.0165349761410603,-0.4139970068703038,-0.066356580110016,-1.294313167384742,0.1480920967424123,0.0056278560436811,1.6286596837214702,-0.4873938946555483,-0.0640502708614036,-1.3216081016157466,1.691394698045459,1.059861287672309,0.2091762451416248,1.3014435730904106,9.321381090191608,-1.177015608711288,0.1849015373261106,-1.185883530010682
1.44,0.1455533638409135,0.0055508164645939,1.6168226064856217,-0.0169081571532982,0.2164422860617146,0.0170077530958851,-0.3933280153009991,-0.0598234705108694,-1.2728002996282533,0.1480920967424123,0.0056278560436811,1.6286596837214702,-0.4873938946555483,-0.0640502708614036,-1.3216081016157466,1.527000501501742,1.0334495784652342,0.3266554799573329,1.0756433878244431,12.379980899630937,-1.176469762784489,0.1826107510538391,-1.1962424054018954
1.46,0.137919997412137,0.0044305991157116,1.5915534660666395,-0.0142755872268976,0.2203075832109541,0.017485219303044,-0.3710237340726201,-0.0526220629666184,-1.25549584490101,0.1432181577958568,0.0049873533350671,1.6154436027053127,-0.4950990519057142,-0.0608972097397014,-1.326390070134838,1.4566960777219635,1.115214061418948,0.3600703772125461,0.865222736362159,11.98071903633172,-1.1750418378301268,0.1806792685217222,-1.2062279517609331
1.48,0.1307526894173909,0.0034520450936903,1.5665739428271193,-0.0116911612172412,0.2233261653379135,0.0179794361083884,-0.3469414313683235,-0.0457241444522683,-1.2432926515705964,0.1334702799027458,0.003706347917839,1.5890114406729978,-0.5105093664060462,-0.054591087496297,-1.3359540071730214,1.3932484620765229,1.204115135214831,0.344895925717506,0.6101596665206821,11.640292413265342,-1.1742255339735623,0.1788072371063733,-1.214074904047437
1.5,0.1244010588997817,0.0026451156975785,1.543033801023467,-0.0092045125767008,0.2244435000273087,0.0184749565860466,-0.323059384100508,-0.0396778205458902,-1.235193443139627,0.1237224020096349,0.002425342500611,1.562579278640683,-0.525919680906378,-0.0482849652528926,-1.3455179442112046,1.2966373738359742,1.1941023633907757,0.3023161953189072,0.4049604215484725,11.157433396745546,-1.1753027431936802,0.1766947582553541,-1.218740201210441
1.52,0.1182113279632401,0.001912842566463,1.5183943740335522,-0.0065824485305057,0.2230224258991514,0.0190168787116789,-0.2972603713908882,-0.0339641478665029,-1.2292640965166552,0.1132040083915073,0.0014596431955531,1.5356689197564588,-0.5413299954067099,-0.0419788430094882,-1.355081881249388,1.3540608033371766,1.2899506354809909,0.2856836339693653,0.2964673311485866,11.157433396745546,-1.1791529989641905,0.1745166029457927,-1.2199358095401798
1.54,0.112547140978753,0.0012883333955432,1.4938687499537704,-0.0040042710394377,0.2179728417874262,0.019565788615693,-0.2709223619808472,-0.0288628380038901,-1.223491333001783,0.1026856147733797,0.0004939438904952,1.5087585608722347,-0.5567403099070417,-0.0356727207660838,-1.3646458182875711,1.3720777133570456,1.3169004705020495,0.2550654931306399,0.2886381757436163,11.011957223448007,-1.18747032477155,0.1723160425783478,-1.2151616207004703
1.56,0.107634628896049,0.0007845253952068,1.4706835167562236,-0.0015991667331351,0.209757800723938,0.0200751885941167,-0.248143049390251,-0.0245252324094183,-1.2172354421476357,0.0917819632927439,-0.0003141023584774,1.481609103562056,-0.5721506244073736,-0.0293665985226794,-1.3742097553257542,1.2008830862872182,1.1389656295298047,0.2168802797235898,0.3127945427073619,11.011957223448007,-1.19954148616481,0.1702528972711344,-1.20564050797055
1.58,0.102894243756034,0.0003361314679932,1.4464140840092718,0.0008620959191343,0.1983390672441113,0.0205776543731904,-0.2277016484539189,-0.0206281534920201,-1.2099274526592074,0.0804930539495998,-0.000964495551365,1.454220547825923,-0.5875609389077054,-0.0230604762792751,-1.3837736923639374,1.102774689920032,1.0220700468166088,0.1948539458699079,0.3653994744214128,11.026110487401638,-1.2152839360436627,0.1681571644196131,-1.1920440268381234
1.6,0.0985217880869525,-4.123087365487176e-05,1.4222965107148435,0.0032153710404325,0.184804093201257,0.0210307376682661,-0.2111753517512151,-0.0173776000575194,-1.2021024223099808,0.091509161333338,-0.0006952762066077,1.3859177113763117,-0.2335798585216679,-0.0149366181867883,-1.1524891498740493,0.9285952836174898,0.8263148351351862,0.1625276717250347,0.3912515174613329,11.026110487401638,-1.2330718487600958,0.1661825349835835,-1.1758088837689484
1.62,0.094377720879439,-0.0003384395237397,1.398692625611671,0.0062339432680017,0.1736117156089056,0.0214973659905202,-0.204145856031812,-0.0130160325860992,-1.1568998044763437,0.091509161333338,-0.0006952762066077,1.3859177113763117,-0.2335798585216679,-0.0149366181867883,-1.1524891498740493,2.297669329935612,0.3514747859701586,0.2180783735710118,2.260130891681855,11.009676438200586,-1.2496557593855362,0.1632043266670447,-1.140837810187952
1.64,0.0905624516594976,-0.0005670838104099,1.3771441294922808,0.0096101771904554,0.1686471225003248,0.0219740333226182,-0.1974789990394251,-0.011370409560606,-1.113865615605332,0.091509161333338,-0.0006952762066077,1.3859177113763117,-0.2335798585216679,-0.0149366181867883,-1.1524891498740493,2.178931199627964,0.333342849619346,0.0822811512746581,2.151709443550576,13.866296502366822,-1.2602162224988744,0.1604623628891218,-1.1423297412815203
1.66,0.0867063843598129,-0.0007888623519102,1.3553047330398582,0.0130092159710825,0.167073601430347,0.0224770610594186,-0.1882612989450759,-0.0109458243451576,-1.0725294082799284,0.0891733627481213,-0.0008446423884756,1.374392819877571,-0.2347555005352177,-0.0137983111257419,-1.1410014893170175,2.117680513960561,0.4608850047174567,0.0212292607724185,2.0668103662701887,13.484578884789698,-1.266823755536841,0.1578265782982511,-1.147117716363811
1.68,0.0830552013394788,-0.0010129669819107,1.334249113562646,0.0160339193067981,0.1672221849199307,0.0229634025357086,-0.177237533530472,-0.0114638430399341,-1.03509698787169,0.084501765577688,-0.0011433747522114,1.35134303688009,-0.2371067845623173,-0.0115216970036492,-1.1180261682029544,1.9512674374002748,0.5511882707301948,-0.025900934738821,1.8716210204119177,13.15988780169755,-1.2714459818784802,0.1555108716658128,-1.1526603902828834
1.7,0.0796390453540128,-0.001255392287492,1.3139110809826604,0.0185980202981255,0.1677595079294848,0.0234150202543507,-0.1649608916190684,-0.0126935683195688,-1.000575724784168,0.0798301684072546,-0.0014421071159471,1.328293253882609,-0.2394580685894169,-0.0092450828815565,-1.095050847088891,1.83299329379714,0.6138320955701811,-0.0614862639817364,1.7260631543761007,12.895687597635517,-1.2752509275244674,0.1536982889731042,-1.157348359087792
1.72,0.0766287311570062,-0.0015140652110234,1.2952077468733565,0.0205673049748939,0.1678660983431415,0.023796141851675,-0.1526399057281592,-0.0143893083053925,-0.9699106576923324,0.0750410070354663,-0.0016270087735783,1.3063922369408312,-0.2418093526165165,-0.0069684687594638,-1.0720755259748278,1.6545607930582935,0.6160492945454606,-0.0847869992911838,1.5332533545917737,12.701274811594883,-1.28010914057411,0.1522880965705639,-1.1606832501002595
1.74,0.0737173270043307,-0.0018260707581946,1.2761476931313562,0.0221161586170093,0.1670817137923879,0.0241331284417259,-0.1392484007486331,-0.016688681038667,-0.9376911441046268,0.0702518456636779,-0.0018119104312094,1.2844912199990537,-0.2441606366436161,-0.004691854637371,-1.0491002048607645,1.748368222380197,0.669575248976302,-0.114968636663725,1.6109756793852903,12.564359446439084,-1.2870288639866785,0.1514893248616347,-1.161802612762334
1.76,0.0710766125780597,-0.0021908157224272,1.2577296802966,0.0229620922237166,0.164963133488627,0.0243818416695769,-0.1256585926361256,-0.0195862734092643,-0.9057042418630016,0.0654039021912121,-0.0019398967357882,1.2631645860851273,-0.2465119206707157,-0.0024152405152783,-1.0261248837467014,1.743732233670207,0.6794904056253755,-0.144879618529869,1.599345112081252,12.564359446439084,-1.295055592479612,0.1514043874737508,-1.1610695160112994
1.78,0.0688187866193215,-0.0025956885926058,1.240822113878972,0.0229159478112832,0.161311641006578,0.0245141510331539,-0.1128694087144997,-0.0227796300420059,-0.8756138591616627,0.0604971766180688,-0.0020109676873147,1.2424123351990526,-0.2488632046978154,-0.0001386263931856,-1.003149562632638,1.6425528021026377,0.6394591960812941,-0.1596678316370777,1.504519135066951,12.547636900510042,-1.30541317349853,0.1522353347969034,-1.158198190264023
1.8,0.0666953611336767,-0.0030887240900837,1.223641581002198,0.0217848658792774,0.1554025442417635,0.0245297886360459,-0.1005622003399581,-0.0262537581811331,-0.8439837906463905,0.0631753161835965,-0.0037346700947061,1.197041420920889,-0.1079549242620435,-0.0283604324900998,-0.7756138576715466,1.7058708762552015,0.615360418727083,-0.1737064069563601,1.5815034257636085,12.52218279995941,-1.3179614060844158,0.1542013097415104,-1.152080907899573
1.82,0.0647738889052138,-0.0036025924525484,1.2072176398209074,0.0210250159081848,0.1487645980519302,0.0245607173445245,-0.0924210984535897,-0.0252465635531913,-0.7993552305837166,0.0631753161835965,-0.0037346700947061,1.197041420920889,-0.1079549242620435,-0.0283604324900998,-0.7756138576715466,2.2688104560597817,0.4070550943184189,0.0503597313970908,2.2314280031336957,12.508761625332228,-1.3313286050718334,0.1557219795708872,-1.1407860326544512
1.84,0.0629942998425963,-0.0041103184326103,1.1917064180514725,0.0215254880153889,0.142865342596213,0.0246906572471146,-0.086138880704367,-0.0256594896352002,-0.7540981456341024,0.0631753161835965,-0.0037346700947061,1.197041420920889,-0.1079549242620435,-0.0283604324900998,-0.7756138576715466,2.284644669272692,0.3141108874611373,-0.0206463041004471,2.262854247480711,13.524091306580884,-1.3444468876352793,0.1560948499241599,-1.1357889972927415
1.86,0.0614032273269672,-0.0046081630344381,1.177798967035554,0.0225603767999349,0.137902442197897,0.0248563646934944,-0.0818204290991323,-0.0267560878095897,-0.7120903894929116,0.0620957669409761,-0.0040182744196071,1.1892852823441735,-0.1069720273715523,-0.0294765929797186,-0.7556138573735234,2.1121689846225493,0.2159225802617341,-0.0548299087194746,2.100387807059539,13.448474811496451,-1.3568313838025996,0.1558171574987468,-1.1310063381543825
1.88,0.0597999684844385,-0.0051621462699862,1.1640165949045038,0.0239787796453087,0.1334313043817234,0.0250570077774087,-0.0789048464614326,-0.0286213783008877,-0.6683718665341583,0.0599366684557352,-0.0045854830694091,1.173773005190743,-0.1050062335905698,-0.0317089139589561,-0.7156138567774769,2.1927660502372484,0.1457791318849856,-0.0932645245648969,2.185926147937667,13.366214884064902,-1.3679291555298922,0.1551520979526806,-1.1269525670034155
1.9,0.0582376510569969,-0.0057626722160095,1.1510992392424917,0.0254619257854443,0.1299042976833143,0.0252705627658807,-0.0776022401225349,-0.0313267721509542,-0.6255424548426678,0.0577775699704943,-0.0051526917192111,1.1582607280373116,-0.1030404398095873,-0.0339412349381937,-0.6756138561814304,2.146726836952768,0.0651303169448835,-0.1352696925033258,2.141470584574523,13.324024449295392,-1.3777180434066136,0.1544036543466121,-1.1249042152215467
1.92,0.0566867975009111,-0.0064264326804158,1.139029917584908,0.0267191198311012,0.127540348286658,0.0254857138528042,-0.077600488171617,-0.034869263483965,-0.5835320960215936,0.0557167611743026,-0.0058315164179749,1.144748450913683,-0.1010746460286048,-0.0361735559174312,-0.635613855585384,2.107972661225231,8.759754589610091e-05,-0.177124566650539,2.1005179410537087,13.257878439895649,-1.384627631951214,0.1538079806093845,-1.1251044824790657
1.94,0.0552107641856835,-0.0071299906219957,1.1283395015171305,0.0274255713144153,0.1263532713441577,0.0256757945556761,-0.0777042111265898,-0.0389329375102673,-0.543882256566459,0.0536559523781109,-0.0065103411167388,1.1312361737900545,-0.0991088522476223,-0.0384058768966688,-0.5956138549893375,1.9928835727792644,-0.0051861477486397,-0.2031837013151179,1.982491972756728,13.181194099760432,-1.3898615121738689,0.1536266911490226,-1.127510379210803
1.96,0.0536579066645917,-0.0079588075208436,1.1178994100025386,0.027393650994897,0.1258493068039461,0.025836121209136,-0.0775412041927452,-0.0436621724429483,-0.5022200140086542,0.0516442884264437,-0.0072449738399836,1.1187238966813269,-0.0971430584666398,-0.0406381978759064,-0.5556138543932911,2.0965058366567537,0.0081503466922289,-0.2364617466340465,2.083112127890241,13.180671379554951,-1.394234521399862,0.1542467338640495,-1.1304676755496763
1.98,0.0521105812823021,-0.0088851690473955,1.1082875144667796,0.026315228095249,0.1258165044631069,0.0259324686500168,-0.0771744219328817,-0.0485754311917057,-0.4610584802212648,0.049681769319301,-0.0080354145877094,1.1072116195875006,-0.0951772646856573,-0.0428705188551439,-0.5156138537972447,2.072767777929303,0.018339112993173,-0.2456629374378738,2.05807668936947,13.180671379554951,-1.3983394209229032,0.1559588149863509,-1.133873093504886
2.0,0.0505726023300993,-0.0099064642058137,1.0994936513113505,0.0240756407115074,0.1260330883688196,0.0259525760741846,-0.0766325115797815,-0.053085042516332,-0.4203879666115296,0.048251860185658,-0.0113139406069808,1.0852345904557164,-0.0754713644947466,-0.0550927851250103,-0.3610584787311487,2.0461677218703582,0.0270955176550111,-0.225480566231314,2.033525680486761,13.147134637780256,-1.4019961736621758,0.1587018066970693,-1.1371286501891469
2.02,0.0491213168617919,-0.0109302580090332,1.0918172702253266,0.0215750558306274,0.1260620862970112,0.0259415825649697,-0.0762433259777391,-0.0544856344100385,-0.3896893826299907,0.048251860185658,-0.0113139406069808,1.0852345904557164,-0.0754713644947466,-0.0550927851250103,-0.3610584787311487,1.5366490991416577,0.019459280102118,-0.0700295946853231,1.5349291990769425,13.115218987074512,-1.4063579522103982,0.162077943362363,-1.1411905367738526
2.04,0.0475988756839727,-0.0120286684183554,1.0843705909342012,0.019225301632731,0.1256716104610085,0.0259417689939337,-0.0760727158087291,-0.0552684250469288,-0.35650799302247,0.048251860185658,-0.0113139406069808,1.0852345904557164,-0.0754713644947466,-0.0550927851250103,-0.3610584787311487,1.6595530160988077,0.0085305084505007,-0.0391395318445175,1.659069480376038,12.491420361797282,-1.41006796363757,0.1650651295076705,-1.143070322295849
2.06,0.0460768531414939,-0.0131363075162764,1.077600009461996,0.017197091658696,0.1249989869788798,0.0259608056799132,-0.0761977195887794,-0.0554804154585629,-0.3222311952403795,0.0474971465407105,-0.0118648684582309,1.0816240056684048,-0.0751307530071195,-0.0563962559116712,-0.3410584784331255,1.713884062643951,-0.0062501890025115,-0.0105995205817048,1.7138398891045237,12.597349820264752,-1.4132602066212734,0.1675942843072623,-1.1473111440929933
2.08,0.044625176316241,-0.0141879210181805,1.0718100293950836,0.015573495088841,0.1242189432507817,0.0259993861011862,-0.0766464813109477,-0.0552422282557092,-0.2889687421589393,0.0459877192508156,-0.0129667241607311,1.0744028360937818,-0.0744495300318655,-0.059003197484993,-0.301058477837079,1.6633166454571258,-0.0224380861084172,0.0119093601426874,1.6631226540720103,12.730149936404814,-1.4168435987027816,0.1699556149679014,-1.1518949730299994
2.1,0.0430844256262337,-0.0152857039265679,1.0664057653042638,0.0141978511893003,0.1233497422377559,0.0260640208045674,-0.0774450940911448,-0.0545406250664243,-0.2531889411673728,0.0444782919609206,-0.0140685798632313,1.067181666519159,-0.0737683070566114,-0.0616101390583148,-0.2610584772410326,1.7897794475884548,-0.0399306390098559,0.0350801594642423,1.7889900495783262,12.730149936404814,-1.4209732034812457,0.172056589502662,-1.158813458250754
2.12,0.041523551625096,-0.0163638141074537,1.061720874685481,0.0132786194954574,0.1225146177445738,0.0261617152424663,-0.0786355660213281,-0.0533132163674789,-0.2170953621765578,0.0430029258197884,-0.0153007826443976,1.0619604969743384,-0.0730870840813574,-0.0642170806316367,-0.2210584766449861,1.8067029362190377,-0.0595235965091651,0.0613704349472693,1.8046789495407456,12.796116920765598,-1.4252478310304553,0.1737329998615762,-1.167060815387536
2.14,0.0399344163110015,-0.0174126802107418,1.0577564577758023,0.0129728306585322,0.1217892306853835,0.0263030148514149,-0.0802347753496368,-0.0516912318771861,-0.1811748375014793,0.0415275596786562,-0.0165329854255639,1.0567393274295176,-0.0724058611061033,-0.0668240222049585,-0.1810584760489396,1.7996335717969267,-0.0799604664154331,0.0810992245146444,1.7960262337539266,12.826909986414648,-1.4291317935816006,0.1747296624713648,-1.1751283663969991
2.16,0.0383911570890036,-0.018378214646004,1.0546523890498762,0.0133217430460475,0.121266174570037,0.0264818488823775,-0.0821334080984382,-0.0500816845416102,-0.1473857755235049,0.0400692241119053,-0.0178303617460632,1.052518157899598,-0.0717246381308493,-0.0694309637782803,-0.1410584754528932,1.6940308130990975,-0.0949316374400696,0.080477366778791,1.6894530988987202,12.823957480744866,-1.433423832125954,0.1751008699367484,-1.1843525354041662
2.18,0.0367252752392269,-0.0193638883295966,1.052078426532428,0.0143544026132851,0.1209388533969719,0.0267156361159209,-0.0843539382291877,-0.0486267864294545,-0.1118014267411301,0.0386279191195358,-0.0191929116058956,1.04929698838458,-0.0710434151555952,-0.0720379053516021,-0.1010584748568468,1.784161820606543,-0.1110265065374746,0.0727449056077855,1.7792174391187416,12.811172960260592,-1.4375783360487349,0.1747311115756523,-1.1940403580841417
2.2,0.0350128511839541,-0.0203259406352703,1.0502138279260205,0.0159763750050914,0.1208683530466305,0.0269889929205623,-0.0867544827340186,-0.0477096118809957,-0.0764631504258219,0.0325075783277675,-0.0217952276510693,1.0464883551953714,-0.0662197503222072,-0.061034421768059,-0.0118014252510139,1.7715795184023508,-0.1200272252415486,0.045858727422942,1.7669138157654063,12.827975268273804,-1.4413118886401233,0.1736804317528257,-1.2040997946929966
2.22,0.0332205456381738,-0.0212664945888083,1.0489292887086574,0.0183334359089748,0.1215544156071109,0.0273202425777751,-0.0921470794266827,-0.046726391555306,-0.0537826242174813,0.0325075783277675,-0.0217952276510693,1.0464883551953714,-0.0662197503222072,-0.061034421768059,-0.0118014252510139,1.166675930138494,-0.2696298346332011,0.0491610162844848,1.1340263104170332,12.822595669215843,-1.4426984929035127,0.1717646944213196,-1.2132452835351402
2.24,0.0314263172657685,-0.0221619367833288,1.0481370584375194,0.0208372654593178,0.123133993681626,0.0276661513249401,-0.0963035023824706,-0.047618729315473,-0.0307336970489955,0.0325075783277675,-0.0217952276510693,1.0464883551953714,-0.0662197503222072,-0.061034421768059,-0.0118014252510139,1.1718843395188163,-0.2078211477893957,-0.044616888008353,1.1524463584242874,11.934302119204403,-1.4416661732355256,0.1692451976964323,-1.2223706668958398
2.26,0.0294656038754511,-0.0231350674900509,1.0477983991020188,0.0232294319863885,0.1254370531421149,0.0280240126763058,-0.0994092630635934,-0.0496367393176365,-0.0042670715292275,0.0318453808245454,-0.0224055718687499,1.0463703409428613,-0.0625929127408111,-0.0635159488357799,0.0081985750470092,1.3362263844319922,-0.1552880340561425,-0.1009005001081735,1.3233312759884024,12.100340329432584,-1.440363114910959,0.1670038594074289,-1.2333394876013746
2.28,0.027456428451594,-0.0241565431028971,1.048007081017721,0.025193939837954,0.1280985939099504,0.028358317316474,-0.1012357905718572,-0.0523578532210823,0.0238554024968339,0.0305209858181013,-0.0236262603041111,1.046134312437841,-0.0553392375780188,-0.0684790029712216,0.0481985756430556,1.4156396160044338,-0.0913263754131886,-0.1360556951722873,1.4061237013030738,12.268201074725766,-1.439223068825186,0.1652441054607441,-1.244347941342718
2.3000000000000003,0.025424190321257,-0.025238905033418,1.0487934136059789,0.0266327687609785,0.1308414041375085,0.0286555556425556,-0.101819795590604,-0.0556692026469629,0.0533370736182794,0.0291965908116572,-0.0248469487394723,1.0458982839328208,-0.0480855624152266,-0.0734420571066634,0.0881985762391021,1.4836399740126245,-0.0292002509373411,-0.1655674712940317,1.4740835560722727,12.390741932696072,-1.4382971265739857,0.1641110575368845,-1.2546096069369643
2.32,0.0234935314783512,-0.0263335947902915,1.0500959914808294,0.0273907279433,0.1333096609629437,0.0288886522127056,-0.1013392592542599,-0.0593258456379379,0.0822787182567393,0.0282348795633526,-0.0263157898816055,1.0476622554576027,-0.0408318872524344,-0.0784051112421052,0.1281985768351485,1.4587843804970728,0.0240268168172047,-0.1828321495487509,1.4470822319229977,12.491940862756564,-1.437593898241524,0.163625425237281,-1.264884347156572
2.34,0.0214799927053858,-0.0275634790800894,1.0520668238455746,0.0274134470995618,0.1356057538467684,0.0290673569534435,-0.0999965338250946,-0.0634167256269163,0.1132903184471007,0.0272731683150481,-0.0277846310237388,1.0494262269823849,-0.0335782120896422,-0.083368165377547,0.1681985774311951,1.5654532546751228,0.0671362714582644,-0.2045439994489191,1.5505800095180695,12.628907599878405,-1.4369745871262525,0.1640198214556285,-1.27476944566399
2.36,0.0195008484596533,-0.0288765609502272,1.0546592286330094,0.0265112342898355,0.1374757912903881,0.0291649068746805,-0.0979928446818185,-0.0675698827948407,0.1443784022377957,0.0264927989458134,-0.0293775485192581,1.052190198522068,-0.02632453692685,-0.0883312195129888,0.2081985780272415,1.5714105434462662,0.1001844571638051,-0.2076578583962214,1.5544041895347485,12.628907599878405,-1.4367322959489754,0.1654772911127026,-1.2838735594138833
2.38,0.0175664273333968,-0.0302681491812348,1.0578742621030928,0.024675215077333,0.1388654393431621,0.0291800783463527,-0.0955774673099579,-0.0712666396332898,0.1755518829152226,0.0258937714556484,-0.0310945423681635,1.0559541700766524,-0.0190708617640578,-0.0932942736484305,0.2481985786232879,1.574234700193258,0.1207688685930324,-0.1848378419224541,1.5586740338713434,12.6442433184302,-1.4374674653616926,0.1679331714431566,-1.292754486054962
2.4,0.0157755078974441,-0.0316473485791021,1.0615074855848297,0.0222890559239783,0.1397413585055778,0.0291359836395365,-0.0930979084310098,-0.073504530189052,0.2053238752105327,0.0127875539678989,-0.0338314811628993,1.0666518562488538,-0.0771897882993282,-0.0891605947447934,0.2755518844053387,1.4979384930678417,0.1239779439474064,-0.1118945277881068,1.4885996147655038,12.663486726070914,-1.4381310765826063,0.1712915767400279,-1.3005596614153132
2.42,0.0139510492130278,-0.0331113492777823,1.0657865716114612,0.0201389053845417,0.1392182631771177,0.0290829499019627,-0.0895945691892777,-0.0729442469697469,0.2201951164025184,0.0127875539678989,-0.0338314811628993,1.0666518562488538,-0.0771897882993282,-0.0891605947447934,0.2755518844053387,0.764429718350073,0.1751669620866022,0.0280141609652541,0.7435620595992883,11.475754622366368,-1.4387038452938588,0.1740278725873046,-1.3008952554442172
2.44,0.0121896118776129,-0.034558357907508,1.0703625331573938,0.0188604379251229,0.1363131253084647,0.0290451382653641,-0.0869203196317964,-0.0719344321252206,0.2367571652974786,0.0127875539678989,-0.0338314811628993,1.0666518562488538,-0.0771897882993282,-0.0891605947447934,0.2755518844053387,0.8403463576332151,0.1337124778740657,0.0504907422263112,0.8281024447480064,11.475754622366368,-1.4432734910399332,0.1757856241336562,-1.300372009166558
2.46,0.0105501833987451,-0.0359115165627706,1.075050185491869,0.0185213625878113,0.131990670813956,0.0290421438143036,-0.0859679770411439,-0.0706721986310283,0.2558527593897224,0.0120156560849056,-0.0347230871103472,1.0694073750929072,-0.0735122524972023,-0.0927393857670941,0.2955518847033619,0.9580473677480263,0.0476171295326274,0.0631116747096191,0.9547797046121907,11.93139770135076,-1.4504897934641197,0.1765706322949747,-1.2977791138409351
2.48,0.0088199550098095,-0.0373104800021453,1.0804065025180436,0.0191940939566527,0.126651486764003,0.0290919868230195,-0.0873585920537884,-0.0693886997156184,0.2789073557001685,0.0104718603189191,-0.0365062990052431,1.074918412781014,-0.0661571808929504,-0.0998969678116956,0.3355518852994084,1.1566066645762596,-0.0695307506322288,0.064174945770494,1.1527298155223076,11.93139770135076,-1.4586841054921025,0.1760959636042255,-1.2946728478244085
2.5,0.0070306780133097,-0.0386886904978299,1.0862490296846037,0.020935343542121,0.1216207456485926,0.0292101769313018,-0.0917267751011512,-0.0686081575919221,0.3042770499349452,0.0089280645529325,-0.038289510900139,1.0804294504691208,-0.0588021092886986,-0.107054549856297,0.3755518858954548,1.287741875055123,-0.2184091523681389,0.0390271061848121,1.2684847117388347,12.286281262574448,-1.4665802448641037,0.174355054223812,-1.2920618671805386
2.52,0.0051211820461927,-0.0400638267341487,1.0926190760808567,0.0235300266671742,0.1182165327647647,0.029404781545872,-0.0990940389376281,-0.0692100617743707,0.3314403685505059,0.0077520223671585,-0.0404306018972649,1.0879404881870298,-0.0514470376844467,-0.1142121319008985,0.4155518864915012,1.4075552771486235,-0.3683631918238429,-0.0300952091224299,1.3581659307780352,12.286281262574448,-1.472531565185829,0.1717665755402223,-1.2910509111982924
2.54,0.0031521924766184,-0.0414027423821602,1.099179573984798,0.0260718527325619,0.1174795630038473,0.0296400216128073,-0.1074535614306971,-0.0716737207727531,0.3577596107225462,0.0065759801813846,-0.0425716928943908,1.0954515259049389,-0.0440919660801948,-0.1213697139454999,0.4555518870875478,1.3862302663004256,-0.4179761246534539,-0.1231829499191185,1.3159621086020117,12.41543585893396,-1.4743073393916617,0.1688156225220407,-1.2937862952283723
2.56,0.0009218623295371,-0.0428751567080203,1.1066294317741656,0.0283112363327926,0.1190918435020446,0.0299121182338858,-0.1148691754642533,-0.0753571368396941,0.3858470548244518,0.0055838147857169,-0.0448917234426318,1.1039625636377493,-0.036736894475943,-0.1285272959901013,0.4955518876835942,1.4641238007717667,-0.3707807016778065,-0.1841708033470473,1.4043722050952805,12.449313530223662,-1.4728291509350189,0.1663585529003044,-1.3001171809123635
2.58,-0.0014372735968585,-0.0444299147444007,1.1146433291328603,0.0298560314029037,0.122395685608816,0.0301807952562266,-0.1204011001469677,-0.0797831533653505,0.4141146976550068,0.0047755261801555,-0.0473906935419878,1.1134736013854607,-0.0293818228716911,-0.1356848780347028,0.5355518882796406,1.4570959510070325,-0.2765962341357203,-0.2213008262828199,1.4133821415277497,12.477572206860714,-1.4694624659361772,0.1647757875345058,-1.3083641729713125
2.6,-0.0038835367196503,-0.0460787526718029,1.1232243223882403,0.030535746203837,0.1266078405322994,0.0304142225962385,-0.1237455093268317,-0.0847490857214136,0.4425465683833436,-0.0074573286042069,-0.0484190724126682,1.1353490640156108,-0.0821994625808781,-0.0716434620497591,0.5141146991451229,1.4527704825954204,-0.167220458993203,-0.2482966178031578,1.421593536416843,12.492566407319828,-1.4647373374533608,0.1640914016801109,-1.318368166141488
2.62,-0.0062716403554879,-0.0478348340721542,1.1317106632162446,0.0269746560934558,0.1308573653027947,0.0303433839377402,-0.1274000080081069,-0.0978599099422873,0.4493957845320075,-0.0074573286042069,-0.0484190724126682,1.1353490640156108,-0.0821994625808781,-0.0716434620497591,0.5141146991451229,0.7618412469360122,-0.182724934063759,-0.655541211043683,0.3424608074331925,12.514045366434402,-1.458405203123202,0.1684214714137531,-1.3187173038878677
2.64,-0.0088460044361401,-0.0498450558647706,1.140805139867421,0.0192959907575019,0.1352016839964895,0.0299694369769811,-0.1297066145796413,-0.1018079589742146,0.459959260699157,-0.0074573286042069,-0.0484190724126682,1.1353490640156108,-0.0821994625808781,-0.0716434620497591,0.5141146991451229,0.5755313930800912,-0.1153303285767182,-0.1974024515963672,0.5281738083574766,11.091502093820964,-1.4534914316916152,0.1779156374183799,-1.3264911245526516
