t,x,y,z,roll,pitch,yaw,v_x,v_y,v_z,ref_x,ref_y,ref_z,ref_v_x,ref_v_y,ref_v_z,a_com,a_x,a_y,a_z,thrust,wind_x,wind_y,wind_z
0.0,-1.4712745842732742,-2.451478171362381,1.7591002320757545,0.0220367817077467,0.150018932793059,0.0287810020517249,0.0011081904206606,0.0072070780579564,-0.0019296272163304,-1.4712412668119774,-2.45120615899242,1.7590426142100195,0.1010826567918102,0.1083834350633509,-0.0893567305511326,0.3771389708579731,0.0554095210330333,0.3603539028978227,-0.09648136081652,10.659808411033737,-1.4132810320412694,0.1693708562792313,-1.281653944095048
0.02,-1.4713423309468654,-2.451634997206172,1.758854024432356,0.0144204677783163,0.1521953736008563,0.0282896659107017,-0.0078161656881792,-0.0182918454539528,-0.0235966691353654,-1.4712412668119774,-2.45120615899242,1.7590426142100195,0.1010826567918102,0.1083834350633509,-0.0893567305511326,1.7315455074476185,-0.4462178054419974,-1.2749461755954654,-1.0833520959517524,10.66049936305717,-1.4083067143299983,0.1778627192020893,-1.2707608804432855
0.04,-1.4715810871508652,-2.4520411686531607,1.758069104244521,-0.0018777364768841,0.1577204261558741,0.0272040712702106,-0.015214684403343,-0.0200753448404939,-0.0540571199360052,-1.4712412668119774,-2.45120615899242,1.7590426142100195,0.1010826567918102,0.1083834350633509,-0.0893567305511326,1.5698391734654071,-0.3699259357581905,-0.0891749693270556,-1.5230225400319912,9.355559934883786,-1.3972379914791968,0.1963089330600848,-1.2701309376835583
0.06,-1.4719330138673772,-2.452385175648205,1.756675683631887,-0.0189168094171143,0.1648391625297077,0.0259800629945002,-0.0192985643281623,-0.0138297998970428,-0.0837593974156143,-1.4702304402440594,-2.4501223246417863,1.7581490469045085,0.1210826570898334,0.1283834353613741,-0.1068528529709667,1.5312659749017308,-0.204193996240965,0.312277247172554,-1.4851138739804517,8.915606592707718,-1.3871452541259903,0.2148007288524991,-1.2714186256261726
0.08,-1.472314682457791,-2.4525559769097285,1.754821580725917,-0.0345710468877309,0.172159827129967,0.0247501828971446,-0.0204625478869902,-0.0041448440328145,-0.1099670517800394,-1.468208787108223,-2.447954655940519,1.7563619122934857,0.1610826576858799,0.1683834359574205,-0.141845097810635,1.3982081167537654,-0.0581991779413907,0.4842477932114194,-1.3103827182212562,9.001632589825931,-1.376335313668712,0.2336795510252055,-1.2741341348897173
0.1,-1.472715368938555,-2.4525033272029444,1.752349555479421,-0.0503028700070407,0.1799289702823084,0.0234075679200682,-0.0193189427976681,0.0092550023573291,-0.1358133452876265,-1.4661871339723869,-2.445786987239252,1.7545747776824632,0.2010826582819263,0.208383436553467,-0.1768373426503033,1.4567897960585376,0.057180254466105,0.6699923195071833,-1.2923146753793566,9.128416307124098,-1.3657707060350432,0.2517499110969237,-1.2775282229667582
0.12,-1.4730701104119457,-2.4521500443260176,1.749380043557173,-0.0652663361792552,0.1874800412723523,0.0220383782238765,-0.0160163849213692,0.0257397091869573,-0.1598073819965822,-1.4621654808067484,-2.4416193185081827,1.751038030829457,0.2410826588779728,0.2483834371495134,-0.2118295874899715,1.4648944035115712,0.1651278938149435,0.8242353414814114,-1.1997018354477849,9.243899806061563,-1.355886725769377,0.2690295606806265,-1.2810862042516504
0.14,-1.4733294371043109,-2.4514653887142206,1.7461225743256783,-0.0782734171930818,0.1943264938643865,0.0207717130008799,-0.0113003888878161,0.0454122951503024,-0.1819297557431936,-1.4581438276411098,-2.4374516497771137,1.747501283976451,0.2810826594740193,0.2883834377455599,-0.2468218323296399,1.498875142613995,0.2357998016776527,0.9836292981672526,-1.1061186873305693,9.3654226548706,-1.3471615232683216,0.2842205158272342,-1.285298076459823
0.16,-1.473491144088039,-2.450301669684861,1.742239456105044,-0.089944673958979,0.2011453183727087,0.0195534472427125,-0.0049513956651987,0.0696946289070528,-0.2052218834327669,-1.45312217446057,-2.432283981031143,1.7430897310024531,0.3210826600700657,0.3283834383416064,-0.2818140771693082,1.7120635647680051,0.3174496611308726,1.2141166878375218,-1.1646063844786656,9.42518403809845,-1.3384508539599604,0.2979869257950449,-1.2901966971529175
0.18,-1.4735110376296832,-2.4486246714660886,1.7378938782080324,-0.0991243312562258,0.2075597087643474,0.0185094010986743,0.0028068572414911,0.0964311203296009,-0.2281405972779055,-1.4471005212651291,-2.426116312270272,1.7378033719074637,0.3610826606661121,0.3683834389376528,-0.3168063220089764,1.8029821865921865,0.3879126453344926,1.336824571127404,-1.14593569225693,9.459281475019452,-1.3303530671238892,0.3089636105813564,-1.2955314940949814
0.2,-1.4733610115802314,-2.446394626521613,1.7330970526756315,-0.1057501797911402,0.2135768723001518,0.0176677295274935,0.011956696684587,0.1246356995470437,-0.2503792012571068,-1.4733706947676086,-2.4438031154496085,1.7264868483441371,0.1028068587316072,0.196431121819717,-0.3084981265008708,1.8532224351188813,0.4574919721547942,1.4102289608721368,-1.1119301989600636,9.512917320875204,-1.3236576781125036,0.316701963172815,-1.3008085045054902
0.22,-1.4730199561769872,-2.44362185968155,1.728212978084619,-0.1062352468172024,0.218920386586544,0.0173223745872646,0.0237661941666982,0.1644535748477975,-0.2619390275710999,-1.4733706947676086,-2.4438031154496085,1.7264868483441371,0.1028068587316072,0.196431121819717,-0.3084981265008708,2.155549238973713,0.5904748741055602,1.990893765037692,-0.5779913156996552,10.32333759219364,-1.3176352887559986,0.3184590741634656,-1.3112762818451853
0.24,-1.4724010027500185,-2.439977321769255,1.7228600399285356,-0.0999857474777708,0.2241502274664899,0.0175180119177729,0.0376462970139314,0.1965244288035684,-0.2727384590436662,-1.4733706947676086,-2.4438031154496085,1.7264868483441371,0.1028068587316072,0.196431121819717,-0.3084981265008708,1.8288142665623628,0.6940051423616594,1.603542697788546,-0.5399715736283145,10.32333759219364,-1.3126410427997472,0.3121648965289071,-1.3256248146334872
0.26,-1.471494660141026,-2.435773311105561,1.717283847455682,-0.0919207438417589,0.2290056404872444,0.0179329527351058,0.0523985738134599,0.2219124495578897,-0.2843945113886138,-1.4723426261802923,-2.4418388042314114,1.7234018670791285,0.1228068590296304,0.2164311221177403,-0.3245696323454639,1.5795923721485168,0.737613839976426,1.2694010377160614,-0.5828026172473799,10.25630185828686,-1.3068297470808918,0.3031846299285571,-1.33763122860091
0.28,-1.4702857788318704,-2.4311039854530017,1.711461741759049,-0.0839334998808983,0.2335247905335471,0.0184243846287429,0.0678551007096991,0.2436708034048944,-0.297251691360532,-1.4702864890056604,-2.437910181795017,1.717231904549111,0.1628068596256769,0.2564311227137867,-0.35671264403465,1.4812471625761214,0.7728263448119599,1.0879176923502365,-0.6428589985959077,10.180975302712795,-1.3013937550266712,0.2944854655933562,-1.3473071133361734
0.3,-1.4688446746272412,-2.426288766501912,1.7056824205444676,-0.0770632753521833,0.2375359597611174,0.0189055572744501,0.0831466376248674,0.2621695107585596,-0.3104821193990436,-1.4682303518310282,-2.4339815593586227,1.7110619420190936,0.2028068602217233,0.2964311233098332,-0.388855655723836,1.3702896601327916,0.7645768457584141,0.924935367683262,-0.66152140192558,10.113772599732329,-1.295994056076594,0.2860744522854316,-1.3558431891059346
0.32,-1.4670075936005051,-2.4208577417753587,1.6993171478824791,-0.0708166618171207,0.2414868984676844,0.0194000252068222,0.0998328651530369,0.2800178270745678,-0.3254184780384455,-1.4641742146265937,-2.428052936892426,1.7032848289046167,0.2428068608177698,0.3364311239058796,-0.4209986674130221,1.431858402429306,0.8343113764084753,0.892415815800407,-0.7468179319700979,10.004513266446338,-1.2909358812356213,0.2788039549529483,-1.36290811568725
0.34,-1.4648293419503076,-2.415081380510492,1.692648768292083,-0.0655987566645057,0.2451786469889851,0.01987143911512,0.1172360598112098,0.2968023214477228,-0.3407015771638474,-1.4601180774221592,-2.422124314426229,1.69550771579014,0.2828068614138163,0.3764311245019262,-0.4531416791022082,1.4301779212300747,0.8701597329086479,0.8392247186577495,-0.7641549562700939,10.004513266446338,-1.2863758676423451,0.2727967089329868,-1.369111567307559
0.36,-1.4622954775780934,-2.4089696386081214,1.6856736964039578,-0.0610495875859502,0.2486257426900693,0.0203376792402658,0.1353611092757173,0.3134718696849704,-0.3560492873966606,-1.4550619402028235,-2.415195691945131,1.6869270273834338,0.3228068620098627,0.4164311250979726,-0.4852846907913943,1.4508131047064317,0.9062524732253752,0.8334774118623794,-0.7673855116406586,9.997499397859428,-1.2819186400742375,0.2677768471263247,-1.3738718599635462
0.38,-1.459545893185653,-2.402859481142228,1.678763029672466,-0.0570282756824676,0.251686307375687,0.0207931733837874,0.1532271735174949,0.3287882465237779,-0.3706326673203908,-1.4490058029685868,-2.4072670694491323,1.6775427636844975,0.3628068626059091,0.456431125694019,-0.5174277024805805,1.384253066602656,0.8933032120888792,0.7658188419403772,-0.7291689961865133,10.005233633692114,-1.2775301491957016,0.2628811162617449,-1.3783062491757827
0.4,-1.456278703909888,-2.396121436016749,1.6711874088964025,-0.0530297353502149,0.2546963125490066,0.0212870660623854,0.1726201603445514,0.3441274389494948,-0.3861784990530167,-1.4518845345097784,-2.386420068816039,1.6602313963064466,0.253227175007611,0.428788248013894,-0.4288340809220277,1.4603523946351744,0.9696493413528252,0.7669596212858454,-0.7772915866312929,10.01144453147208,-1.2734543789859647,0.2582752988257517,-1.3821574667582943
0.42,-1.45256747155646,-2.3890748260028616,1.663481970214718,-0.0492937582078959,0.2574120579806792,0.0217946249794267,0.1978357839169077,0.3597566023030455,-0.3826501968148698,-1.4518845345097784,-2.386420068816039,1.6602313963064466,0.253227175007611,0.428788248013894,-0.4288340809220277,1.4937765361312023,1.2607811786178118,0.7814581676775373,0.1764151119073437,11.282657827938236,-1.2721360410039717,0.2547527804503944,-1.3896111367424366
0.44,-1.4485664106004346,-2.3821066469550027,1.656241761736457,-0.0463019654158928,0.259692905652177,0.0222649039539866,0.2220726841377577,0.3731165901132286,-0.3797894442253964,-1.4518845345097784,-2.386420068816039,1.6602313963064466,0.253227175007611,0.428788248013894,-0.4288340809220277,1.3911330921068057,1.2118450110424992,0.6679993905091525,0.1430376294736718,11.282657827938236,-1.268546484499002,0.251613797599483,-1.3974165799745146
0.46,-1.4438600151516292,-2.374502699125206,1.6486531708028969,-0.0438560487079811,0.2618802869721527,0.0227307957949522,0.2473066994086894,0.3866564391969349,-0.3793549768117953,-1.4493522627597022,-2.3821321863359,1.6559430554972263,0.2732271753056343,0.4487882483119172,-0.4404743636423551,1.4320193799636949,1.2617007635465889,0.6769924541853156,0.0217233706800518,11.116051405604594,-1.2649418394345913,0.2494387840244283,-1.4055836783627549
0.48,-1.4386507317855175,-2.366631888364197,1.6410494481144533,-0.0420215929277239,0.2639079806020326,0.0231695433426405,0.2723838952376784,0.3998040591757494,-0.3811408433927777,-1.44428771925955,-2.3735564213756217,1.6473663738787856,0.3132271759016807,0.4887882489079637,-0.4637549290830098,1.4185511809570477,1.2538597914494478,0.6573809989407264,-0.0892933290491199,10.84210763300598,-1.2611821127401537,0.2479803613343253,-1.4130043695515722
0.5,-1.4329406378910825,-2.358503393589174,1.633390237059766,-0.040793174991792,0.26580830552259,0.0235784561911926,0.2974182147614063,0.4124527595909295,-0.3847026340907495,-1.4392231757593978,-2.364980656415344,1.638789692260345,0.3532271764977271,0.5287882495040102,-0.4870354945236646,1.4136770575216602,1.251715976186396,0.6324350207590035,-0.17808953489859,10.84210763300598,-1.257985654563531,0.2472271770783175,-1.4184763311958106
0.52,-1.4270516024726887,-2.350551638618932,1.6260358686102092,-0.0402986417317132,0.2675099298085091,0.0239297332379934,0.3212642252366379,0.4240144356674807,-0.3892757916860281,-1.4321586322294433,-2.3544048914252635,1.6290489823698715,0.3932271770937736,0.5687882501000566,-0.5103160599643194,1.344635954148191,1.1923005237615802,0.5780838038275615,-0.2286578797639271,10.75256654549412,-1.2552926115339946,0.2472941677533934,-1.4227640311292282
0.54,-1.4203598576171934,-2.3419473366196955,1.618197753492104,-0.0406655342383439,0.2691964629867955,0.0242467070511298,0.346692622145855,0.4358836747436127,-0.3943125715440455,-1.4250940886994887,-2.343829126435184,1.6193082724793986,0.4332271776898201,0.6087882506961031,-0.5335966254049741,1.4255274085028913,1.2714198454608527,0.5934619538065983,-0.2518389929008713,10.686515887129644,-1.2529437510876336,0.2485468057858379,-1.4263415743648855
0.56,-1.413146777977965,-2.3330937185624654,1.6102568857882338,-0.0417178658461197,0.270476862268447,0.0245377960369893,0.3732833799785006,0.4488629848988051,-0.3995155225888795,-1.417029545154633,-2.3322533614302023,1.608985548452909,0.4732271782858665,0.6487882512921495,-0.5568771908456288,1.5021664303548612,1.329537891632282,0.6489655077596218,-0.2601475522417018,10.683346288260507,-1.2516964100894197,0.2506800483879983,-1.4297024049546352
0.58,-1.4057917066806462,-2.3244316559729565,1.6026156140989625,-0.0428602287081539,0.2708310016911597,0.024847052813931,0.3994744700467541,0.4622127451599563,-0.4045445117620808,-1.407965001594876,-2.31967759641032,1.598080810290403,0.5132271788819129,0.6887882518881959,-0.5801577562862835,1.4912075895878412,1.3095545034126743,0.6674880130575572,-0.2514494586600607,10.7011288155918,-1.251776884091384,0.2531483408045533,-1.431691566324966
0.6,-1.397507984499064,-2.3150313723830718,1.5944672725700964,-0.04381597975217,0.2699171963992453,0.0252539258969816,0.4274703740557279,0.4770743899842704,-0.4100163743723667,-1.3858179831783086,-2.301321018714958,1.5823883885108585,0.4994744715368702,0.5622127466500724,-0.4670076351134163,1.6082447019884607,1.399795200448689,0.7430822412157034,-0.2735931305142991,10.7011288155918,-1.2536921924906022,0.2553283021703784,-1.4321668922579591
0.62,-1.388627674243895,-2.3052615971210693,1.5863528935569853,-0.0423183610574937,0.267411147935956,0.0259102867456797,0.4592566473295143,0.4986551396955442,-0.4003336151512343,-1.3858179831783086,-2.301321018714958,1.5823883885108585,0.4994744715368702,0.5622127466500724,-0.4670076351134163,1.9810677379073247,1.5893136636893206,1.0790374855636913,0.4841379610566215,10.697020622513264,-1.258927879937845,0.2545767987839308,-1.4334659830070295
0.64,-1.3791197743715873,-2.295099615065153,1.5784333064005305,-0.0376936752965567,0.2633047678535709,0.0268414223434651,0.4897664452103838,0.5156717548706105,-0.3921207927214951,-1.3858179831783086,-2.301321018714958,1.5823883885108585,0.4994744715368702,0.5622127466500724,-0.4670076351134163,1.79434069438487,1.525489894043475,0.8508307587533126,0.4106411214869598,11.78100454080868,-1.265154987874508,0.2499316827175801,-1.4337000055179874
0.66,-1.3695405306539874,-2.2851761110909723,1.5710289268152895,-0.0327352968410488,0.2579603871335549,0.0277887304763313,0.5167164572132621,0.5279577345480264,-0.3876159296512494,-1.38082323846294,-2.295698891248458,1.5777183121597242,0.5194744718348935,0.5822127469480955,-0.4795002597836834,1.49795046219061,1.3475006001439138,0.614298983870798,0.2252431535122862,11.52949963786432,-1.273628653218734,0.2440634369531347,-1.430592001626268
0.68,-1.3589387702972282,-2.274504805401822,1.563299925661929,-0.0279745072361863,0.2513153652190889,0.0287446535896359,0.541709557474367,0.5385419942661379,-0.385605775732933,-1.3708337490322025,-2.2844546363154565,1.568378159457456,0.5594744724309398,0.622212747544142,-0.5044855091242176,1.3608107263846456,1.2496550130552453,0.529212985905575,0.1005076959158218,11.279720131607064,-1.2835303755414609,0.2386495406572826,-1.4241199974095435
0.7000000000000001,-1.347872253980913,-2.2636375610928225,1.5555823777818212,-0.0240492093643403,0.2443141039030646,0.0296091207861406,0.5634218461194804,0.5477352678560319,-0.3863301983579045,-1.3608442596014652,-2.273210381382455,1.5590380067551877,0.5994744730269863,0.6622127481401885,-0.5294707584647518,1.179475037513442,1.0856144322556716,0.4596636794946984,-0.036221131248576,11.064616584492796,-1.2937445363132116,0.2342550289405791,-1.4159857493134655
0.72,-1.3364034713568576,-2.2525964960767326,1.547824818982647,-0.0210204780244599,0.2374966231641229,0.0303701099556339,0.5821587616659774,0.5560257347553874,-0.3894641892055043,-1.3488547701409257,-2.259966126419651,1.5484485915858923,0.6394744736230328,0.702212748736235,-0.554456007805286,1.036370764059257,0.9368457773248462,0.4145233449677765,-0.1566995423799899,10.866182004734585,-1.3031389673486866,0.2311324250781385,-1.4077092561063786
0.74,-1.325185850834793,-2.241960669207107,1.5403807858220395,-0.0189718672527521,0.2315944769508617,0.030997370248192,0.5976213502741926,0.5633137632859346,-0.3939296226987349,-1.3368652806803858,-2.2467218714568475,1.5378591764165974,0.6794744742190792,0.7422127493322814,-0.5794412571458202,0.8833842632335093,0.7731294304107628,0.3644014265273609,-0.2232716746615293,10.695598380920272,-1.3120343822719085,0.228937859845146,-1.399228456315622
0.76,-1.3130772676176758,-2.230611578161896,1.5324416233530849,-0.0173830770645575,0.2261640825951568,0.0315839297205626,0.6122729310540447,0.5712004459703095,-0.3997829739340489,-1.3238757912049448,-2.2324776164791427,1.526645130013789,0.7194744748151256,0.7822127499283278,-0.6044265064863544,0.8819443063432362,0.7325790389926035,0.3943341342187434,-0.2926675617656998,10.504075342174474,-1.319720072080535,0.227505991723555,-1.3917566419505547
0.78,-1.3006921974908765,-2.219106020531682,1.5243740366805705,-0.0161527063754435,0.2216174085931401,0.0321150701019232,0.6253690987392102,0.5789317523896226,-0.4067085201918554,-1.3098863017146027,-2.2172333614865365,1.5148064523774674,0.7594744754111721,0.8222127505243743,-0.6294117558268886,0.8355326115064329,0.6548083842582764,0.3865653209656539,-0.3462773128903279,10.504075342174474,-1.326156991857622,0.226514044041152,-1.38513829268804
0.8,-1.2880599501377783,-2.2074480928264864,1.516157578038973,-0.0152090705934872,0.2180930356038937,0.0325977943312336,0.6370945041521724,0.5864456410631451,-0.4146172686897595,-1.269423742553916,-2.190159432912201,1.5040386106709775,0.7253691002293263,0.6789317538797387,-0.4391506242632341,0.8007683152752643,0.5862702706481093,0.375694433676127,-0.3954374248952064,10.427811240454504,-1.3309143352867752,0.2258891308212542,-1.3798569013829
0.8200000000000001,-1.275781888888628,-2.1961826430243785,1.5084882394683663,-0.013056859694233,0.215558506499379,0.0331209784367351,0.6546577162691245,0.5981352553233897,-0.3922632762130723,-1.269423742553916,-2.190159432912201,1.5040386106709775,0.7253691002293263,0.6789317538797387,-0.4391506242632341,1.536891734204265,0.8781606058476055,0.5844807130122309,1.1176996238343615,10.359294652595054,-1.3371716713907562,0.2240506720139502,-1.3793492227838644
0.84,-1.262510242209674,-2.184134212492777,1.5008633321321911,-0.0096986246920989,0.2137210188139079,0.0337194655340894,0.6714482101652619,0.6059639951051781,-0.3717370019654366,-1.269423742553916,-2.190159432912201,1.5040386106709775,0.7253691002293263,0.6789317538797387,-0.4391506242632341,1.3825138212115051,0.8395246948068702,0.3914369890894165,1.026313712381785,12.46783493004932,-1.3395881013808375,0.220632809097609,-1.3831756009157294
0.86,-1.2489148748667742,-2.171955359756728,1.4935928967199312,-0.0067301574093514,0.2128173836755824,0.0342639812847098,0.687270128190906,0.6116278323783819,-0.3565618541143182,-1.2621700515516223,-2.183370115373404,1.4996471044283453,0.7453691005273495,0.6989317541777619,-0.4456390450775099,1.1321409529855826,0.7910959012822072,0.2831918636601926,0.7587573925559227,11.74423178365123,-1.3404693944663535,0.2176121689311983,-1.3877170017522196
0.88,-1.2350088429757573,-2.1596762963782368,1.4865751070118536,-0.0046451614323492,0.2124579111692399,0.0347290851884548,0.7025656531463695,0.6162526501102069,-0.3459623626692763,-1.247662669547036,-2.169791480295809,1.4908640919430804,0.785369101123396,0.7389317547738083,-0.4586158867060613,0.9587638416332314,0.7647762477731745,0.2312408865912496,0.5299745722520927,11.74423178365123,-1.3407131345804073,0.2156942166062911,-1.3911783500404395
0.9,-1.2215176782392176,-2.1479313595919223,1.4800756148995706,-0.0036041311335246,0.2123627030871971,0.0350936751091158,0.716774861593628,0.6199026976322811,-0.3388606047415048,-1.2331552875424496,-2.156212845218214,1.482081079457816,0.8253691017194424,0.7789317553698548,-0.4715927283346128,0.8149530926312681,0.7104604223629241,0.1825023761037103,0.3550878963885756,11.47568539290387,-1.340746952666552,0.2148284493848767,-1.393202529692547
0.92,-1.2070289357901915,-2.135502340634273,1.4733525829703544,-0.0039204494100304,0.2123768666575319,0.0353696088114369,0.7313351680817545,0.622959545604703,-0.3339106123049255,-1.2166479055080608,-2.140634210110817,1.4726492248911236,0.8653691023154889,0.8189317559659013,-0.4845695699631643,0.7839790648940653,0.7280153244063226,0.1528423986210947,0.2474996218289643,11.275580608641576,-1.3406386558911318,0.2157178889120189,-1.3933346251420242
0.94,-1.1922490445245455,-2.123015536421612,1.4667182239350331,-0.0060515984187447,0.2124141449372051,0.0355126338730317,0.745913352396709,0.6258431504363823,-0.3297603345584425,-1.200140523473672,-2.12505557500342,1.463217370324431,0.9053691029115354,0.8589317565619478,-0.4975464115917158,0.7714652294805988,0.728909215747725,0.1441802415839632,0.2075138873241483,11.12628336979742,-1.3406673735216526,0.2189235328751506,-1.3928623969334246
0.96,-1.1771723074253158,-2.110445191850512,1.4601628335721872,-0.0094872523714871,0.2122056396495705,0.035564233188959,0.7609466952772191,0.6314082453744465,-0.3259786550275302,-1.182633141424382,-2.108476939881122,1.4534610947170252,0.9453691035075816,0.8989317571579941,-0.5105232532202673,0.8235180324485545,0.7516671440255085,0.2782547469032115,0.1890839765456176,11.090901576103532,-1.340333786535165,0.2235206557196682,-1.3926447529375678
0.98,-1.162568877644785,-2.0983744108886166,1.4540020710508992,-0.0127538439764114,0.2114838976850218,0.0356198908374763,0.7754186132092766,0.6388884160718883,-0.3226982743705812,-1.1641257593601908,-2.0908983047439222,1.4433803980689055,0.9853691041036282,0.9389317577540406,-0.5235000948488188,0.8308884695757287,0.7235958966028744,0.3740085348720889,0.1640190328474483,11.05361933761651,-1.3408925177684656,0.228367545328653,-1.3909968859471138
1.0,-1.1469011059038967,-2.0855027227869094,1.4475800196482425,-0.0157121130587611,0.2099738119217096,0.0357260247325694,0.7905372647684564,0.6478393534889186,-0.3196881611768341,-1.123797946984321,-2.0664299900850223,1.43786715733237,0.8754186146993927,0.7388884175620044,-0.3193779394257072,0.8912823445051714,0.7559325779589898,0.4475468708515173,0.1505056596873555,11.05361933761651,-1.342653330989792,0.2325937383367431,-1.3883094258679751
1.02,-1.130845420936334,-2.072354098540174,1.4414673527747546,-0.0153702238385995,0.2063557794374378,0.0360984551567864,0.8145773644946378,0.6657662947686961,-0.2903642259561361,-1.123797946984321,-2.0664299900850223,1.43786715733237,0.8754186146993927,0.7388884175620044,-0.3193779394257072,2.0971378086102432,1.2020049863090687,0.8963470639888726,1.4661967610349018,11.023452033035028,-1.3444145472561018,0.2327253299587731,-1.3868801310978287
1.04,-1.114317518908606,-2.058891788889257,1.4359615500399892,-0.0107453287254444,0.1993476055380664,0.0367926971030276,0.8363159709740962,0.6785125966122901,-0.2617117716784758,-1.123797946984321,-2.0664299900850223,1.43786715733237,0.8754186146993927,0.7388884175620044,-0.3193779394257072,1.9078773273524237,1.0869303239729178,0.6373150921797022,1.432622713883014,13.022709409253366,-1.3554460032750784,0.227853893756355,-1.38285135125048
1.06,-1.0982655074241112,-2.0459312626741872,1.4312166060180456,-0.0054603888042948,0.1908603415221063,0.0374751356812072,0.8518990215558937,0.685051171240153,-0.2391188786241995,-1.115043760837327,-2.0590411059094023,1.434673377938113,0.8954186149974159,0.7588884178600276,-0.3187138724367324,1.4106941909579125,0.7791525290898771,0.3269287313931446,1.129644652713815,12.305005400457048,-1.3684031087853414,0.2214341672768388,-1.3745024328004565
1.08,-1.0811035555787123,-2.032191104912433,1.426639126387308,-0.0006570800788236,0.1814006441770606,0.0380733736274446,0.8631707232771522,0.6888508695675253,-0.2197632102802513,-1.0975353885433392,-2.0442633375581623,1.4282858191495988,0.9354186155934624,0.7988884184560741,-0.3173857384587827,1.1359256843132113,0.5635850860629232,0.1899849163686129,0.9677834171974098,12.305005400457048,-1.3816466672506464,0.2158773193350474,-1.3640227294218796
1.1,-1.0646337065093403,-2.0190827080090945,1.422613387629647,0.0027542879282316,0.172904287407852,0.0385050917368977,0.8696959824543559,0.6909802383482877,-0.2051385118534001,-1.0800270162493513,-2.0294855692069222,1.4218982603610846,0.9754186161895088,0.8388884190521205,-0.3160576044808331,0.8077670190260776,0.3262629588601851,0.1064684390381209,0.7312349213425592,11.679858684752617,-1.3933066476447464,0.2120084826910811,-1.354113674717969
1.12,-1.0472026237106262,-2.0052507664339023,1.418639918709652,0.0049622255829289,0.1653043415648781,0.0388259867059482,0.8729034797482161,0.6923602561045277,-0.1930971674194348,-1.0605186439255612,-2.01270780082588,1.415577108271468,1.0154186167855552,0.878888419648167,-0.3147294705028835,0.6268701294427833,0.1603748646930136,0.0690008878119985,0.6020672216982631,11.679858684752617,-1.403622916282712,0.2096338222103528,-1.345024575429569
1.14,-1.029741959483342,-1.9914003772023463,1.414886601463455,0.0056351569373035,0.1598324220255509,0.0390267991895046,0.8729315756559658,0.692890575450282,-0.1828141313149732,-1.0410102716017708,-1.9959300324448372,1.4092559561818512,1.0554186173816018,0.9188884202442136,-0.3134013365249339,0.5148370118643738,0.0014047953874829,0.0265159672877157,0.5141518052230815,11.460471335399234,-1.4115867036362808,0.2091927263427997,-1.3386338818765116
1.16,-1.012302723388838,-1.9775357896955696,1.411328784922036,0.0047956117070442,0.1571658821278488,0.039128196650737,0.8710357970276241,0.6937091773060744,-0.1734823099389674,-1.0205018992630794,-1.9781522640488935,1.4029680074416833,1.0954186179776482,0.9588884208402598,-0.3120732025469843,0.4778780592359914,-0.0947889314170835,0.0409300927896205,0.4665910688002914,11.364265132431685,-1.4151050378109231,0.2104480857880236,-1.3363298086903308
1.18,-0.9957684168835016,-1.9643439580259303,1.4081170362046058,0.0027352039243323,0.1572117772040658,0.0391444619329479,0.8698016585648601,0.6950098240250386,-0.1650812631399176,-0.9989935269094872,-1.959374495638049,1.396713262050964,1.1354186185736943,0.9988884214363062,-0.3107450685690346,0.4295124181925644,-0.0617069231381994,0.0650323359482119,0.4200523399524869,11.30288543732422,-1.4143226420202373,0.2133250237997098,-1.337829664346907
1.2,-0.9783713527287208,-1.950413185060732,1.404908297984255,-0.0003635754630759,0.159074632047292,0.0390951821369971,0.87017457682358,0.6983198411551357,-0.1562473678539149,-0.9522783339552586,-1.9295934668246784,1.39986297304761,0.9698016600549764,0.7950098255151548,-0.1647272843677356,0.4720513408340354,0.0186459129359939,0.1655008565048521,0.4416947643001379,11.265312957434617,-1.4108250838652303,0.21737270663699,-1.3417780756678612
1.22,-0.9609174209337,-1.936321058422368,1.4019798025676342,-0.0012246280191813,0.1614447348856321,0.0391933771070436,0.8754060124200876,0.70997617363043,-0.136512411284034,-0.9522783339552586,-1.9295934668246784,1.39986297304761,0.9698016600549764,0.7950098255151548,-0.1647272843677356,1.1754855549836536,0.2615717798253814,0.5828166237647148,0.9867478284940432,11.267260029906538,-1.4057716754187648,0.2186567154970873,-1.348463488528969
1.24,-0.9433502426173774,-1.922032932394561,1.3994484364791062,0.001063115586325,0.163460701770108,0.0395045509097715,0.8810751423110107,0.7180394858625394,-0.1176859865807127,-0.9522783339552586,-1.9295934668246784,1.39986297304761,0.9698016600549764,0.7950098255151548,-0.1647272843677356,1.0625327112405385,0.2834564945461526,0.4031656116054716,0.9413212351660628,12.060372598142749,-1.4035639410481162,0.2164280871418968,-1.3552494005723823
1.26,-0.926555955469862,-1.9083439306875043,1.3973667053607768,0.004328754562812,0.1651515136395721,0.0398697482910497,0.8864982040180757,0.7223177713277281,-0.1023922568873323,-0.9425803173547088,-1.9216433685695269,1.3982157002039326,0.9898016603529995,0.8150098258131779,-0.1646564886132992,0.8390642000682444,0.2711530853532484,0.2139142732594356,0.7646864846690207,11.918791607597996,-1.401667877931569,0.2125494179717942,-1.3616176471737909
1.28,-0.9087671510187122,-1.8938779791410545,1.3954668670368378,0.0073149767578019,0.1667871452765841,0.0402142401631521,0.8921178638913652,0.7242135752202056,-0.0885003733039071,-0.9231842841536092,-1.905743172059224,1.394921154516578,1.029801660949046,0.8550098264092244,-0.1645148971044264,0.7552467791815339,0.2809829936644747,0.0947901946238727,0.6945941791712616,11.745196322521224,-1.3994242026871797,0.2090928018108467,-1.3667724620820674
1.3,-0.8908659948874992,-1.8793876265865035,1.3938230169252173,0.0091889300461097,0.1683670743538989,0.0404718146841349,0.8977445308354618,0.7249380361253643,-0.0766637380132391,-0.9037882509525098,-1.8898429755489208,1.3916266088292233,1.0698016615450925,0.8950098270052709,-0.1643733055955536,0.6562967307308132,0.2813333472048318,0.0362230452579381,0.5918317645334021,11.607063284359356,-1.3972076041413488,0.2070261321246772,-1.3704985232548916
1.32,-0.8728515449477874,-1.8648934893899145,1.3923979992682962,0.0095511988405713,0.1699281669032237,0.0406144949637818,0.903464831175348,0.7247286780785768,-0.0664272155715929,-0.8823922177216079,-1.871942779008815,1.3883391427173122,1.1098016621411388,0.9350098276013172,-0.1642317140866808,0.5864129485025544,0.2860150169943176,-0.0104679023393783,0.5118261220823074,11.486036190851337,-1.3951180174967726,0.2066697522701507,-1.373849794797796
1.34,-0.8556290971115846,-1.8511329945208364,1.3912282367318838,0.0081324686949118,0.1714020065068937,0.0406185288507871,0.909174866345657,0.7240417483094101,-0.0572173583332046,-0.860996184490706,-1.8540425824687097,1.385051676605401,1.1498016627371854,0.9750098281973638,-0.164090122577808,0.5429038692656037,0.285501758515444,-0.0343464884583311,0.4604928619194162,11.400139673700323,-1.3929868504651512,0.2086617021217268,-1.3764358089361295
1.36,-0.8373754211864012,-1.836647026831672,1.390184417386285,0.0048962656373059,0.1727941116375269,0.0404919797861412,0.9159018841856038,0.7250754111643221,-0.0476502662609436,-0.8386001512449031,-1.835142385913703,1.3817677502812118,1.1898016633332318,1.0150098287934102,-0.1639485310689352,0.5870487173900157,0.336350891997339,0.0516831427455954,0.478354603613047,11.369171088367692,-1.3901356519372168,0.212821045700243,-1.3779240028996191
1.38,-0.8189805593978948,-1.8221058885306944,1.3893315422483234,0.0011208196731857,0.1737425690816768,0.0403198483689071,0.923196928101319,0.7290840874209247,-0.0381157058602768,-0.8152041179841989,-1.8152421893437956,1.3784873637447443,1.229801663929278,1.0550098293894563,-0.1638069395600624,0.6328408036315837,0.3647521957857613,0.2004338128301308,0.4767280200333418,11.369171088367692,-1.388339106441001,0.2174610594167798,-1.3788097176051484
1.4,-0.8013676317573517,-1.8081992342342816,1.3886970151133422,-0.0021472718274467,0.1740882243185129,0.0401752929280137,0.930364478115314,0.7344998415348115,-0.0291510821892764,-0.7728207129928288,-1.785651684159648,1.3874257569553097,1.0231969295914352,0.8290840889110408,-0.0250695511079031,0.6345641090304819,0.3583775006997414,0.2707877056943419,0.4482311835500187,11.370239678041798,-1.387511682257173,0.2219673601414753,-1.3790502236838311
1.42,-0.7826181507398317,-1.7933548031472448,1.3883351125111716,-0.0023355553089856,0.1724524716798983,0.040252915057833,0.9443936140178192,0.7487816944502006,-0.0068483284959283,-0.7728207129928288,-1.785651684159648,1.3874257569553097,1.0231969295914352,0.8290840889110408,-0.0250695511079031,1.4984999158941628,0.7014567951252659,0.7140926457694541,1.1151376846674068,12.333416015738294,-1.3855328317319866,0.2219700015208315,-1.3770130707469064
1.44,-0.7635928768956157,-1.778272928134386,1.3884280945878007,0.0015515505378164,0.1673486602201504,0.0406016619080514,0.95693681960728,0.7579148786781623,0.014909173976682,-0.7728207129928288,-1.785651684159648,1.3874257569553097,1.0231969295914352,0.8290840889110408,-0.0250695511079031,1.336166133427108,0.6271602794730435,0.4566592113980861,1.0878751236305204,12.333416015738294,-1.3937144763940017,0.2177008200815487,-1.3728380837214762
1.46,-0.7443669533045514,-1.7630747930527748,1.3889178685925907,0.0062922923223621,0.1601611913133957,0.0409604796597925,0.964651334553742,0.7614327158235583,0.0330391835848374,-0.7625887436969145,-1.7773608432705374,1.3871750614442306,1.0431969298894583,0.849084089209064,-0.0224603201574284,1.0007324410556986,0.3857257473231013,0.1758918572697998,0.9065004804077672,11.88526610196368,-1.404332452037921,0.2119315478225341,-1.364712562343834
1.48,-0.7260059242181297,-1.7486031500635228,1.3896855041978746,0.0099626180298141,0.1529612751015557,0.0411933377656734,0.9675375319972872,0.7620398636217859,0.046890261006579,-0.7421248051050858,-1.7607791614923167,1.3866736704220726,1.083196930485505,0.8890840898051104,-0.0172418582564789,0.708080344796935,0.1443098721772562,0.0303573899113784,0.6925538710870794,11.88526610196368,-1.4149414004193164,0.2071686020008577,-1.3556774271373693
1.5,-0.7066597511437612,-1.7333703841416732,1.3907503928069411,0.0124559620262599,0.1462392817884164,0.041313032655133,0.9667252824046608,0.7615056828654472,0.0587594528396271,-0.7216608665132571,-1.7441974797140958,1.3861722793999145,1.1231969310815513,0.9290840904011568,-0.0120233963555294,0.5954469188157349,-0.0406124796313245,-0.0267090378169354,0.5934595916524066,11.451621241021712,-1.4242735823147643,0.204149292551006,-1.3476276507389564
1.52,-0.6873677020861884,-1.7181571038560983,1.3920267602570182,0.0133808993311128,0.1415077811803581,0.041325170348954,0.9623305852701064,0.7600261171440067,0.0681931199220074,-0.6991969278916261,-1.725615797906073,1.385931811472804,1.1631969316775976,0.9690840909972032,-0.0068049344545799,0.5255867013388618,-0.2197348567277102,-0.0739782860720239,0.4716833541190152,11.307881464776983,-1.4314992153800763,0.203123200290447,-1.3423103593144663
1.54,-0.6681949578125553,-1.70298441915886,1.3934782250896105,0.012266232828522,0.1399884978222787,0.0412288834135847,0.9554832978227948,0.7576852858506384,0.0764794430300119,-0.676732989269995,-1.7070341160980496,1.3856913435456932,1.2031969322736442,1.0090840915932495,-0.0015864725536304,0.5500636035504747,-0.3423643723655833,-0.117041564668413,0.4143161554002253,11.307881464776983,-1.4339167878483272,0.2044432687391812,-1.341938957674643
1.56,-0.6500953951348214,-1.6886023998822492,1.3950087676015388,0.0093524889154262,0.1413854079589121,0.0410387162731979,0.9503915792063344,0.7567529454989069,0.0842035721283276,-0.6532690506334629,-1.6874524342751254,1.3855813371661063,1.2431969328696906,1.049084092189296,0.0036319893473189,0.4649113553359453,-0.2545859308230147,-0.0466170175865754,0.3862064549157842,11.247573551962889,-1.4309515248222058,0.2081132865333795,-1.3457174753872532
1.58,-0.6311239125637764,-1.6734485496495872,1.396783862278988,0.005414488804916,0.1447557800521868,0.0407858468330429,0.9472910102000806,0.7589009807255308,0.0929108775302171,-0.6288051119820295,-1.6668707524373,1.3856017923340431,1.283196933465737,1.0890840927853425,0.0088504512482684,0.4744595632378344,-0.1550284503126997,0.1074017613311939,0.4353652700944767,11.231491010917123,-1.4254577782766986,0.2129572847018295,-1.3521073294580386
1.6,-0.6121883130411725,-1.6582268611696145,1.3987408527087022,0.0016459085111419,0.1490886594449282,0.0405349881030743,0.946637235753342,0.7631752130972099,0.1023645600941407,-0.5837593620537724,-1.6355035006133107,1.401429406155499,1.0472910116901968,0.8589009822156469,0.1071282160549759,0.5197802358058408,-0.0326887223369265,0.213711618583956,0.4726841281961775,11.271128499565748,-1.41889198786623,0.217650584718377,-1.3598478097752285
1.62,-0.5931970689840367,-1.6428223849108368,1.400952960345868,0.0010808828645644,0.152368356709028,0.0404940787516293,0.952562585432254,0.7761432170113264,0.1187078461128738,-0.5837593620537724,-1.6355035006133107,1.401429406155499,1.0472910116901968,0.8589009822156469,0.1071282160549759,1.0844144643816336,0.2962674839456058,0.6484001957058227,0.8171643009366576,11.32652406572015,-1.4107427436875295,0.2181832012543028,-1.3663251369160063
1.64,-0.5750455173346527,-1.6279908139014827,1.4033643075003663,0.004261174158427,0.1534519742140065,0.0407070722566321,0.957681179959526,0.7838986697490826,0.134266660963353,-0.5837593620537724,-1.6355035006133107,1.401429406155499,1.0472910116901968,0.8589009822156469,0.1071282160549759,0.906123303769522,0.2559297263635907,0.387772636887812,0.7779407425239561,11.782768080523963,-1.4103302860683198,0.2142504258095485,-1.3711270353115927
1.66,-0.5558470992241239,-1.6122785869237382,1.4062042966407278,0.0085664362960533,0.1533851226853566,0.0409829951691646,0.961779965660517,0.7868295937824059,0.1488266976709552,-0.5732864519368704,-1.6269144907911544,1.402500688316049,1.06729101198822,0.8789009825136701,0.1099716837599277,0.7703652199419515,0.2049392850495546,0.1465462016661645,0.7280018353801099,11.782768080523963,-1.4109163047015425,0.2088944609913868,-1.3738605041703655
1.68,-0.5365815208283489,-1.5965418044336344,1.4093109132779855,0.0120032914927278,0.1527956357473715,0.0411797748639695,0.9645281667654017,0.7870565261203043,0.1611187408842897,-0.5523406317030666,-1.6097364711468414,1.4046432526371484,1.1072910125842663,0.9189009831097166,0.1156586191698312,0.6298778333084868,0.1374100552442303,0.0113466168949194,0.6146021606667287,11.522022864432074,-1.4117056556624448,0.2045352350312645,-1.3751905132999946
1.7,-0.5182393542926698,-1.5815999447417532,1.4124731785517388,0.0139618549935515,0.1522430806802338,0.0412635763462956,0.9660977480299836,0.7861429317839519,0.1711434497446947,-0.5313948114692626,-1.5925584515025284,1.406785816958248,1.147291013180313,0.958900983705763,0.1213455545797348,0.5093943160593383,0.0784790632290921,-0.0456797168176204,0.5012354430202509,11.522022864432074,-1.412421596952948,0.2020117536667755,-1.3760080990178578
1.72,-0.4989072224727174,-1.5658970298747514,1.4159969339216465,0.0144148983434173,0.1520284064895548,0.0412354664158239,0.967053676108109,0.7843851643204048,0.1806600334485282,-0.5084489912056563,-1.573380431828413,1.4092127280498423,1.1872910137763593,0.9989009843018094,0.1270324899896383,0.4862327383530492,0.047796403906275,-0.0878883731773527,0.4758291851916729,11.416141666862131,-1.412830265160122,0.2013847841301613,-1.3770178430542648
1.74,-0.479559000753284,-1.5502352779109192,1.419705345089993,0.0127989475348053,0.1523938323602936,0.0410657783975033,0.9677802500458902,0.7821159195222251,0.1896902188197093,-0.4855031709420501,-1.554202412154298,1.4116396391414372,1.2272910143724058,1.038900984897856,0.1327194253995418,0.4669626041746297,0.0363286968890597,-0.1134622399089846,0.4515092685590527,11.353602156143095,-1.4124041671408472,0.2031940301756514,-1.3782771735928454
1.76,-0.4601904736088079,-1.5346016995161835,1.4235938205434544,0.0092856895553634,0.1532248601449452,0.0407669393088032,0.9690814044333697,0.7819333234040802,0.1987083652069953,-0.4615573506635426,-1.5340243924652814,1.4142087236182797,1.2672910149684522,1.0789009854939022,0.1384063608094453,0.4556679392522021,0.0650577193739732,-0.0091298059072486,0.4509073193643034,11.33030850400428,-1.4101152454152828,0.2073703723093832,-1.3796351855925115
1.78,-0.4417602749264634,-1.519719353079825,1.427458055184053,0.0055315899594577,0.1541553706875023,0.0404538160221581,0.9708972064858442,0.7846908284575019,0.20759462309951,-0.4366115303701341,-1.5128463727613637,1.4169199814803697,1.3072910155644986,1.1189009860899486,0.1440932962193488,0.4739898483767765,0.0907901026237278,0.137875252671088,0.4443128946257313,11.329480982779389,-1.4080746595166986,0.2122513981686609,-1.3813724582936056
1.8,-0.422317723794918,-1.503978922004901,1.4317112297482426,0.0019472047857128,0.15507226537233,0.0401486173224759,0.9732857143755814,0.789189077600924,0.2172634745869655,-0.3932154146021712,-1.4804848116569498,1.4378377863390286,1.0708972079759604,0.884690829947618,0.2194409316959422,0.5464107987176561,0.1194253944868606,0.2249124571711058,0.4834425743727791,11.35253064274366,-1.4063774476553226,0.2167088957222954,-1.383207294775627
1.82,-0.4027805133264081,-1.48805224460006,1.4361955080173443,0.0016888147226705,0.1545338000594299,0.040072319381476,0.9803958365995008,0.8023445963313768,0.230879762230675,-0.3932154146021712,-1.4804848116569498,1.4378377863390286,1.0708972079759604,0.884690829947618,0.2194409316959422,1.0112180777441109,0.3555061111959634,0.6577759365226366,0.6808143821854725,11.377282749956066,-1.4035117429171704,0.2166339529793526,-1.3830781493307254
1.84,-0.3831099690827991,-1.4719142024769238,1.4409512773155075,0.0054830579898962,0.1514161790949781,0.0402606157030231,0.986106920963572,0.810066553413276,0.2440178285271896,-0.3932154146021712,-1.4804848116569498,1.4378377863390286,1.0708972079759604,0.884690829947618,0.2194409316959422,0.8137166149831393,0.2855542182035653,0.3860978540949633,0.656903314825731,11.675129389811444,-1.4088495912756045,0.2121863465534775,-1.3812771149458742
1.86,-0.3643425277007291,-1.4564993773888384,1.4456912789948126,0.0097923695595871,0.1469811037128745,0.0404522214753773,0.988956850398861,0.8122268411508597,0.2542966553988228,-0.3825064425224116,-1.4716379033574736,1.440032195655988,1.0908972082739836,0.9046908302456412,0.2218101934152286,0.5441581175363698,0.1424964717644528,0.1080143868791849,0.51394134358166,11.593498340540464,-1.4160103348139808,0.2063876583552624,-1.376200784746784
1.88,-0.3445634090283302,-1.440259845717887,1.4508710366830462,0.0133831138011745,0.1418916207699423,0.0405506660790971,0.9885422611284482,0.8118552789240857,0.2630615883197652,-0.3610884983628924,-1.4539440867585214,1.4444210142899068,1.1308972088700302,0.9446908308416876,0.2265487168538015,0.4391297981808063,-0.0207294635206412,-0.0185781113387017,0.438246646047119,11.430939119909452,-1.423625247895154,0.2017630197751482,-1.3698051617977614
1.9,-0.3248311970290818,-1.4240418304797502,1.4562046408782554,0.0154702948147162,0.1377420041005621,0.04053206376329,0.9844760799644486,0.8102575404977274,0.2697890659358377,-0.3396705542033732,-1.436250270159569,1.4488098329238257,1.1708972094660766,0.9846908314377342,0.2312872402923744,0.4010783976116259,-0.2033090581999797,-0.0798869213179176,0.3363738808036254,11.290489517165952,-1.4300993610040948,0.1990477061561035,-1.364646640955436
1.92,-0.3061938862782542,-1.408674654960408,1.4613809615073858,0.0157695815119559,0.1360413371748002,0.0404204452833266,0.9776343314104043,0.8077471620063204,0.2747602086452291,-0.3162526100140517,-1.4165564535308144,1.4534355777296732,1.210897210062123,1.0246908320337806,0.2360257637309473,0.4410889459168638,-0.342087427702209,-0.1255189245703503,0.2485571354695709,11.167995723880267,-1.4332684756378982,0.1986019163969072,-1.3636060770234917
1.94,-0.2867171424474423,-1.3925537706742497,1.4669279983975578,0.0139657579490804,0.137170144004354,0.0401968950115814,0.9707361951127224,0.8047312358053396,0.2796610251812303,-0.2928346658247301,-1.3968626369020596,1.4580613225355206,1.2508972106581695,1.0646908326298272,0.2407642871695201,0.4491606003165867,-0.3449068148840994,-0.1507963100490394,0.2450408268000581,11.089315251639164,-1.4318461735923822,0.2007338256126468,-1.3671296807968267
1.96,-0.267355598845893,-1.3764719245758923,1.4725769327999731,0.0102491426196545,0.140494124235221,0.0398640522301023,0.9660552747906432,0.804210819673068,0.2849754188467821,-0.2684167216205074,-1.3761688202584037,1.4628055304273324,1.290897211254216,1.1046908332258736,0.245502810608093,0.3550515034640714,-0.2340460161039559,-0.0260208066135803,0.2657196832775904,11.068742714408472,-1.4265033428851897,0.2049048389533709,-1.3721475486008912
1.98,-0.2490240255560043,-1.3611685967288965,1.4780511950452542,0.0063932396550659,0.1446945767767912,0.0395241010968759,0.9640001529321756,0.8067260308748195,0.2909720714694893,-0.2429987774013836,-1.3544750035998467,1.4676682014051086,1.3308972118502622,1.14469083382192,0.2502413340466659,0.3409899409073161,-0.1027560929233895,0.1257605600875788,0.2998326311353605,11.0917264511736,-1.4198053170179608,0.2098438390752568,-1.3792360561753363
2.0,-0.2297451975557728,-1.344989744973651,1.4839461401505367,0.0027593333110622,0.1493686274604634,0.0391833569474844,0.964158974665332,0.8110016718152803,0.2982319974319633,-0.2008240179093955,-1.3208322951851554,1.4925997986187287,1.0640001544222917,0.9067260323649357,0.3281852293319142,0.4213456264614321,0.0079410866578255,0.2137820470230367,0.3629962981236995,11.15775729368579,-1.4128950947523566,0.2142924489270987,-1.386632622215724
2.02,-0.210369184513283,-1.3286300041162589,1.4900811270654175,0.002420482331894,0.1517338875440855,0.0390580223142538,0.97354081369925,0.8238621796963843,0.3153908726792641,-0.2008240179093955,-1.3208322951851554,1.4925997986187287,1.0640001544222917,0.9067260323649357,0.3281852293319142,1.1702975758014698,0.4690919516958991,0.6430253940552022,0.8579437623650404,11.229931325758116,-1.404910050845215,0.2141400034398692,-1.390479618469165
2.04,-0.1908020068310259,-1.3120607761765843,1.4965806433474669,0.0061507972617195,0.1497569307376792,0.0391969856036384,0.982404708976653,0.831658063215479,0.3336750418947873,-0.2008240179093955,-1.3208322951851554,1.4925997986187287,1.0640001544222917,0.9067260323649357,0.3281852293319142,1.0881811467236775,0.4431947638701472,0.389794175954733,0.9142084607761586,11.952840656802437,-1.4082638106829306,0.2096230168286828,-1.390081336394592
2.06,-0.17207847163353,-1.2962366571375803,1.5030764981069775,0.010462612032271,0.1449669651063958,0.039339859374821,0.9876159640463475,0.8336996642311235,0.3492259501097545,-0.1901840163651726,-1.311765034861506,1.4958816509120478,1.0840001547203149,0.9267260326629588,0.3356278609043991,0.8263716785122097,0.2605627534847332,0.1020800507822272,0.777545410748362,11.952840656802437,-1.416083762659229,0.2037107776009608,-1.3841350557866905
2.08,-0.1523107448775904,-1.279570698439905,1.510214339370992,0.0140348913438096,0.1386571208504601,0.0393748905759046,0.988566971223237,0.8330415280824589,0.3636717055664325,-0.1689040132767268,-1.2936305142142073,1.502445355498686,1.1240001553163614,0.9667260332590052,0.3505131240493691,0.7245988692973784,0.047550358844467,-0.0329068074332306,0.7222877728338989,11.801708190775573,-1.425306441129779,0.1989879698461548,-1.3754839870502995
2.1,-0.1325708115166596,-1.2629349862646977,1.5176164168569173,0.0159734499918103,0.1327414360864781,0.0392747683155271,0.9852675489577922,0.83102673887471,0.3758448137189405,-0.147624010188281,-1.2754959935669086,1.5090090600853243,1.1640001559124078,1.0067260338550517,0.365398387194339,0.6386120201852427,-0.1649711132722386,-0.1007394603874445,0.6086554076253997,11.514048946101866,-1.4336625206314295,0.1964443957119353,-1.3677833599561438
2.12,-0.1139150877462807,-1.2471765404990398,1.524859147943862,0.0160873305268812,0.1288120321673614,0.0390754468941484,0.9785869704749776,0.8281830662228418,0.3859531463368277,-0.1243440070700328,-1.2553614728898077,1.516317027829211,1.2040001565084542,1.046726034451098,0.380283650339309,0.6222840816899298,-0.3340289241407335,-0.1421836325934122,0.5054166308943592,11.514048946101866,-1.4404379065655375,0.1960768808057115,-1.362648068939401
2.14,-0.0944405816890254,-1.230650912802833,1.53268806962932,0.0140152663697917,0.1277345504936925,0.0387622009615747,0.9694800906463268,0.8247963271591564,0.3963948064326437,-0.1010640039517846,-1.2352269522127066,1.5236249955730978,1.2440001571045007,1.0867260350471446,0.3951689134842789,0.7131506279453447,-0.4553439914325385,-0.1693369531842681,0.522083004790802,11.419983040750594,-1.4422666163571425,0.1984922092259549,-1.3629609208952322
2.16,-0.0751336764645971,-1.2141666128127189,1.5407297328138578,0.0101112463327887,0.1296361169745056,0.0383642556446958,0.9619825261682544,0.8243454724721989,0.4072640921004518,-0.0767840008186353,-1.2140924315207045,1.5313050948956088,1.284000157700547,1.126726035643191,0.4100541766292488,0.6606022138549464,-0.3748782239036186,-0.0225427343478745,0.5434642833904046,11.419983040750594,-1.438456286744983,0.2030700871639789,-1.366757756966398
2.18,-0.0559508163606429,-1.1976533992393728,1.5490009149917228,0.0060092736056032,0.1334133411996357,0.0379652580026235,0.9569635682746416,0.8270194081436016,0.4192806541379784,-0.0515039976705848,-1.191957910813801,1.539357325796744,1.3240001582965937,1.166726036239237,0.4249394397742188,0.664713535130708,-0.2509478946806476,0.1336967835701363,0.6008281018763301,11.439542001013251,-1.4329242577421764,0.2077618302184852,-1.373431137989016
2.2,-0.0377938933632965,-1.181897797322434,1.5570925128620583,0.0026447599353062,0.137776494570986,0.0376181503064861,0.9547065745301202,0.8312052632127223,0.4318366806330973,-0.0081026379469108,-1.1563024288321926,1.5699649476986215,1.036171741132403,0.9270194096337178,0.4272284091841672,0.6713218393003061,-0.1128496872260631,0.2092927534560307,0.6278013247559444,11.510713852682784,-1.4260385826239126,0.2120651186808132,-1.3816032931990767
2.22,-0.0186469996324045,-1.1651350376198448,1.5657766955528114,0.0024512392403924,0.1400810107822163,0.0374747404699803,0.9601121404065116,0.843965309294842,0.4354378829000416,-0.0081026379469108,-1.1563024288321926,1.5699649476986215,1.036171741132403,0.9270194096337178,0.4272284091841672,0.7159042817117266,0.2702782938195758,0.638002304105989,0.1800601133472135,11.594774755276376,-1.4194424806431611,0.2117815551919051,-1.384777590148359
2.24,0.0006052439666941,-1.1481722553455784,1.5745223417620382,0.0061459705275638,0.137648680055484,0.0375827135884355,0.9644476741358096,0.8510361217779241,0.439034018539265,-0.0081026379469108,-1.1563024288321926,1.5699649476986215,1.036171741132403,0.9270194096337178,0.4272284091841672,0.4520106011601978,0.2167766864648923,0.3535406241541028,0.1798067819611726,10.97489001145459,-1.4243466505651647,0.2073320239669312,-1.3826364704503142
2.26,0.0189378897382608,-1.13198297983501,1.582891017403517,0.0102429027735722,0.1324865779280004,0.0376848647547495,0.9647144554858456,0.8528289547127877,0.4417306908950817,0.0022590794644131,-1.1470322347358557,1.5742372317904634,1.0520133757039551,0.9470194099317408,0.428817960193405,0.1624612570406018,0.0133390675018052,0.0896416467431826,0.134833617790836,11.021196801729277,-1.4331696903289863,0.2017203435861793,-1.375079907734278
2.28,0.0381936167218597,-1.11493441094531,1.591744481524918,0.0135760332420661,0.12604550909653,0.0376817891733608,0.9605639679725974,0.8521920135152724,0.4434354597810039,0.0229825142870612,-1.128491846543181,1.5827817999741467,1.0836966448470595,0.9870194105277874,0.4319970622118805,0.2265969860850461,-0.2075243756624156,-0.0318470598757669,0.0852384442961068,10.94983012007924,-1.4429713174411165,0.1973383714272642,-1.366079081434847
2.3000000000000003,0.0573229814665858,-1.097912246684273,1.6006183306100257,0.0153807420114085,0.1202382778960489,0.0375574331152722,0.9523806233693124,0.8503308010768024,0.4438183625186626,0.0437059491097092,-1.1099514583505068,1.59132636815783,1.1153799139901643,1.0270194111238338,0.4351761642303561,0.4200531369473896,-0.4091672301642535,-0.0930606219235019,0.0191451368829337,10.865884195109174,-1.452002216802738,0.1949083585885311,-1.3582881521916204
2.32,0.0762478075223398,-1.0809384447296322,1.609489478786715,0.0152947840240826,0.1166464325455154,0.0373272135091636,0.9404667021157018,0.8474995742701205,0.4432902642837938,0.0660135473895125,-1.0894110701280302,1.6000298914424371,1.147063183133269,1.06701941171988,0.4383552662488316,0.6128544945861472,-0.595696062680523,-0.1415613403340954,-0.0264049117434383,10.786246189294616,-1.4582201319769206,0.1948402550723914,-1.3542668629643446
2.34,0.0939849096814095,-1.0648690155976934,1.6179028448673831,0.0131622817987044,0.1164316192495759,0.0370164516166634,0.9276543329207436,0.8444997014802966,0.4423465892795098,0.0883211456693158,-1.0688706819055536,1.6087334147270442,1.1787464522763735,1.1070194123159267,0.4415343682673072,0.6596335415530865,-0.6406184597479048,-0.1499936394911916,-0.0471837502141997,10.750850168071338,-1.4593074481424284,0.1973803122883807,-1.3558470593896557
2.36,0.1124133395460814,-1.0479862905169113,1.6267438898066102,0.0092788089797245,0.119122171199878,0.0366138816897822,0.9161935648794626,0.8444096857208004,0.4418261991432908,0.1114208256776967,-1.0473302936681756,1.6175164155621131,1.210429721419478,1.147019412911973,0.4447134702857827,0.5736464783010594,-0.5730384020640578,-0.0045007879748093,-0.0260195068109481,10.720391215252675,-1.4549532585908684,0.201936362674337,-1.3609834894753965
2.38,0.1306402573334866,-1.0310692448265706,1.635587363449295,0.005297465177846,0.1236886376633402,0.0362141390078382,0.907376376138605,0.8472856432535916,0.442518428396933,0.1353125874146552,-1.0247899054158969,1.6263788939476442,1.2421129905625825,1.1870194135080194,0.4478925723042582,0.4650084148752621,-0.4408594370428786,0.1437978766395564,0.0346114626821075,10.742813007715997,-1.4488786179512567,0.2064901348269169,-1.368909074194754
2.4,0.1478200022723787,-1.0149277731662767,1.6440134308665824,0.002091437921858,0.1287886550902994,0.0358678031596631,0.9016374820561516,0.851528900181614,0.4443728880462223,0.1760090761404169,-0.988704962663891,1.6577132848691416,0.9297232974037304,0.9472856447437076,0.4262557555553841,0.3687111173997542,-0.2869447041226658,0.2121628464011205,0.0927229824644659,10.81445360131329,-1.441411861583917,0.2105945396134689,-1.3783662193803834
2.42,0.1659439694887323,-0.9977645033422756,1.6528746766895657,0.0018175238182546,0.1296758110536377,0.0357060962075807,0.9110243074317425,0.8637722947570529,0.44142916243553,0.1760090761404169,-0.988704962663891,1.6577132848691416,0.9297232974037304,0.9472856447437076,0.4262557555553841,0.7853004549737072,0.4693412687795328,0.6121697287719441,-0.1471862805346141,10.89687557675552,-1.434700992386246,0.2102405359750105,-1.3802678976267386
2.44,0.1842284570838895,-0.9804072095433704,1.6616694890361874,0.0051156131303417,0.1220411453139208,0.0357624313639145,0.9157878914292048,0.8708473907801225,0.4383235019744885,0.1760090761404169,-0.988704962663891,1.6577132848691416,0.9297232974037304,0.9472856447437076,0.4262557555553841,0.4538552719089341,0.238179199873123,0.353754801153483,-0.1552830230520746,10.663348623103047,-1.4474812496396754,0.206326063767387,-1.3689570004467364
2.46,0.2016050999333422,-0.9638380774587232,1.6699498804377373,0.0089171856117069,0.1104652655117512,0.035796660727691,0.912493851342416,0.872949668843713,0.4335082717153275,0.1853063091144542,-0.9792321062164538,1.6619758424246955,0.9341926816567552,0.9672856450417308,0.4230032209870743,0.3100673942821373,-0.1647020043394453,0.1051139031795211,-0.2407615129580514,10.448212421194512,-1.4661742859854374,0.2012148208242775,-1.3502499167626645
2.48,0.2197471922805409,-0.9463839127585716,1.6785434063047466,0.0120474650777533,0.096944474134614,0.0357048309221054,0.9013833611694028,0.872592429722917,0.4260012159098384,0.2039007750625288,-0.9602863933215796,1.6705009575358032,0.9431314501628054,1.0072856456377774,0.4164981518504547,0.6706834173825519,-0.5555245086506566,-0.0178619560397996,-0.3753527902744524,10.448212421194512,-1.4856795814572104,0.1971778756328923,-1.3294867835264428
2.5,0.2375955041859196,-0.9289512540156416,1.6869597127961082,0.0137380174801812,0.0845730001929901,0.0354878831371139,0.8837733977253557,0.8709447493331118,0.4159030768605443,0.2224952410106034,-0.9413406804267056,1.6790260726469108,0.9520702186688556,1.0472856462338238,0.4099930827138351,1.018329607036079,-0.8804981722023542,-0.0823840194902558,-0.5049069524647065,10.280804505499871,-1.5025470740584956,0.1948670961604348,-1.3104078003449744
2.52,0.2550381867832905,-0.9115630213449328,1.6951517355249903,0.0135956868330614,0.0751870509832024,0.0351728773976486,0.8615373371136883,0.8683125046569907,0.403816764686794,0.2415366453839805,-0.9203949675020292,1.6872259343011875,0.9610089871749056,1.0872856468298702,0.4034880135772156,1.272251985184204,-1.1118030305833693,-0.1316122338060554,-0.6043156086875168,10.135483765497156,-1.5150359523650656,0.1947655144358899,-1.2972195129285071
2.54,0.2711648067669599,-0.8950965154582734,1.702700968455907,0.0114586131755416,0.0701449086941832,0.0347970257486038,0.8371712406790469,0.8654484504186646,0.3914463656127056,0.2605780497573576,-0.8994492545773526,1.6954257959554642,0.9699477556809558,1.1272856474259167,0.396982944440596,1.3738051493884822,-1.218304821732069,-0.143202711916307,-0.6185199537044189,10.046781490969806,-1.5230467469362403,0.1971664624815462,-1.2896838315529957
2.56,0.287629128309469,-0.8777945033538904,1.7103954789941265,0.0076237410173829,0.0696869378158653,0.0343621195455811,0.8110851782916105,0.865366770589111,0.3786827573058589,0.279842923343386,-0.877503541637775,1.7034630308813254,0.9788865241870058,1.167285648021963,0.3904778753039765,1.452066647477299,-1.304303119371819,-0.0040839914776769,-0.6381804153423348,10.021638663932208,-1.524118899614631,0.2015297748223393,-1.2920356726880706
2.58,0.3035975554489019,-0.8604601081108638,1.7178474211875006,0.0036886724018493,0.0732202370706185,0.0339544946064503,0.7874964534471116,0.8681034452569301,0.3672070656674065,0.2993312661420656,-0.8545578286832962,1.7113376390787711,0.987825292693056,1.2072856486180097,0.3839728061673569,1.318719858999448,-1.179436242224946,0.1368337333909508,-0.5737845819226206,10.026322710555178,-1.520252255449129,0.2060997000431023,-1.3009826322864355
2.6,0.319127322743389,-0.8430527299168988,1.725088527758447,0.0003659457351571,0.0793624329100254,0.0335907373630217,0.7670684146096295,0.8723569622044265,0.357460783281849,0.3429723781212574,-0.8170549358480174,1.7362077744708708,0.7527963577935777,0.9681034467470462,0.3514894400494255,1.1515068361796057,-1.021401941874106,0.2126758473748213,-0.4873141192778762,10.091877536101492,-1.5130351475876536,0.209786749298099,-1.3126737698527722
2.62,0.3336516575301806,-0.8263569285295639,1.7318335776329032,0.0001010428418132,0.0826732418867294,0.0334411051707334,0.7623307564719743,0.8836973612734185,0.3529922218841513,0.3429723781212574,-0.8170549358480174,1.7362077744708708,0.7527963577935777,0.9681034467470462,0.3514894400494255,0.6538694377287364,-0.2368829068827571,0.567019953449599,-0.2234280698848817,10.179401544526629,-1.5059048838152234,0.2100067058092272,-1.3232508177210671
2.64,0.3488400476197557,-0.8086033679855676,1.7388431240842472,0.0030623227487056,0.0795353261045971,0.0335044173830509,0.7559553991006238,0.8907083202239323,0.3481862899012892,0.3429723781212574,-0.8170549358480174,1.7362077744708708,0.7527963577935777,0.9681034467470462,0.3514894400494255,0.5312619627879468,-0.3187678685675266,0.3505479475256923,-0.2402965991431055,10.49002405070314,-1.511031058174687,0.2062692144310033,-1.3182768179682365
2.66,0.363843827197879,-0.7907600216157001,1.745737643216369,0.0068329631249316,0.071872600667774,0.033585903380035,0.7441582035631685,0.8932470306416934,0.3415290873100786,0.3505003416991932,-0.8073739013805469,1.7397226688713652,0.7458563386628709,0.9881034470450694,0.3483459149258294,0.6890885637467539,-0.5898597768727643,0.1269355208880551,-0.3328601295605332,10.446634430712038,-1.521292517382102,0.201785715342231,-1.3068857497482798
