t,x,y,z,roll,pitch,yaw,v_x,v_y,v_z,ref_x,ref_y,ref_z,ref_v_x,ref_v_y,ref_v_z,a_com,a_x,a_y,a_z,thrust,wind_x,wind_y,wind_z
0.0,1.007092433220872,-0.6619720529557478,2.411201946751133,0.0144417263027052,0.1498828001394331,0.0282357623827227,0.0006593533967178,0.0058588227964696,-0.0030899454285912,1.0071173059486402,-0.6618925773332952,2.411109872629065,-0.0992162230110715,0.1035069245719574,-0.1030739618815078,0.3328224534713189,0.0329676698358939,0.2929411398234803,-0.1544972714295624,10.65861082360152,-1.4134816653530071,0.1783251064856212,-1.2795590853556615
0.02,1.007222179042024,-0.6621369080161487,2.4109077634221143,0.0068468219616754,0.1453775054000857,0.0276745099227742,0.0118316014171646,-0.0171835786868458,-0.0275962972250515,1.0071254008907078,-0.6616791118159243,2.411047449479704,-0.0993406480933982,0.1058588242865857,-0.1030899469187073,1.772239170033597,0.5586124010223397,-1.1521200741657711,-1.225317589823017,10.65861082360152,-1.4078887917498082,0.18597567568817,-1.264845665759066
0.04,1.0075279641666894,-0.6624998548755012,2.4100980800088334,-0.0090839172305829,0.1325802110043258,0.026643205882492,0.0170235983096318,-0.0170545012160437,-0.0517876930878538,1.0071254008907078,-0.6616791118159243,2.411047449479704,-0.0993406480933982,0.1058588242865857,-0.1030899469187073,1.2371308808243222,0.2595998446233576,0.0064538735401027,-1.209569793140115,9.245617622157624,-1.424949275861151,0.2039964261374866,-1.234588974027247
0.06,1.0078434870699238,-0.6627675942023812,2.408808981345404,-0.0256331451518493,0.1149824875280129,0.0259243167604853,0.0133915968080912,-0.0093543616272691,-0.0758879748681662,1.0071254008907078,-0.6616791118159243,2.411047449479704,-0.0993406480933982,0.1058588242865857,-0.1030899469187073,1.277993707422166,-0.1816000750770309,0.3850069794387294,-1.205014089015616,9.21954045423081,-1.4474270521449364,0.2221202127308884,-1.195948515639052
0.08,1.0079934865741833,-0.6628411023221951,2.4070375598084257,-0.0415316941671666,0.0958411238360779,0.0256573807373632,0.0012562123228612,0.0019551021304025,-0.1000064656128796,1.0061319944097735,-0.6606205235730584,2.4100165500105164,-0.1193406483914214,0.1258588245846089,-0.1230899472167305,1.463619761834742,-0.6067692242614965,0.5654731878835868,-1.205924537235669,9.21954045423081,-1.4693932737568582,0.2381440259059418,-1.157981752492947
0.1,1.0078413150424166,-0.6626740857698522,2.40490785866528,-0.0558981598472189,0.0785121892603682,0.0257524221210031,-0.01688137729353,0.0153398876315351,-0.1229682733588501,1.004145181447906,-0.6585033470873267,2.4079547510721424,-0.1593406489874679,0.1658588251806554,-0.163089947812777,1.6088577119861058,-0.9068794808195648,0.6692392750566304,-1.1480903872985262,9.190114156246636,-1.4903594304362702,0.2537303069610309,-1.1207660531536894
0.12,1.0072549828493504,-0.6621967432361242,2.402191215407828,-0.0702749773507602,0.0626619219960215,0.0260789187395662,-0.0409771843857412,0.0319982881880611,-0.1475230489427841,1.0021583684860378,-0.656386170601595,2.4058929521337684,-0.1993406495835143,0.2058588257767018,-0.2030899484088235,1.9111823778122836,-1.2047903546105618,0.8329200278262974,-1.2277387791967027,9.180728279191952,-1.5078325615698784,0.2682440722193305,-1.089193407265991
0.14,1.0061459223675102,-0.6613430151755578,2.398970960975184,-0.0833845813211506,0.0501103062781583,0.0265174626887265,-0.0687218150832457,0.0525311664021489,-0.1733276548836618,0.9981715554943676,-0.652268994086061,2.401831153165592,-0.2393406501795608,0.2458588263727482,-0.2430899490048699,2.1547861309532834,-1.3872315348752218,1.0266439107043914,-1.2902302970438844,9.16764552712266,-1.520553225205406,0.2811990356283096,-1.0636092132787305
0.16,1.0044527368484155,-0.6600467485028702,2.3952230058648505,-0.0946149819317831,0.0413669271748383,0.0269489045101828,-0.0990512767696788,0.0757823275085452,-0.2001536595714119,0.9941847425026972,-0.648151817570527,2.397769354197415,-0.2793406507756073,0.2858588269687948,-0.2830899496009164,2.3345916487105414,-1.5164730843216587,1.1625580553198125,-1.341300234387505,9.12139409493193,-1.5277010871137884,0.2915818326643642,-1.0453923178332154
0.18,1.0022576906463687,-0.6583590745443438,2.3911597532914683,-0.1032378942047993,0.0371187873458112,0.0272163257122103,-0.1303859041780773,0.1002206268545602,-0.2261741640720012,0.9891979294961256,-0.6430346410400918,2.3927075552143378,-0.3193406513716537,0.3258588275648412,-0.3230899501969628,2.3749505280183154,-1.5667313704199255,1.2219149673007543,-1.301025225029466,9.09638614024334,-1.5316623292924778,0.3004700744272331,-1.0332342359617106
0.2,0.999301495794272,-0.6560722375954567,2.386344086391728,-0.1102034775318884,0.0373191140033706,0.0272064991709511,-0.1630573018898884,0.1268876584647523,-0.2539790488687412,0.9832111164746532,-0.6369174644947554,2.386645756216359,-0.3593406519677001,0.3658588281608876,-0.3630899507930092,2.5256991219770693,-1.633569885590555,1.3333515805096037,-1.390244239836995,9.07558998174818,-1.527316298082212,0.3072220675769879,-1.0306195003105982
0.22,0.9957143930277818,-0.653241853261479,2.3809711171331425,-0.1151976086051726,0.041314928274003,0.0269241140404029,-0.1935876670962535,0.1544919369871515,-0.281870334249513,0.9911486306997774,-0.6497278546722192,2.373645133948291,-0.2630573033800046,0.2268876599548684,-0.3539790503588573,2.4859722406776137,-1.5265182603182534,1.3802139261199566,-1.3945642690385922,9.067322238971885,-1.519070023864027,0.3121664333195856,-1.0343225544670889
0.24,0.9915175457550812,-0.6497300261443266,2.3751895754421524,-0.1150183338385101,0.0489742771078403,0.0265811218760337,-0.2239511311530844,0.1941363485485136,-0.293884436588051,0.9911486306997774,-0.6497278546722192,2.373645133948291,-0.2630573033800046,0.2268876599548684,-0.3539790503588573,2.568052750907771,-1.518173202841543,1.982220578068107,-0.6007051169269001,9.067322238971885,-1.506942487323661,0.3137581309967129,-1.0537642596489616
0.26,0.9870125954148664,-0.6457252564780477,2.369489018351683,-0.1095229393770966,0.0591563566450264,0.0263316529763594,-0.2481976532547712,0.2242786109344026,-0.3055357523116408,0.9911486306997774,-0.6497278546722192,2.373645133948291,-0.2630573033800046,0.2268876599548684,-0.3539790503588573,2.0200265925589584,-1.2123261050843437,1.5071131192944522,-0.5825657861794897,10.116954857646306,-1.4923667881869336,0.3099462454682667,-1.0793977189401116
0.28,0.9818226575580952,-0.6409646004563251,2.3632181434888557,-0.1023520780657285,0.0711390280973114,0.0261063993814991,-0.2690754919613373,0.249911634397818,-0.3211105699639643,0.9885180576659772,-0.6474589780726705,2.370105343444702,-0.2830573036780278,0.2468876602528917,-0.3739790506568805,1.8272321868310253,-1.0438919353283005,1.281651173170767,-0.7787408826161774,9.903393151386808,-1.4762146152379672,0.3040879193346211,-1.1043073180387295
0.3,0.9762590581854756,-0.6357284275223455,2.356598274482492,-0.095336223228167,0.0831562703741187,0.025956983208492,-0.2859228832738066,0.2723346616531539,-0.3402672953611202,0.9832569115983772,-0.6429212248735731,2.363025762437525,-0.3230573042740742,0.2868876608489381,-0.4139790512529269,1.6982394363509543,-0.8423695656234659,1.1211513627667966,-0.9578362698577952,9.67139876428064,-1.4605543454129466,0.2982702848732239,-1.126245114984909
0.32,0.9703953015776732,-0.6300679187913966,2.34955813715784,-0.0890527677383391,0.0943003379715816,0.0259205416858796,-0.2994447239876878,0.2926720002837742,-0.3628144978386057,0.9779957655307772,-0.6383834716744757,2.355946181430348,-0.3630573048701207,0.3268876614449846,-0.4539790518489734,1.6619445376040851,-0.676092035694062,1.016866931531013,-1.127360123874274,9.475109708738271,-1.4446414426526797,0.2925103231572341,-1.1461836392713964
0.34,0.9645996088372134,-0.6243277883369933,2.342426395807811,-0.0838996453963294,0.1035787508570516,0.026004893731338,-0.3098906512545197,0.3106486641927017,-0.3867966782264901,0.9707346194333748,-0.631845718445576,2.3468666003933687,-0.4030573054661671,0.366887662041031,-0.4939790524450199,1.5869962333883338,-0.5222963633415956,0.8988331954463746,-1.1991090193942178,9.312159421373508,-1.4300432066449684,0.2873899047078261,-1.1623614286416797
0.36,0.9583047692574272,-0.6179275358267611,2.334409853592938,-0.0793691566764688,0.1116935347187181,0.0262148033703612,-0.3189799379945665,0.3285203201281544,-0.4136878392368767,0.9634734733359724,-0.6253079652166763,2.337787019356389,-0.4430573060622136,0.4068876626370775,-0.5339790530410664,1.677159622549781,-0.4544643370023388,0.8935827967726379,-1.3445580505193289,9.181550914864602,-1.417190816902132,0.2830715607332338,-1.174844218599392
0.38,0.9518391973906222,-0.6111681038787821,2.325843261262432,-0.0754209594535705,0.1181461503967009,0.0265472781997349,-0.3270911504001871,0.3464654095400773,-0.4416665382216146,0.9552123272236688,-0.6177702119728754,2.3277074383045084,-0.4830573066582601,0.4468876632331239,-0.5739790536371128,1.7107203143482972,-0.4055606202810313,0.8972544705961427,-1.3989349492368963,9.104393277008969,-1.4063847362925317,0.2792763189531646,-1.1839821746033448
0.4,0.9452188994001812,-0.6040535777458388,2.3167077191529297,-0.0716741960939544,0.1231910914210718,0.0269933296249059,-0.3345345021442855,0.3639780917266542,-0.4704837519215176,0.945951181096464,-0.6092324587141734,2.3166278572377266,-0.5230573072543064,0.4868876638291703,-0.6139790542331592,1.726650896953622,-0.3721675872049163,0.8756341093288461,-1.4408606849951515,9.06214445214573,-1.39756694136836,0.275780931435296,-1.1900264910776406
0.42,0.9387958602723584,-0.596976159857995,2.307488537271959,-0.0681948367585245,0.1269286208983739,0.0275008414362964,-0.34120211954452,0.3800288639146753,-0.4985079918568156,0.9284921742929668,-0.5858546731595061,2.2931835315568536,-0.4345345036344016,0.4639780932167703,-0.5704837534116338,1.6488196032152904,-0.3333808700117291,0.8025386094010545,-1.4012119967648975,8.992521424904226,-1.389522545016687,0.2720970590532587,-1.1939301085152116
0.44,0.9319217437059336,-0.5892040175214598,2.297413418336661,-0.0650681321501928,0.1302069985535544,0.0280519184617361,-0.3456751935761337,0.3965565935902445,-0.5064816206146866,0.9284921742929668,-0.5858546731595061,2.2931835315568536,-0.4345345036344016,0.4639780932167703,-0.5704837534116338,0.9443953026796202,-0.2236537015806811,0.8263864837784574,-0.3986814378935499,8.992521424904226,-1.3799119020528865,0.2694407223602337,-1.2032452307224848
0.46,0.9249739173123434,-0.5811143788805149,2.287176572006401,-0.0630332924319826,0.1328378866847698,0.0285740246196297,-0.3489559339050737,0.4118984433908554,-0.5169516310667376,0.9284921742929668,-0.5858546731595061,2.2931835315568536,-0.4345345036344016,0.4639780932167703,-0.5704837534116338,0.9430757277076104,-0.1640370164469995,0.7670924900305465,-0.5235005226025491,10.284640807600226,-1.376221441850174,0.2681594340136821,-1.2086407230699676
0.48,0.918313740277754,-0.5731424285039065,2.27721283925732,-0.0619279109215148,0.134428036108054,0.0290712101528843,-0.3520291146842003,0.4265474503339412,-0.5313295935445048,0.924146829256623,-0.5812148922273385,2.287478694022737,-0.4545345039324248,0.4839780935147935,-0.590483753709657,1.0377423205351284,-0.1536590389563302,0.7324503471542926,-0.7188981238883618,10.00167530606177,-1.3732925242219782,0.2676459238810299,-1.2116392466112076
0.5,0.9112376149693624,-0.5644543839167571,2.266393314967085,-0.0615054276246557,0.1351080245524077,0.029604347839695,-0.3555131123431014,0.4415164074825225,-0.5500158395525669,0.9154561391839348,-0.571935330363003,2.2760690189545048,-0.4945345045284712,0.52397809411084,-0.6304837543057035,1.209735206230178,-0.1741998829450586,0.7484478574290632,-0.9343123004031062,9.752820113422786,-1.3709929318520626,0.2677420133164735,-1.211076888686014
0.52,0.904088088797032,-0.5554693266102056,2.255169846116917,-0.061890004483736,0.134799960471204,0.0301419345634176,-0.3593211996884857,0.4562844840437718,-0.5714952475737602,0.9067654491112468,-0.5626557684986676,2.264659343886272,-0.5345345051245177,0.5639780947068864,-0.6704837549017499,1.3171584789708308,-0.1904043672692118,0.7384038280624672,-1.0739704010596651,9.554383898530432,-1.3693081571698449,0.2686417950442973,-1.2084722268678758
0.54,0.8968599676640595,-0.5461890104377718,2.2434926664209995,-0.0630855629529829,0.1334395484079878,0.0306899824412895,-0.3633781117230688,0.4710870845725279,-0.5951277180557576,0.8960747590087565,-0.5513762066045299,2.251249668788237,-0.5745345057205642,0.6039780953029329,-0.7104837554977964,1.4089616555754376,-0.2028456017291541,0.7401300264378047,-1.1816235240998674,9.408230828581509,-1.3683893361489634,0.2703337522062142,-1.2049391370926643
0.56,0.8899160103280483,-0.5370954869140975,2.2319553216661827,-0.064938227522313,0.1310817578457525,0.031233165543658,-0.3674475732539911,0.4854692276060353,-0.6181360646579726,0.8853840689062662,-0.5400966447103921,2.237839993690202,-0.6145345063166107,0.6439780958989794,-0.7504837560938429,1.3718514576618492,-0.2034730765461151,0.7191071516753661,-1.150417330110748,9.269778079009484,-1.3681638785199106,0.272991985329907,-1.2004743723910702
0.58,0.8825132733612203,-0.5272094652508997,2.219333997108057,-0.067140073650806,0.1275363239507684,0.0318666872206781,-0.3727351003125544,0.5024131550235658,-0.6427920221541821,0.8736933787888747,-0.5278170828013532,2.223430318577266,-0.654534506912657,0.6839780964950257,-0.7904837566898892,1.519021773033941,-0.2643763529281667,0.847196370876524,-1.2327978748104762,9.269778079009484,-1.369224627366965,0.2759653319645713,-1.1946119418651964
0.6,0.874990689492601,-0.5169694319228704,2.2062180214782754,-0.0688081052118205,0.1232117937873274,0.0326009339517516,-0.3793958093374425,0.5206049353377136,-0.667551667672486,0.861002688656582,-0.5145375208774132,2.2080206434494283,-0.6945345075087035,0.7239780970910722,-0.8304837572859357,1.5718985033268753,-0.3330354512444067,0.9095890157073904,-1.2379822759151948,9.246178454028268,-1.371225820515299,0.2783760601976136,-1.188001025627933
0.62,0.867704925165347,-0.5068955278361281,2.1932977472928536,-0.0694824660676349,0.1187958821532489,0.0333894159574275,-0.3872976940308366,0.5387138733338044,-0.691214756943564,0.8560208990257289,-0.4909391851559846,2.172840438094651,-0.4793958108275586,0.6206049368278297,-0.6843622189582297,1.5413591493426897,-0.3950942346697045,0.9054468998045406,-1.1831544635539035,9.240488922791885,-1.3732537759691803,0.2796702830174828,-1.181677053898033
0.64,0.8598830540612119,-0.4958400773655163,2.1796251693380824,-0.0674421587061502,0.1149854852547601,0.0343489362553847,-0.3945122407078234,0.5655119936115229,-0.6725810096293368,0.8560208990257289,-0.4909391851559846,2.172840438094651,-0.4793958108275586,0.6206049368278297,-0.6843622189582297,1.6713807713563986,-0.3607273338493394,1.3399060138859276,0.9316873657113643,9.230170204634303,-1.3721958933680332,0.2788569728824318,-1.186806316021496
0.66,0.8519044956531222,-0.4842815103036666,2.166380866807215,-0.0621153181181596,0.1133699981953483,0.0353691017740629,-0.4029569436497841,0.5880794382384614,-0.6531918215349144,0.8560208990257289,-0.4909391851559846,2.172840438094651,-0.4793958108275586,0.6206049368278297,-0.6843622189582297,1.5464016132046556,-0.4222351470980351,1.1283722313469249,0.969459404721118,12.112941302639229,-1.3775566726475477,0.2751415337600271,-1.1923289419950849
0.68,0.8441731098004143,-0.4729308064918303,2.154102879666851,-0.0561676458512889,0.1135491953359757,0.0362743596161839,-0.4102821026288434,0.6053530922594321,-0.6401702142771618,0.8512269409174533,-0.4847331357877064,2.1659968159050687,-0.4993958111255819,0.6406049371258529,-0.6877243292153784,1.141927463633138,-0.3662579489529638,0.8636827010485348,0.6510803628876294,11.411735958664394,-1.379516783366786,0.2697573381051208,-1.1988084430918655
0.7000000000000001,0.8358971021000425,-0.4606596953290112,2.141400788143707,-0.0500596439260808,0.1145448540001544,0.037157728657414,-0.4168641628469251,0.6207411258583719,-0.6309278237391533,0.8416390247009021,-0.4723210370511497,2.152309571525904,-0.5393958117216283,0.6806049377218993,-0.694448549729676,0.9559509370433488,-0.329103010904086,0.7694016799469905,0.462119526900423,11.411735958664394,-1.3800248727437905,0.2643016331866413,-1.2053518811165898
0.72,0.8274977812905436,-0.4481012233862172,2.1288402443539907,-0.0445235812655502,0.1156490235234195,0.0379842804186092,-0.4227268663378648,0.6342990726023122,-0.6257539343383467,0.8320511084843509,-0.4599089383145932,2.13862232714674,-0.5793958123176748,0.7206049383179458,-0.7011727702439734,0.7825572561576197,-0.2931351745469851,0.6778973371970143,0.2586944700403326,11.11886464757481,-1.3798788969152835,0.2592587528025976,-1.2107565237819478
0.74,0.8189863043908567,-0.4352874596381275,2.116345514052757,-0.0397019014990756,0.1164053942958788,0.0387638430482843,-0.428179389561906,0.6464600714531598,-0.623968270883853,0.8204631922379975,-0.4454968395482342,2.12459887174186,-0.6193958129137213,0.7606049389139923,-0.7078969907582708,0.6723252496592289,-0.272626161202058,0.6080499425423769,0.0892831727246856,10.877841310670192,-1.3793890564633111,0.2550393928493949,-1.2147465095228378
0.76,0.8108033451705514,-0.422899618595239,2.1045009161372423,-0.0358233305422587,0.1165724661081138,0.0394633341930017,-0.4329968054319666,0.6570146722194983,-0.6229207730606917,0.8088752759916439,-0.4310847407818753,2.1105754163369808,-0.6593958135097677,0.8006049395100387,-0.7146212112725684,0.5824610388073904,-0.2408707935030341,0.5277300383169259,0.0523748911580634,10.693614452465226,-1.3789341480580302,0.2512961156473642,-1.2178523827917336
0.78,0.8020872470179812,-0.4096435883830222,2.0920510091996696,-0.0322417348689287,0.1161802181454175,0.0401679499754982,-0.4384225492165676,0.6679732497308222,-0.6221372665738856,0.7962873597303892,-0.4156726420006152,2.096383855419244,-0.6993958141058141,0.8406049401060851,-0.7213454317868658,0.6126642618569667,-0.2712871892300461,0.5479288755661949,0.039175324340307,10.662491579792004,-1.3793294725419327,0.2481145311668367,-1.2201292079413917
0.8,0.7932576652299732,-0.3961728442635002,2.0796128234886977,-0.0288950204056923,0.1153988409445819,0.0408493126644559,-0.4443186049020403,0.6784589211633691,-0.6217348009711048,0.7826994434542335,-0.399260543204454,2.0820241889886497,-0.7393958147018606,0.8806049407021316,-0.7280696523011634,0.601819650308438,-0.2948027842736345,0.5242835716273486,0.0201232801390394,10.646513885576496,-1.3800458162160452,0.2452807981855114,-1.2215721839462514
0.8200000000000001,0.7843049654814077,-0.3824992548167837,2.06717737976206,-0.0256801289955308,0.1144059754258164,0.0415067706366784,-0.4506988161407734,0.6882745957499302,-0.6218256115543671,0.7710417349848712,-0.3622498982053317,2.048526083440142,-0.5389115188872926,0.7156173209836969,-0.5886347808306953,0.5853691348246642,-0.3190105619366584,0.4907837293280537,-0.0045405291631162,10.624810072177752,-1.38091090324147,0.2423797505063651,-1.222549330829572
0.84,0.7756684291745561,-0.3691478578314328,2.0555709988908624,-0.0168926780265059,0.1142404596854844,0.0424884235522814,-0.4576848190650003,0.7124016182533954,-0.5997912520412544,0.7710417349848712,-0.3622498982053317,2.048526083440142,-0.5389115188872926,0.7156173209836969,-0.5886347808306953,1.6706514080539996,-0.3493001462113454,1.2063511251732606,1.101717975655636,10.597068647702145,-1.380151531721205,0.2331954752888101,-1.2305482229295197
0.86,0.7664573175978361,-0.3547798392396991,2.043812373335307,-0.0026358514981128,0.1152031839694842,0.0438206829566987,-0.4629182837441122,0.7222379653638735,-0.5774213808053315,0.7710417349848712,-0.3622498982053317,2.048526083440142,-0.5389115188872926,0.7156173209836969,-0.5886347808306953,1.2495539365480537,-0.2616732339555949,0.4918173555239047,1.118493561796147,12.16208183384242,-1.382304558449425,0.2182088988782117,-1.240838127897329
0.88,0.7571567682632948,-0.3403065372041685,2.032457519607684,0.0119247230772524,0.1163903324104364,0.0451468018063915,-0.4668611271652206,0.7243404150677036,-0.5591919320601673,0.7656526197959982,-0.3550937249954948,2.042639735631836,-0.5578301016843431,0.7230490009477625,-0.5820147768026134,0.938454994329884,-0.1971421710554172,0.1051224851915055,0.9114724372582096,11.96044471452842,-1.383623759636336,0.2032691577848875,-1.248639646573794
0.9,0.7482568901063155,-0.3265686116883263,2.02197484259474,0.0245027308155727,0.117170906818313,0.0462882296723528,-0.4698350170924775,0.7217555103559969,-0.5451621496890803,0.7548743894182524,-0.3407813785758208,2.0308670400152216,-0.595667267278444,0.7379123608758935,-0.5687747687464496,0.7286297877662341,-0.1486944963628472,-0.1292452355853346,0.7014891185543493,11.697930705896397,-1.3842395059080634,0.188669043584554,-1.2540077369212972
0.92,0.7388321798126397,-0.3121946556636706,2.011204278835659,0.0358705038052942,0.1172751259412124,0.0473054506009411,-0.472566074621833,0.7158770841737684,-0.5327281422604679,0.7440961590405065,-0.3264690321561469,2.019094344398608,-0.633504432872545,0.7527757208040247,-0.5555347606902858,0.7011046825249172,-0.1365528764677714,-0.2939213091114279,0.6217003714306168,11.493401940322656,-1.3852640099641589,0.1760820979854673,-1.2564432330869597
0.94,0.7293542825090694,-0.2979652204500498,2.00066193309412,0.04514301434337,0.11643282040817,0.0480971652174614,-0.4751709903771892,0.7075666815848773,-0.5221859262759626,0.7314260703830556,-0.3114135177400664,2.007983649184802,-0.671341598466646,0.7676390807321558,-0.5422947526341221,0.6837153924439424,-0.1302457877678103,-0.4155201294445521,0.5271107992252666,11.254371691375129,-1.387045548185731,0.1657817754085736,-1.2561455048363463
0.96,0.7198271540944462,-0.2839236804665985,1.990325418898704,0.0522535688306067,0.114381367506559,0.0486316578148422,-0.4775539482935006,0.69744010573252,-0.5119561922214999,0.7187559817256047,-0.2963580033239859,1.9968729539709964,-0.709178764060747,0.7825024406602868,-0.5290547445779583,0.7295092284363024,-0.1191478958155717,-0.5063287926178661,0.5114867027231351,11.254371691375129,-1.3894874484541295,0.1581941568348221,-1.2537845946953885
0.98,0.7107264457085586,-0.2707797938242628,1.9806979523230417,0.057276739161715,0.1112210746589893,0.0489051129578284,-0.4804389244992233,0.6869643469993095,-0.5019416919646993,0.7051399639283014,-0.2809309049097021,1.986093258958595,-0.7470159296548479,0.797365800588418,-0.5158147365217944,0.7388417018169077,-0.144248810286135,-0.5237879366605247,0.5007250128400309,11.250942467227103,-1.3938650679868998,0.1522815708693908,-1.2485020737730044
1.0,0.701076983243363,-0.2571645489908117,1.9707749248627533,0.0610613192515445,0.1067506010474861,0.0489708298005302,-0.4845302966371929,0.6753262158672311,-0.4908335665849179,0.6905780169911454,-0.2651322224972151,1.9756445641475973,-0.7848530952489488,0.812229160516549,-0.5025747284656307,0.8300239027759252,-0.2045686068984809,-0.5819065566039228,0.5554062689890699,11.27054114616476,-1.3996738899375738,0.1481187010483393,-1.2410153392067675
1.02,0.6913289146638163,-0.2437884708409168,1.9610799531421104,0.0634937131573908,0.101372604379323,0.0488390074443772,-0.4903314996262974,0.6630960879153435,-0.4791654627113526,0.6768504684115033,-0.2233982381974502,1.9462332465335077,-0.5334495571390545,0.647168501112888,-0.47075221600506,0.8935527878148094,-0.2900601494552235,-0.6115063975943802,0.5834051936782658,11.330633825688892,-1.406791667415887,0.1455025797603353,-1.231449208665422
1.04,0.6812953315302568,-0.2304700597587274,1.951576014914946,0.070965840200713,0.0997701092389529,0.0492583172845966,-0.511872773626973,0.6653302211275933,-0.4720687149596253,0.6768504684115033,-0.2233982381974502,1.9462332465335077,-0.5334495571390545,0.647168501112888,-0.47075221600506,1.1394973293451671,-1.0770637000337813,0.1117066606124927,0.3548373875863625,11.065143848435582,-1.41389444389431,0.1383812491535463,-1.2258958029214508
1.06,0.6714111994493608,-0.2179208566058896,1.9426629315151869,0.0821023473484457,0.1041640938850171,0.0503355453146182,-0.5267974425222964,0.6549898965878819,-0.466536874472541,0.6768504684115033,-0.2233982381974502,1.9462332465335077,-0.5334495571390545,0.647168501112888,-0.47075221600506,0.9490380819494784,-0.74623344476617,-0.5170162269855727,0.2765920243542163,11.065143848435582,-1.4050886714828852,0.1249200069022283,-1.2341146196918982
1.08,0.6607593560170753,-0.2049967651579231,1.9333815371018424,0.093806720974232,0.1119956680426019,0.0517646749509494,-0.5370866559301025,0.6378750992002215,-0.4619606530120664,0.6715159728401128,-0.2169265531863213,1.941525724373457,-0.5432334092394269,0.6415369581620194,-0.4667359458890885,1.0243607824240346,-0.5144606703903043,-0.8557398693830209,0.2288110730237269,10.914580562067384,-1.3929202042663478,0.1114423837892834,-1.245434729520624
1.1,0.6499479782830483,-0.1924571944112374,1.9241795966623785,0.1040047027330164,0.1213457171713099,0.0532877585317379,-0.5431384205687868,0.6171068952894678,-0.458501009149769,0.6608469816973317,-0.2039831831640635,1.932110680053356,-0.5628011134401715,0.6302738722602822,-0.4587034056571453,1.095343878166355,-0.3025882319342143,-1.0384101955376812,0.1729821931148734,10.87628389895508,-1.379691385479404,0.0997135927353633,-1.257326394987369
1.12,0.6390528943474352,-0.1803578007689975,1.915039751489499,0.1121985719816161,0.1312230670500751,0.0547774989832636,-0.5457340488734503,0.5941495559750948,-0.4556638241335576,0.6501779905545506,-0.1910398131418058,1.9226956357332543,-0.5823688176409161,0.619010786358545,-0.4506708654252022,1.1638581673763375,-0.1297814152331766,-1.1478669657186524,0.1418592508105665,10.870816103236391,-1.3667364588476605,0.0906759719959736,-1.2684129982956285
1.14,0.6286832803041685,-0.1693043281533313,1.906407557068648,0.1180079246571174,0.1406051139760917,0.056085837101734,-0.5454315732072968,0.5709887019055709,-0.4531091424889948,0.6385306142017323,-0.1786595974146349,1.9136822184247504,-0.6019365218416607,0.6077477004568078,-0.4426383251932591,1.1651642063068406,0.0151237833076744,-1.158042703476192,0.1277340822281397,10.870816103236391,-1.3535388422163983,0.0835439124473033,-1.2793969148957327
1.16,0.6178008202562624,-0.1581483733421188,1.897373707114663,0.1222994262761097,0.1502053411639807,0.0573156666427636,-0.5425666248597933,0.5461392666551734,-0.4503908912529663,0.626883237848914,-0.1662793816874639,1.9046688011162465,-0.6215042260424054,0.5964846145550706,-0.4346057849613159,1.2580652318935337,0.1432474173751752,-1.2424717625198756,0.1359125618014267,10.89059381132938,-1.341044827133263,0.0785928133019239,-1.289579937803493
1.18,0.6070101678493818,-0.1474977358585234,1.8883946342651845,0.1247730366097609,0.1590975741500778,0.0583248680795963,-0.5365112375430519,0.5206819767430804,-0.4476209090503908,0.614746668891077,-0.1541807431078365,1.895856197313541,-0.64107193024315,0.5852215286533333,-0.4265732447293728,1.3156881532364475,0.3027693658370745,-1.272864495604653,0.138499110128773,10.915477068904693,-1.3299097557923554,0.0757995040538156,-1.2982658511088214
1.2,0.5969018193388661,-0.137856506418742,1.8799174427198868,0.125379772296118,0.1662831350062185,0.0589808056258297,-0.527837418668356,0.4957894891215071,-0.4448285684849442,0.6021209073282214,-0.1423636816757525,1.887244407016634,-0.6606396344438946,0.5739584427515961,-0.4185407044974297,1.325394507019181,0.4336909437347935,-1.2446243810786628,0.1396170282723347,10.942864036129322,-1.3198614176540884,0.0749176096065654,-1.3055933508932065
1.22,0.5864624478044181,-0.128222906591928,1.8710558826820465,0.1237767167226381,0.1720397617987813,0.0592485056679899,-0.5165587852820884,0.4691307857848577,-0.4414147159971902,0.5705099484054483,-0.1130670319626667,1.85767601429564,-0.5245442608803624,0.4599388785374865,-0.4195330277945221,1.4573506985806957,0.5639316693133778,-1.3329351668324718,0.1706926243876971,10.98176826827239,-1.312823396104973,0.0765776099094929,-1.3099512298542382
1.24,0.5767070128564324,-0.1195263301859629,1.8626636948143984,0.1209202093722558,0.1771699894944986,0.0593230226006724,-0.5105342926085046,0.4477542589233018,-0.4421646301306774,0.5705099484054483,-0.1130670319626667,1.85767601429564,-0.5245442608803624,0.4599388785374865,-0.4195330277945221,1.1110949372628895,0.3012246336791924,-1.0688263430777944,-0.0374957066743592,11.034998892084332,-1.3087217447456947,0.0804327750917438,-1.312303348268826
1.26,0.5665854901667744,-0.1108003523846645,1.8538281887959,0.1176522090457315,0.1833884656141623,0.0594348474022245,-0.5016501222786646,0.4261520371259788,-0.441237384477585,0.5705099484054483,-0.1130670319626667,1.85767601429564,-0.5245442608803624,0.4599388785374865,-0.4195330277945221,1.1688073553108782,0.4442085164920006,-1.080111089866148,0.0463622826546217,10.724298709739742,-1.3003308489747991,0.0840906977100171,-1.3176187754960484
1.28,0.5566692820008724,-0.1024992763338781,1.845035873586219,0.1141943487665388,0.1898503786573474,0.0595112764391592,-0.4902160745601172,0.4052556628153469,-0.4380592806915774,0.5652645057966447,-0.1084676431772918,1.8534806840176945,-0.5238856293227637,0.4527687564206824,-0.4144739196564377,1.2015575831339609,0.5717023859273668,-1.044818715531595,0.158905189300379,10.859806162391578,-1.2921460071452664,0.0879713193430937,-1.3237260844863854
1.3,0.5470045972323931,-0.0946078066443284,1.8363254839473315,0.1106030372496151,0.1962319402014,0.0595182207649376,-0.4766507543573715,0.3851421698415546,-0.4331537951554285,0.5547736205790375,-0.0992688656065421,1.845090023461804,-0.5225683662075663,0.4384285121870741,-0.4043557033802689,1.2375725232841706,0.678266010137285,-1.0056746486896166,0.2452742768074417,10.997370299645809,-1.284860676624836,0.0918066752584168,-1.3296864697109645
1.32,0.5381003113501311,-0.0874748308988197,1.828154292661976,0.1071137448900527,0.2018126015300128,0.0594202908371841,-0.4612690380913618,0.3668621792186204,-0.4272243215918787,0.5442827353614302,-0.0900700880357923,1.8366993629059136,-0.5212511030923689,0.4240882679534659,-0.3942374871041,1.2307659294149162,0.7690858133004852,-0.9139995311467086,0.2964736781774918,11.111828663433698,-1.277963822039642,0.0958905612550821,-1.3357022202256463
1.34,0.529068860429663,-0.0803310240668704,1.8196856639353316,0.1034357464140084,0.2065488575330988,0.0591505280496538,-0.4426513645380443,0.3486030567894834,-0.4198958447378197,0.5338577132995829,-0.081588322676723,1.828814613163832,-0.5199338399771715,0.4097480237198576,-0.3841192708279312,1.3543632206876692,0.9308836776658752,-0.912956121456851,0.3664238427029481,11.207416501244552,-1.2728945029429009,0.0999490246692062,-1.3403676457471123
1.36,0.5204312314915506,-0.0735435635943986,1.811373537638238,0.09978532265287,0.2095185273654686,0.0586610268553594,-0.4222284998932842,0.3311810185557871,-0.4116643266124887,0.5234326912377355,-0.0731065573176537,1.8209298634217497,-0.518616576861974,0.3954077794862494,-0.3740010545517624,1.403904116350384,1.0211432322380058,-0.8711019116848129,0.4115759062665536,11.292706189508865,-1.270591606338238,0.1037362345701578,-1.3427221671030192
1.38,0.512213000436512,-0.0670981631040334,1.8032354827213888,0.0961070919642139,0.2104242725023214,0.0579338559339075,-0.4008267427654953,0.3143920804334829,-0.4025150574023312,0.5130406007537681,-0.0649832980644246,1.813298069086572,-0.5172993137467766,0.3810675352526411,-0.3638828382755936,1.4349327323182792,1.0700878563894456,-0.8394469061152127,0.4574634605078759,11.355252164254123,-1.2708942291365055,0.1076615208918642,-1.342773418952636
1.4,0.5048086961505316,-0.0612787373992942,1.7956835489313263,0.0925596612548257,0.2091121977286988,0.057012738262579,-0.3798086004621784,0.2991556548044525,-0.3928456312501959,0.5026814418476806,-0.0572185449170357,1.8059192301582985,-0.5159820506315792,0.3667272910190329,-0.3537646219994247,1.3851071925513974,1.0509071151658416,-0.7618212814515163,0.4834713076067615,11.417309769796702,-1.274088811865185,0.1115189098553397,-1.3401279739750984
1.42,0.4974478004658889,-0.055456775890648,1.7879440998336344,0.0888202853757662,0.2050476603211957,0.0557882032341624,-0.3575957486950508,0.2839508696104511,-0.3815093384610206,0.4858182661274227,-0.0463209546590715,1.7760412673688166,-0.3799812378651898,0.2696319152132116,-0.3310525423372321,1.4604004678734703,1.1106425883563809,-0.760239259700074,0.5668146394587681,11.480711561573116,-1.281690443932995,0.1153626127799638,-1.3338161078423534
1.44,0.4905095973905265,-0.0499340447432768,1.7804452096419383,0.0850588617377972,0.1983926798018527,0.05433903315777,-0.3378237361944282,0.2692103064712989,-0.3688218705505503,0.4858182661274227,-0.0463209546590715,1.7760412673688166,-0.3799812378651898,0.2696319152132116,-0.3310525423372321,1.3867124088679323,0.988600625031133,-0.7370281569576059,0.6343733955235131,11.545449439964614,-1.2939321564408304,0.119271296664161,-1.3237930674435638
1.46,0.4839388888448805,-0.0446978332727556,1.7732331224456432,0.0813688457363707,0.1900814427953703,0.0527735214688948,-0.3206911230174806,0.2552196197804908,-0.3529432654332186,0.4858182661274227,-0.0463209546590715,1.7760412673688166,-0.3799812378651898,0.2696319152132116,-0.3310525423372321,1.3614292570892412,0.8566306588473793,-0.6995343345404054,0.7939302558665845,11.597058867692796,-1.3071958808819728,0.1227919212450289,-1.3122318768601235
1.48,0.477986727380159,-0.0399775230357556,1.7667017758278811,0.0780334614428298,0.1813414315704965,0.0512538095845417,-0.3070592136952359,0.2424114675918646,-0.335305903676407,0.4820184537487708,-0.0436246355069394,1.7727307419454443,-0.380015765345792,0.2637271672949635,-0.3186939245546393,1.285451519892476,0.6815954661122336,-0.6404076094313094,0.8818680878405788,11.767184300900226,-1.3224036492773488,0.1262315288246169,-1.2989833226650176
1.5,0.4719705514940321,-0.0352662076875701,1.760210741007087,0.0747370982579106,0.1718594306879194,0.0496752126449451,-0.295609574426654,0.2294449848696896,-0.3145995681757605,0.474418828991467,-0.0382319972026752,1.7661096910986995,-0.3800848203069966,0.2519176714584671,-0.2939766889894538,1.3490517442174443,0.5724819634290945,-0.6483241361087522,1.035316775032327,11.90540744648115,-1.338194919409898,0.1293849141969579,-1.2854995845875046
1.52,0.4661520953329261,-0.030809485385536,1.754151527135832,0.0716615969867638,0.1626042000270531,0.0481573299393618,-0.2870916097538283,0.216931342484147,-0.2922710414220734,0.4668192042341632,-0.032839358898411,1.759488640251955,-0.3801538752682011,0.2401081756219708,-0.2692594534242682,1.3488050961043967,0.4258982336412864,-0.625682119277128,1.1164263376843564,12.017341506216326,-1.353895694114104,0.1322659067667013,-1.2725222928901638
1.54,0.4604741307094053,-0.0265980994655209,1.7485521173636984,0.0687899703407274,0.1540118027664422,0.0467274532519358,-0.2813318880770758,0.2048902364001963,-0.2687596763512483,0.4592161267287991,-0.0280371953859715,1.7541034511834697,-0.3802229302294056,0.2282986797854744,-0.2445422178590826,1.3518014989378229,0.2879860838376241,-0.6020553041975352,1.1755682535412508,12.091942792503689,-1.3678514077689066,0.1347378573066094,-1.2613931584917597
1.56,0.4551629268421955,-0.0228156904225641,1.7436754519271969,0.0662418221669936,0.1467502253299734,0.0454651167175752,-0.2781443702132011,0.1939066525387779,-0.2457318468725404,0.4516130492234351,-0.0232350318735321,1.7487182621149842,-0.3802919851906101,0.216489183948978,-0.2198249822938971,1.285574108203979,0.1593758931937361,-0.5491791930709228,1.1513914739353968,12.14164039960906,-1.381106350700369,0.1370808188823689,-1.2512629514566098
1.58,0.4496151575363517,-0.0190561556972631,1.739020614732612,0.0636992643196817,0.1403020033841057,0.0442443185721423,-0.2769877709432899,0.182697356342173,-0.22092750149708,0.444008245344041,-0.0187281057570051,1.7439510039356283,-0.3803610401518147,0.2046796881124817,-0.1951077467287115,1.3622055577256915,0.0578299634955592,-0.5604648098302453,1.2402172687730209,12.170345899521635,-1.3928822839537307,0.1392641565106238,-1.2427317167702885
1.6,0.4440657317359885,-0.0155165321244837,1.7348647971695494,0.061243442580558,0.1355099088083863,0.0431509414028663,-0.2781797135023958,0.1719071485807767,-0.1958799248262659,0.4364017150906167,-0.0145164170363905,1.7398016766454023,-0.3804300951130192,0.1928701922759854,-0.170390511163526,1.3649454271862074,-0.0595971279552964,-0.5395103880698123,1.2523788335407058,12.1979013575492,-1.4025190925736184,0.1413389385892872,-1.2367591449582778
1.62,0.4384705136738827,-0.0121874603861101,1.7312104498281893,0.0588594874778448,0.1329688546306779,0.0422117433411064,-0.2813312991905861,0.1616218245574039,-0.1708133865833856,0.4301567460608688,-0.0069211746954449,1.725070800928236,-0.3158399509041197,0.1527337909450402,-0.1666149625256076,1.363865574477149,-0.1575792844095147,-0.5142662011686407,1.253326912144012,12.207427356101109,-1.408249991511415,0.143107487861278,-1.236476993495052
1.64,0.4331009421611426,-0.0092176470672193,1.7280263124720188,0.0560801365070087,0.1318693954079281,0.0413688779858563,-0.2837779916092444,0.1519783136643465,-0.1655732139481265,0.4301567460608688,-0.0069211746954449,1.725070800928236,-0.3158399509041197,0.1527337909450402,-0.1666149625256076,0.5622344159319924,-0.1223346209329123,-0.48217554465287,0.2620086317629583,12.206417082066764,-1.408784063002193,0.1451970774287111,-1.2390943374676966
1.66,0.4274016927889966,-0.0062644203706352,1.7247767604009163,0.0527863511988487,0.1307226539386836,0.0404656091349185,-0.2860545065146222,0.1439495588385375,-0.1595206560343929,0.4301567460608688,-0.0069211746954449,1.725070800928236,-0.3158399509041197,0.1527337909450402,-0.1666149625256076,0.5154533962116657,-0.1138257452688917,-0.4014377412904474,0.302627895686676,10.892493389193987,-1.410456730284034,0.1479738885753685,-1.236340814624806
1.68,0.4216550376986618,-0.0034582304316929,1.7216664132616624,0.0496903731705796,0.129489292118388,0.0395820947333793,-0.2885393252041647,0.137085697268011,-0.1517482696365426,0.4269983465518276,-0.0053938367859945,1.72340465130298,-0.3233719983844644,0.148899119417893,-0.160761970065476,0.5331437655471997,-0.1242409344771267,-0.3431930785263257,0.388619319892515,11.085429661496164,-1.4127431944569784,0.150566293649325,-1.2340427779245728
1.7,0.415855921254343,-0.0007811198765114,1.7187262284929588,0.0469879286720666,0.1282423177262836,0.0387361052474474,-0.2912834869858217,0.130950396462708,-0.1426091259863295,0.4206815475337452,-0.0023391609670937,1.720072352052468,-0.338436093345154,0.1412297763635984,-0.1490559851452127,0.5672219286017841,-0.1372080890828492,-0.3067650402651528,0.4569571825106588,11.162540939169958,-1.41504172035127,0.1526262852750036,-1.23240396744891
1.72,0.4102934277573638,0.0016537646621915,1.7161131989365723,0.0448351082407108,0.1270952445465274,0.0379726697334469,-0.294134394294848,0.1256011189151507,-0.1329118280659798,0.4143647485156628,0.000715514851807,1.7167400528019556,-0.3535001883058435,0.1335604333093038,-0.1373500002249494,0.5717954829339711,-0.1425453654513159,-0.2674638773778617,0.4848648960174825,11.162540939169958,-1.4175590337851451,0.1543266779681557,-1.231095244022109
1.74,0.4043772754030109,0.0041103201927789,1.713569460817108,0.0429711310429595,0.1259545033023997,0.0372095168957319,-0.2973592786060525,0.120300922947661,-0.1219415745799484,0.4072947447495459,0.0033867235179931,1.7139930527974567,-0.3685642832665331,0.1258910902550092,-0.1256440153046861,0.6301555713913657,-0.1612442155602245,-0.2650097983744846,0.5485126743015711,11.220686068257235,-1.42010429479599,0.1555792244886974,-1.2302378809878445
1.76,0.3983926091006907,0.0064650533701771,1.711244128256775,0.041513738960833,0.1249086348536764,0.036487799157317,-0.3009695680964113,0.1154091019266566,-0.1111455751858419,0.4002247409834291,0.0060579321841792,1.7112460527929576,-0.3836283782272227,0.1182217472007146,-0.1139380303844228,0.6195113114852756,-0.1805144745179399,-0.2445910510502205,0.5397999697053221,11.250076704786808,-1.4226875383831352,0.1563788212221494,-1.22994960479638
1.78,0.3926348786623839,0.0086140147156937,1.7092322425574964,0.0405229092227669,0.1240964135159879,0.0358447310120688,-0.3049195442547021,0.1110327950836345,-0.1011727794176941,0.392778134843295,0.0085374072740079,1.7087917024114652,-0.3986924731879122,0.11055240414642,-0.1022320454641595,0.5792474183553482,-0.1974988079145395,-0.218815342151106,0.4986397884073894,11.250076704786808,-1.4251817887010618,0.1567708000428614,-1.2299424545701516
1.8,0.3864896062144785,0.0107886238041752,1.7073178323525946,0.0399269911179501,0.1235367928296282,0.0352180016300749,-0.3093924439265952,0.1066549106194718,-0.0908004480503189,0.3849549263291436,0.0108251487874792,1.7066300016529794,-0.4137565681486017,0.1028830610921254,-0.0905260605438963,0.6057185027944405,-0.2236449835946535,-0.2188942232081332,0.5186165683687648,11.224155606060776,-1.4272121964987854,0.1566528681754982,-1.2304408564728146
1.82,0.3802524394477122,0.0128764887394858,1.705609084211952,0.0398094234257875,0.1233325162333084,0.0346450960804911,-0.31407714657504,0.1023388336431638,-0.0806039359948296,0.3710199840181488,0.0161213693351488,1.7027778099500783,-0.3113694212618843,0.0955681170030578,-0.092441715378842,0.6011318854201217,-0.2342351324222391,-0.2158038488154032,0.5098256027744635,11.224155606060776,-1.4288461221507576,0.1560133413849904,-1.2315461228774869
1.84,0.3738292598485196,0.014852325179122,1.7039929756346797,0.0393026033091562,0.1259883005119633,0.0341644208445698,-0.3271542967537634,0.0958212914929561,-0.08152244905603,0.3710199840181488,0.0161213693351488,1.7027778099500783,-0.3113694212618843,0.0955681170030578,-0.092441715378842,0.732007306521279,-0.6538575089361703,-0.325877107510384,-0.0459256530600186,11.214092927401907,-1.4282330810120392,0.1559248659874375,-1.234162434281325
1.86,0.3675258029769626,0.0166190088517085,1.7024316961942698,0.0380785186944329,0.131975400447488,0.0337948278756468,-0.3352724021336081,0.0905751610164171,-0.0827646074509828,0.3710199840181488,0.0161213693351488,1.7027778099500783,-0.3113694212618843,0.0955681170030578,-0.092441715378842,0.4872588568032572,-0.4059052689922376,-0.2623065238269474,-0.0621079197476406,10.55019609448118,-1.4190173791029814,0.1564026676266534,-1.2424321464706318
1.88,0.3607653278602543,0.0183806140610669,1.700764083452528,0.0363342538364078,0.1400187761221539,0.0334374657772382,-0.3399626005036433,0.0859318919611784,-0.0839465111281782,0.3679062898055299,0.0170770505051793,1.7018533927962902,-0.3117648167289421,0.093350758279775,-0.0927699688445466,0.3352417208962314,-0.2345099185017574,-0.2321634527619395,-0.0590951838597739,10.5447156847913,-1.4082501258272668,0.157522254717673,-1.2532924166643504
1.9,0.3539451893842411,0.0200597964999445,1.6990736391127483,0.0344028505627878,0.1487674496984306,0.0330856720805681,-0.3415042930985297,0.0823187042322504,-0.0850602175639725,0.3616789013802922,0.0189884128452405,1.7000045584887131,-0.3125556076630578,0.0889160408332093,-0.0934264757759558,0.2041585391719658,-0.07708462974432,-0.1806593864463961,-0.0556853217897133,10.554394212836089,-1.396949044999359,0.1589335950564255,-1.2654195472957643
1.92,0.3471225362813969,0.021678097486041,1.6973615793790786,0.03265912482953,0.1576212704102676,0.0327430645597394,-0.34041310139506,0.0796515890777699,-0.08613337767671,0.3554515129550545,0.0208997751853017,1.6981557241811365,-0.3133463985971734,0.0844813233866437,-0.094082982707365,0.1537520342024086,0.0545595851734859,-0.1333557577240254,-0.0536580056368737,10.585830487606472,-1.3860997459408375,0.1601211906099639,-1.2772737482899188
1.94,0.3406867064009666,0.0231727655486937,1.6957149357576573,0.0313537873762029,0.1657302004193709,0.0324276956932217,-0.3369234309163936,0.0777799382972545,-0.0871802056259125,0.3491845849831111,0.0225894016530345,1.6962740645269891,-0.3141371895312891,0.0800466059400781,-0.0947394896387743,0.2047970058930992,0.1744835239333192,-0.093582539025773,-0.0523413974601233,10.585830487606472,-1.3749927859200002,0.1609824337918912,-1.289397293672734
1.96,0.3340119060734111,0.0247138610388872,1.6939554792107423,0.0305288244086895,0.1734312797670706,0.0321074423522277,-0.3305929868488972,0.076407164891346,-0.0887544864888557,0.3429176570111676,0.0242790281207674,1.6943924048728418,-0.3149279804654047,0.0756118884935124,-0.0953959965701835,0.3333068749332187,0.3165222033748194,-0.0686386702954254,-0.0787140431471641,10.602513582243771,-1.3647795669793394,0.161196042702083,-1.3003592663784882
1.98,0.3274885555520142,0.0262315414203286,1.69216029011014,0.0304205217478211,0.1797360306195994,0.0317992033351688,-0.3220700278496054,0.075360651893073,-0.0907083161293774,0.3366309592658713,0.0258577866523361,1.6924943325454094,-0.3157187713995203,0.0711771710469468,-0.0960525035015928,0.4403222394546521,0.4261479499645892,-0.0523256499136474,-0.097691482026082,10.59417741107336,-1.3567367382607027,0.1606232589334913,-1.3089761674161646
2.0,0.3211518895612021,0.0277285225676868,1.690324447435916,0.0310755210982677,0.1843951125730548,0.0315026559573892,-0.3120969812090126,0.0743144399476535,-0.092789476659383,0.330324491747222,0.0273256772477407,1.6905798475446916,-0.316509562333636,0.0667424536003812,-0.096709010433002,0.5120728656202919,0.4986523320296393,-0.0523105972709755,-0.1040580265002831,10.593553388199323,-1.3503980796571189,0.1591366905708637,-1.315731282982194
2.02,0.3153253758464345,0.0291282272918249,1.6885424375752551,0.032374702119789,0.1872592235228229,0.0312286045573142,-0.3018257813075837,0.0730095292374892,-0.0946863698004687,0.3055470405007515,0.0314442445650695,1.685684973602947,-0.28090398932645,0.0633727063414938,-0.0894855739700155,0.5263044341569624,0.5135599950714442,-0.065245535508214,-0.0948446570542847,10.603197818512854,-1.34630934756571,0.1567641185926633,-1.3200602016472256
2.04,0.3093727283032901,0.0305585628429721,1.6866375011115875,0.0340590503874596,0.1898391391820249,0.0309574719964522,-0.2939008386750074,0.0700999947370024,-0.0956784804407424,0.3055470405007515,0.0314442445650695,1.685684973602947,-0.28090398932645,0.0633727063414938,-0.0894855739700155,0.4250129123382398,0.3962471316288157,-0.1454767250243419,-0.0496055320136808,10.619696753594326,-1.3439821093024935,0.1540791699475322,-1.3234710360119537
2.06,0.3035892589594806,0.0319261000849106,1.6847179901002152,0.0357440960056317,0.1929389474032061,0.0307133957488555,-0.2847016212729824,0.0667928306833906,-0.0962492680447549,0.3055470405007515,0.0314442445650695,1.685684973602947,-0.28090398932645,0.0633727063414938,-0.0894855739700155,0.4896139636900577,0.4599608701012503,-0.1653582026805863,-0.0285393802006282,10.680800930951593,-1.3400072449862068,0.1514446264706449,-1.3277528960956295
2.08,0.2982802467374199,0.0331580654126031,1.6828868758909847,0.0372607341309562,0.1959113419578289,0.0304853298469582,-0.2745448485074369,0.0630562818466125,-0.0964857518114653,0.302738000607487,0.0320779716284844,1.6847901178632467,-0.2746653909499374,0.0611843596202619,-0.088824793432142,0.5412433713046134,0.5078386382772776,-0.1868274418389069,-0.0118241883355192,10.740265226732843,-1.3358981366996487,0.1487852334027403,-1.332323146760769
2.1,0.2929126698906826,0.0343722063384691,1.6809573779202696,0.0385939368689268,0.1987309517243932,0.0302236128326737,-0.2626916115261747,0.0585461761456449,-0.0964440115833089,0.297119920820958,0.0333454257553143,1.6830004063838464,-0.2621881941969124,0.056807666177798,-0.087503232356395,0.6341175415774807,0.5926618490631058,-0.2255052850483819,0.002087011407819,10.740265226732843,-1.3323817420057824,0.146467426128714,-1.3364186794510964
2.12,0.287793674390833,0.035489511518028,1.6790325633034502,0.0394525064374554,0.2009849906905056,0.0299139961450766,-0.2498228879781466,0.0534532748394654,-0.0960450632435734,0.291501841034429,0.0346128798821442,1.681210694904446,-0.2497109974438873,0.0524309727353341,-0.086181671280648,0.6922803789792052,0.6434361774014075,-0.2546450653089751,0.019947416986777,10.7996891854973,-1.3297441557865877,0.1447401700180617,-1.339662103572422
2.14,0.2829395596253217,0.0365007562523308,1.6771196265491843,0.0396668053063154,0.2025318631404046,0.0295374236706342,-0.2362863658409626,0.0479871658893759,-0.0952662986068734,0.2865076210855513,0.0356614993368509,1.679487061478833,-0.2372338006908623,0.0480542792928702,-0.084860110204901,0.7309621279247234,0.6768261068592004,-0.2733054475044755,0.0389382318349999,10.7996891854973,-1.3282320580367906,0.1438408054603056,-1.3417686365466064
2.16,0.2785827314766862,0.0373588633832787,1.675320859737497,0.0391753845571357,0.2033034896077481,0.0291088835836014,-0.2230739798940126,0.0426803054882413,-0.0941094956663738,0.2815134011366735,0.0367101187915576,1.67776342805322,-0.2247566039378372,0.0436775858504064,-0.083538549129154,0.7142620366004333,0.6606192973474978,-0.265343020056729,0.057840147024981,10.829590724768424,-1.3277771115556125,0.1438044827407387,-1.3429264268298746
2.18,0.2742692855752905,0.0381545097116086,1.6734555081937263,0.037886547929084,0.2033890358684366,0.0285824896720518,-0.2090316951234797,0.0372333493327904,-0.0924565244535085,0.2768311111066214,0.0376493209102027,1.6760728336545008,-0.2122794071848122,0.0393008924079425,-0.0822169880534069,0.7576070993046232,0.7021142385266466,-0.2723478077725421,0.0826485606432621,10.859904692154489,-1.3284261672420712,0.1447566582690954,-1.343030313871768
2.2,0.2702369617495769,0.0388455481038901,1.6716280404807564,0.0358337007316925,0.202734824169836,0.0279848086060156,-0.1949673161813794,0.0322262331653151,-0.0903433638660987,0.2724607509953949,0.0384791056927861,1.6744152782826751,-0.1998022104317871,0.0349241989654786,-0.0808954269776599,0.7538955746815497,0.7032189471050151,-0.2503558083737669,0.1056580293704916,10.887994665645238,-1.329979848014762,0.1465428768204472,-1.3422043236973935
2.22,0.2664853850779842,0.0394488445864131,1.669847933340113,0.0332925985926795,0.2012885499933631,0.0273389206684613,-0.1809916096309945,0.0285280135762873,-0.0877558841475844,0.2604885959405079,0.0404568597621559,1.6671108722874517,-0.1845557770663677,0.0241317733932051,-0.1038652465714891,0.7343232479720042,0.6987853275192426,-0.1849109794513874,0.1293739859257146,10.91322043387845,-1.332852175747625,0.1490598821345956,-1.3405524527540873
2.24,0.2631960440498407,0.0399645339038972,1.668135768178081,0.0307962824227481,0.1980883828011685,0.0266771884563083,-0.1660937604148106,0.0260330147403427,-0.0925658506407874,0.2604885959405079,0.0404568597621559,1.6671108722874517,-0.1845557770663677,0.0241317733932051,-0.1038652465714891,0.7926328092585708,0.7448924608091975,-0.1247499417972333,-0.2404983246601502,10.470777198790527,-1.3366470005242517,0.1515658783840092,-1.3357583394914156
2.26,0.2600244915416991,0.04046893487718,1.6662363742407456,0.0283752572041382,0.1917797489951486,0.0259307351056396,-0.1524081241840379,0.0244985346653249,-0.0969807050665009,0.2604885959405079,0.0404568597621559,1.6671108722874517,-0.1845557770663677,0.0241317733932051,-0.1038652465714891,0.7230874908023008,0.6842818115386353,-0.0767240037508871,-0.2207427212856744,10.470777198790527,-1.3462350058629495,0.1539274307056368,-1.324574246918839
2.28,0.25708527713584,0.0409486182237249,1.664263669746998,0.0264066623242885,0.1837928321535977,0.0251990587536838,-0.1425522890449946,0.0234437795235336,-0.1000153151474526,0.2586430381698442,0.0406981774960879,1.6660722198217366,-0.1824734692433653,0.0225128814387831,-0.1065696231125672,0.5183118102082711,0.4927917569521656,-0.0527377570895659,-0.1517305040475862,10.509555942836414,-1.3576389673287768,0.1556756057771382,-1.3122561427814905
2.3000000000000003,0.2544406441321152,0.0413879369531178,1.6623430246722382,0.0249984381144638,0.1758624721835346,0.0245542125288362,-0.1365145782014697,0.0227945246871201,-0.1019741917403181,0.2549519226285169,0.041180812963952,1.6639949148903068,-0.1783088535973607,0.0192750975299391,-0.1119783761947234,0.3190324496767531,0.3018855421762417,-0.0324627418206753,-0.0979438296432745,10.552817720506027,-1.3698028647884006,0.1569227129200262,-1.298852478723678
2.32,0.2517496081242891,0.0418403564178785,1.66028728384626,0.0241051016254769,0.1680669662323952,0.0239535430933048,-0.1330789648256474,0.0224526401062958,-0.1034625612810131,0.2512608070871895,0.0416634484318161,1.661917609958877,-0.174144237951356,0.0160373136210951,-0.1173871292768796,0.1879864903683463,0.1717806687911174,-0.0170942290412154,-0.0744184770347475,10.581198944688367,-1.380811772682189,0.1574430415640685,-1.286529782383725
2.34,0.2490988601020268,0.0422888594630693,1.658205801394926,0.0239535208829691,0.1615284193861304,0.0234514016062732,-0.1322265593833176,0.0223409638644203,-0.1045988223799233,0.2477779223281624,0.041984194704238,1.6595698673733394,-0.1699796223053513,0.0127995297122511,-0.1227958823590358,0.0712417698055283,0.0426202721164864,-0.0055838120937764,-0.0568130549455134,10.59336499406163,-1.3895254728928246,0.1571389151359622,-1.2767091110490318
2.36,0.2464400145993663,0.0427345869333869,1.656100249235496,0.0246006113238446,0.1568595721769572,0.0230592342795622,-0.1337644287243305,0.0221596364014869,-0.1058910963352599,0.2442950375691353,0.04230494097666,1.6572221247878018,-0.1658150066593466,0.0095617458034071,-0.128204635441192,0.1008451007050227,-0.0768934670506441,-0.0090663731466688,-0.0646136977668285,10.598505431596095,-1.3963673912575985,0.155942480877551,-1.2690166203057636
2.38,0.2438665138587253,0.0431503375949397,1.654073739449503,0.0259008615436057,0.1548037233173579,0.0227982885277965,-0.1369890796992499,0.021560462191401,-0.1073634553258304,0.2409162682012583,0.0425447426513608,1.6547391633752104,-0.161650391013342,0.0063239618945631,-0.1336133885233481,0.1797583422347509,-0.1612325487459681,-0.0299587105042943,-0.0736179495285267,10.581409356191216,-1.3991577037837934,0.1538577610060477,-1.265312701274147
2.4,0.2410948021060478,0.0435689882979278,1.6519062735362988,0.0278318339976578,0.1552345901097105,0.0226363006698552,-0.1397234303157604,0.0202845179082216,-0.109341992273362,0.2376416142245314,0.0427035997283405,1.652120983135565,-0.1574857753673373,0.0030861779857191,-0.1390221416055043,0.1804114433769202,-0.136717530825528,-0.0637972141589721,-0.0989268473765778,10.528364157949,-1.3972527656640543,0.1510360928776203,-1.265960180635771
2.42,0.2382852295612339,0.0439495733089763,1.649694227534761,0.0299850719077322,0.1575338979158596,0.0225514606445608,-0.140840986460472,0.017776709875342,-0.1117826917106529,0.2341086305902598,0.0445832141933389,1.6464391739226307,-0.1461979015011168,0.0106558140904964,-0.0919850805992201,0.1836780240635106,-0.0558778072355797,-0.1253904016439782,-0.1220349718645472,10.505819514302855,-1.393232679497419,0.1479932700717135,-1.2690149522774177
2.44,0.2356738505189688,0.0442413924751322,1.647644964419266,0.0314331592629388,0.159336826112753,0.0224272640481017,-0.1342700573404442,0.0133026976548049,-0.103794072371105,0.2341086305902598,0.0445832141933389,1.6464391739226307,-0.1461979015011168,0.0106558140904964,-0.0919850805992201,0.5634978566998787,0.3285464560013898,-0.2237006110268542,0.3994309669773939,10.505819514302855,-1.3884228054954093,0.1456943300639318,-1.2730715019062395
2.46,0.2330590434442554,0.0444578994829331,1.6456582650329272,0.0320522576187812,0.1593851304962398,0.0221837941285257,-0.1276850699344384,0.0086339232574516,-0.0953486451798448,0.2341086305902598,0.0445832141933389,1.6464391739226307,-0.1461979015011168,0.0106558140904964,-0.0919850805992201,0.5841334478385812,0.3292493703002899,-0.2334387198676665,0.4222713595630138,11.207518581169095,-1.3898841538778923,0.1446345777662715,-1.2748020720277715
2.48,0.2305700970945441,0.0445796466315196,1.6438335647243771,0.0317745310430057,0.1578219455409543,0.0218349565151388,-0.1216493000744656,0.0038371222522597,-0.0875581576229044,0.2326466515752486,0.0446897723342438,1.6455193231166385,-0.1474927957381881,0.0087300733269513,-0.0885136982643917,0.5480226137232135,0.3017884929986398,-0.2398400502595927,0.3895243778470204,11.170590588344568,-1.3930608764579933,0.1445951862634681,-1.2738167475211235
2.5,0.2281932097853667,0.0446067490252397,1.642159569672682,0.0305683744586682,0.1547780478483188,0.0213869651438165,-0.1164823439862446,-0.0008092636428082,-0.0802317849523181,0.2297226935452263,0.0449028886160538,1.643679621504654,-0.1500825842123307,0.0048785917998613,-0.081570933594735,0.5048813563893128,0.2583478044110527,-0.2323192947534016,0.3663186335293125,11.129301492097513,-1.3976696216554068,0.1455527670216047,-1.2706180586642115
2.52,0.2260185343630915,0.0445509461786331,1.6407016660302316,0.0286151277706516,0.1507015851586611,0.0208867417940155,-0.1128422009604767,-0.0047501867376989,-0.0735720293299396,0.226798735515204,0.0451160048978637,1.6418399198926696,-0.1526723726864732,0.0010271102727712,-0.0746281689250782,0.427591689107993,0.1820071512883929,-0.1970461547445329,0.3329877811189236,11.096063136490557,-1.4040155864229047,0.1475484724160568,-1.2649877191403465
2.54,0.2237854112910327,0.0444244119712102,1.6393028123931843,0.0260290916077885,0.1455222997451414,0.0203240867743676,-0.1109046430535215,-0.0074978841219387,-0.0666466029474413,0.2237452880614745,0.0451365471033191,1.6403473565141682,-0.1552621611606157,-0.0028243712543188,-0.0676854042554215,0.3849204532678406,0.0968778953477626,-0.1373848692119929,0.3462713191249189,11.06857010420299,-1.411716764622415,0.150204919978268,-1.2578734542519163
2.56,0.221564654947336,0.0442592568336685,1.6380452803491812,0.0235635596417831,0.1400889550341998,0.0197934911289124,-0.1114257473765711,-0.0089107719873786,-0.0594343860134156,0.220691840607745,0.0451570893087746,1.6388547931356665,-0.1578519496347583,-0.0066758527814089,-0.0607426395857647,0.3683879576589566,-0.0260552161524811,-0.0706443932719921,0.3606108467012838,11.049621597901025,-1.4195959792200457,0.1527267136345137,-1.250401718498285
2.58,0.2193070810535088,0.0440732297794899,1.6369339551515416,0.0214706069053312,0.1351664274642343,0.0193292047359764,-0.1144511015401944,-0.0096849780904886,-0.052048350874571,0.217573648442162,0.0450813444760527,1.6375357988739063,-0.1604417381089009,-0.0105273343084989,-0.0537998749161079,0.4009541057829822,-0.1512677081811665,-0.0387103051555028,0.3693017569422276,11.05650258874357,-1.4265590841566145,0.1547486439184411,-1.243974005281712
2.6,0.2170827778308243,0.0438862400535089,1.6360153722092738,0.0198728272925669,0.1317439678648557,0.0189643436274019,-0.11961477864069,-0.0100209706738339,-0.0450116586291779,0.2143907115647254,0.0449093126051537,1.6363903737288876,-0.1630315265830434,-0.014378815835589,-0.0468571102464512,0.436724999200357,-0.2581838550247795,-0.0167996291672641,0.3518346122696542,11.06135895583884,-1.43215745752106,0.1564317000229994,-1.2393152917748271
2.62,0.2146166482585555,0.0436861846624508,1.6351924103260054,0.0186368817581165,0.1302439681511654,0.0186711064828568,-0.1266559757070565,-0.0099724532730861,-0.0376683053035685,0.2111020388987898,0.0433851915198172,1.6337647892778149,-0.12710263076705,-0.0140316196061419,-0.0365662355327596,0.5086886280681017,-0.3520598533183233,0.0024258700373881,0.3671676662804743,11.054223098416514,-1.4343643877985963,0.1575842175279192,-1.2387610677332035
2.64,0.2119995936480538,0.0434769569798252,1.6344729143501,0.0174819595973005,0.1312358648842334,0.0184439831724043,-0.1343302841518794,-0.0107877000301824,-0.0346626393608229,0.2111020388987898,0.0433851915198172,1.6337647892778149,-0.12710263076705,-0.0140316196061419,-0.0365662355327596,0.4141064631849445,-0.3837154222411473,-0.0407623378548132,0.1502832971372797,11.054223098416514,-1.433173652711626,0.1585724494955221,-1.240546257559433
