t,x,y,z,roll,pitch,yaw,v_x,v_y,v_z,ref_x,ref_y,ref_z,ref_v_x,ref_v_y,ref_v_z,a_com,a_x,a_y,a_z,thrust,wind_x,wind_y,wind_z
0.0,0.8498584965655614,-1.2938271272976578,2.008675278938356,0.0221253459704812,0.1363522372769907,0.0265035013026692,-6.580699925968156e-06,0.0043918645823568,-0.0026297826794947,0.849858680122637,-1.293689499888874,2.008649503927712,-0.1000130490259792,0.1074063228667965,-0.0455067621408211,0.2559505555607477,-0.0003290349962984,0.2195932291178402,-0.1314891339747369,10.543514789591429,-1.2860688606611483,0.1534740436947443,-1.164378200863757
0.02,0.8500241531892019,-1.2940320127999705,2.00850305680854,0.0141617980238226,0.1310275256556524,0.0258504832652053,0.0158901917742409,-0.0203071022193677,-0.0149251305331591,0.849858680122637,-1.293689499888874,2.008649503927712,-0.1000130490259792,0.1074063228667965,-0.0455067621408211,1.5921070276607765,0.794838623708346,-1.2349483400862284,-0.6147673926832188,9.87591560951887,-1.2778898726086634,0.1604841280765001,-1.1411944985375375
0.04,0.8504478791225326,-1.2944754096573765,2.008037921359978,-0.0021440296883658,0.1159022750686233,0.0246739357515854,0.0242212532887142,-0.0218645956322366,-0.0309477592319897,0.849858680122637,-1.293689499888874,2.008649503927712,-0.1000130490259792,0.1074063228667965,-0.0455067621408211,0.9063070700784298,0.4165530757236645,-0.0778746706434444,-0.8011314349415318,9.584224965431533,-1.3108162036877116,0.1786097958658048,-1.1196366114033691
0.06,0.850920038751779,-1.2948556073556012,2.007258137438331,-0.0190399473950958,0.0950678252756268,0.0238364842664017,0.0215246729452301,-0.0156843095425819,-0.0461207207102206,0.8488585496323772,-1.292615436660206,2.008194436306304,-0.1200130493240024,0.1274063231648197,-0.0541017668185937,0.8301901013001827,-0.1348290171742046,0.3090143044827332,-0.7586480739115459,9.584224965431533,-1.3416556107330926,0.1954667999873828,-1.0870833170066196
0.08,0.8512192256400145,-1.2950640809137073,2.0062485318647894,-0.0344736286769599,0.0735886364796239,0.0235177079261869,0.0095424401393698,-0.0062589002556129,-0.0593742473446216,0.8468582886518576,-1.29046731020287,2.007284301063487,-0.1600130499200489,0.1674063237608662,-0.0712917761741387,1.0100349146062857,-0.599111640293013,0.4712704643484495,-0.6626763317200478,9.579786140704527,-1.3693690693423992,0.2115615734224319,-1.0489012656939964
0.1,0.8512020922329634,-1.2950585220083333,2.0049194891472726,-0.0499302634221963,0.0519277085391382,0.023618582465164,-0.0111160313253039,0.0066626906733985,-0.0728271678953528,0.844858027671338,-1.288319183745534,2.00637416582067,-0.2000130505160953,0.2074063243569127,-0.0884817855296838,1.3916905427732005,-1.032923573233694,0.6460795464505776,-0.672646027536563,9.619648658485858,-1.390171963914846,0.2259101412733744,-1.0109785376044549
0.12,0.8506990493225823,-1.2947642559788826,2.0033265354374685,-0.0646109274115274,0.0331273255015411,0.0240052774093512,-0.0383793044775805,0.0224459149751681,-0.0857915713800527,0.8408577666610161,-1.2841710572583958,2.0046045301100768,-0.2400130511121418,0.2474063249529591,-0.1056717948852288,1.7032850539837054,-1.3631636576138262,0.78916121508848,-0.6482201742349918,9.651565108777504,-1.4033401532566354,0.2386994562193156,-0.9764938816498404
0.14,0.8495963739189555,-1.294125600304576,2.001475053283044,-0.0785650484775776,0.0184334917474418,0.0244794040242631,-0.0703398530980203,0.0409500702632951,-0.0987197263524608,0.8368575056506942,-1.2800229307712576,2.002834894399484,-0.2800130517081883,0.2874063255490056,-0.1228618042407739,1.9564110138447524,-1.598027431021994,0.9252077644063496,-0.6464077486204068,9.7030078308062,-1.4085109546181434,0.2495548695208191,-0.9485660476036452
0.16,0.847921078506559,-1.2931270067270162,1.9994737372678333,-0.0904020557296094,0.0089013473415213,0.0248834937747502,-0.1042082482133157,0.0629476470174975,-0.1112665346711051,0.8318572446254712,-1.2748748042692182,2.000635508455001,-0.3200130523042347,0.327406326145052,-0.1400518135963189,2.114464453311755,-1.693419755764769,1.099878837710121,-0.6273404159322135,9.730393141311652,-1.409483537717917,0.2595045356811615,-0.9265753457387332
0.18,0.8454371890960118,-1.2915934664931,1.9971069700941808,-0.1006163379720622,0.004251170231499,0.0250975296919036,-0.142225744843499,0.088937645956119,-0.1246934163090118,0.8258569835853469,-1.2687266777522774,1.99800637227663,-0.3600130529002811,0.3674063267410984,-0.1572418229518639,2.3984845451732086,-1.9008748315091617,1.2994999469310728,-0.6713440818953337,9.787971597987053,-1.4031358596307753,0.2670378295172011,-0.9118197931600428
0.2,0.8421956564025422,-1.2895151960838538,1.994474308401798,-0.1082001969466103,0.0052469342530555,0.0249709867454858,-0.1792429455761572,0.1169630873725508,-0.1377545290409609,0.8383259018538369,-1.287146584195294,1.9908722992787304,-0.2422257463336151,0.1889376474462351,-0.1754429566379913,2.411582044252512,-1.850860036632912,1.4012720708215916,-0.653055636597457,9.787971597987053,-1.3899087641904784,0.271875790793687,-0.9056048950282573
0.22,0.8384171458315831,-1.286872093325846,1.9917842352698167,-0.1088466434300938,0.0115042022045326,0.024737698335271,-0.2155998628403572,0.1571843297275478,-0.1443587143505144,0.8383259018538369,-1.287146584195294,1.9908722992787304,-0.2422257463336151,0.1889376474462351,-0.1754429566379913,2.730928886449722,-1.8178458632099992,2.011062117749849,-0.3302092654776753,9.802173667723764,-1.3742619275837296,0.2727645573287163,-0.9155469363980928
0.24,0.8337640462818152,-1.283382178469867,1.9888370181357884,-0.1029105547609574,0.0227608634141305,0.0244835725250717,-0.2470009487638372,0.1884350022396163,-0.1498734997429153,0.8383259018538369,-1.287146584195294,1.9908722992787304,-0.2422257463336151,0.1889376474462351,-0.1754429566379913,2.2321769573415104,-1.5700542961739992,1.5625336256034226,-0.2757392696200428,10.290431713774524,-1.3520921777940995,0.2672360479029775,-0.92951288690104
0.26,0.8285516352376444,-1.279349271259769,1.985773441444748,-0.0952880622678299,0.0362818948759201,0.0242024780146124,-0.27208152236353,0.2129955009577413,-0.1562588755329006,0.8359036443905008,-1.2852572077208315,1.9891178697123504,-0.2622257466316383,0.2089376477442583,-0.1855928647037872,1.7839747008800035,-1.2540286799846394,1.2280249359062525,-0.3192687894992649,10.184246280644402,-1.3315176443470067,0.2611517664459744,-0.948924193317404
0.28,0.8228995224872462,-1.2748676493731237,1.9825629285280435,-0.0879376257674281,0.0502077495333333,0.0239685679982983,-0.2915055713890468,0.2339657127682167,-0.1644894746182253,0.8310591294638284,-1.281478454771907,1.9856090105795905,-0.3022257472276848,0.2489376483403048,-0.205892680835379,1.4872678182032586,-0.9712024512758431,1.0485105905237684,-0.411529954266239,10.054794872346974,-1.3113514342188493,0.2549480702577024,-0.9695333373227142
0.3,0.8172166284812274,-1.2702438078537115,1.9793422648395695,-0.0818507666562475,0.0625711541969674,0.0238468105139882,-0.3055654838448173,0.2518626675178364,-0.1741602575268009,0.8262146145371562,-1.2776997018229823,1.9821001514468304,-0.3422257478237313,0.2889376489363512,-0.2261924969669708,1.2364325392420958,-0.7029956227885242,0.894847737480986,-0.4835391454287768,9.930725210028868,-1.2945337199868114,0.2496206532528134,-0.9882422445032552
0.32,0.8109831336135628,-1.2650234325254504,1.975735015817355,-0.0765676674253912,0.0738240000798172,0.0238530161486374,-0.3169033603417646,0.2693583651398933,-0.186177364065037,0.8193700995806815,-1.271920948844255,1.9775763015074912,-0.3822257484197777,0.3289376495323977,-0.2464923130985626,1.203180917707097,-0.5668938248473643,0.8747848811028469,-0.6008553269118074,9.820326396264136,-1.2819131394496108,0.2453795992019771,-1.00365026706899
0.34,0.804552613995929,-1.259462726872784,1.9718715804137013,-0.0724244189378523,0.0827373952450327,0.0240049887974429,-0.3256534013684835,0.2860497368797355,-0.199602931069876,0.8125255846242069,-1.2661421958655283,1.973052451568152,-0.4222257490158242,0.3689376501284442,-0.2667921292301544,1.1569474468707373,-0.4375020513359418,0.8345685869921099,-0.6712783502419495,9.724432624557268,-1.2730392598355056,0.2422580465921819,-1.0142745001361329
0.36,0.7982925466837086,-1.2538675420798335,1.967943319462124,-0.069118670459125,0.0890479831083271,0.024286833425381,-0.3329402016400258,0.3020720622007563,-0.2132379449853103,0.804681069652831,-1.2593634428719,1.9680211062255224,-0.4622257496118706,0.4089376507244906,-0.2870919453617462,1.1132452238434016,-0.3643400135771163,0.8011162660510357,-0.6817506957717157,9.665702213381335,-1.2671240125979724,0.2396097114262571,-1.0218377253738722
0.38,0.7915584064173475,-1.2476524802470723,1.9635211871299971,-0.0659676426521182,0.0937314555375637,0.0247108526581344,-0.3401391364499447,0.3185432941732373,-0.22828952366892,0.7958365546665541,-1.251584689863371,1.9624822654796037,-0.502225750207917,0.448937651320537,-0.3073917614933379,1.1722586808781106,-0.3599467404959477,0.8235615986240508,-0.7525789341804812,9.628283927002483,-1.2634738248535424,0.2372546458425649,-1.0263731948246275
0.4,0.7846816487817726,-1.2411121927484348,1.958792796881907,-0.0630127903149807,0.0967682905951933,0.0252372984498397,-0.3472377081400722,0.3345894350925418,-0.2438095932628925,0.7745514495948503,-1.2317253155384107,1.9521067109465515,-0.4009638659521458,0.4185432956633534,-0.2578286449838032,1.171260985694275,-0.3549285845063726,0.8023070459652282,-0.7760034796986267,9.594637596475875,-1.2614427891135032,0.2350620374271631,-1.0285942452574317
0.42,0.7776119701954048,-1.2342423569226857,1.9539351406147232,-0.0600519670799182,0.1006889023976265,0.0257146490071894,-0.3587365522738234,0.3514282763487568,-0.2411893123501854,0.7745514495948503,-1.2317253155384107,1.9521067109465515,-0.4009638659521458,0.4185432956633534,-0.2578286449838032,1.0279054714877838,-0.5749422066875592,0.8419420628107493,0.1310140456353553,10.658929327715668,-1.2530733157474576,0.2327923827361727,-1.034760976994123
0.44,0.7707134171064347,-1.2274234061201663,1.9493636999104569,-0.0575989462211786,0.1063868190626818,0.0260322833915296,-0.3665494068225129,0.3656865860066939,-0.2402255082245351,0.7745514495948503,-1.2317253155384107,1.9521067109465515,-0.4009638659521458,0.4185432956633534,-0.2578286449838032,0.8143540521376774,-0.3906427274344759,0.7129154828968559,0.0481902062825168,10.49343182944449,-1.2446005729162517,0.2311548144904025,-1.0466585920524438
0.46,0.763323267049138,-1.219957965504065,1.9445443527318116,-0.0556633993637792,0.1131089168588909,0.0262891998700756,-0.3718194772967166,0.3802065113597149,-0.2419024823430763,0.7705418109353289,-1.2275398825817772,1.9495284244967133,-0.413128811852586,0.4385432959613766,-0.2637364692467798,0.7768753395085864,-0.2635035237101846,0.7259962676510495,-0.0838487059270642,10.49343182944449,-1.2372489316354711,0.2301406239451547,-1.0578823440592529
0.48,0.7558550128105899,-1.2122058653575525,1.9396657965974151,-0.0543561016211065,0.1196057518672896,0.0265214648253436,-0.3746030795908786,0.3943087419277199,-0.2459770062962813,0.762522533616286,-1.21916901666851,1.9443718515970367,-0.4374587036534665,0.4785432965574231,-0.2755521177727331,0.7470326200549725,-0.1391801147080984,0.7051115284002485,-0.2037261976602492,10.214366627657,-1.2313213580101423,0.2296930775820514,-1.0673259710769682
0.5,0.7483529061775692,-1.204177294473833,1.9346840870263813,-0.0537956080022823,0.1251892886389892,0.0267536011481275,-0.3754651519946214,0.407928604134509,-0.2519994234557332,0.754503256297243,-1.210798150755243,1.939215278697361,-0.4617885954543469,0.5185432971534696,-0.2873677662986864,0.7458440249202196,-0.0431036201871404,0.6809931103394562,-0.3011208579725907,10.214366627657,-1.227410472226779,0.2299225320704075,-1.0741520546016228
0.52,0.7412228980612905,-1.196300254700943,1.929826930311675,-0.0540658743184447,0.1293066365196158,0.0269804828204185,-0.3750798721297108,0.4206376668625479,-0.2589860910341717,0.745267484388156,-1.2004272848121735,1.9334679233713876,-0.4861184872552273,0.558543297749516,-0.2991834148246397,0.7254003030243679,0.0192639932455301,0.635453136401945,-0.3493333789219288,10.05717270922196,-1.2252338514761794,0.230986760008725,-1.078985031127882
0.54,0.7337336453671293,-1.1877478894293925,1.924567400406156,-0.0553047060005206,0.1322497592475839,0.027224365594449,-0.373922754581306,0.4340203117439458,-0.2666093935976066,0.7360317124790692,-1.190056418869104,1.9277205680454137,-0.5104483790561078,0.5985432983455625,-0.310999063350593,0.7722513305525969,0.0578558774202375,0.6691322440698921,-0.3811651281717426,10.05717270922196,-1.2246609458489508,0.2330067666899202,-1.0815728046298347
0.56,0.7262684565449599,-1.178912411496081,1.919155396878255,-0.0571967248920555,0.1338528296203333,0.0274936875018455,-0.3727365960220893,0.4488730823613858,-0.2741998566498881,0.7261876932749602,-1.1786855529111335,1.921677821506291,-0.5347782708569883,0.6385432989416089,-0.3228147118765463,0.836102410727811,0.059307927960836,0.7426385308720002,-0.3795231526140752,10.060841841584988,-1.225920325375864,0.235616956971273,-1.08278480387571
0.58,0.7188246187248286,-1.1697633011117785,1.9135931460535696,-0.0590270605220939,0.1343585840156028,0.0278293149911842,-0.371821330936534,0.4652040325031454,-0.2816361978496546,0.7157354267758292,-1.166314686938262,1.9153396837540195,-0.5591081626578687,0.6785432995376554,-0.3346303604024996,0.8983830101198769,0.0457632542777641,0.8165475070879807,-0.3718170599883275,10.074706609857458,-1.2285761270683353,0.2383869272607701,-1.083100353186188
0.6,0.7117652715975962,-1.1607558349749003,1.9081723907116348,-0.0601281686332927,0.1340705174824363,0.028238593841561,-0.3713938900141915,0.481964741692074,-0.2885840642112505,0.7002335521780019,-1.146503099486621,1.899511336161087,-0.4175152201968261,0.5652040339932616,-0.3009623873825306,0.907437222672352,0.0213720461171268,0.8380354594464318,-0.3473933180797917,10.085912573582393,-1.2322729545714315,0.2405817536389456,-1.083144487298766
0.62,0.7043042209264156,-1.150875192544113,1.902413870757672,-0.0587759442302201,0.1345716547427312,0.0287951161083587,-0.3745241091897549,0.504777606489295,-0.2864088805749474,0.7002335521780019,-1.146503099486621,1.899511336161087,-0.4175152201968261,0.5652040339932616,-0.3009623873825306,1.156456328828494,-0.1565109587781721,1.14064323986105,0.1087591818151545,10.720140054327205,-1.2333464756445085,0.2405570280220581,-1.0894842503773974
0.64,0.6967968010105947,-1.1405710265676132,1.8967084848521452,-0.0544037969037124,0.1368711347300487,0.0294542389069638,-0.3758189766668281,0.5237526261535635,-0.2843317995903912,0.7002335521780019,-1.146503099486621,1.899511336161087,-0.4175152201968261,0.5652040339932616,-0.3009623873825306,0.9566116224191556,-0.0647433738536595,0.9487509832134255,0.1038540492278111,10.62594898466341,-1.2327441547681517,0.2376787764317847,-1.0982485006831555
0.66,0.6892833219521894,-1.1299351461087574,1.89102409842052,-0.0493423908238774,0.1399118432225899,0.0301229045456721,-0.3753430846092871,0.5387670222533949,-0.2842198254140988,0.6960583999760336,-1.1408510591466885,1.8965017122872616,-0.4266539980488845,0.5852040342912848,-0.3048276252891059,0.751117670057791,0.0237946028770502,0.7507198049915675,0.0055987088146164,10.62594898466341,-1.2320080865813243,0.2338387892969811,-1.107765314772501
0.68,0.6821685986773315,-1.1195758085337553,1.885609268721068,-0.044906656302697,0.1428221103837937,0.0307339139191619,-0.3735682968026629,0.5510146626618474,-0.2857819221213429,0.6877080955720971,-1.129546978466823,1.890482464539611,-0.4449315537530013,0.6252040348873312,-0.3125581011022563,0.6236880499418022,0.0887393903312078,0.6123820204226249,-0.0781048353622054,10.508851754903844,-1.2315958640701512,0.2301933401271735,-1.115500724359774
0.7000000000000001,0.674726510690067,-1.1084337118655805,1.8798634082938075,-0.0410013310570486,0.1454429771568204,0.0313441213991994,-0.3707255190120808,0.5626445780342726,-0.2887941349212541,0.6793577911681605,-1.1182428977869578,1.8844632167919604,-0.4632091094571181,0.6652040354833777,-0.3202885769154067,0.6172717049410811,0.1421388895291059,0.5814957686212596,-0.1506106399955603,10.411708921678835,-1.2320486033070217,0.2272504891198877,-1.1215053192029554
0.72,0.6673490482806756,-1.0970674358546426,1.874044567066852,-0.0379737572709884,0.1473015029423875,0.0319208588828608,-0.3672410109412733,0.5735788908659032,-0.2929455611182883,0.6700936089790182,-1.1049388170772902,1.8780574452536525,-0.4814866651612349,0.7052040360794242,-0.3280190527285571,0.6101953233697083,0.1742254035403734,0.54671564158153,-0.2075713098517062,10.336508446792324,-1.233634502982452,0.2251547610643545,-1.1257511217357516
0.74,0.6604084429449307,-1.0860707112851076,1.8684363674821305,-0.0358228102859318,0.1482427570788555,0.0324430577313316,-0.3636229545973704,0.5835804021431871,-0.2971887839231005,0.6608294267898758,-1.0916347363676226,1.871651673715344,-0.4997642208653517,0.7452040366754706,-0.3357495285417075,0.5725502146287526,0.1809028171951499,0.500075563864194,-0.2121611402406131,10.281790240355804,-1.235967077751231,0.2238982302788151,-1.128806827912731
0.76,0.6531742122253449,-1.0742845701594734,1.8624445632951476,-0.0339890325125624,0.148422780183951,0.0329827797091006,-0.3600700181905091,0.594490114925654,-0.3017713279217109,0.6511083057081305,-1.077330655643054,1.8650526402817071,-0.5180417765694686,0.785204037271517,-0.3434800043548579,0.6177477227928921,0.1776468203430609,0.5454856391233442,-0.2291271999305205,10.26667542368341,-1.239331691756511,0.2230658499841288,-1.131809747155692
0.78,0.6460074646903532,-1.0622792439501236,1.8563609190538768,-0.0322568294261309,0.147926218523592,0.0335275873529467,-0.3568746462942027,0.6054141183681218,-0.306359953714581,0.6409302457337822,-1.062026574903584,1.8582603449527413,-0.5363193322735854,0.8252040378675635,-0.3512104801680083,0.6135954274474054,0.159768594815321,0.54620017212339,-0.229431289643503,10.26667542368341,-1.243078674369423,0.222296939834456,-1.134063420783981
0.8,0.6388999011718091,-1.050057841490039,1.850185459835744,-0.0304948644158259,0.1469045301131407,0.0340790545016924,-0.3541140926855852,0.6160810099654291,-0.3109513430936964,0.628163732375643,-1.0320085380317174,1.8410429213681485,-0.3910014980018996,0.7054141198582379,-0.3088948319219516,0.5968334964741243,0.1380276804308772,0.5333445798653691,-0.2295694689557675,10.268470135430109,-1.2469190924329616,0.2214875316825703,-1.135441499729955
0.8200000000000001,0.6321681093339394,-1.0382285164525875,1.8443267882777596,-0.028029952770477,0.1468007514282872,0.0346199744086134,-0.3543006997312098,0.6279724191206065,-0.3055278033140488,0.628163732375643,-1.0320085380317174,1.8410429213681485,-0.3910014980018996,0.7054141198582379,-0.3088948319219516,0.653557988297008,-0.0093303522812338,0.5945704577588695,0.2711769889823773,10.268257628070389,-1.246229181224921,0.2195351209465592,-1.1393250627484317
0.84,0.6250956073540793,-1.025571008159177,1.8382709704791105,-0.0251557878447089,0.1483370403959328,0.0351513378129155,-0.3527636513979207,0.6372005887874949,-0.3004501109400236,0.628163732375643,-1.0320085380317174,1.8410429213681485,-0.3910014980018996,0.7054141198582379,-0.3088948319219516,0.5322231506261688,0.0768524166644579,0.4614084833444165,0.2538846187012583,10.908085034677242,-1.2461734905006374,0.2175089115905403,-1.14677322816189
0.86,0.6180706204019749,-1.0127414109214483,1.8323002387820988,-0.0228619714909779,0.1505944462507122,0.0356154989278251,-0.3497137849614277,0.6454079910184237,-0.2969600463188598,0.6242537173956241,-1.0249543968331352,1.8379539730489287,-0.397826868343439,0.725414120156261,-0.3094018075634258,0.471284647852554,0.152493321824651,0.4103701115464431,0.1745032310581928,10.826343676909346,-1.2458786944158766,0.2161432188936534,-1.1544863106977197
0.88,0.6111206310409589,-0.9997553159134854,1.8263844325648693,-0.0213451567267934,0.1528658214663505,0.0360170010156401,-0.3454250501961554,0.652947902408785,-0.2948088911533688,0.616433687435586,-1.0108461144359704,1.8317760764104896,-0.4114776090265178,0.7654141207523075,-0.310415758846374,0.4468528231067065,0.2144367382636153,0.3769955695180627,0.1075577582745512,10.73847645402202,-1.245945044026495,0.2154518888016793,-1.1617008566621825
0.9,0.6046066896369785,-0.9872841595711822,1.820795695252641,-0.0207879274400109,0.1546102926319942,0.0363372947371073,-0.3405101756731045,0.659558116621904,-0.2935975038837086,0.6086136574755481,-0.9967378320388056,1.8255981797720504,-0.4251283497095965,0.805414121348354,-0.3114297101293223,0.4162883094615726,0.2457437261525419,0.3305107106559513,0.0605693634830067,10.674177469137248,-1.2468466742927196,0.2157486338255391,-1.1677922587548517
0.92,0.5978560703410113,-0.9740250979137276,1.814932276266754,-0.0213896327406157,0.1557565249740733,0.0365968213976248,-0.3348611269327198,0.6661158136410882,-0.2928357795347028,0.6001110904813561,-0.9806295496118383,1.8193695855694645,-0.4387790903926753,0.8454141219444005,-0.3124436614122705,0.4344403464531346,0.2824524370192371,0.3278848509592091,0.0380862174502893,10.60914971141574,-1.2487527361121982,0.2173448059287735,-1.1725961306822326
0.94,0.5912221455393453,-0.9606344135352848,1.8090850166490016,-0.0234199588592564,0.1560497639194007,0.036767324931533,-0.3289435664232851,0.672815810553521,-0.2919328551061268,0.5916085234871642,-0.9645212671848712,1.8131409913668777,-0.4524298310757541,0.8854141225404469,-0.3134576126952188,0.4492292107965303,0.2958780254717325,0.3349998456216418,0.0451462214288017,10.60914971141574,-1.2512844167747696,0.2202673482340366,-1.1758840733497595
0.96,0.5850273088102301,-0.947767432385975,1.803550315209875,-0.0261736992670852,0.1555616301232569,0.0368863272780708,-0.3235457466828562,0.6814537337510285,-0.2907227575243353,0.5827646879758953,-0.9474129847430032,1.8068870483822173,-0.4660805717588329,0.9254141231364932,-0.314471563978167,0.5128706251913318,0.2698909870214455,0.4318961598753723,0.0605048790895762,10.625811763581623,-1.2548748770462903,0.2244423668858424,-1.1801744888327368
0.98,0.5786131210642586,-0.934023841610872,1.797752848123744,-0.0288629814528476,0.1543163501623595,0.0370452135592685,-0.3182293323602954,0.6923970891959476,-0.2890699625163453,0.5735795839475495,-0.9293047022862336,1.8006077566154837,-0.4797313124419116,0.9654141237325397,-0.3154855152611153,0.6139076090532823,0.2658207161280429,0.5471677722459545,0.0826397503994991,10.654777800012198,-1.259703314077355,0.2284826536880081,-1.183883851742776
1.0,0.5723006355061722,-0.9200493871842412,1.7919922626886162,-0.0308727196042981,0.1523527113430309,0.0372731264473726,-0.3133670980184063,0.7043550808450756,-0.2870532444394063,0.5627016544462438,-0.8994039871510746,1.7832993499979268,-0.345936629715232,0.7923970906860637,-0.2541069023459332,0.6532649517575427,0.2431117170944546,0.5978995824564015,0.1008359038469491,10.685471666395642,-1.2655492056976037,0.2318638557612899,-1.1874154974680706
1.02,0.5660693523985318,-0.9057593609815004,1.7863923520737257,-0.029869589421661,0.1505297254395401,0.0377029190202214,-0.3100518446428525,0.7230013708877907,-0.273031932300902,0.5627016544462438,-0.8994039871510746,1.7832993499979268,-0.345936629715232,0.7923970906860637,-0.2541069023459332,1.1782107529921653,0.1657626687776858,0.932314502135756,0.7010656069252164,10.711958059081551,-1.266729157742298,0.2320076934140912,-1.1963074548275856
1.04,0.5602108442366953,-0.8918769491321351,1.7813405833217346,-0.025644670014808,0.1496618909859702,0.0382980778214594,-0.3067120887768613,0.7366086212051999,-0.2594646132204444,0.5627016544462438,-0.8994039871510746,1.7832993499979268,-0.345936629715232,0.7923970906860637,-0.2541069023459332,0.9751709817719176,0.1669877932995611,0.6803625158704585,0.6783659540228776,11.509889552997263,-1.2716314113800689,0.2287611290047681,-1.2086555409325856
1.06,0.5541190014322741,-0.877041803387378,1.7762926713924068,-0.0203920808712365,0.1491864403802362,0.0389485001098552,-0.3026443285331032,0.7460706475716357,-0.2461075469093589,0.5592422881490915,-0.891480016244214,1.7807582809744675,-0.3514780891862193,0.8123970909840869,-0.2471142903118508,0.8433383615112053,0.2033880121879078,0.4731013183217891,0.6678533155542773,11.475791031192784,-1.2754621315741266,0.2243331822761263,-1.221451991787266
1.08,0.548111862452274,-0.862046291460619,1.7714997332487945,-0.0157248828240864,0.1487736692339951,0.0395359116296274,-0.2983090414700968,0.7530896360872378,-0.233922248008504,0.5523235555547868,-0.8756320744304927,1.7756761429275487,-0.3625610081281939,0.8523970915801333,-0.233129066243686,0.7357690245654556,0.2167643531503199,0.350949425780106,0.6092649450427451,11.353813756995804,-1.2791092520853111,0.2203458646146531,-1.2330573580376554
1.1,0.542192677931411,-0.8469265126596852,1.7669398946587456,-0.0121210117008443,0.1481573424979491,0.0400326177500381,-0.2939136572097041,0.758795466079904,-0.2226914008203893,0.5454048229604822,-0.8597841326167714,1.77059400488063,-0.3736439270701686,0.8923970921761798,-0.2191438421755212,0.6670978700020361,0.2197692130196354,0.2852914996333111,0.5615423594057353,11.353813756995804,-1.282607747046372,0.2175026055512302,-1.2426091633805183
1.12,0.5366497774343514,-0.8324636841834789,1.7628106869733662,-0.0097176788021207,0.1472596298188708,0.0404200261088397,-0.2898650577223716,0.7635781199196878,-0.2125401312080019,0.5379319444190789,-0.8419361907732479,1.7662111280371198,-0.3847268460121432,0.9323970927722264,-0.2051586181073563,0.5964755030665672,0.2024299743666219,0.2391326919891911,0.5075634806193663,11.310362970885762,-1.2864784914284215,0.2155912506281098,-1.2513293210977103
1.14,0.5308964336842644,-0.8171459803463991,1.7586746809876876,-0.0082501716751665,0.1459243682324673,0.0407413025856459,-0.2857498484594978,0.7680693385163266,-0.2015899773618606,0.5304590658776754,-0.8240882489297242,1.7618282511936092,-0.3958097649541178,0.9723970933682728,-0.1911733940391915,0.6265218691598116,0.2057604631436921,0.2245609298319406,0.5475076923070684,11.288004064825143,-1.2901314636605574,0.2147820419909034,-1.2585644864070489
1.16,0.5252212399130599,-0.8017342217800724,1.7547608069934972,-0.0077322475010848,0.1441628295344929,0.040986020542164,-0.2820535273656812,0.7729184933599051,-0.1903419203921703,0.5227091143627227,-0.8052403070712995,1.757795004951803,-0.4068926838960925,1.0123970939643192,-0.1771881699710267,0.6397184496303647,0.1848160546908284,0.2424577421789253,0.5624028484845112,11.31693232615362,-1.2942039413087096,0.2150338088992563,-1.2652090921512622
1.18,0.5196144754366833,-0.7862228819517969,1.7510761835160913,-0.0079095054380396,0.1420188129819471,0.0411742169149984,-0.2789039452582498,0.7779989724403719,-0.1786977001407245,0.5146820898742206,-0.7853923651979736,1.7541113893117006,-0.4179756028380671,1.0523970945603656,-0.1632029459028618,0.6544444216331388,0.157479105371569,0.2540239540233358,0.5822110125722924,11.34351199108096,-1.2989024798034887,0.2160762531823381,-1.2717851353653389
1.2,0.5143395815687333,-0.7713894163251661,1.747794933438323,-0.0085647054622211,0.1397117624963292,0.0413135949398176,-0.2765919891081243,0.7831711620536219,-0.1672912892516381,0.5056692781737707,-0.7473229333297783,1.742141298509055,-0.316066394469132,0.877998973930488,-0.1607979186751941,0.6367945037572619,0.1155978075062763,0.2586094806625028,0.5703205444543182,11.374576920345136,-1.3039269554195585,0.2177401088469477,-1.2781491742623072
1.22,0.5087937605724873,-0.7556216000029272,1.744487882913405,-0.0081588293185067,0.1376474173666791,0.0415256835779124,-0.2783065660903137,0.7929728034459091,-0.1644658677594388,0.5056692781737707,-0.7473229333297783,1.742141298509055,-0.316066394469132,0.877998973930488,-0.1607979186751941,0.5171918280953257,-0.0857288491094704,0.4900820696143615,0.1412710746099665,11.40442252923276,-1.3166484316916127,0.218989933199721,-1.287545121514338
1.24,0.503208053008924,-0.7396886370185897,1.7412269956024349,-0.0062497967856705,0.1365961235843836,0.041820100316486,-0.2800589755011353,0.7997815906171373,-0.1616749327199026,0.5056692781737707,-0.7473229333297783,1.742141298509055,-0.316066394469132,0.877998973930488,-0.1607979186751941,0.3782189837948638,-0.0876204705410804,0.3404393585614063,0.1395467519768101,10.80492669488467,-1.316775179147644,0.2170760919633161,-1.2891226444144863
1.26,0.4975938208700012,-0.7236377944892005,1.7380306679858255,-0.0041067623826572,0.1361962033346212,0.0421112791312972,-0.281235806873334,0.8049739081374637,-0.1581140474796485,0.5025086142290794,-0.7385429435904735,1.740533319322303,-0.3234988843113084,0.8979989742285112,-0.157217962382088,0.3202537939070334,-0.0588415686099352,0.2596158760163225,0.178044262012704,10.863649258871192,-1.3167678666985962,0.2148113955972401,-1.292064352400483
1.28,0.492243861547008,-0.70830856405202,1.7350650454147654,-0.0025007305836512,0.1361416569260489,0.0423432779017834,-0.2818500154300727,0.8085321768013564,-0.1542477816165501,0.4961872863396968,-0.7209829641118637,1.737317360948799,-0.3383638639956614,0.9379989748245576,-0.1500580497958759,0.2645115298043327,-0.030710427836933,0.1779134331946319,0.1933132931549203,10.906305092868024,-1.3164419061215669,0.2130475574589877,-1.2954593125683591
1.3,0.4866046545245777,-0.6921094463155593,1.7320272460664852,-0.0017562105193774,0.1361884928208847,0.0425089817253672,-0.2820335865194749,0.8112939245589591,-0.1497222459469611,0.4898659584503141,-0.7034229846332539,1.7341014025752952,-0.3532288436800142,0.977998975420604,-0.1428981372096637,0.2652424462553582,-0.0091785544701128,0.1380873878801369,0.226276783479451,10.971969094399356,-1.316111908299131,0.2124156531703993,-1.2986352333118578
1.32,0.4809660609632857,-0.675863254708151,1.7290855263932043,-0.0024608560833248,0.1361514959954339,0.0425635971182873,-0.2818554833166727,0.8134196472939283,-0.1446874682551683,0.4828013815767138,-0.6838630051248419,1.7312434398311018,-0.3680938233643671,1.0179989760166506,-0.1357382246234516,0.2734017387590482,0.0089051601401102,0.1062861367484624,0.2517388845896418,10.971969094399356,-1.3160244364224691,0.2135159906548469,-1.3015187711073346
1.34,0.4753328563091277,-0.6595744883715028,1.7262470608844702,-0.004870611746442,0.1359118470960608,0.0424932573969187,-0.2815319962697821,0.8156414349033242,-0.1394185592378577,0.4757368047031135,-0.6643030256164297,1.7283854770869087,-0.38295880304872,1.0579989766126972,-0.1285783120372394,0.2863668376552516,0.0161743523445306,0.1110893804697921,0.2634454508655293,11.0050725251931,-1.316370279467587,0.2164861487475488,-1.3040884312066856
1.36,0.4699851125512353,-0.6440313748321025,1.723652004630139,-0.008111263168346,0.1354878227344719,0.0423588845148435,-0.2814494949159198,0.8205485348528336,-0.1340188895012629,0.4683006033374044,-0.6437430460931165,1.7257065121573707,-0.3978237827330728,1.0979989772087435,-0.1214183994510272,0.3648385589961741,0.0041250676931142,0.245354997475472,0.2699834868297376,11.02142185948196,-1.3171215257513185,0.2209309748568485,-1.3076481700926916
1.38,0.4643550843212611,-0.627546312296727,1.721036349471636,-0.0113389975119256,0.134894804116125,0.0422312437052152,-0.2815889763065216,0.8276754412885471,-0.1278131548241124,0.4604927774795865,-0.6221830665549021,1.723206545042488,-0.4126887624174257,1.13799897780479,-0.1142584868648151,0.4725552700079806,-0.0069740695300857,0.3563453217856727,0.3102867338575246,11.051401740143774,-1.3183507609866902,0.2252383079645548,-1.3114241486646023
1.4,0.4587196048599278,-0.6109053154547632,1.718549662889997,-0.0139114804937625,0.1342119099719227,0.0421501903671223,-0.281977654164743,0.8359504556341777,-0.1211544110287541,0.4502756355059351,-0.5861625402322996,1.7146456917304305,-0.3071639268078443,0.8959803301926418,-0.1027064826265321,0.5314268572204612,-0.0194338929110721,0.4137507172815302,0.3329371897679151,11.125893028604878,-1.3199095373510497,0.2288276144408673,-1.3158158881804232
1.42,0.4533155751236714,-0.5947684359687369,1.7163001235278978,-0.0101301810133695,0.1345355853467773,0.0424890053864625,-0.2864190713889971,0.8590557630891535,-0.115922808922137,0.4502756355059351,-0.5861625402322996,1.7146456917304305,-0.3071639268078443,0.8959803301926418,-0.1027064826265321,1.2051463398181406,-0.2220708612127059,1.1552653727487927,0.2615801053308553,11.125893028604878,-1.323955033903576,0.2253543530109623,-1.329504760109513
1.44,0.4475581479823013,-0.577468565738262,1.714045319504237,-5.121283771658768e-05,0.1364220334745765,0.0432449341140326,-0.2888449787465429,0.8687558857469536,-0.109814596644198,0.4502756355059351,-0.5861625402322996,1.7146456917304305,-0.3071639268078443,0.8959803301926418,-0.1027064826265321,0.5858490917380635,-0.1212953678772915,0.4850061328900035,0.3054106138969482,11.107826703791034,-1.3211038619093705,0.2131939725032639,-1.338159667214853
1.46,0.4417721458785442,-0.5600664505231283,1.7119033555609016,0.0106124934135119,0.1390894019163756,0.0440394031769496,-0.2894953275042706,0.8708508540277479,-0.1047706483800019,0.4472039962378566,-0.5772027369303732,1.713618626904165,-0.3122789169081089,0.9096413079734608,-0.097685148187016,0.2750148164013127,-0.032517437886384,0.1047484140397125,0.2521974132098065,11.107826703791034,-1.317706464991593,0.200188990152252,-1.347680072571247
1.48,0.4359898409945363,-0.5426715221492937,1.7098483507049658,0.0198349344127459,0.1419378039356071,0.0447362173198634,-0.2886424290740217,0.8688728224500175,-0.1010016830953395,0.4410607177016997,-0.5592831303265203,1.7115644972516346,-0.3225088971086379,0.9369632635350986,-0.0876424793079839,0.2170549698337388,0.0426449215124469,-0.0989015788865177,0.1884482642331215,11.0378373139647,-1.3141423549564064,0.1893062709578144,-1.3551460283113497
1.5,0.4305248916096875,-0.5262057333086063,1.7079583098700055,0.0267347637553098,0.1444006241541017,0.0452608354890297,-0.2866624985957132,0.8648926241866177,-0.0981465530332175,0.4349174391655429,-0.5413635237226675,1.709510367599104,-0.332738877309167,0.9642852190967364,-0.0775998104289517,0.2641678944655211,0.0989965239154261,-0.1990099131699896,0.1427565031061013,10.97924432466607,-1.3106871370581863,0.1801446917551253,-1.361141989172349
1.52,0.4248226602985617,-0.5089652912985464,1.706025154478289,0.0320560206590042,0.1464517029103514,0.045654002408436,-0.2836700488256836,0.8596683230054359,-0.0953225733039685,0.4282626616193595,-0.5220778193407327,1.7079583713905249,-0.3429688575096962,0.9916071746583744,-0.0675571415499196,0.3325016540148942,0.1496224885014774,-0.2612150590590889,0.1411989864624471,10.949181710263474,-1.3080128587614892,0.1734215881063345,-1.365349258387581
1.54,0.419188173925302,-0.4918376355320042,1.7041492819686817,0.0355144028978171,0.1477568665682958,0.0458785776965704,-0.2800179772972453,0.8538220005142988,-0.0923983900505868,0.4216078840731762,-0.502792114958798,1.7064063751819458,-0.3531988377102252,1.0189291302200123,-0.0575144726708875,0.3743927109952988,0.1826035764219163,-0.2923161245568573,0.1462091626690836,10.951186902440895,-1.3065558721543309,0.1691862494001225,-1.3679196767724902
1.56,0.4136287228556215,-0.4748217473257278,1.702336503295387,0.0376359628846578,0.1482983639224652,0.045965100408425,-0.2762026304322325,0.8483233501736652,-0.0890189220718169,0.4146973570219796,-0.4828233616878223,1.7051054456953427,-0.3634288179107544,1.0462510857816505,-0.0474718037918553,0.3748760831543015,0.1907673432506418,-0.2749325170316785,0.1689733989384968,10.965586829409403,-1.3062601331773138,0.1663680154771503,-1.3697432063099602
1.58,0.4084177714830402,-0.4587590691360705,1.7006825155350591,0.0387392767302789,0.1481844673365243,0.0459430853733113,-0.2725936977270026,0.8428794634235669,-0.0852498332265875,0.4075310804657698,-0.4621715595278057,1.7040555829307151,-0.3736587981112834,1.073573041343288,-0.0374291349128232,0.3770488328519494,0.1804466352614941,-0.2721943375049163,0.1884544422614716,10.99687621411067,-1.3069516189213677,0.1647670808700886,-1.3704894845342894
1.6,0.4030044788422452,-0.4419660666440003,1.6990251066185789,0.0388860854008448,0.1475199819961648,0.0458114568721147,-0.2689977870316921,0.8367843124074487,-0.0806556120125662,0.3947880865966901,-0.4166150959648921,1.69642002387373,-0.2869493246155757,0.8417200930123795,-0.0825960269890836,0.421865820496572,0.1797955347655228,-0.3047575508059119,0.2297110607010634,11.035112266484248,-1.3082881610000583,0.1644408420688674,-1.3705103393574602
1.62,0.3975893281176791,-0.425045747865352,1.6973480457471233,0.0458881912422486,0.1476491089631258,0.046170607371534,-0.272175511543653,0.850446262931754,-0.0874203639178526,0.3947880865966901,-0.4166150959648921,1.69642002387373,-0.2869493246155757,0.8417200930123795,-0.0825960269890836,0.7786345316362475,-0.1588862255980455,0.683097526215265,-0.3382375952643214,11.076308092499858,-1.3202608691473567,0.1572020683447688,-1.382733265342173
1.64,0.3924036910333223,-0.4088964492515101,1.6956208446476695,0.058259357736287,0.1491940381233568,0.0469541741093152,-0.2733029602719612,0.8479521313378312,-0.0940552979757752,0.3947880865966901,-0.4166150959648921,1.69642002387373,-0.2869493246155757,0.8417200930123795,-0.0825960269890836,0.3588669077657776,-0.0563724364154111,-0.1247065796961377,-0.3317467028961289,10.344794694831762,-1.3166546139003603,0.1404355383343298,-1.3798552764097438
1.66,0.3869413719081842,-0.3920457775805783,1.6936631396773023,0.0716563791090275,0.1516390083132284,0.0478413234641822,-0.2727165988894338,0.837095960836603,-0.1013900299309091,0.3919185933505343,-0.4081978950347684,1.6955940636038391,-0.2898204499932904,0.841488218930142,-0.0820652657415828,0.6557410892957669,0.0293180691263744,-0.5428085250614112,-0.3667365977566942,10.377054849186608,-1.3117923159454838,0.123168698484441,-1.3772876836964834
1.68,0.3815084062380042,-0.3754661720246122,1.6915557487223936,0.0833780437555468,0.1543904005823245,0.0486265082066078,-0.2705086599581908,0.8215917867267364,-0.1089743304871309,0.3861796068582228,-0.3913634931745208,1.693942143064057,-0.2955627007487196,0.841024470765667,-0.0810037432465812,0.8700230227991992,0.1103969465621468,-0.7752087054933299,-0.3792150278110903,10.373534887896312,-1.3063631432029046,0.1081381810117664,-1.3736103724100823
1.7,0.3761359090644002,-0.3592294142235431,1.6892985202857098,0.0926841329553831,0.1569971405567208,0.049220444150714,-0.2668345480238087,0.8033738158550868,-0.1163297827533893,0.3804406203659113,-0.3745290913142732,1.6922902225242755,-0.3013049515041489,0.8405607226011921,-0.0799422207515797,0.9993701006482112,0.1837055967191081,-0.910898543582478,-0.367772613312918,10.408832460449048,-1.3012312365911525,0.0968106387247063,-1.368589309358187
1.72,0.371112194885036,-0.344157049039872,1.6870244437616002,0.0993239103129103,0.159042919965378,0.0495746742992068,-0.2621907423771688,0.7845849098885366,-0.1226293540773963,0.3744145213358283,-0.3577178768622494,1.690691378109244,-0.3070472022595782,0.8400969744367172,-0.0788806982565781,1.017684279590045,0.2321902823319954,-0.9394452983275126,-0.3149785662003496,10.45869476290045,-1.296210709220928,0.0878852928120016,-1.361349918117779
1.74,0.3659275661154196,-0.3286821987579035,1.684507241562536,0.1042999083405756,0.1605550563386982,0.0497193367510303,-0.256536383043726,0.764194076972123,-0.1286911924443423,0.3683884223057453,-0.3409066624102255,1.6890925336942126,-0.3127894530150075,0.8396332262722421,-0.0778191757615766,1.1005722725970368,0.2827179666721358,-1.0195416458206763,-0.3030919183473,10.45869476290045,-1.2927222440945605,0.0816541824478607,-1.3534134085753915
1.76,0.3608615709102494,-0.3136208623799198,1.681877465416728,0.1075027887397737,0.1613341036311838,0.0496351690647108,-0.2503932415969698,0.7432661507827117,-0.1338984717810663,0.3622187670067766,-0.3241070416623135,1.6875202273415562,-0.3185317037704367,0.8391694781077672,-0.076757653266575,1.1211958342713542,0.3071570723378131,-1.0463963094705653,-0.2603639668362009,10.491440140051054,-1.2904109206003926,0.0776470785183239,-1.344592309088618
1.78,0.3559220709101553,-0.2989844433324877,1.6791549208555872,0.1090656535386347,0.1613762179933311,0.0493277156603261,-0.2439701993786857,0.7217849320023585,-0.1380363681883909,0.3559055554389222,-0.3073190146185134,1.6859744590512746,-0.324273954525866,0.8387057299432922,-0.0756961307715735,1.1399785286410111,0.321152110914201,-1.0740609390176623,-0.2068948203662296,10.537873789157857,-1.2891821673687252,0.0757108380673922,-1.3353493494983495
1.8,0.3513495058255681,-0.2854832958853352,1.6765022074701863,0.1089806508506754,0.1607784968922332,0.0488311604316091,-0.2377540860799156,0.7007241230805343,-0.1409402209642649,0.343723560941221,-0.2628951967323698,1.6722531024461675,-0.2770662073814438,0.6800145669131804,-0.1230936113343932,1.107508575507078,0.3108056649385085,-1.053040446091208,-0.1451926387937008,10.591581695329296,-1.288662930510287,0.0756174000751416,-1.3248663395800089
1.82,0.3466869228470297,-0.2715839195004703,1.6736303102813992,0.11075692458933,0.1584075522395977,0.048223098012404,-0.2287749627638258,0.6893481283049858,-0.14634630004863,0.343723560941221,-0.2628951967323698,1.6722531024461675,-0.2770662073814438,0.6800145669131804,-0.1230936113343932,0.7734074018996469,0.4489561658044899,-0.5687997387774257,-0.2703039542182567,10.647846120958093,-1.2899727531511485,0.0726167777045176,-1.3204234870474798
1.84,0.3422094100508589,-0.2579758918153964,1.6706558825377809,0.1155062942387436,0.152807761128221,0.0474151483808324,-0.2199998015187958,0.6714807502969763,-0.1507830205741363,0.343723560941221,-0.2628951967323698,1.6722531024461675,-0.2770662073814438,0.6800145669131804,-0.1230936113343932,1.019719496698513,0.4387580622514986,-0.8933689004004763,-0.2218360262753155,10.429340160443644,-1.299014987222067,0.0671663398254228,-1.305943252418008
1.86,0.3380870986541186,-0.2454260997130922,1.667763970290872,0.1200849786481223,0.145343305694172,0.0463395566880173,-0.2147643270183095,0.6505107743178663,-0.1533471324081809,0.3409528988674066,-0.256095051063238,1.6710221663328235,-0.2836854089819954,0.6716604938953448,-0.1201050599635936,1.0882609467714757,0.261773725024314,-1.0484987989554997,-0.1282055917022281,10.52533412201592,-1.3100307907490418,0.0611731047623668,-1.2877971777047907
1.88,0.3338196338700379,-0.232669474704134,1.6646839241562443,0.1240668928494539,0.1364870316576532,0.0449580826359068,-0.2125988295681669,0.6263664676871235,-0.15439630964315,0.3354115747197777,-0.2424947597249743,1.6685602941061357,-0.2969238121830986,0.6549523478596736,-0.1141279572219945,1.2131958773795404,0.108274872507133,-1.2072153315371426,-0.0524588617484569,10.61854805088933,-1.3197991758441097,0.0560007694753066,-1.2681472930286564
1.9,0.3295615121882351,-0.2204134385701218,1.661601129794569,0.1268477275111087,0.1276139678423323,0.0434295033644955,-0.2135451325426918,0.600776550663104,-0.1537579124142117,0.3298702505721488,-0.2288944683867107,1.666098421879448,-0.3101622153842018,0.6382442018240023,-0.1081508544803954,1.280768220285888,-0.0473151487262485,-1.2794958512009735,0.0319198614469162,10.70277765467199,-1.326589014240238,0.0520081541502013,-1.248416447948182
1.92,0.3252560213660649,-0.2086790010935704,1.6585465446655312,0.1283640262896042,0.1194523100135918,0.0418589427881498,-0.2170805967417472,0.574260695519439,-0.1516650404997941,0.3236670062644648,-0.2161295843502307,1.66393540478984,-0.323400618585305,0.621536055788331,-0.1021737517387964,1.3416130160675837,-0.1767732099527699,-1.3257927571832473,0.104643595720881,10.782559801974458,-1.330580679499966,0.0494884669302124,-1.230270752737241
1.94,0.321080123013797,-0.1980308274442562,1.6556940082533242,0.1284662454906857,0.1127844496866481,0.0403885374197402,-0.2223539558258924,0.5481678982914775,-0.1486547870133155,0.3174637619567808,-0.2033647003137506,1.6617723877002322,-0.3366390217864083,0.6048279097526599,-0.0961966489971973,1.3394999153254086,-0.2636679542072598,-1.304639861398077,0.1505126743239312,10.854509662558485,-1.332310415178213,0.0483829007113266,-1.212296032143635
1.96,0.3165571682220958,-0.187365322457189,1.6527628853964729,0.1267626946305415,0.1072821951739039,0.0389004741379516,-0.2298051881175481,0.5199623856624235,-0.1445270835256286,0.3109295575690691,-0.1910175199281623,1.6597587981791642,-0.3498774249875115,0.5881197637169886,-0.0902195462555982,1.473185104980192,-0.3725616145827823,-1.410275631452701,0.2063851743843422,10.963012123759654,-1.331705593275188,0.0493466607951171,-1.1960128590985246
1.98,0.3118632039062679,-0.1772631267811233,1.6499263220155005,0.1228931292676557,0.1040009012768323,0.0375481031622087,-0.2392573286969256,0.4924965341331187,-0.1392188651963611,0.30406439310133,-0.1790880431934658,1.6578946362266362,-0.3631158281886147,0.5714116176813174,-0.0842424435139991,1.4763918378883183,-0.4726070289688744,-1.3732925764652375,0.2654109164633766,11.017989818235948,-1.3276511410620528,0.0522766677362043,-1.1842815679457033
2.0,0.307220256317494,-0.1681460605735371,1.6473418682199714,0.1181601724079322,0.103411200181964,0.0365078403649311,-0.2486534288652497,0.4689407630966893,-0.1330432231475854,0.2999003374714216,-0.1526383000744673,1.6429653787556824,-0.2508071805540514,0.4651805803866807,-0.1254833529248376,1.305085823048119,-0.4698050084162075,-1.1777885518214708,0.3087821024387843,11.017989818235948,-1.3179810811545754,0.0563447948673839,-1.175555796498623
2.02,0.3020928787712937,-0.1590247133717092,1.6446749545426151,0.1121394648176716,0.1066321169274339,0.0357867873913652,-0.2631182944227255,0.4451111145531596,-0.1342733899305995,0.2999003374714216,-0.1526383000744673,1.6429653787556824,-0.2508071805540514,0.4651805803866807,-0.1254833529248376,1.3951682654952653,-0.7232432778737876,-1.191482427176485,-0.0615083391507051,11.051333931281988,-1.31483668949707,0.0626032547747251,-1.1713481018157934
2.04,0.296724771785399,-0.1503414792264887,1.6419895212298727,0.1055131861275067,0.1138406989247965,0.0354403045631359,-0.2723697733772328,0.4246740783512045,-0.1341293172092295,0.2999003374714216,-0.1526383000744673,1.6429653787556824,-0.2508071805540514,0.4651805803866807,-0.1254833529248376,1.1216985652513312,-0.4625739477253671,-1.021851810097754,0.0072036360685007,10.551038169783167,-1.2929530883821396,0.0681946161194025,-1.1676365334955183
2.06,0.2914999681088016,-0.1424478206616064,1.6394585536773694,0.0994487111233087,0.12242874834176,0.0352637226369587,-0.2767705454403641,0.4073441617760216,-0.1323016175737593,0.2973922656658811,-0.1479864942706005,1.641710545226434,-0.2531171509254765,0.4597173896373931,-0.1227362504705329,0.8986563431200129,-0.2200386031565637,-0.8664958287591451,0.0913849817735096,10.62985705891242,-1.2723010774339445,0.0740186383602108,-1.1683655865350375
2.08,0.2859488129160469,-0.1344769191511737,1.6368441784408228,0.0936067980545115,0.132162879944012,0.0351297181673922,-0.2777406912351758,0.3907172213006,-0.129199473750155,0.2923761220548001,-0.1386828826628669,1.6392008781679372,-0.2577370916683268,0.4487910081388179,-0.1172420455619235,0.8470826830049253,-0.0485072897405874,-0.8313470237710785,0.1551071911802135,10.707780865106542,-1.254613823357035,0.0794225632075139,-1.1720433823063905
2.1,0.2804230807211615,-0.1268246847895773,1.6343003492679309,0.0883957699707554,0.1416323213918725,0.0349632000867313,-0.2745265148260527,0.3753723861954026,-0.1253329637887111,0.2873599784437191,-0.1293792710551333,1.6366912111094405,-0.2623570324111771,0.4378646266402426,-0.1117478406533141,0.8073797026130383,0.1607088204561568,-0.7672417552598704,0.1933254980721943,10.771715689297707,-1.238571583993009,0.0841320239372615,-1.1773907419587422
2.12,0.275001466282032,-0.1194671307052227,1.6318395836857598,0.0838063590130369,0.1497933055581614,0.0346826850325311,-0.2677760983660645,0.3611286309077022,-0.1209658723703983,0.2821128377954955,-0.1206219785223284,1.6344562542963743,-0.2669769731540274,0.4269382451416674,-0.1062536357447047,0.8178083127100672,0.3375208229994125,-0.7121877643850194,0.2183545709156423,10.818443053615738,-1.2272191325908812,0.0881080376211266,-1.1824372494282702
2.14,0.2699999607660565,-0.1127324209065701,1.6295830901911914,0.0799683388556071,0.1557633334521695,0.034276092997736,-0.2591244431946669,0.3484705615016883,-0.116792483053018,0.276865697147272,-0.1118646859895236,1.632221297483308,-0.2715969138968777,0.4160118636430922,-0.1007594308360953,0.7945046203242925,0.4325827585698799,-0.6329034703006942,0.2086694658690137,10.856294808097118,-1.2199902636430613,0.0918375153278991,-1.1868352913418216
2.16,0.264925572723602,-0.1058969150910081,1.62729435532979,0.0763761849305345,0.1599593556331657,0.0336959937394279,-0.2488467407022885,0.3357702972345103,-0.112293718822834,0.2715030579804772,-0.1033805529941831,1.630123695792957,-0.276216854639728,0.405085482144517,-0.095265225927486,0.8472997707080753,0.5138851246189166,-0.6350132133589037,0.2249382115091985,10.868506357835033,-1.216882460341122,0.0951315804926238,-1.1896470376046744
2.18,0.2600630501796307,-0.0993091778982832,1.6250978760791766,0.0731425262775116,0.1620534985710291,0.0329737919749989,-0.2380592035669054,0.3236677709364595,-0.1075603007520586,0.2660249202951111,-0.095169579536307,1.6281634492253212,-0.2808367953825783,0.3941591006459418,-0.0897710210188766,0.8444633604766769,0.5393768567691567,-0.6051263149025404,0.2366709035387708,10.884095387224988,-1.2169804316280768,0.098034118750132,-1.1908215139877358
2.2,0.2554181376526894,-0.0929572935020006,1.622999728735855,0.0702114795742457,0.1621458690462366,0.0321283545381228,-0.2271411928195039,0.3121401662931725,-0.1024793466575509,0.2481600900012854,-0.0831257893514603,1.6197198610415735,-0.230524789037105,0.3033899001174869,-0.0741847432400137,0.8335237279208074,0.5459005373700754,-0.5763802321643474,0.2540477047253845,10.901926286626804,-1.2188496815480214,0.1004001787126261,-1.1903717055776073
2.22,0.2516222334266744,-0.0877397631522085,1.6213068176778649,0.067827187503242,0.1612780150343778,0.0313567927523193,-0.22005358968214,0.3023457318044175,-0.0969316043409549,0.2481600900012854,-0.0831257893514603,1.6197198610415735,-0.230524789037105,0.3033899001174869,-0.0741847432400137,0.6650986956810138,0.3543801568681948,-0.48972172443775,0.2773871158298017,11.00518185614601,-1.224860450928542,0.1027138387121771,-1.1898968753631614
2.24,0.2473052646996802,-0.0818054598539497,1.6194495080454958,0.0652071436997613,0.1600568726869436,0.0304588180693184,-0.2121214810846605,0.2916722439205417,-0.0890682144637003,0.2481600900012854,-0.0831257893514603,1.6197198610415735,-0.230524789037105,0.3033899001174869,-0.0741847432400137,0.7724548381154092,0.3966054298739738,-0.5336743941937894,0.39316949386273,11.00518185614601,-1.227279767129524,0.104691012778905,-1.1897686226651625
2.26,0.2431444248450062,-0.0760799363767068,1.617760321065859,0.0628717110986369,0.1586853969678884,0.0295826893921343,-0.2044164995382539,0.281427600440613,-0.0802070240617292,0.2458548421109144,-0.0800918903502854,1.6189780136091736,-0.2290179061311449,0.2993343259536923,-0.0675096317376047,0.7791664713033042,0.3852490773203307,-0.5122321739964381,0.4430595200985522,11.083891865717304,-1.2297149771337814,0.1062695009384789,-1.1902375316840648
2.28,0.2393325536118925,-0.0708267612261337,1.6163276598667558,0.0608917978534027,0.1572358310442787,0.0287690933386462,-0.1972849345991396,0.2720507623077571,-0.0710469164649266,0.2412443463301723,-0.0740240923479357,1.617494318744373,-0.2260041403192247,0.2912231776261033,-0.0541594087327868,0.746143221901105,0.3565782469557146,-0.4688419066427918,0.458005379840131,11.18313227235285,-1.2326148813196407,0.107667166426909,-1.1912736399884705
2.3000000000000003,0.2354633250769753,-0.0654861235103749,1.6150136752132147,0.0590309778001991,0.1555408731752954,0.0279301449763799,-0.1900741783876162,0.2625168008865686,-0.0608084790580513,0.2366338505494302,-0.0679562943455859,1.616010623879573,-0.2229903745073045,0.2831120292985143,-0.0408091857279688,0.786951437601519,0.3605378105761683,-0.4766980710594282,0.5119218703437671,11.18313227235285,-1.235707043789834,0.1088160578014022,-1.1926730806206958
2.32,0.2317344741691409,-0.060333033796821,1.6139092047281494,0.0573744173739108,0.1536617213534341,0.0271073365885813,-0.1832376212717222,0.2532903783801585,-0.0501394952618723,0.2321740430592841,-0.0622940537596156,1.6151944401650136,-0.2199766086953844,0.2750008809709253,-0.0274589627231508,0.7837292273304639,0.3418278557947032,-0.4613211253205046,0.5334491898089495,11.24599756243606,-1.238539768073953,0.1096807942034955,-1.1956516955764354
2.34,0.2281376477610286,-0.0553607108636555,1.6130220222727822,0.0559333788370632,0.1516039974079204,0.0263023187751432,-0.1768681468403397,0.244423952302292,-0.0391191837905024,0.227714235569138,-0.0566318131736453,1.6143782564504543,-0.2169628428834642,0.2668897326433362,-0.0141087397183329,0.7756142418308082,0.3184737215691222,-0.4433213038933251,0.5510155735684925,11.24599756243606,-1.2412623839571546,0.1102741755505015,-1.19909958749726
2.36,0.2248331204644865,-0.0507995392772559,1.6123855060031138,0.0547588777883804,0.1495286244307165,0.0255563818280475,-0.1713673477776495,0.2361761426120419,-0.0284379617542933,0.2233297722242899,-0.0511723512958648,1.6138958283110154,-0.2139490770715441,0.2587785843157472,-0.0007585167135149,0.7286522819587479,0.2750399531345107,-0.4123904845125051,0.5340611018104559,11.268294200945093,-1.2443076799927173,0.1106938576238575,-1.2027649437828638
2.38,0.2214607092538121,-0.046165407933765,1.6119373887555295,0.0537129447478154,0.1473078460470914,0.024794942714604,-0.166244707478167,0.2277013437027853,-0.0169271107537586,0.2190206530247398,-0.045915668126274,1.613747155746697,-0.2109353112596239,0.2506674359881581,0.0125917062913029,0.7592156329836899,0.2561320149741225,-0.4237399454628296,0.5755425500267369,11.284650434117792,-1.247250148087892,0.1109068711152104,-1.2065282262996937
2.4,0.2181828040251937,-0.0416997469724073,1.6117212675990444,0.0528369317792655,0.1451884312813456,0.024063274207217,-0.1618765434889514,0.2193282286768418,-0.0052677676109396,0.2131484738799038,-0.0347803407486257,1.611091033217842,-0.1628521379902526,0.2109499295378845,-0.0140954994371075,0.7502169592797127,0.2184081994607803,-0.4186557512971714,0.5829671571409482,11.305402180335475,-1.2498712934254734,0.1109502632698743,-1.210275442385826
2.42,0.2151046256399769,-0.0376124204304264,1.611597289513255,0.0518937107521038,0.1439288484068603,0.0234115888858915,-0.1622375063661078,0.2114698547368428,-0.0083446357707904,0.2131484738799038,-0.0347803407486257,1.611091033217842,-0.1628521379902526,0.2109499295378845,-0.0140954994371075,0.4223489459340585,-0.0180481438578183,-0.3929186969999498,-0.1538434079925408,11.317086374735482,-1.2618332634807294,0.1119235108693469,-1.2144725092675428
2.44,0.2118593905730356,-0.0334641628028839,1.6114001014179926,0.0507163673299599,0.1437973041356236,0.0227867612164552,-0.1621338694760273,0.203809351385228,-0.0111033302391706,0.2131484738799038,-0.0347803407486257,1.611091033217842,-0.1628521379902526,0.2109499295378845,-0.0140954994371075,0.4071377143392599,0.0051818445040249,-0.3830251675807417,-0.137934723419006,10.391672786308844,-1.2590132462073802,0.1123431002326344,-1.2083086682305697
2.46,0.2086255678567816,-0.029464467250826,1.6111634937507158,0.0495436945865626,0.1445119292726721,0.0222168581535436,-0.1611434527801181,0.1965655240311249,-0.0124244684482441,0.2115199525000013,-0.0326708414532469,1.6109500782234707,-0.1621736240926697,0.2075996467049043,-0.0135291771737773,0.3714813795301954,0.0495208347954606,-0.3621913677051572,-0.0660569104536789,10.536277450932175,-1.2557235792494028,0.1127557181110056,-1.2048149141683324
2.48,0.2055809114684035,-0.0257954954320013,1.610924188650805,0.0485396795234295,0.1456542251636851,0.0217163459522006,-0.1593267207958486,0.1900133612013246,-0.012703719204187,0.2082629097401962,-0.0284518428624892,1.6106681682347286,-0.1608165962975039,0.200899081038944,-0.0123965326471168,0.3402548083259789,0.0908365992134771,-0.3276081414900156,-0.0139625377971438,10.536277450932175,-1.2523451205229936,0.1131121945518757,-1.2029715531194154
2.5,0.2024222583844911,-0.0220644917983885,1.6106742019692777,0.0476934900184648,0.1470548878173669,0.0212243212428635,-0.1565705019555021,0.1834392966348692,-0.0122505967515852,0.2050058669803912,-0.0242328442717315,1.6103862582459865,-0.1594595685023382,0.1941985153729837,-0.0112638881204564,0.3571427836904166,0.1378109420173218,-0.3287032283227659,0.0226561226300908,10.59157442304786,-1.2494190815380954,0.1132847832397608,-1.2024347038328245
2.52,0.1993269977723848,-0.0184626602140254,1.6104398912353333,0.0471376175980643,0.1484227167275166,0.0207617452943164,-0.1530554702872241,0.1770720099375099,-0.0111823934273115,0.2018166756103444,-0.0203488739642718,1.6101609804835773,-0.1581025407071724,0.1874979497070234,-0.0101312435937959,0.3675555939492566,0.1757515834139009,-0.3183643348679682,0.0534101662136869,10.63519481048388,-1.247113436305049,0.1131843766238689,-1.2026930783090437
2.54,0.1963076405055859,-0.0149870070485321,1.610226878929873,0.0469011047653317,0.1495842029497155,0.0203225363699747,-0.149045322731723,0.1708066883651812,-0.0101823977003456,0.1986274842402976,-0.0164649036568121,1.609935702721168,-0.1567455129120066,0.1807973840410631,-0.0089985990671355,0.3752849892932308,0.2005073777750554,-0.3132660786164323,0.049999786348292,10.670545263253189,-1.2459203476871863,0.1128242831437598,-1.2033260200839229
2.56,0.1935171666820756,-0.0118028131831637,1.610041672711794,0.046915702643015,0.1503910386048823,0.0199180593711721,-0.1449116923344927,0.1646956122423395,-0.0093612479766057,0.19547221856513,-0.0127484474910015,1.6097387410719255,-0.1553884851168408,0.1740968183751028,-0.007865954540475,0.3711685550692257,0.2066815198615124,-0.3055538061420879,0.0410574861869975,10.663669940701766,-1.2453004301873698,0.1121962538544629,-1.203597423549949
2.58,0.1906662499259648,-0.0085784113189349,1.6098632170178688,0.0470760117398308,0.1508919542594966,0.0194964077189461,-0.1404175523960287,0.1580722198493974,-0.0085259442232154,0.1923508785848415,-0.0091995054668398,1.6095700955358494,-0.154031457321675,0.1673962527091425,-0.0067333100138146,0.402381513422921,0.2247069969232004,-0.3311696196471037,0.0417651876695151,10.657677640709151,-1.2452331869885178,0.1114235898107696,-1.2034339194102552
2.6,0.1879058360077583,-0.0054896029547077,1.6097017103750295,0.0472561007720755,0.1510405630528279,0.0190699950816199,-0.1358786461948426,0.1511557745267273,-0.0076609304141061,0.1836453723061633,-0.000674800326465,1.609436919806708,-0.142451681738093,0.1409454938627975,-0.0128374899752042,0.4158940198373883,0.2269453100593066,-0.3458222661335053,0.0432506904554614,10.65704465437193,-1.2455716394388794,0.1106403838654055,-1.2027828534693497
2.62,0.1852434001414524,-0.0025452277405167,1.6095300628894331,0.0471595069468836,0.150489687208191,0.018601834441836,-0.1307125765777628,0.1437319529282001,-0.0095275152402356,0.1836453723061633,-0.000674800326465,1.609436919806708,-0.142451681738093,0.1409454938627975,-0.0128374899752042,0.4617508563295003,0.2583034808539913,-0.3711910799263584,-0.0933292413064753,10.65936902266276,-1.2468322707219317,0.1102048860006722,-1.2007583444606809
2.64,0.1828059116706716,0.0001167857107255,1.6093327551049774,0.0467256851422371,0.1490850546747871,0.0181025016458615,-0.1262091546972793,0.1368861827807242,-0.0111263713023476,0.1836453723061633,-0.000674800326465,1.609436919806708,-0.142451681738093,0.1409454938627975,-0.0128374899752042,0.4174377745635924,0.2251710940241749,-0.3422885073737947,-0.0799428031055986,10.493673238176598,-1.249338301123178,0.1101691986677523,-1.1964856979688911
