t,x,y,z,roll,pitch,yaw,v_x,v_y,v_z,ref_x,ref_y,ref_z,ref_v_x,ref_v_y,ref_v_z,a_com,a_x,a_y,a_z,thrust,wind_x,wind_y,wind_z
0.0,-0.8160675005659382,0.5938259645484295,2.381383750760264,0.0210232899316576,0.1364489669843968,0.0263902134126783,0.0012660981743566,-0.0062317498799396,-0.0036362644016597,-0.8160353596057768,0.5937351992515537,2.381273163067103,0.036949811640742,-0.1038791902457165,-0.103674649098711,0.366265374940132,0.0633049087178325,-0.3115874939969804,-0.1818132200829854,10.545059197991575,-1.2838486895191856,0.1543655175268167,-1.1595242429567671
0.02,-0.8161575976006887,0.5939581727606988,2.3810924363566364,0.0275950666216022,0.1387629385086485,0.0268903791197084,-0.0100029291732807,0.0155643592880965,-0.0266521447685335,-0.8160353596057768,0.5937351992515537,2.381273163067103,0.036949811640742,-0.1038791902457165,-0.103674649098711,1.682105898337703,-0.5634513673818681,1.089805458401807,-1.1507940183436918,10.545059197991575,-1.3092418570149391,0.1503697569085624,-1.1786747845629542
0.04,-0.8164285726404313,0.5942825897705604,2.3803101521304604,0.0412461737550291,0.1443718716014865,0.0280082764185702,-0.0174545467830569,0.0167613458421399,-0.0544016934031848,-0.8160353596057768,0.5937351992515537,2.381273163067103,0.036949811640742,-0.1038791902457165,-0.103674649098711,1.43787762973746,-0.3725808804888109,0.0598493277021732,-1.3874774317325655,9.153143471005023,-1.2973598564718074,0.1347112816265953,-1.162425095139442
0.06,-0.8168246517604411,0.5945644295988258,2.378916672359608,0.0563553758275992,0.152007877124113,0.0293881284550375,-0.0213869854598012,0.0109933729475602,-0.0834681601475443,-0.8156658614893694,0.5926964073490966,2.380236416576116,0.0441153412196662,-0.1238791905437397,-0.1236746493967342,1.4946513592305692,-0.1966219338372172,-0.2883986447289858,-1.4533233372179728,8.922194599238992,-1.2837150176722385,0.1186962581884609,-1.1515758093982795
0.08,-0.8172644319913188,0.5946916636687832,2.376953162623192,0.0709840127495467,0.1603409207214721,0.0308732575421085,-0.0220918343644343,0.0017071664038707,-0.1113845869277988,-0.8149268652565544,0.5906188235441822,2.3781629235941417,0.0584464003775146,-0.1638791911397862,-0.1636746499927807,1.4714425983773018,-0.0352424452316518,-0.4643103271844768,-1.3958213390127274,8.935547218107786,-1.270911597048166,0.1037404031200093,-1.1422653550687625
0.1,-0.8176895483278033,0.5946034019246941,2.3744435626683447,0.0849415273752876,0.1687707010359553,0.0324178372390943,-0.020128670893618,-0.0103626946403202,-0.1381461009538864,-0.8141878690237396,0.5885412397392679,2.376089430612168,0.0727774595353629,-0.2038791917358326,-0.2036746505888271,1.4711510709370623,0.0981581735408129,-0.6034930522095473,-1.3380757013043774,9.00142201182507,-1.2599942052149429,0.0906362096433374,-1.1338372879006964
0.12,-0.8180349178830543,0.594271491047673,2.3715738712032213,0.0975731302831598,0.1765804644557127,0.033908875436406,-0.0161423923593822,-0.0242111257486191,-0.1626197287631262,-0.8127323198330324,0.5844636559045512,2.3720159376003918,0.0871085186932113,-0.243879192331879,-0.2436746511848735,1.4200597864693996,0.1993139267117884,-0.6924215554149467,-1.2236813904619903,9.1223262651165,-1.250611054003105,0.077848126668622,-1.127632457966133
0.14,-0.8182987598203946,0.593614260851003,2.368047091195501,0.110230375960538,0.1844478361695423,0.0354767239968151,-0.0102634218051918,-0.0410448890560425,-0.188814611607963,-0.8112767706423252,0.5803860720698346,2.3679424445886146,0.1014395778510597,-0.2838791929279255,-0.2836746517809201,1.584384556477783,0.2939485277095217,-0.8416881653711705,-1.309744142241842,9.1223262651165,-1.2435210433300166,0.0660131758770295,-1.122896627926406
0.16,-0.8184277388142753,0.5925967825380896,2.36399554999339,0.1222586312496769,0.1918904129061792,0.0370208736002428,-0.0027561794713201,-0.0601093431088724,-0.2150470880359074,-0.8094629449726717,0.5753084882202167,2.362868951561937,0.115770637008908,-0.323879193523972,-0.3236746523769665,1.664297836427269,0.3753621166935854,-0.9532227026414968,-1.3116238213972176,9.107061302830516,-1.2375594478620384,0.0550314466477861,-1.118132941373981
0.18,-0.818386152297357,0.5911754458880732,2.359420636629808,0.1336811938027648,0.1987549939981094,0.0385052847658867,0.0066503696880488,-0.0813057813058231,-0.2411607836845148,-0.8072908428240719,0.5692309043556978,2.356795458520358,0.1301016961667563,-0.3638791941200184,-0.3636746529730129,1.746208220511568,0.4703274579684475,-1.059821909847534,-1.305684782430369,9.12110827414108,-1.23263526736763,0.0453404854982989,-1.1129121104122393
0.2,-0.8181512211383464,0.5894025217126039,2.3545906232280864,0.143634208971006,0.2044028645293715,0.0397693708530705,0.0176105347683528,-0.1042098493570777,-0.2659433457877181,-0.8180536338129546,0.5871101568227821,2.347362597445582,0.051840540095344,-0.1813057827959392,-0.3411607851746309,1.774046882330865,0.5480082540152025,-1.1452034025627278,-1.2391281051601657,9.142410273831956,-1.228464085413838,0.0362271095412314,-1.1061891886490651
0.22,-0.8176412529348764,0.5868936973593797,2.349123978533142,0.1485969636217839,0.2095130032737238,0.0406019754199046,0.0330310494691668,-0.1435538391202795,-0.2783936786505918,-0.8180536338129546,0.5871101568227821,2.347362597445582,0.051840540095344,-0.1813057827959392,-0.3411607851746309,2.2026986814594647,0.7710257350407016,-1.967199488160092,-0.6225166431436863,9.168408122561232,-1.215852498169163,0.0325385893085177,-1.0923814476099245
0.24,-0.8168098943930326,0.583667726802903,2.3434295536439897,0.1473648069579592,0.2140010376290145,0.0408816952348229,0.0493535432175691,-0.1764010325923207,-0.2904098995639115,-0.8180536338129546,0.5871101568227821,2.347362597445582,0.051840540095344,-0.1813057827959392,-0.3411607851746309,1.929864947473032,0.8161246874201139,-1.6423596736020576,-0.6008110456659832,10.115721549023874,-1.2133111044404643,0.0340869708526986,-1.0923349472466442
0.26,-0.8157106776664829,0.5800362921219211,2.3377786022465594,0.1432532610644799,0.2174856660068219,0.0407913184631151,0.0654991618987579,-0.2034394734163027,-0.303695353607527,-0.8175352284120011,0.5852970989948227,2.343950989593836,0.060878574176803,-0.2013057830939625,-0.3611607854726541,1.708992081561053,0.8072809340594407,-1.3519220411991038,-0.6642727021807737,9.988614846295604,-1.2123527528179396,0.0387862914426014,-1.0913418020390306
0.28,-0.8142212866991426,0.5757093791224441,2.331541074405293,0.1380552885973643,0.220164813976228,0.040458517462291,0.0825414691373807,-0.2276422796295434,-0.3194251338725837,-0.8164984176100942,0.5816709833389039,2.337127773890343,0.0789546423397211,-0.2413057836900089,-0.4011607860687005,1.676038522676509,0.8521153619311383,-1.210140310662032,-0.7864890132528363,9.845498840099026,-1.2122372556646377,0.0442143306812,-1.089833840809318
0.3,-0.8123924019690411,0.570924475843053,2.324970261026928,0.1330276816983728,0.221825577493251,0.0399686914061191,0.0994217554798601,-0.2495842885534699,-0.3369253916427164,-0.8154616068081874,0.5780448676829851,2.3303045581868504,0.0970307105026392,-0.2813057842860554,-0.441160786664747,1.6375704905765551,0.8440143171239707,-1.097100446196324,-0.875012888506635,9.712459425025372,-1.213633246162722,0.0494240758567043,-1.086979103266111
0.32,-0.8102301684705961,0.5657178556544745,2.31803181527238,0.1285403546108768,0.2225308982404603,0.0393688727384631,0.1158581375117325,-0.2700422249917868,-0.3560131233718441,-0.8135209925981346,0.572418751997264,2.321481342453556,0.1151067786655573,-0.3213057848821018,-0.4811607872607934,1.6225160401171868,0.8218191015936183,-1.0228968219158487,-0.954386586456385,9.601661601167509,-1.2164482727970871,0.0538693786536322,-1.0828627187480742
0.34,-0.8078760860018765,0.5604023747332786,2.311080519071837,0.124869384208829,0.2224569850861907,0.0387310467772931,0.1310436366800479,-0.2885487395170721,-0.3747291096102899,-0.8115803783880818,0.566792636311543,2.3126581267202604,0.1331828468284754,-0.3613057854781483,-0.52116078785684,1.5193572701501068,0.7592749584157683,-0.9253257262642643,-0.935799311922289,9.508254795473476,-1.2201336236735902,0.0579187387803523,-1.0767342076677564
0.36,-0.8050892666171892,0.5544268862813592,2.3033726677787643,0.1213845424168646,0.2216556321673939,0.0379852553886173,0.146786206188433,-0.3079516984673164,-0.3950717665975744,-0.809187862473956,0.5601665206109206,2.3028349109720643,0.1512589149913935,-0.4013057860741947,-0.5611607884528863,1.6109989168630117,0.7871284754192589,-0.970147947512212,-1.017132849364227,9.463625535591746,-1.223552905062877,0.0614168652457148,-1.069498572150323
0.38,-0.8019891890343186,0.5480665923339376,2.295252954433064,0.1179833047059673,0.2199952116238626,0.0371339314594752,0.1623749770787618,-0.3269872790580731,-0.4158628770248501,-0.8063434448557574,0.5525404048953972,2.2920116952089677,0.1693349831543116,-0.4413057866702412,-0.6011607890489328,1.6106158597703613,0.7794385445164378,-0.951779029537836,-1.0395555213637857,9.383571502335144,-1.2266194330914988,0.0646900076524607,-1.0605312039411623
0.4,-0.7985808219718044,0.5413317125656798,2.286712998215032,0.1145423673701215,0.2173203220599794,0.0361580738130106,0.1775946957194842,-0.3454181142363925,-0.4370706304474346,-0.7938704401803806,0.531717228381034,2.274459810581822,0.2098166794148347,-0.4246215870982152,-0.5158628785149663,1.597736153207305,0.7609859320361192,-0.9215417589159696,-1.060387671129223,9.383571502335144,-1.2305689210775377,0.067758975242572,-1.0508192787109123
0.42,-0.7950386730375906,0.534577304058777,2.2784300860177664,0.1113448282908136,0.2144535402448965,0.0352015690733317,0.1943828615287625,-0.3645903327221285,-0.4337300550091914,-0.7938704401803806,0.531717228381034,2.274459810581822,0.2098166794148347,-0.4246215870982152,-0.5158628785149663,1.285083574289248,0.8394082904639139,-0.9586109242868012,0.1670287719121588,9.34473764851009,-1.2320175782902647,0.0711887048130509,-1.0316170076153068
0.44,-0.7909883709129756,0.5270945388070805,2.269759420974104,0.1085402213648816,0.2121869542965991,0.0343222259399274,0.2095977200780439,-0.3827735262320906,-0.433844674176615,-0.7938704401803806,0.531717228381034,2.274459810581822,0.2098166794148347,-0.4246215870982152,-0.5158628785149663,1.185467823739755,0.7607429274640698,-0.909159675498103,-0.0057309583711806,10.785072037195278,-1.2379320754781065,0.0732603171705354,-1.0310484676350422
0.46,-0.7866534285588613,0.5192531113172596,2.2610269239909595,0.106344159788721,0.2109705858437143,0.0336001163878993,0.2231834075255533,-0.4005007952542713,-0.4393696520146285,-0.7917722733862322,0.5274710125100518,2.2693011817966724,0.2193050198820493,-0.4441484487062436,-0.5358628788129894,1.1503829259389269,0.6792843723754716,-0.8863634511090346,-0.2762488919006739,10.437682740460332,-1.240686654539964,0.0746946038729285,-1.0296950681699732
0.48,-0.7820517935369026,0.5110628462890195,2.252140734071041,0.1044744022355967,0.2105469131826023,0.0329824879176927,0.2363596127410086,-0.4176465569050413,-0.448957453062335,-0.7875759397979355,0.5189785807680876,2.258983924226373,0.2382817008164784,-0.4832021719223004,-0.5758628794090359,1.1827039521740108,0.6588102607727672,-0.8572880825385015,-0.4793900523853228,10.139521582159432,-1.2423939188657749,0.0759832640804621,-1.0276779270903584
0.5,-0.7774384190817728,0.5029707760633759,2.243490377236302,0.1029341324180666,0.2105146691424081,0.032447032374308,0.24862171657864,-0.4332965201952979,-0.4611091473011995,-0.7833796062096389,0.5104861490261232,2.248666666656073,0.2572583817509076,-0.5222558951383572,-0.6158628800050824,1.1650581684899752,0.6131051918815661,-0.7824981645128293,-0.6075847119432293,9.910965382005088,-1.2437910529150782,0.0771200728541106,-1.024926659103247
0.52,-0.7723340356902398,0.4941404002493608,2.2341095879853867,0.1016713708552377,0.2106530006670648,0.0319216343759837,0.261161621186547,-0.4489102808560203,-0.4764362180051327,-0.7782344385746207,0.5000410311233561,2.236349409055972,0.2762350626853368,-0.5613096183544141,-0.6558628806011289,1.26091021281166,0.6269952303953538,-0.7806880330361227,-0.7663535351966566,9.580241706589732,-1.2451874973085462,0.0779718784081733,-1.0216275871945089
0.54,-0.7669798637063009,0.4850036377974187,2.2244072201950438,0.1009449964802002,0.2108329976605285,0.0314330558909737,0.2736311567179904,-0.4640253659263046,-0.4930107969199976,-0.7730892709396026,0.4895959132205889,2.2240321514558703,0.295211743619766,-0.6003633415704709,-0.6958628811971753,1.2832300838674109,0.6234767765721683,-0.7557542535142153,-0.8287289457432456,9.518234647894133,-1.246215347260574,0.0783613284789016,-1.017249347913504
0.56,-0.7613734616385995,0.475556839794223,2.21436420621322,0.1004828175548005,0.2108576952325361,0.0309418929814268,0.2863433379796278,-0.4798044429424354,-0.5104302246581193,-0.7674696862812237,0.4781744522374204,2.2107148938408674,0.3141884245541951,-0.6394170647865277,-0.7358628817932217,1.3360532237090643,0.6356090630818712,-0.7889538508065369,-0.8709713869060831,9.518234647894133,-1.2473301960744154,0.0785129622882612,-1.0125103263656403
0.58,-0.7558115324708116,0.4662857411486766,2.20449304916372,0.099883538968732,0.2105638439581781,0.0304274679299186,0.2984267158288142,-0.4951934922845613,-0.5277330977542368,-0.7613756845994841,0.4657766481738504,2.196397636210964,0.3331651054886243,-0.6784707880025845,-0.7758628823892681,1.305967340021317,0.6041688924593197,-0.7694524671062936,-0.8651436548058777,9.427312561927463,-1.248917315789139,0.0788192402339785,-1.00683499715326
0.6,-0.7497115229799666,0.4562102859402344,2.1937380962144,0.0988270156381365,0.2098452146846981,0.0298117659110872,0.3108918561688096,-0.5114480688297025,-0.5468684185485865,-0.7408901966793708,0.4415260665344485,2.1781063942760084,0.3578494248766086,-0.5491681393594992,-0.6277330992443529,1.4015629527961857,0.6232570169997675,-0.8127288272570615,-0.9567660397174826,9.367443195501435,-1.2507830944442482,0.0794932452729101,-1.000475170381947
0.62,-0.743338779770753,0.4456366041846029,2.1828610981965064,0.0923984854960259,0.2097870306062131,0.028884558198144,0.3261482260539489,-0.5424265741449852,-0.5381695562174329,-0.7408901966793708,0.4415260665344485,2.1781063942760084,0.3578494248766086,-0.5491681393594992,-0.6277330992443529,1.780515950151491,0.7628184942569671,-1.548925265764134,0.4349431165576789,11.19760735377713,-1.2470079368135618,0.085105468483172,-0.9844478857118412
0.64,-0.736656966841862,0.4345677522225716,2.172166181446755,0.0807521459648067,0.2112721302976336,0.0277406972574192,0.3414432555347171,-0.5617421310741741,-0.5318402950128669,-0.7408901966793708,0.4415260665344485,2.1781063942760084,0.3578494248766086,-0.5491681393594992,-0.6277330992443529,1.2718964322006852,0.7647514740384109,-0.965777846459448,0.3164630602283003,11.19760735377713,-1.2452278875058156,0.0940068370593137,-0.9901395475788758
0.66,-0.7300244124272238,0.4237713483638234,2.1620605693347743,0.0687625324850247,0.2133971671162202,0.026645641449853,0.3560409014503439,-0.5733899236886286,-0.5321987885665427,-0.7373117024306047,0.4360343851408535,2.171829063283565,0.3697339666861674,-0.5599630687744868,-0.6477330995423761,0.9339310155137032,0.7298822957813395,-0.5823896307227239,-0.0179246776837893,10.761671916702651,-1.2442268691024747,0.1046159051389543,-0.9955417619064386
0.68,-0.7227438511554873,0.4122183694202295,2.1513599890275,0.0566768730417449,0.2157762354606213,0.0255343035318929,0.3712581705153695,-0.5811111214436642,-0.5380918273509121,-0.7301547139330726,0.4250510223536635,2.1592744012986778,0.3935030503052852,-0.5815529276044619,-0.6877331001384226,0.9026489886492872,0.7608634532512787,-0.3860598877517773,-0.294651939218471,10.344999641656614,-1.244431908360061,0.1150277773612983,-0.9993910259928048
0.7000000000000001,-0.7151613616837292,0.4005468216449047,2.140489199365881,0.0457514602982718,0.2179442360346748,0.0244889091477961,0.386214801646806,-0.5856122399364354,-0.5488876551811787,-0.7229977254355404,0.4140676595664735,2.1467197393137907,0.4172721339244029,-0.603142786434437,-0.7277331007344691,0.949356072594182,0.7478315565718235,-0.2250559246385619,-0.5397913915133279,10.015311577500142,-1.245719679116542,0.1245593293495841,-1.0018164166874617
0.72,-0.7072838692996235,0.3888128557737659,2.1293571646317537,0.0362322556568754,0.2196868121467359,0.0235252982388793,0.4007705947161126,-0.5876954476837661,-0.563756916201494,-0.7146522827570524,0.4020048038377848,2.132165077299101,0.4410412175435206,-0.6247326452644121,-0.7677331013305155,1.0455928816768063,0.72778965346533,-0.1041603873665364,-0.7434630510157691,9.75099095757014,-1.2477243773573767,0.1325101049992502,-1.0022244382665924
0.74,-0.6995324038727656,0.3776451699574537,2.1184882684614057,0.0285261844000401,0.2208951270630623,0.0226957239636271,0.4144205817905552,-0.5879331399214858,-0.5795873407908351,-0.7063068400785644,0.389941948109096,2.117610415284412,0.4648103011626384,-0.6463225040943873,-0.807733101926562,1.0452045103843737,0.6824993537221297,-0.0118846118859816,-0.7915212294670515,9.546545450236408,-1.2495307742676207,0.1395694991148262,-1.0008925595129825
0.76,-0.6910925819356307,0.3658932993824982,2.106708111109857,0.0216233629667167,0.2216337469650872,0.0219061823163847,0.4287931404645482,-0.5872804660827964,-0.5976477181331986,-0.6973671703095983,0.3773393459096579,2.1020557532548216,0.4885793847817561,-0.6679123629243624,-0.8477331025226084,1.1545276693583826,0.7186279336996504,0.0326336919344694,-0.9030188671181772,9.454731132073904,-1.251553805671361,0.1454734964560893,-0.9987650161302548
0.78,-0.682366446262534,0.3541649555833743,2.094553450936452,0.0157378007183338,0.2217206505499818,0.0211928047693223,0.4430257530427727,-0.5856286676862728,-0.6169497494835405,-0.6878332734501543,0.3641969972394704,2.08550109121033,0.5123484684008739,-0.6895022217543375,-0.8877331031186548,1.201940215853283,0.7116306289112251,0.0825899198261814,-0.965101567517096,9.310438814309236,-1.25432735154321,0.1504587577333855,-0.99552641463074
0.8,-0.6733587399353445,0.3424792302630233,2.081999289177414,0.0107481979036559,0.2210889745712813,0.0205537404110465,0.4569938939707605,-0.5830775162185959,-0.6374794827140776,-0.6602151586103954,0.3248835221990606,2.063705963462275,0.4973978252626213,-0.5847439080389667,-0.665298373742774,1.2480858156715209,0.6984070463993935,0.1275575733838407,-1.0264866615268542,9.310438814309236,-1.257506055544524,0.1544303498683986,-0.9915279989239488
0.8200000000000001,-0.6644113915520119,0.3313071696264049,2.070101792565181,0.0027517048205865,0.2186052551198274,0.0197320061526669,0.4838890050362249,-0.5902852832374997,-0.6138013389706256,-0.6602151586103954,0.3248835221990606,2.063705963462275,0.4973978252626213,-0.5847439080389667,-0.665298373742774,1.82753481208843,1.3447555532732192,-0.3603883509451899,1.1839071871726004,9.244483612356817,-1.250372545264241,0.1601507936223689,-0.9720863515875308
0.84,-0.6544513917349886,0.3195149258972714,2.0580517018530124,-0.0088188659396807,0.2126398624084083,0.0187203862515706,0.5099987316649326,-0.5878772201469569,-0.5928408561617861,-0.6602151586103954,0.3248835221990606,2.063705963462275,0.4973978252626213,-0.5847439080389667,-0.665298373742774,1.6784356050006344,1.305486331435382,0.1204031545271433,1.0480241404419777,12.099487883418988,-1.2633347277905558,0.1709337847287303,-0.975160815593874
0.86,-0.6440258886838276,0.3078387532697521,2.046336053286376,-0.0204317213980265,0.2039471919548295,0.0178631482090046,0.530671041589256,-0.5797126328790106,-0.5796587671114716,-0.6552411803577691,0.319036083118671,2.057052979724847,0.5082722397065911,-0.5845669561095055,-0.6749680985946207,1.2920645829384965,1.0336154962161723,0.4082293633973111,0.6591044525157241,11.602763112031424,-1.2788538531320726,0.1814095137814265,-0.973292688343843
0.88,-0.6332457603896152,0.2963659943028687,2.0348171237176653,-0.0308291369809636,0.1936699037167772,0.0172775781091131,0.5458467440487338,-0.5680926842124268,-0.5728115206182063,-0.6452932238525168,0.3073412049578916,2.043747012249992,0.5300210685945305,-0.5842130522505831,-0.6943075482983141,1.015147694540279,0.7587851229738873,0.5809974333291945,0.3423623246632645,11.11280852755317,-1.295180213487646,0.1913187725580052,-0.96676180488566
0.9,-0.6227732014601697,0.285704923522434,2.023950364454529,-0.0391904611671928,0.1833853411707539,0.016981164936214,0.5554681715546913,-0.5549457333764305,-0.5713412291660466,-0.6353452673472643,0.2956463267971123,2.030441044775136,0.55176989748247,-0.5838591483916606,-0.7136469980020075,0.8178874318798287,0.4810713752978757,0.6573475417998131,0.0735145726079855,10.712490513110424,-1.3117201862948662,0.1998457325383202,-0.9587879326080816
0.92,-0.6115986146494081,0.2747658852811754,2.0125007920795825,-0.0463734277171556,0.1728555154112878,0.0168954823228649,0.5611704966921351,-0.5398233958485488,-0.5738424073830779,-0.6243098693976149,0.283969143829279,2.016168104815096,0.5735187263704095,-0.5835052445327382,-0.7329864477057009,0.8177063910011586,0.2851162568721921,0.7561168763940862,-0.1250589108515665,10.389076222884796,-1.327050297541795,0.2067331428679191,-0.9486089573221403
0.94,-0.6003486991332863,0.2641420540076637,2.0009793141229166,-0.0519390286164078,0.1633055767616713,0.0169788113021253,0.5633449976896553,-0.5235441092427296,-0.5782090401969728,-0.6132744714479654,0.2722919608614458,2.001895164855056,0.5952675552583488,-0.5831513406738158,-0.7523258974093943,0.8497221738809719,0.1087250498760072,0.813964330290956,-0.2183316406947466,10.03569397434785,-1.3392464087623013,0.2116934086610107,-0.9375444313620224
0.96,-0.5896465805491606,0.2543592006043148,1.9899400838710148,-0.0557703705707916,0.1555144613875306,0.0171621942971377,0.5630412087020333,-0.5073801022846558,-0.583558426138188,-0.6016953527761175,0.2606236254900856,1.9871387386524235,0.6170163841462883,-0.5827974368148934,-0.7716653471130877,0.8514448582229658,-0.0151894493810977,0.8082003479036926,-0.2674692970607573,9.962633915673903,-1.3498561370970854,0.2154833249318278,-0.926776538255318
0.98,-0.5784077160093902,0.2443943583908526,1.978200240512713,-0.0585130555671128,0.1487958976454181,0.0174130314025104,0.5607454639203342,-0.4901836111270778,-0.5901662243516125,-0.5895725133820712,0.2489641377151986,1.9718988262071984,0.6387652130342277,-0.582443532955971,-0.791004796816781,0.92824127987379,-0.1147872390849569,0.8598245578788993,-0.3303899106712249,9.962633915673903,-1.358852011209409,0.2180950987707332,-0.9174914659046628
1.0,-0.5672359128201773,0.2347773026991231,1.9663184704772685,-0.0600284717939349,0.1438542694939301,0.0176803736581284,0.5564267198725955,-0.4725675024101116,-0.5976973048462809,-0.5503704428133736,0.2198851778344987,1.9486919292951324,0.5509456752143296,-0.479231379652857,-0.5811570093021668,0.981957241807182,-0.2159372023869343,0.8808054358483114,-0.376554024733422,9.898428181121744,-1.366109840886029,0.2196422701861969,-0.9101192556065748
1.02,-0.5565343344190883,0.2259837740673236,1.955211732426409,-0.0605399796339676,0.1369464099504813,0.0181546698994718,0.5691859579035913,-0.4540113381509812,-0.5709762812413215,-0.5503704428133736,0.2198851778344987,1.9486919292951324,0.5509456752143296,-0.479231379652857,-0.5811570093021668,1.7472424628827523,0.6379619015497884,0.9278082129565184,1.336051180247971,9.844732210426628,-1.3563530604932066,0.2183807000081182,-0.8928304348459086
1.04,-0.5450691553644988,0.2171160133019267,1.9440693940216869,-0.0600457798238606,0.1245618903490975,0.0190496399504857,0.5757034259430468,-0.4338959827483249,-0.5449163580397215,-0.5503704428133736,0.2198851778344987,1.9486919292951324,0.5509456752143296,-0.479231379652857,-0.5811570093021668,1.6779634306904516,0.325873401972776,1.005767770132815,1.30299616008,12.116261790210956,-1.3770515092045,0.2201500973003276,-0.889168301430116
1.06,-0.5335561968391793,0.2086557618706669,1.9333963210795877,-0.0578892453276324,0.1095302611693952,0.0202105627334473,0.5745452767918305,-0.4133895954355112,-0.5238533510684518,-0.5448609860612302,0.2150928640379701,1.9428803592021109,0.5489857174731286,-0.4770409333580129,-0.5793551662922777,1.4709720364025858,-0.0579074575608129,1.0253193656406867,1.0531503485634863,11.77911446883536,-1.397907411700565,0.2202724136892501,-0.8796442613179085
1.08,-0.5221435370619367,0.2005912300248343,1.9230937646223087,-0.0538745120646317,0.093821910535715,0.0214926840684712,0.5663134834815048,-0.394830870339749,-0.50735763707308,-0.5338420725569437,0.205508236444913,1.9312572190160675,0.5450658019907269,-0.4726600407683246,-0.5757514802724994,1.3079538203823369,-0.4115896655162876,0.9279362547881088,0.8247856997685876,11.438827519105873,-1.4169016529487566,0.2186810016667919,-0.8667273339250979
1.1,-0.5115134051962468,0.1932448360617207,1.9135788943251528,-0.0492719812268852,0.0796737629344856,0.0226557036565765,0.5528321523371788,-0.3797316808659634,-0.4949943213923435,-0.5228231590526571,0.1959236088518559,1.919634078830024,0.541145886508325,-0.4682791481786363,-0.5721477942527212,1.185942016721092,-0.6740665572163018,0.754959473689279,0.6181657840368227,11.157173595172935,-1.433534310745987,0.2159837298033037,-0.8516342724428544
1.12,-0.5006495389654998,0.1857988311181468,1.9037912022080028,-0.0441841841417488,0.0666215671623104,0.0237311919635296,0.5340418421282058,-0.3658881607258706,-0.4845270883846398,-0.5120002413224906,0.1865580258882831,1.9081911229449693,0.5372259710259231,-0.463898255588948,-0.568544108232943,1.278946611919502,-0.9395155104486465,0.6921760070046384,0.5233616503851873,10.940890882677197,-1.4463286096962458,0.2127909425863962,-0.8369055525526716
1.14,-0.4902013421107368,0.178611858614774,1.894201414702909,-0.0391466249342081,0.0561524426445246,0.0246216872268542,0.5116535853528709,-0.3536604653749038,-0.4749882896681406,-0.501177323592324,0.1771924429247104,1.8967481670599151,0.5333060555435213,-0.4595173629992597,-0.5649404222131648,1.3617445208153711,-1.119412838766748,0.6113847675483425,0.4769399358249576,10.78418821088144,-1.4549303254871275,0.2093800831885494,-0.8237869760960834
1.16,-0.4802347510982389,0.1716545087230042,1.88479668044626,-0.0343110175419336,0.0488880495596977,0.0253219477511638,0.4861416844405903,-0.3428067049076435,-0.465953927333684,-0.4904524037492176,0.1679363822758799,1.8853953033253552,0.5293861400611194,-0.4551364704095714,-0.5613367361933864,1.4579788297750844,-1.2755950456140253,0.5426880233630138,0.4517181167228323,10.744251813973278,-1.4603522594110177,0.2062177205702315,-0.8144636600272808
1.18,-0.4712659708725195,0.1652338478524494,1.876026000399648,-0.0299864435468894,0.045738035647678,0.0258113860934529,0.4594096647762153,-0.3336592640534182,-0.4577188575567443,-0.4798254817931712,0.1587898439417916,1.8741325317412896,0.5254662245787176,-0.4507555778198831,-0.5577330501736082,1.4714728367771104,-1.3366009832187524,0.4573720427112654,0.4117534888469859,10.731875085967658,-1.4605555486609585,0.2029223110487811,-0.8103066565081336
1.2,-0.4623685371246919,0.1586520041522337,1.8669626349027693,-0.0257799048253597,0.0465388853427921,0.0261700620848212,0.432199720391077,-0.3250558789698659,-0.4490323922271959,-0.4482954876337087,0.1485508846497785,1.8531400575218109,0.4590628402494285,-0.3202303953275223,-0.4489909559415418,1.4915210258823506,-1.3604972192569147,0.4301692541776147,0.434323266477421,10.72248158765342,-1.454866445317507,0.1996985225482943,-0.8128324761978355
1.22,-0.4540093341727361,0.1521882408394204,1.858134135635972,-0.0234229777571062,0.0512749803133472,0.0263055274136086,0.4056152762580057,-0.321107879536298,-0.4339413673005147,-0.4482954876337087,0.1485508846497785,1.8531400575218109,0.4590628402494285,-0.3202303953275223,-0.4489909559415418,1.5411508708831465,-1.329222206653563,0.1973999716783941,0.7545512463340592,11.129654290462897,-1.4463056990645955,0.1976284934653103,-0.8167146740581961
1.24,-0.4465292342745613,0.1461386153281544,1.8500290650516007,-0.0232514961269274,0.0590211061957401,0.0262217548037075,0.3836530614897306,-0.3156811006925452,-0.4200115640991288,-0.4482954876337087,0.1485508846497785,1.8531400575218109,0.4590628402494285,-0.3202303953275223,-0.4489909559415418,1.3283713932633692,-1.0981107384137572,0.2713389421876405,0.6964901600692935,11.04028974987068,-1.434606342653485,0.1973361001314889,-0.8315487775114118
1.26,-0.4390627672683845,0.1398943061581634,1.8417745619785872,-0.024377550751256,0.0692376429948012,0.0259934782473091,0.3646509096092101,-0.3089363430668124,-0.4062204169041525,-0.4437048592312144,0.1453485806965032,1.8486501479623956,0.4589934753440711,-0.3175446215823431,-0.4472453756185013,1.221443073247534,-0.9501075940260256,0.3372378812866422,0.689557359748813,11.04028974987068,-1.4221485979081676,0.1981396385375722,-0.8490991886402117
1.28,-0.4319326525766122,0.133795538072274,1.8337867751580053,-0.0264640548557165,0.0804244846537861,0.0256619092368097,0.349732057413589,-0.3011943130825135,-0.3933035128734579,-0.4345236024262258,0.1389439727899528,1.8396703288435643,0.4588547455333564,-0.3121730740919848,-0.4437542149724204,1.0599028125855998,-0.7459426097810529,0.3871014992149424,0.6458452015347338,10.93116198534426,-1.4096880255234407,0.1998075363785931,-0.8681621465467748
1.3,-0.425398329756392,0.1281611398586547,1.826429271564591,-0.0288675753752581,0.0910921388377368,0.0252970440608752,0.3391074936683687,-0.2921721262985635,-0.3818489306809379,-0.4253423456212372,0.1325393648834024,1.8306905097247337,0.4587160157226417,-0.3068015266016264,-0.4402630543263394,0.9020652170795728,-0.5312281872610153,0.4511093391975002,0.5727291096259968,10.93116198534426,-1.398619379830242,0.2018589709165859,-0.8862770438428562
1.32,-0.4187033768340764,0.1224317166931468,1.8189126766730384,-0.0311520253204697,0.1016859572980289,0.0249281625920928,0.3312089476131327,-0.2812841562934322,-0.3704676864781855,-0.4161680253067844,0.1264033343513698,1.8218852486382069,0.458577285911927,-0.3014299791112681,-0.4367718936802585,0.8810045973518082,-0.3949273027618022,0.5443985002565654,0.5690622101376192,10.896135003604286,-1.388562243786453,0.2039840125487764,-0.9043682355029832
1.34,-0.4121348141946263,0.1169301706419818,1.811618529309839,-0.0328661325945653,0.1111258193348883,0.0246208327960285,0.3262192490960932,-0.269499722015336,-0.3595563577412607,-0.4069937049923315,0.1202673038193373,1.81307998755168,0.4584385561012122,-0.2960584316209098,-0.4332807330341775,0.8408731731821357,-0.2494849258519754,0.5892217139048112,0.5455664368462426,10.875703219950992,-1.3798454161588645,0.2057650835732334,-0.9212269357748558
1.36,-0.4056397004085987,0.1116744884341357,1.8045376635647428,-0.033711824524337,0.1190464300474715,0.0244186517269839,0.3235806805807054,-0.2568094515875681,-0.3491075214728805,-0.3978228529231465,0.1142655619745637,1.8043620054813052,0.4582998262904975,-0.2906868841305514,-0.4297895723880965,0.8324409689336719,-0.131928425769387,0.634513521388394,0.5224418134190084,10.869499129645192,-1.3732966189925369,0.2069127851036595,-0.93587219210269
1.38,-0.3995015742025062,0.1069235063794138,1.7979999638727509,-0.0333888526235408,0.1250208142234674,0.0243604201986978,0.3226470820890634,-0.2441036633605035,-0.3396126345523531,-0.3886554690992295,0.1083981088170491,1.795731302427083,0.4581610964797828,-0.285315336640193,-0.4262984117420155,0.7944519152349809,-0.0466799245820992,0.6352894113532292,0.4747443460263706,10.869499129645192,-1.3686455030752755,0.207228993013152,-0.9492437390842624
1.4,-0.393048755082881,0.1021841968851207,1.7913094256254791,-0.0316053829468211,0.1296812404058425,0.0244633988552282,0.322672580217448,-0.2306506407648603,-0.3299612617652163,-0.383369220098053,0.0947183232113886,1.7810193321451333,0.346625205530402,-0.2224765445494922,-0.3327939539939994,0.8278488143823763,0.0012749064192268,0.6726511297821605,0.4825686393568396,10.864276144679934,-1.3660660136309348,0.2063254317240974,-0.9604738960341505
1.42,-0.3865914453005828,0.0976813482530923,1.7848574038443852,-0.0291744044053053,0.1330871010972302,0.0246626350441159,0.3230613374186918,-0.2202067381142599,-0.3157527261995609,-0.383369220098053,0.0947183232113886,1.7810193321451333,0.346625205530402,-0.2224765445494922,-0.3327939539939994,0.8819137112796663,0.0194378600621908,0.5221951325300178,0.7104267782827689,10.860616146125722,-1.3643542573728644,0.2047827506342804,-0.967870482124866
1.44,-0.3804466191413228,0.0935918373849257,1.7789833263912422,-0.0269823761788183,0.1355573474602226,0.0248742741211342,0.3237257895927406,-0.2108321559279354,-0.3033102304052161,-0.383369220098053,0.0947183232113886,1.7810193321451333,0.346625205530402,-0.2224765445494922,-0.3327939539939994,0.7796473392695568,0.0332226087024406,0.4687291093162266,0.6221247897172405,11.152709017285815,-1.363964250227008,0.2035329063661057,-0.978420558694211
1.46,-0.3739630690778152,0.0894738561886289,1.7730443891098648,-0.0248326456258837,0.1374534694605961,0.0251111971364956,0.324578155245355,-0.2014978143740727,-0.2912943562532148,-0.379902968042749,0.0924935577658937,1.7776913926051934,0.3514208302186697,-0.2181511207872899,-0.3314302178823287,0.761967340321514,0.0426182826307214,0.4667170776931337,0.6007937076000641,11.079896000188455,-1.3641313315164791,0.2023504126227931,-0.9873598233034684
1.48,-0.3674620931329094,0.0855376226098481,1.7673346262676657,-0.0228473509062799,0.1387299530004815,0.0253563096913706,0.3254504365932198,-0.1926268262725145,-0.2803321887805239,-0.3729704639321409,0.0880440268749038,1.7710355135253133,0.3610120795952051,-0.2095002732628854,-0.3287027456589872,0.7064425318933304,0.0436140673932411,0.4435494050779129,0.5481083736345455,11.023965601036252,-1.3648487103968705,0.2012643591695539,-0.9950478515708366
1.5,-0.3609446997956736,0.081774149721446,1.7618335733408008,-0.0210220493918505,0.1394931873353613,0.0256046255931056,0.3262061839565432,-0.1841866025176548,-0.2703315671568963,-0.3660379598215329,0.083594495983914,1.7643796344454334,0.3706033289717405,-0.2008494257384809,-0.3259752734356458,0.6554024793366219,0.03778736816617,0.4220111877429836,0.5000310811813818,10.970520581905475,-1.3661453039803286,0.2003994309767506,-1.002434942623479
1.52,-0.3547412490777911,0.0783513465832887,1.756785310295419,-0.0194341203097699,0.139858385749062,0.0258392754973486,0.3267207571192255,-0.1765424757604252,-0.2615740399656771,-0.3586258932420981,0.0795775074691444,1.7578601289767206,0.3801945783482759,-0.1921985782140763,-0.3232478012123043,0.5817897857587624,0.0257286581341137,0.3822063378614793,0.4378763595609625,10.924551717231225,-1.3678346403501649,0.1995924296379185,-1.009480750993618
1.54,-0.3482032254627192,0.0749009475943271,1.7516467740815866,-0.0179406863919564,0.139986360585526,0.026079546937951,0.3270293202153574,-0.1689289747501939,-0.2527643760464426,-0.3512138266626633,0.0755605189543748,1.7513406235080078,0.3897858277248113,-0.1835477306896718,-0.3205203289889629,0.582389017725588,0.0154281548065959,0.3806750505115669,0.4404831959617244,10.886312563070533,-1.369523334674697,0.1988833203515632,-1.015580225549513
1.56,-0.3416603830984605,0.071600144352759,1.746679139049294,-0.0166413153373158,0.1399200954080242,0.026310089327922,0.3272089216393084,-0.1615704965182611,-0.2444481856927051,-0.3435619788488151,0.0717598016277153,1.7448893048448784,0.3993770771013468,-0.1748968831652673,-0.3177928567656214,0.555289295234722,0.0089800711975479,0.367923911596639,0.4158095176868728,10.869157257214283,-1.3711690274300703,0.1983076249755156,-1.0211735113199136
1.58,-0.335115906388451,0.0684436781986178,1.7418733710348526,-0.0155200250058809,0.1396932564657184,0.0265309795261344,0.3272022749331501,-0.1544795140341765,-0.2365691598872026,-0.3356703498005535,0.0681753554891659,1.7385061729873326,0.4089683264778821,-0.1662460356408628,-0.3150653845422799,0.5300026519086272,-0.0003323353079176,0.35454912420423,0.3939512902751227,10.84706529415871,-1.3728171260606388,0.1978834614088931,-1.0260041650630387
1.6,-0.3289008626994855,0.0655741070270592,1.737449463205235,-0.0146220012431642,0.1393652858594842,0.0267308993531663,0.3269889143959482,-0.1479641406125952,-0.2295047614410976,-0.3187557926417935,0.060719702496909,1.7300449130404925,0.3258432532927673,-0.1282273281083352,-0.2252112498874148,0.4806280759246566,-0.0106680268600944,0.3257686710790672,0.353219922305252,10.825972147169525,-1.3745804599123974,0.1975691676937996,-1.0306088827245592
1.62,-0.3222950451713114,0.0626715554497201,1.732992589457267,-0.0143783954452832,0.1370481221463069,0.026921121211525,0.333750526105115,-0.1425140455122144,-0.2162619439813576,-0.3187557926417935,0.060719702496909,1.7300449130404925,0.3258432532927673,-0.1282273281083352,-0.2252112498874148,0.7918256496551688,0.3380805854583418,0.2725047550190373,0.6621408729870021,10.806035221312412,-1.368394316665578,0.1970181573571988,-1.030461285226653
1.64,-0.3155606096280915,0.0598790420602923,1.7287997586753523,-0.0152635364949358,0.1306595650348391,0.0270963907964396,0.3385663511849389,-0.1369071341045787,-0.2036789457909364,-0.3187557926417935,0.060719702496909,1.7300449130404925,0.3258432532927673,-0.1282273281083352,-0.2252112498874148,0.729659972508904,0.240791253991196,0.2803455703817875,0.6291499095210553,11.115439288615562,-1.3816518660072403,0.1990098292251974,-1.0315252050613852
1.66,-0.3087857031637009,0.0572042640487669,1.7248433278124042,-0.0170851199318899,0.1218455090930041,0.0272598986879311,0.3382116549324633,-0.1307795122620666,-0.1925692653355815,-0.3154973601088658,0.0594374292158256,1.7277928005416183,0.3255714489646908,-0.1229768909231669,-0.2229396678874573,0.6346230351485167,-0.0177348126237791,0.3063810921256044,0.5554840227677451,11.016062127825537,-1.396567523575614,0.2019196618227287,-1.0303031203192647
1.68,-0.3024035850909057,0.0547862452303833,1.721276429470501,-0.0193928827196132,0.1127722347949478,0.0274130301457574,0.3333487053685274,-0.1238764229803037,-0.1834414405078646,-0.3089804950430105,0.0568728826536589,1.72328857554387,0.3250278403085377,-0.1124760165528304,-0.2183965038875421,0.6217276457156717,-0.2431474781967951,0.3451544640881446,0.4563912413858492,10.924838347623336,-1.4099547010119466,0.2052281082085656,-1.0270698526932598
1.7,-0.2958274947857571,0.0523983044098531,1.7176967843398985,-0.0217906362424994,0.1036981533488747,0.0275984973646762,0.3242875126497906,-0.1152783660384735,-0.1750565586882281,-0.3024636299771551,0.0543083360914922,1.7187843505461218,0.3244842316523846,-0.1019751421824938,-0.213853339887627,0.7522267606751197,-0.4530596359368422,0.429902847091506,0.4192440909818254,10.924838347623336,-1.420981200458028,0.2083008292325195,-1.0226014117681277
1.72,-0.289470464985545,0.0501915698778729,1.714270874994197,-0.0237846799603985,0.096047314155933,0.0278081274530872,0.311852498839979,-0.1059268110273384,-0.1679489250456828,-0.2959739453441075,0.0522688332478423,1.7145072837483692,0.3239406229962315,-0.0914742678121573,-0.2093101758877119,0.8552771562089289,-0.6217506904905801,0.4675777505567552,0.3553816821272648,10.854414040973095,-1.4286101564149003,0.2107246503740012,-1.0193352491013847
1.74,-0.2836890225577318,0.0482729588300694,1.711141270143596,-0.0251910462144078,0.0907827723809981,0.0280108639827254,0.2972992323634242,-0.096591124817379,-0.1618406810262765,-0.2894842607110597,0.0502293304041925,1.7102302169506167,0.3233970143400785,-0.0809733934418208,-0.2047670118877968,0.9168741014297602,-0.7276633238277375,0.4667843104979745,0.3054122009703119,10.77006371119569,-1.4337949610802934,0.2126898509241447,-1.0175201939545542
1.76,-0.2779263926339551,0.0464503552230336,1.7079682240939436,-0.0259938608919124,0.0882220213442682,0.0282060714966856,0.2797584129673554,-0.0862124915359717,-0.1558039753941189,-0.2830081662944159,0.048452349419801,1.706066729252862,0.3228534056839254,-0.0704725190714842,-0.2002238478878817,1.0628242902342389,-0.8770409698034443,0.518931664070365,0.3018352816078817,10.77006371119569,-1.4337392909353892,0.2137532801319795,-1.018420623050295
1.78,-0.2725135579086965,0.0448412848113419,1.7049130227785043,-0.0258223403543259,0.088966132202879,0.0283869806915239,0.2627787324795365,-0.0752934281767647,-0.1500254409095897,-0.2765456620941758,0.046937890294668,1.7020168206551052,0.3223097970277723,-0.0599716447011477,-0.1956806838879665,1.0499130379461037,-0.8489840243909447,0.5459531679603468,0.2889267242264612,10.759729965035149,-1.4281910817974437,0.2136758364204852,-1.022939555118431
1.8,-0.2674212875832526,0.0434538443602508,1.701972462941339,-0.0244136128260068,0.0922331200223355,0.0285914866511715,0.2476848991213654,-0.0641630886865936,-0.1443228536351976,-0.2593746212847197,0.0410766134025036,1.6974117507330249,0.2715625190371513,-0.0734359068150933,-0.1575231422378374,0.9800864301590412,-0.754691667908551,0.5565169745085551,0.285129363719605,10.7413343023145,-1.4209087840296453,0.2125747125322452,-1.030864649158466
1.82,-0.2628635560441049,0.0424140528392769,1.699259486820921,-0.0194027140723613,0.0974410089945084,0.0290013517184164,0.2333539415878217,-0.0480197860892066,-0.1414660235684982,-0.2593746212847197,0.0410766134025036,1.6974117507330249,0.2715625190371513,-0.0734359068150933,-0.1575231422378374,1.0887424403974444,-0.7165478766771857,0.807165129869351,0.1428415033349672,10.735918866795146,-1.4156296563683788,0.2084279389745422,-1.0457189342939812
1.84,-0.2583257253479039,0.0415566724691419,1.6964598625085094,-0.0113613294528393,0.1047354424163028,0.0296272753757286,0.221591158181436,-0.0390701922165629,-0.1386591008738862,-0.2593746212847197,0.0410766134025036,1.6974117507330249,0.2715625190371513,-0.0734359068150933,-0.1575231422378374,0.7522252305066801,-0.5881391703192836,0.4474796936321842,0.1403461347305984,10.592405296896686,-1.403842290015434,0.2007568759424271,-1.0579872030879554
1.86,-0.2539862248525132,0.0408268329968199,1.6937147588557848,-0.0031405151551012,0.1128664755064969,0.0303103527542905,0.2132653965117928,-0.0344853055998422,-0.1360208118147982,-0.2566589960943482,0.0403422543343527,1.6958365193106464,0.2733192763486742,-0.0730644025427591,-0.159022682503487,0.4932039685241507,-0.4162880834821608,0.2292443308360345,0.1319144529544041,10.566953398578336,-1.3912803300221528,0.1927956775135711,-1.0708121393716696
1.88,-0.2497787978279595,0.0401584311367482,1.6910202929653453,0.0042253620687094,0.1209663630304897,0.0309874770903678,0.2080929631320132,-0.0324736784884393,-0.1335913080083946,-0.2512277457136052,0.0388735361980508,1.6926860564658897,0.2768327909717201,-0.0723213939980905,-0.1620217630347861,0.3029158276193217,-0.2586216689889828,0.1005813555701465,0.1214751903201777,10.559276986142322,-1.3801037805312089,0.1859578860030661,-1.082456702985426
1.9,-0.2458513019430597,0.0395443357678447,1.688503331463418,0.0101597462875257,0.1280493064381368,0.0315936208354889,0.2056763201390451,-0.0320987124406509,-0.1315007435442568,-0.2457964953328621,0.037404818061749,1.689535593621133,0.2803463055947661,-0.0715783854534219,-0.1650208435660852,0.1608665803637557,-0.1208321496484046,0.018748302389419,0.1045282232068886,10.558534700785458,-1.3700031078131534,0.1798463188559801,-1.0936040574905996
1.92,-0.24174549344712,0.0388956921232218,1.685894251165165,0.0152960926905932,0.1344743490657952,0.0321714501343717,0.205123277062986,-0.0326827304995022,-0.1295428115569613,-0.2401895692209668,0.0359732503526805,1.6862351767498112,0.283859820217812,-0.0708353769087534,-0.1680199240973843,0.1058351477997298,-0.0276521538029511,-0.0292009029425655,0.0978965993647759,10.560266153424893,-1.3620041544678023,0.1748847996741682,-1.1032146507455014
1.94,-0.2376337684754066,0.038226771804567,1.6833208815219962,0.0193746336413943,0.1396254596026524,0.0326712547941743,0.2061052757876924,-0.0340614796212535,-0.1279156159828812,-0.2345826431090715,0.0345416826436121,1.6829347598784896,0.2873733348408579,-0.0700923683640848,-0.1710190046286835,0.1173992767477787,0.0490999362353167,-0.0689374560875623,0.0813597787040057,10.56171699697552,-1.3561619132901972,0.170992962525891,-1.1110225500097075
1.96,-0.2334899139620521,0.0375237156233122,1.6807766120399938,0.0224811931041022,0.1433853949799858,0.0330806071214787,0.2081554045718172,-0.0359879563088551,-0.1266005692779924,-0.2288878791316,0.0331286901481604,1.6795593659938854,0.2908868494639038,-0.0693493598194163,-0.1740180851599826,0.1552714421216015,0.1025064392062416,-0.0963238343800833,0.06575233524444,10.556211065947537,-1.352483670947176,0.1682067225549962,-1.1165994874370817
1.98,-0.2295100134180353,0.0368170042824379,1.6783812415553534,0.0246736861048196,0.1457052051830306,0.0333854560404828,0.2105885889643106,-0.0381520242954632,-0.1256101451042576,-0.2231052772885524,0.0317342728663254,1.6761089950959986,0.2944003640869497,-0.0686063512747477,-0.1770171656912817,0.170180173510704,0.1216592196246674,-0.1082033993304035,0.0495212086867383,10.541929780564717,-1.350355653974231,0.1660682713667606,-1.1206317145389846
2.0,-0.2252702860460906,0.0360267230943008,1.6758776966265712,0.0263000774525483,0.1469791974885205,0.0336224438720392,0.2131818852509269,-0.0406983058440652,-0.1248037136680381,-0.2189805839698198,0.0349094030676647,1.6721007343001406,0.2147225636319491,-0.0339709186519524,-0.1354395908463283,0.1861388394200139,0.1296648143308154,-0.127314077430099,0.040321571810975,10.532338518795768,-1.3497403091244458,0.1646308163613732,-1.122843939984131
2.02,-0.2209443046667811,0.0351510445196344,1.673423979081784,0.0262213335219958,0.1463565822732351,0.0336813784229045,0.2193021611810731,-0.0464513974747585,-0.1204128474640688,-0.2189805839698198,0.0349094030676647,1.6721007343001406,0.2147225636319491,-0.0339709186519524,-0.1354395908463283,0.4739080786224313,0.3060137965073137,-0.2876545815346676,0.2195433101984667,10.532338518795768,-1.344167974729329,0.1642726701266985,-1.1200353378595074
2.04,-0.2164981056776891,0.0341675210893775,1.671056847278375,0.0236998741316002,0.1429022082413227,0.0334945588025499,0.2248004905595541,-0.0513687331987525,-0.1165654118178498,-0.2189805839698198,0.0349094030676647,1.6721007343001406,0.2147225636319491,-0.0339709186519524,-0.1354395908463283,0.4159764946139702,0.2749164689240496,-0.2458667861996971,0.1923717823109481,10.778520953254883,-1.3501696624701869,0.1671510124011091,-1.118682418253186
2.06,-0.2119676907961417,0.0331143258205908,1.6687553380179514,0.0196272366725207,0.1370849266247074,0.0331607067879361,0.2274880856772606,-0.0532947427596064,-0.1137303431099979,-0.2168333583335003,0.0345696938811452,1.6707463383916774,0.2155493585654768,-0.0331346975232502,-0.1374054799947424,0.2177745102362846,0.1343797558853207,-0.0963004780426955,0.1417534353925983,10.71064633662172,-1.3606123419508882,0.1715748783703432,-1.1152630961460648
2.08,-0.2076517117008371,0.0321051020106838,1.6666129484116727,0.0156545031679383,0.1305262047607608,0.0328442871587778,0.2264635816319158,-0.052830190170201,-0.1119044557118383,-0.2125389070608613,0.0338902755081061,1.6680375465747508,0.2172029484325322,-0.0314622552658459,-0.1413372582915707,0.1072296884963421,-0.0512252022672396,0.023227629470272,0.0912943699079779,10.63806470088457,-1.371217220542857,0.176210099158744,-1.1090278556707551
2.1,-0.2031637557394002,0.0310664261999898,1.6643871583020098,0.0119141296448833,0.1236142278207308,0.0325730637829292,0.2221859824263286,-0.0510860001001645,-0.110800235257319,-0.2082444557882223,0.0332108571350671,1.6653287547578242,0.2188565382995876,-0.0297898130084416,-0.145269036588399,0.237483456140806,-0.2138799602793589,0.0872095035018248,0.0552110227259664,10.572556997947686,-1.380192046122068,0.1802311413628942,-1.1015414123753335
2.12,-0.1987934029501233,0.0300723835009536,1.6621738536119866,0.0088210713463775,0.1175715268594998,0.0323832155545717,0.2149917787626425,-0.048522794764149,-0.1105712064445922,-0.2038673250222306,0.0326150608748983,1.662423374026056,0.2205101281666431,-0.0281173707510372,-0.1492008148852273,0.38203089582595,-0.359710183184303,0.1281602668007735,0.0114514406363404,10.515541228953223,-1.386719427162497,0.1833263766296996,-1.0944258367957518
2.14,-0.1947997283905843,0.0291802097409444,1.6600704555429615,0.0064821469462899,0.1133762646160726,0.032274009230127,0.2057033336855263,-0.0456340032569078,-0.1108430520932237,-0.1994901942562388,0.0320192646147294,1.6595179932942885,0.2221637180336985,-0.0264449284936329,-0.1531325931820555,0.4865547974781268,-0.464422253855809,0.1444395753620583,-0.0135922824315758,10.46547500792076,-1.3908486705941,0.1858442775863168,-1.0879602611146135
2.16,-0.1908072017400651,0.0283026935287766,1.6578471382550088,0.0045828609465729,0.1114057557057785,0.0322216735564586,0.1940728226924432,-0.0423411526801514,-0.1114887612344106,-0.1950717237435707,0.0314652794109957,1.6565143181050996,0.2238173079007539,-0.0247724862362286,-0.1570643714788838,0.6052449734943823,-0.581525549654159,0.1646425288378213,-0.0322854570593465,10.43958647272757,-1.3899614715635724,0.1875488318814966,-1.0836087990134742
2.18,-0.1870448515392583,0.0274950553475727,1.655607625173626,0.0032335140466961,0.1121206086113547,0.0322207023403915,0.183053668104602,-0.0386104857348527,-0.1124434034603126,-0.1906119134842262,0.0309531052636971,1.6534123484584902,0.2254708977678093,-0.0231000439788243,-0.160996149775712,0.5836329871309546,-0.5509577293920583,0.186533347264934,-0.0477321112951012,10.417783498574863,-1.3842480802619357,0.1885223146581223,-1.082282931685686
2.2,-0.1834860572807375,0.026768090672947,1.6533466449957503,0.0025726113754555,0.1148072460494252,0.0322707470383647,0.1736756162402709,-0.034345424674227,-0.1136100528767343,-0.1778921681340282,0.0255645310608301,1.6499854550006103,0.1838609184306357,-0.0391704477402072,-0.1005630084576495,0.5184102465272714,-0.4689025932165538,0.213253053031287,-0.0583324708210826,10.393231805586764,-1.3776267445559178,0.1888896010703921,-1.083712507167936
2.22,-0.1802327185271338,0.0261871401831486,1.6512662421107551,0.0035747522756822,0.1179809567322047,0.0324301676343424,0.1694477117494592,-0.0272799840540601,-0.1048240180073233,-0.1778921681340282,0.0255645310608301,1.6499854550006103,0.1838609184306357,-0.0391704477402072,-0.1005630084576495,0.6020590425096126,-0.211395224540585,0.353272031008345,0.4393017434705513,10.377832390590813,-1.360993821105511,0.1869150944629989,-1.0879116089853011
2.24,-0.1768789878630512,0.0257071556534104,1.6492706860686903,0.0069635881896683,0.1209566508849482,0.0327587914214105,0.1661955142843214,-0.0216334767414081,-0.0953182043805942,-0.1778921681340282,0.0255645310608301,1.6499854550006103,0.1838609184306357,-0.0391704477402072,-0.1005630084576495,0.5762385050701391,-0.1626098732568887,0.2823253656325958,0.4752906813364516,11.055734833087628,-1.358267988246696,0.1839279570078023,-1.1000929098558732
2.26,-0.1735818723263517,0.0253014835031137,1.6474516836197952,0.011256393005164,0.1234395186635367,0.0331471974924393,0.1636931873686971,-0.0194035782165545,-0.0870751478838716,-0.1760535589497218,0.025172826583428,1.648979824916034,0.1840223684958424,-0.0392824401412781,-0.0981869294571169,0.4449215319355865,-0.125116345781219,0.1114949262426818,0.4121528248361309,11.00294835314162,-1.3556843683096396,0.1798913186037332,-1.1102923954151576
2.28,-0.1703293976507507,0.0249167814241712,1.645787628887188,0.0153332848356935,0.1253784466121122,0.0335121433796165,0.1616848408140379,-0.0191840973236372,-0.0797939413283119,-0.1723763405811091,0.0243894176286239,1.6469685647468808,0.1843452686262559,-0.0395064249434198,-0.0934347714560516,0.3778147583495544,-0.1004173277329573,0.0109740446458637,0.3640603277779861,10.89530942932288,-1.353415261231165,0.176127016894245,-1.118187192848895
2.3000000000000003,-0.1672734390700135,0.0245425963810982,1.6443331747038743,0.018616716746519,0.1267010195105807,0.0338047758827764,0.1600674463577497,-0.0201019207134585,-0.0736771092759933,-0.1686991222124964,0.0236060086738197,1.644957304577728,0.1846681687566694,-0.0397304097455616,-0.0886826134549864,0.3196638819072567,-0.0808697228144098,-0.0458911694910645,0.3058416026159284,10.89530942932288,-1.3514258768696892,0.1726902389714174,-1.1247556266919028
2.32,-0.1640887519614898,0.0241233929024128,1.642921966452279,0.0213942065741831,0.127596205634756,0.0340485941335815,0.1584642443717947,-0.0216930998549307,-0.0677935466510869,-0.1650057588373631,0.0228114004789085,1.6431836523086285,0.1849910688870828,-0.0399543945477034,-0.0839304554539211,0.3151127450184354,-0.0801600992977505,-0.0795589570736091,0.2941781312453185,10.858127586320734,-1.3497953127274145,0.169891188591865,-1.129836742500457
2.34,-0.1609353753946523,0.0236665328766878,1.6416267139248573,0.0234809638309945,0.1280513124182516,0.0342257259188914,0.1569134768109659,-0.0237671640956669,-0.0620295378002411,-0.1613123954622297,0.0220167922839972,1.6414100000395284,0.1853139690174963,-0.0401783793498452,-0.0791782974528558,0.3159526093223834,-0.077538378041439,-0.1037032120368083,0.2882004425422944,10.832508723304272,-1.3482142306592295,0.1677196829606135,-1.1337125627371358
2.36,-0.1578136191203702,0.0231640764846355,1.640445911913284,0.0249187196968747,0.1281585009617119,0.0343399673862027,0.1553034605502981,-0.0262770879602597,-0.056343743434684,-0.1576109595838359,0.0212165844690325,1.6397551517204554,0.1856368691479098,-0.040402364151987,-0.0744261394517906,0.3210145157662931,-0.0805008130333934,-0.125496193229639,0.2842897182778501,10.834326107884408,-1.3469763264169878,0.1662397805047223,-1.136589458085021
2.38,-0.1548789905034136,0.0226357109065129,1.6394284082017003,0.025589488788507,0.1280248951011329,0.034385903439346,0.1536577868292091,-0.0291306815792336,-0.0510489488195156,-0.1539014512021819,0.0204107770340141,1.6382191073514087,0.1859597692783232,-0.0406263489541288,-0.0696739814507253,0.3117935557197576,-0.0822836860544462,-0.1426796809486952,0.2647397307584214,10.834871856500286,-1.3458442547764435,0.1653978323450605,-1.1389153634355664
2.4,-0.1518253891849378,0.0220184968463464,1.6384651435439317,0.0254277542629965,0.1277230983527925,0.0343623613840035,0.1517663283152737,-0.032376294679534,-0.0455605299774823,-0.1471961011619531,0.0211791768275513,1.6368759607607246,0.1568394734540937,-0.0175007993106259,-0.0554892624902999,0.3325445875832568,-0.0945729256967717,-0.1622806550150242,0.274420942101666,10.83248753589396,-1.3447351486929138,0.1654474291337628,-1.140670409234512
2.42,-0.1488249826916517,0.0212881487051443,1.6375696226246068,0.0227079880335674,0.1276225841917801,0.0341614025001334,0.148425939485212,-0.039560387478874,-0.044234408214365,-0.1471961011619531,0.0211791768275513,1.6368759607607246,0.1568394734540937,-0.0175007993106259,-0.0554892624902999,0.4016465666980823,-0.1670194415030843,-0.3592046399669993,0.0663060881558649,10.830655779550398,-1.3462927156982731,0.1681565438275686,-1.1399921836657052
2.44,-0.1460371537394331,0.0205060158360845,1.63673884485653,0.0179253779759528,0.1279306266084171,0.0338273092108118,0.1452428669441471,-0.0419252273450631,-0.0432625183273497,-0.1471961011619531,0.0211791768275513,1.6368759607607246,0.1568394734540937,-0.0175007993106259,-0.0554892624902999,0.2041383620665249,-0.1591536270532476,-0.1182419933094529,0.0485944943507666,10.583488868263885,-1.343807054121222,0.1731258642981581,-1.13908489291
2.46,-0.1431658232583747,0.0196736129191916,1.6358834324437974,0.0125972067515356,0.1285644701741835,0.0334625309982269,0.142103434626835,-0.0410840333540441,-0.0423393757668907,-0.1456277064274122,0.021004168834445,1.6363210681358216,0.1574758107790707,-0.0151748228569044,-0.0563773252244567,0.1689366359943902,-0.1569716158656017,0.0420596995509479,0.0461571280229507,10.566210182985742,-1.3417755844205328,0.1785258399920065,-1.1391361431092697
2.48,-0.1403545291956332,0.0188804428460551,1.6350448641315516,0.0077925282343032,0.129404754125998,0.0331380390077661,0.1392273111755375,-0.0383013334052384,-0.041575777867724,-0.1424909169583303,0.0206541528482325,1.6352112828860157,0.1587484854290245,-0.0105228699494614,-0.0581534506927704,0.2037068166741046,-0.1438061725648767,0.1391349974402881,0.038179894958331,10.55703371144591,-1.3402478483958538,0.1832351853546985,-1.1401125531269702
2.5,-0.1375976806510137,0.0181562629222752,1.6342199352380573,0.0037915408176818,0.1303577062827738,0.0328710627628467,0.1366416099734784,-0.0343361064103864,-0.0409661280790094,-0.1393541274892484,0.02030413686202,1.6341014976362096,0.1600211600789783,-0.0058709170420183,-0.0599295761610841,0.2386448652910453,-0.1292850601029543,0.1982613497425986,0.0304824894357336,10.54907995388021,-1.3389183936775908,0.187447629276988,-1.1417721779853722
2.52,-0.1350238156399638,0.0175500440399413,1.6334462253616129,0.0007939774696019,0.1312959311014859,0.0326739330892665,0.1344528103395748,-0.0298315391792413,-0.040512627889652,-0.1361537042876688,0.0201867185211796,1.6329029061129878,0.1612938347289322,-0.0012189641345753,-0.0617057016293978,0.2514340480077742,-0.1094399816951807,0.2252283615572566,0.0226750094678686,10.543425261184892,-1.337858490751776,0.1908135719761864,-1.1438234778876304
2.54,-0.132356824227867,0.0170077622306953,1.632638698888507,-0.0016289443070543,0.1322613345152629,0.0325178554176609,0.1323887847757251,-0.024724056625554,-0.0402786914976285,-0.1329532810860892,0.0200693001803392,1.631704314589766,0.162566509378886,0.0034329887728677,-0.0634818270977115,0.2756868957710813,-0.1032012781924843,0.2553741276843645,0.0116968196011733,10.539677809772911,-1.337177826869726,0.1934417610300661,-1.146125988870094
2.56,-0.1297286432279057,0.0165733378451079,1.6318332057082463,-0.0033291847371991,0.1331548056684049,0.0324127322621896,0.1305516412785468,-0.019127196784402,-0.040286109373602,-0.1297210410182608,0.0200681806621849,1.6304613199298366,0.1638391840288399,0.0080849416803107,-0.0652579525660252,0.2945334927287904,-0.0918571748589155,0.2798429920575985,-0.0003708937986759,10.51884382669232,-1.336784299453456,0.1953514606424612,-1.1486227305254375
2.58,-0.1271352996926646,0.0162556310558753,1.6310255504786622,-0.0042637394790622,0.1339408649512047,0.0323616947115949,0.1288850833144184,-0.0130308529666595,-0.0404835506033676,-0.1264569840841836,0.0201833599667167,1.6291739221331991,0.1651118586787937,0.0127368945877538,-0.0670340780343389,0.3161558414419184,-0.08332789820642,0.3048171908871275,-0.0098720614882804,10.51884382669232,-1.3367300530333148,0.1964603493962459,-1.1512742223073849
2.6,-0.1247013102586017,0.0160708799969924,1.630253124064936,-0.0042778206955925,0.1345742056790721,0.0323744581605186,0.1274128797747999,-0.0068337464564246,-0.0408178733661892,-0.1206910455269437,0.0156040884075423,1.6290013729484938,0.1363823576312657,-0.0138882452926568,-0.0515401777502673,0.3189172465977711,-0.0736101769809219,0.3098553255117448,-0.0167161381410776,10.511891339638169,-1.336958311981639,0.1966909405524138,-1.1541370117393928
2.62,-0.1221735320959239,0.0160612824084437,1.6294415945778162,-0.0013924736916752,0.1352613100646093,0.0325880539612124,0.1254973610256429,0.0047561823247452,-0.0402618110473778,-0.1206910455269437,0.0156040884075423,1.6290013729484938,0.1363823576312657,-0.0138882452926568,-0.0515401777502673,0.5880154473595139,-0.0957759374578537,0.5794964390584932,0.0278031159405677,10.506775870713682,-1.337797282071978,0.1939872912246089,-1.16034086311709
2.64,-0.1196817517676771,0.0162280814651399,1.6286377727581691,0.0044396383979085,0.1361026087128492,0.0330010898084946,0.1238448584969684,0.0106874356290423,-0.0401540659093544,-0.1206910455269437,0.0156040884075423,1.6290013729484938,0.1363823576312657,-0.0138882452926568,-0.0515401777502673,0.3079047717305543,-0.0826251264337225,0.2965626652148529,0.0053872569011705,10.57596017844935,-1.337935339666111,0.1879543717707519,-1.1635086289118466
