t,x,y,z,roll,pitch,yaw,v_x,v_y,v_z,ref_x,ref_y,ref_z,ref_v_x,ref_v_y,ref_v_z,a_com,a_x,a_y,a_z,thrust,wind_x,wind_y,wind_z
0.0,-1.6569145776478016,1.520493583515084,3.02852607312163,0.0133721768888349,0.1498666811329454,0.0281554382521432,0.0013232033519415,0.0042301498138328,-0.0031742337952666,-1.6568694066045533,1.520514767634747,3.0284313643332266,-0.0051100181282856,-0.098362502990443,-0.1031608374880923,0.2725839079305329,0.0661601675970763,0.2115074906916422,-0.1587116897633343,10.658424501838454,-1.413512189625073,0.1794526547162632,-1.2790285315241
0.02,-1.6569691710602814,1.5208375341417173,3.028224250644791,0.0226823349452871,0.1510647842149385,0.028832599653959,-0.0062358739837748,0.0244833636138828,-0.0270663679829065,-1.6568694066045533,1.520514767634747,3.0284313643332266,-0.0051100181282856,-0.098362502990443,-0.1031608374880923,1.6110294809826309,-0.3779538667858212,1.0126606900025,-1.194606709381992,9.243549071520192,-1.4080028075724298,0.1689973664039638,-1.2769625955281063
0.04,-1.6571554893477976,1.5213257723672726,3.0274372908734883,0.0369836357658933,0.1540553614183415,0.0299066472605393,-0.0126801934249705,0.025423236043526,-0.0545405548416635,-1.6568694066045533,1.520514767634747,3.0284313643332266,-0.0051100181282856,-0.098362502990443,-0.1031608374880923,1.4117750854811075,-0.3222159720597847,0.0469936214821626,-1.373709342937853,9.033764707912267,-1.4012005720885723,0.1512447467233841,-1.2786941460188526
0.06,-1.6574614657347575,1.521787911931016,3.026042603180392,0.0523694834704955,0.158563862706248,0.0311441990924672,-0.0173163737147769,0.0203771166997339,-0.0834834474373882,-1.656920506785836,1.5195311426048426,3.0273997559583457,-0.0064235382580557,-0.1183625032884662,-0.1231608377861155,1.4871520768897788,-0.23180901449032,-0.252305967189605,-1.447144629786231,9.033764707912267,-1.3932608449926422,0.1331132583797859,-1.2814366345477757
0.08,-1.6578362651670429,1.5221118121651416,3.024075797614618,0.0671829921150807,0.1637855366478498,0.0324272126493429,-0.0197133052048428,0.0119478775906946,-0.1117400787137282,-1.6570227071484018,1.517563892545034,3.025336539208584,-0.0090505785175958,-0.1583625038845127,-0.1631608383821619,1.4792181749259186,-0.1198465745032911,-0.4214619554519669,-1.4128315638170026,9.05606088496097,-1.384597769221623,0.1157168207595242,-1.2837101533100377
0.1,-1.6582358481209534,1.522237236202013,3.021552564330688,0.0812918169479567,0.1691490667106821,0.0337203911845559,-0.0199743029491151,0.0007177065050587,-0.1392083114040509,-1.6571249075109675,1.515596642485225,3.023273322458822,-0.0116776187771358,-0.1983625044805592,-0.2031608389782084,1.4838199600733897,-0.0130498872136168,-0.5615085542817942,-1.3734116345161334,9.16177791199152,-1.3764134074144176,0.1000316880414537,-1.2851704114820657
0.12,-1.65860194788546,1.5221235957343784,3.0186527361369904,0.0940441182674514,0.1739797517078351,0.0349219765077951,-0.0184674421161998,-0.0123662804675824,-0.1646890679489855,-1.6573584598865103,1.511629392395614,3.019210105679258,-0.0143046590366759,-0.2383625050766056,-0.2431608395742548,1.4341637796746272,0.0753430416457647,-0.6541993486320589,-1.2740378272467294,9.16177791199152,-1.3689955606145283,0.084523647965154,-1.2845890915224991
0.14,-1.6589432185572686,1.5217113117522356,3.015071040920273,0.1068040495328959,0.1785263776690366,0.0361205175060773,-0.0156621216391171,-0.028443524016608,-0.1921972516960149,-1.6575920122620529,1.5076621423060026,3.015146888899694,-0.016931699296216,-0.2783625056726521,-0.2831608401703013,1.5992558864782698,0.1402660238541355,-0.803862177451282,-1.37540918735147,9.21053291323824,-1.3628185895688218,0.0697623872310826,-1.2855358613108716
0.16,-1.6592153104905494,1.520953410263063,3.0109359510119207,0.1189077107598337,0.1823355289023412,0.037211805136415,-0.0116746932888047,-0.0467998930611278,-0.2199591659155067,-1.6578912406440842,1.5026948922014902,3.0100836721052286,-0.0195587395557561,-0.3183625062686985,-0.3231608407663477,1.675992057318516,0.1993714175156198,-0.9178184522259892,-1.3880957109745906,9.185165638921715,-1.357033647831556,0.0557907999405522,-1.284527599645762
0.18,-1.6593909723695743,1.5198724675392268,3.00649367296847,0.1298209593284804,0.1851802443305531,0.0381180271533817,-0.0070277858750232,-0.0662790946657752,-0.2462794032705343,-1.658256145032604,1.4967276420820768,3.004020455295862,-0.0221857798152962,-0.3583625068647449,-0.3631608413623942,1.6536232476683916,0.232345370689074,-0.9739600802323688,-1.3160118677513792,9.191493410204204,-1.3513289874876708,0.0431678399792827,-1.2818022895164658
0.2,-1.6594748925250895,1.518313682337722,3.0012761721186325,0.1407177190490302,0.1873681268889561,0.0389144547206488,-0.0016108915232348,-0.0888099502109476,-0.2741024140359211,-1.6597423616633256,1.516558512805938,2.9941797028049435,-0.0162791140602239,-0.1662790961558913,-0.3462794047606504,1.8104572102556664,0.2708447175894197,-1.1265427772586198,-1.3911505382693394,9.209740783856432,-1.3466612755279703,0.030632975393993,-1.2776849619572517
0.22,-1.6593972466489353,1.5161199338125102,2.995634514872337,0.1463851946233245,0.1883051969298702,0.0391391979597659,0.0091860546996194,-0.1274603724240703,-0.2875490377296704,-1.6597423616633256,1.516558512805938,2.9941797028049435,-0.0162791140602239,-0.1662790961558913,-0.3462794047606504,2.1161526845629317,0.5398473111427183,-1.9325211106561373,-0.6723311846874636,9.21564763628703,-1.3424747487175177,0.0245245030657798,-1.268976952143612
0.24,-1.6590992194940737,1.513222683674446,2.9897470211739794,0.1461275529620097,0.1874651049619789,0.0386544967552305,0.0199165410110966,-0.1596871060524728,-0.3004857376556359,-1.6597423616633256,1.516558512805938,2.9941797028049435,-0.0162791140602239,-0.1662790961558913,-0.3462794047606504,1.817322138347575,0.5365243155738558,-1.6113366814201224,-0.6468349962982789,10.234515415210808,-1.3434422423719248,0.024713059924319,-1.2615542986407726
0.26,-1.6586252447735106,1.509902087270682,2.98389274171086,0.1428867596329692,0.1850010684137709,0.0377209902892015,0.0293132688164977,-0.1876230060849398,-0.3149690644278697,-1.6599051528039277,1.514895721844379,2.990716908757337,-0.018129379697264,-0.1862790964539145,-0.3662794050586737,1.6420107783325424,0.4698363902700564,-1.3967950016233537,-0.7241663386116898,10.0901336203533,-1.3466467154685622,0.0285556176138434,-1.2515815911829238
0.28,-1.6579473904257842,1.505881329869592,2.977415818980357,0.1380579543248424,0.1806510643825511,0.0363876318079759,0.0377364132735867,-0.2126961898014642,-0.3319878764684705,-1.6602307350851322,1.511570139921261,2.983791320662124,-0.0218299109713443,-0.226279097049961,-0.4062794056547201,1.572620319324462,0.4211572228544517,-1.2536591858262185,-0.850940602030037,9.923584215834126,-1.3525237075298546,0.0340472499431076,-1.2386446364394224
0.3,-1.6571295352736215,1.5013882244345949,2.970578352142664,0.1331599520137415,0.1749607847855306,0.0348796431269426,0.043343208896609,-0.2353068278781543,-0.3508264073682196,-1.660556317366337,1.5082445579981434,2.976865732566911,-0.0255304422454246,-0.2662790976460074,-0.4462794062507665,1.4979714265083734,0.2803397811511138,-1.1305319038345072,-0.9419265449874537,9.76682436772353,-1.3593191818887471,0.0392538349795212,-1.223961853418935
0.32,-1.656230591117578,1.4964601675817668,2.9633481059088176,0.1286808492005033,0.1687928377207277,0.0333598639808392,0.0460951571122959,-0.2563970081574108,-0.3712079167615036,-1.6610669262112452,1.5029189760452233,2.967940144441896,-0.0292309735195049,-0.3062790982420538,-0.486279406846813,1.472900920243692,0.1375974107843444,-1.0545090139628233,-1.0190754696642017,9.633752186705353,-1.365533450933614,0.0440482607938888,-1.2078820481002737
0.34,-1.6553485771998055,1.4913983147662346,2.956094282550067,0.1249753294858504,0.1631104376918662,0.0319977569110789,0.0465291731464125,-0.2754483958017001,-0.3913071421953772,-1.6615775350561537,1.497593394092303,2.95901455631688,-0.0329315047935852,-0.3462790988381004,-0.5262794074428595,1.3848489124562644,0.0217008017058289,-0.9525693822144632,-1.00496127169368,9.5169274828977,-1.370444225967172,0.0480431799391748,-1.191916714973301
0.36,-1.654430786721255,1.485678936827196,2.9480379977104487,0.1214459700265959,0.1577762486227159,0.0306883500300017,0.0451015387863003,-0.2954012314587776,-0.413270454263747,-1.6621806571829143,1.4912678121244818,2.949088968176964,-0.0366320360676654,-0.3862790994341468,-0.5662794080389059,1.4853794697291314,-0.0713817180056107,-0.997641782853878,-1.098165603418491,9.387267576363229,-1.3742618293580884,0.0514954047666414,-1.1773824416782122
0.38,-1.653562247456653,1.4795636201543505,2.939534701274292,0.1180000024197263,0.1535903953656276,0.0295389889243897,0.0417570694765498,-0.3149794582671617,-0.4359085901814499,-1.6628762925915268,1.4839422301417593,2.938163380022146,-0.0403325673417457,-0.4262791000301932,-0.6062794086349523,1.5058034713673454,-0.1672234654875221,-0.9789113404192028,-1.131906795885143,9.387267576363229,-1.3765354565498538,0.0546716045594531,-1.1648135377709
0.4,-1.6528155434694156,1.4733971808091368,2.9310313648253112,0.1147098145076275,0.1511882477420216,0.0286420380932013,0.0369884965161862,-0.3329943606539517,-0.4580090803052826,-1.6514743939828254,1.463814647240992,2.91773927176522,0.044801716408362,-0.4149794597572778,-0.535908591671566,1.4454304374454634,-0.2384286480181799,-0.9007451193395022,-1.1050245061916375,9.33848410702558,-1.376801236876933,0.057988631224187,-1.1538977310773786
0.42,-1.652144503997941,1.466532174085729,2.9218483461462403,0.1116812480299812,0.1520901232286139,0.0281246918793144,0.0309993075446353,-0.3527613998278989,-0.4580311564628886,-1.6514743939828254,1.463814647240992,2.91773927176522,0.044801716408362,-0.4149794597572778,-0.535908591671566,1.0327229899615429,-0.2994594485775438,-0.9883519586973588,-0.0011038078802982,9.290208961252574,-1.3729009482451011,0.0614419966492134,-1.1402924860252095
0.44,-1.6515568568069314,1.4592830958585967,2.9126630798672437,0.1095224228398905,0.1567204114414125,0.0280781963748934,0.0284773467014268,-0.371270060318867,-0.4609337158366355,-1.6514743939828254,1.463814647240992,2.91773927176522,0.044801716408362,-0.4149794597572778,-0.535908591671566,0.9451926398659783,-0.1260980421604267,-0.9254330245484056,-0.1451279686873446,10.34929063812706,-1.3650941057375057,0.0629034955126619,-1.1468250332416552
0.46,-1.6509912437127612,1.4516666130661584,2.9033577073550645,0.107999065376347,0.1632166659672569,0.0282683045265481,0.0285572517607998,-0.3894781274041501,-0.4694591143577235,-1.6510263768187416,1.4596648526434193,2.912380185848504,0.0454106457947244,-0.434979460055301,-0.5559085919695892,1.0052642833405183,0.0039952529686486,-0.9104033542641526,-0.4262699260543984,10.05856407223473,-1.3560289742232836,0.0638470286612834,-1.1540955615949673
0.48,-1.6504319531598473,1.4440990626553956,2.8943209227907207,0.1068905753847069,0.1701585920384648,0.0285439218313499,0.0305561330907316,-0.4061899065701116,-0.4813660467664661,-1.6501303424905744,1.451365263448274,2.9016620140150726,0.0466285045674493,-0.4749794606513475,-0.5959085925656357,1.0308420451860951,0.0999440664965907,-0.8355889582980752,-0.5953466204371316,9.847930000860288,-1.345603448747734,0.0645839469308781,-1.161649548525472
0.5,-1.6497841064266472,1.4357987563585646,2.88453239344198,0.1061429975785111,0.1777128304554883,0.0288784847059979,0.0343400428757632,-0.4229531341218644,-0.4970154035537064,-1.6492343081624072,1.4430656742531285,2.8909438421816414,0.0478463633401741,-0.5149794612473939,-0.6359085931616821,1.162138265297472,0.189195489251579,-0.8381613775876429,-0.7824678393620138,9.847930000860288,-1.334800963251634,0.0649375731896615,-1.1686238505504971
0.52,-1.6490445591825167,1.427168961888173,2.8744014154224637,0.1059381065215104,0.1851947995141696,0.0292346097752605,0.0396350833873443,-0.4392205803851881,-0.5153131986631558,-1.6482773808956035,1.4327660850281805,2.878225670318408,0.049064222112899,-0.5549794618434404,-0.6759085937577286,1.2524741193102569,0.2647520255790587,-0.813372313166183,-0.9148897554724728,9.679965479645944,-1.3244875324743974,0.0647600487676905,-1.1747050463258863
0.54,-1.648221542012238,1.4186719351392971,2.864427066268375,0.1062893142859064,0.1918327993334488,0.029556038223832,0.0468208870143456,-0.4544362409759977,-0.5337171526447079,-1.6473204536288002,1.4224664958032325,2.865507498455174,0.0502820808856239,-0.5949794624394869,-0.7159085943537751,1.24685366336193,0.3592901813500651,-0.7607830295404794,-0.9201976990776016,9.55738187746374,-1.3137489046904516,0.0639494541166319,-1.1799344925459463
0.56,-1.6471887095218682,1.4094070012974436,2.853540193289982,0.1069811282306106,0.1978616930948545,0.0298111430539239,0.0561592483885876,-0.47123166126304,-0.5540382483903801,-1.6463330798926787,1.4111669065633834,2.8517893265770398,0.0514999396583487,-0.6349794630355332,-0.7559085949498214,1.3984259616432169,0.4669180687120977,-0.8397710143521142,-1.01605478728361,9.516938922311056,-1.3044257345643,0.0627887342493715,-1.1835790717842072
0.58,-1.6459535584265792,1.399797030681205,2.842239071696871,0.107490454063893,0.202617701733642,0.0299119704614314,0.0669006566384534,-0.4888594674804532,-0.5750687048311077,-1.645315259687239,1.3988673173086332,2.8370711546840037,0.0527177984310736,-0.6749794636315797,-0.7959085955458679,1.4734292495181949,0.5370704124932901,-0.8813903108706611,-1.0515228220363826,9.482037739009684,-1.2970011245740705,0.0618093973356882,-1.1856519741703382
0.6,-1.6444937602401537,1.3898273283100258,2.830510623465392,0.1073485503748793,0.2059641601138867,0.0298076180749259,0.0785035978384684,-0.507129132228185,-0.5967237726885157,-1.6426085255946563,1.3753540573071827,2.813485636455316,0.0729271323287586,-0.5888594689705693,-0.6750687063212238,1.530809310785037,0.5801470600007484,-0.9134832373865892,-1.0827533928704005,9.460409154417905,-1.2916426244982775,0.0615111682449327,-1.185657109013428
0.62,-1.642836499796106,1.37996539665689,2.8192143481776646,0.1055426731849807,0.2079434002819248,0.0294535222257397,0.0952922928054815,-0.5295791268200255,-0.5912119664634451,-1.6426085255946563,1.3753540573071827,2.813485636455316,0.0729271323287586,-0.5888594689705693,-0.6750687063212238,1.4284979381607508,0.8394347483506558,-1.1224997295920247,0.2755903112535318,9.436590167564646,-1.2877944573123656,0.0635431773846611,-1.1760294214471976
0.64,-1.6407489887737696,1.3691600893365763,2.807417835999431,0.10206305111503,0.2089091308275951,0.0288449888394609,0.11242063781351,-0.5493660326787709,-0.589029187654967,-1.6426085255946563,1.3753540573071827,2.813485636455316,0.0729271323287586,-0.5888594689705693,-0.6750687063212238,1.3130749878659354,0.8564172504014256,-0.9893452929372716,0.1091389404239029,10.741962604436594,-1.2868523072135558,0.0666799068613066,-1.175750439880747
0.66,-1.6383270544168371,1.35798760513588,2.7956004956812697,0.098293513308397,0.2085448546757312,0.0280793324602549,0.1287999377180735,-0.5667596795046128,-0.5927451586105709,-1.641879254271369,1.3694654626174771,2.806734949392103,0.0741324274668197,-0.6088594692685925,-0.695068706619247,1.2089549778720503,0.818964995228174,-0.869682341292094,-0.1857985477801915,10.404805621432388,-1.2872236966556592,0.0700503557694969,-1.1740335514085798
0.68,-1.635729634473815,1.3470681398931506,2.784261276209391,0.0947949017148965,0.2066755865769425,0.0272137289320329,0.1436891828691519,-0.5817447355233227,-0.6006254174495107,-1.6404207116247935,1.3576882732380655,2.793233575265679,0.0765430177429418,-0.6488594698646389,-0.7350687072152935,1.127319835296838,0.7444622575539211,-0.749252800935496,-0.3940129419469917,10.404805621432388,-1.288990234031818,0.0731324423720877,-1.1697598522421973
0.7000000000000001,-1.6327002002544375,1.3352809170932043,2.772126976523081,0.0914193042045813,0.2028211555115551,0.0261587895688086,0.1583163271191,-0.5961765592371848,-0.6125215362781381,-1.6389621689782186,1.3459110838586543,2.7797322011392542,0.0789536080190639,-0.6888594704606854,-0.77506870781134,1.1871694569453886,0.7313572124974022,-0.7215911856931045,-0.59480594143137,10.13552017613256,-1.2929963111145493,0.0760398395233133,-1.1619636603565373
0.72,-1.629399276862439,1.323214829431571,2.7597226065002225,0.0884540738553862,0.1970461446094465,0.0249770712991993,0.1706252161030058,-0.6097223119832338,-0.6273801754303525,-1.6373830968178371,1.3321338944494403,2.764230826983028,0.081364198295186,-0.7288594710567319,-0.8150687084073864,1.1787443774319033,0.6154444491952904,-0.6772876373024483,-0.7429319576107207,9.910268333865131,-1.300106975832655,0.0785838926765541,-1.1505590987617498
0.74,-1.6258842322377578,1.3108849809386272,2.7470041293710645,0.085926260035253,0.1900856720400033,0.0237451064268587,0.1799688027609372,-0.6226511794527023,-0.6436539392429093,-1.635804024657456,1.318356705040227,2.7487294528268005,0.0837747885713081,-0.7688594716527783,-0.8550687090034329,1.1394007353695164,0.4671793328965737,-0.6464433734734265,-0.813688190627837,9.726848125268589,-1.307413290866711,0.0804976074730966,-1.1380198869908371
0.76,-1.6223975221682658,1.2989283120447508,2.734610251550817,0.0836531081706024,0.183018951682327,0.0225680861202296,0.186379690912846,-0.6351777938443784,-0.6600922818205793,-1.6341646877401717,1.303579515616112,2.7322280786556727,0.0861853788474301,-0.8088594722488247,-0.8950687095994793,1.0819365296944097,0.3205444075954397,-0.6263307195838064,-0.8219171288835037,9.63391479873644,-1.3150927787396307,0.0822803277600659,-1.1245568533273935
0.78,-1.6186212474262245,1.2860894815758994,2.72121516890659,0.0811912275535003,0.1756026083304758,0.0213529005179804,0.1907020476484804,-0.6479293967708667,-0.6785721890197652,-1.6324650860659842,1.287802326177096,2.714726704469644,0.0885959691235522,-0.8488594728448712,-0.9350687101955256,1.1432334790359218,0.2161178367817207,-0.6375801463244124,-0.9239953599592954,9.466016673811282,-1.3217421151177888,0.0840384233416552,-1.1114091778439712
0.8,-1.6147820865615494,1.2730001510341913,2.7074378009963285,0.0786077255438787,0.1685908847816664,0.0201911408705696,0.1928417367506344,-0.6602294946704218,-0.6982586405723274,-1.6090861450438003,1.253693011737356,2.6872865594556017,0.2050359607512265,-0.7479293982609828,-0.7785721905098814,1.1655760941739233,0.1069844551076962,-0.6150048949777553,-0.9843225776281106,9.382553225759692,-1.3271704031493778,0.0858519579719865,-1.0990366460668708
0.8200000000000001,-1.610938251732133,1.2596401578772085,2.69359270920458,0.0757605022319726,0.1646074094886378,0.0192755515096244,0.1915045853613173,-0.6748743261369682,-0.6852498561307163,-1.6090861450438003,1.253693011737356,2.6872865594556017,0.2050359607512265,-0.7479293982609828,-0.7785721905098814,0.9816918243137754,-0.0668575694658529,-0.7322415733273191,0.6504392220805566,9.382553225759692,-1.334613677034877,0.0887175148457926,-1.0792738151570114
0.84,-1.6073168713357795,1.2467002915138825,2.680642031592288,0.0732301479311102,0.1656116155576574,0.0187976854879974,0.1903462780436831,-0.6865548955242984,-0.6787619703018237,-1.6090861450438003,1.253693011737356,2.6872865594556017,0.2050359607512265,-0.7479293982609828,-0.7785721905098814,0.6705781825840025,-0.0579153658817083,-0.5840284693665099,0.3243942914446296,11.379059770692038,-1.3324810583951234,0.0905712125688955,-1.0826064735012275
0.86,-1.603498340110091,1.2328504885864615,2.6670734651228747,0.0710288220814588,0.1698414347114007,0.0185646445157624,0.1919142582010612,-0.6978188916091209,-0.6787558088308451,-1.607035785436288,1.2462137177547463,2.6795008375505027,0.2079027433717757,-0.767929398559006,-0.7985721908079045,0.5686303886017554,0.0783990078689025,-0.5631998042411268,0.0003080735489324,10.829938668640352,-1.3264042728833447,0.0920485853655714,-1.0893296286352363
0.88,-1.5996259959903223,1.21878416227398,2.653438750758103,0.0692575862041587,0.1757213581361371,0.0184791937252294,0.1955524962911479,-0.7083092862254163,-0.6847184445717553,-1.6029350662212636,1.231255129789527,2.663929393740305,0.213636308612874,-0.8079293991550525,-0.838572191403951,0.6301551011150711,0.1819119045043352,-0.5245197308147709,-0.2981317870455136,10.411612516077184,-1.3189486283902825,0.0931277120061765,-1.0972851805900548
0.9,-1.5958632459886706,1.205233960057024,2.6403339009187663,0.0679640294626122,0.1819897288389534,0.0184719962487013,0.2005642057875784,-0.7175407185734335,-0.6944585641174069,-1.598834347006239,1.216296541824307,2.648357949930108,0.2193698738539725,-0.8479293997510989,-0.8785721919999975,0.7162515340929688,0.2505854748215227,-0.4615716174008577,-0.4870059772825785,10.104745513019225,-1.310094437320295,0.0939185630919224,-1.1057632277432206
0.92,-1.591780067345143,1.1907902619433282,2.626304895964197,0.0671982929243561,0.1886616219823228,0.0185122541451098,0.2076570295152575,-0.7263704854916275,-0.7080974132387033,-1.5944469495291596,1.199337953829285,2.630786506090108,0.2251034390950709,-0.8879294003471454,-0.918572192596044,0.8864129083207356,0.3546411863839555,-0.4414883459097019,-0.6819424560648213,9.880084758846351,-1.3007451078646282,0.0941184501369438,-1.1138227051922338
0.94,-1.587534752310249,1.1761758204535224,2.6119847151767246,0.067279266532762,0.1948330802154652,0.0185829312070608,0.2166367774037023,-0.734693538374844,-0.7232987776235861,-1.5900595520520802,1.182379365834263,2.613215062250108,0.2308370043361693,-0.927929400943192,-0.9585721931920904,0.9759489748429834,0.4489873944222414,-0.4161526441608221,-0.7600682192441366,9.641940741343204,-1.291895328514332,0.0935048358964952,-1.1202586701621948
0.96,-1.5830908106683663,1.1613871085228216,2.5973487191145197,0.0680367347495906,0.2000371495995441,0.0186439952188988,0.2273120950605455,-0.7437490280986608,-0.7395432896172439,-1.585528815443973,1.1644207778243398,2.594643618395206,0.2365705695772677,-0.9679294015392385,-0.9985721937881368,1.0722038881723412,0.5337658828421604,-0.4527744861908434,-0.812225599682892,9.641940741343204,-1.2845523317987178,0.0922902010371411,-1.1250714113708506
0.98,-1.5786597145550942,1.147163538151147,2.5831349488881696,0.0690104557063134,0.2038264130221904,0.0186490599471848,0.2385337995028819,-0.7529758400024356,-0.7558254187436998,-1.5808547397048387,1.1454621897995156,2.5750721745254044,0.2423041348183661,-1.0079294021352847,-1.0385721943841832,1.09106420226925,0.5610852221168194,-0.4613405951887361,-0.814106456322794,9.606568388450796,-1.2785723896837062,0.0907433408203785,-1.128731035478321
1.0,-1.5737596094612325,1.1319972169816854,2.5678285232303724,0.0700402569159047,0.2065138983230633,0.0185715285440184,0.2508353610054303,-0.7631570482987986,-0.773996438947787,-1.5667330245799502,1.1095147461510249,2.5453436779509846,0.2648741053080882,-0.8529758414925517,-0.8558254202338159,1.2095158050148205,0.6150780751274217,-0.5090604148181521,-0.9085510102043616,9.571314296887069,-1.274176572600526,0.0891827353429303,-1.1306416607571224
1.02,-1.56856836945381,1.11656794126712,2.552459839230744,0.069796749106892,0.2086557443806422,0.0183718748879835,0.2680511584450923,-0.7790744912605888,-0.7603524496120898,-1.5667330245799502,1.1095147461510249,2.5453436779509846,0.2648741053080882,-0.8529758414925517,-0.8558254202338159,1.356380401028724,0.8607898719831003,-0.7958721480895103,0.6821994667848608,9.520449735737202,-1.268853538238451,0.0893106270473109,-1.116836644942781
1.04,-1.563022662934075,1.1008365931542834,2.537363375195311,0.067718378570468,0.210809247250627,0.0180485798278067,0.2856549796131113,-0.7931069436052605,-0.7501525040235627,-1.5667330245799502,1.1095147461510249,2.5453436779509846,0.2648741053080882,-0.8529758414925517,-0.8558254202338159,1.2357620407363898,0.8801910584009476,-0.7016226172335827,0.5099972794263552,11.135662915081411,-1.268227069299477,0.0908757837076794,-1.122182808712981
1.06,-1.5574287509618308,1.0856506878114107,2.5231439169596164,0.0647309013884726,0.2123262659565534,0.0176388082157917,0.3022294307161974,-0.804372965015875,-0.7470961943619662,-1.5640842835268691,1.100984987736099,2.5367854237486465,0.2701421664691295,-0.8729758417905749,-0.8758254205318391,1.0136280093562235,0.8287225551543043,-0.5633010705307251,0.1528154830798267,11.135662915081411,-1.2676222548331544,0.0936280468899371,-1.1262537624915272
1.08,-1.5512066964958957,1.0694618186708462,2.50818318753645,0.061459415153986,0.212994513652975,0.0171458068533265,0.3189802509281568,-0.8138626435452055,-0.7493657307252104,-1.5587868014207076,1.0839254709062482,2.51966891534397,0.280678288791212,-0.9129758423866212,-0.9158254211278856,0.969271339289872,0.8375410105979697,-0.474483926466529,-0.1134768181622114,10.716856567827564,-1.2674580463120984,0.0965393285956559,-1.1279040761559496
1.1,-1.5446578371792263,1.0530988868010198,2.493120408786547,0.0585290593361877,0.2125130689957746,0.0166175752416793,0.3349700282299454,-0.8220083096837285,-0.7567536976455393,-1.5534893193145458,1.0668659540763972,2.502552406939294,0.2912144111132945,-0.9529758429826678,-0.955825421723932,0.9703181311005034,0.7994888650894316,-0.4072833069261483,-0.3693983460164474,10.38125143898924,-1.267815225074248,0.0990765899174347,-1.12726124016231
1.12,-1.5381466359740603,1.03741232601738,2.478636747714136,0.056186142987116,0.2107887419681744,0.0160863927067153,0.3495325715051913,-0.8288896283052902,-0.7674446554243052,-1.54766503109228,1.047806437216744,2.483435898504815,0.301750533435377,-0.9929758435787144,-0.9958254223199784,0.9665878010328578,0.7281271637622933,-0.3440659310780858,-0.5345478889382915,10.106553792898012,-1.2690619736372832,0.1010109159048909,-1.1245460134754364
1.14,-1.5310005683922348,1.0207660589571843,2.4631519362496817,0.0542692253478545,0.207433795216982,0.0154963071000796,0.3641884397348911,-0.8354615944165589,-0.7805292587067123,-1.541840742870014,1.0287469203570905,2.4643193900703366,0.3122866557574595,-1.0329758441747607,-1.035825422916025,1.035847545722786,0.7327934114849916,-0.3285983055634323,-0.6542301641203563,9.778711934493003,-1.2718305892288564,0.1024784798699925,-1.1188760846750612
1.16,-1.523569007160061,1.003983339304927,2.447388284963416,0.052659222952695,0.2022902774543642,0.0148495484648108,0.3778837449195135,-0.8424305577526474,-0.7951041031266519,-1.535753051589696,1.008687403482536,2.444202881620957,0.322822778079542,-1.072975844770807,-1.0758254235120714,1.0589545834750602,0.6847652592311182,-0.348448166804427,-0.7287422209969807,9.778711934493003,-1.2764741548078584,0.103623979819648,-1.1104564168501097
1.18,-1.5162781090344724,0.9879105933493468,2.432131109712653,0.0511178008494082,0.1960477197124644,0.0141829883959398,0.3886000242879947,-0.8490144439001334,-0.8101229819797229,-1.529401957251326,0.9876278865930804,2.423086373156676,0.3333589004016246,-1.1129758453668537,-1.1158254241081178,0.9794806306272936,0.535813968424062,-0.3291943073742975,-0.750943942653548,9.60332891789949,-1.282289348279124,0.1047146186942473,-1.100565837780196
1.2,-1.5084112914610055,0.9708606972310212,2.415748660907362,0.0494230910218133,0.1886749761961201,0.0134599013473506,0.3972322346081249,-0.8555508116176824,-0.8273609048767795,-1.4968481078200726,0.9454598711543402,2.391624960613667,0.4262254227748474,-0.9490144453902496,-0.910122983469839,1.0178226070328378,0.4316105160065114,-0.3268183858774531,-0.8618961448528306,9.60332891789949,-1.2890796646719047,0.1059233630222031,-1.0891060846783145
1.22,-1.500400447275822,0.9536506279437156,2.3993528236664137,0.0471497028350867,0.183125630743571,0.012813046462759,0.4033802481975724,-0.8648301722310118,-0.8095959291487241,-1.4968481078200726,0.9454598711543402,2.391624960613667,0.4262254227748474,-0.9490144453902496,-0.910122983469839,1.0482115329295836,0.3074006794723749,-0.4639680306664673,0.8882487864027677,9.496541523888482,-1.294164730944271,0.1079250049855279,-1.0659867189963672
1.24,-1.492290654605393,0.936283421562354,2.383301649313993,0.0446637780485698,0.1821777133946494,0.0123933017692017,0.4078623523852671,-0.8714517672298068,-0.79665992420493,-1.4968481078200726,0.9454598711543402,2.391624960613667,0.4262254227748474,-0.9490144453902496,-0.910122983469839,0.7603864185124594,0.2241052093847312,-0.33107974993975,0.646800247189705,11.787930953537398,-1.2969257353972687,0.1099695057782926,-1.0691589377611035
1.26,-1.4844885947885038,0.919675272494596,2.368214175786804,0.0426975010357732,0.1842488012178277,0.0121687039474834,0.4134848512455358,-0.8765363254340712,-0.7921534371140497,-1.4925858535923242,0.9359697267004377,2.382523730778969,0.4337505024722179,-0.9690144456882728,-0.9301229837678622,0.4409468546960833,0.2811249430134388,-0.2542279102132228,0.2253243545440153,10.679499697404935,-1.2953361903590013,0.1117375243999217,-1.075152687976338
1.28,-1.4761441330209129,0.9020987341596663,2.352363323618947,0.0412226274732538,0.1881119606625823,0.0120544240151382,0.4208717861831654,-0.8809038543642255,-0.7934502247536364,-1.4840613451368272,0.9169894377926326,2.364321271109572,0.4488006618669589,-1.0090144462843191,-0.9701229843639086,0.4339463529939238,0.369346746881477,-0.218376446507712,-0.0648393819793313,10.325890816888204,-1.2912918129751765,0.1129400113689161,-1.082070419902537
1.3,-1.4676369525603308,0.8844436424243017,2.3364328906610186,0.0405838126640861,0.1926900646932063,0.0120363655403859,0.4296259994671685,-0.8844458878706273,-0.7997337058058404,-1.4755368366813302,0.8980091488848276,2.346118811440175,0.4638508212617,-1.0490144468803655,-1.0101229849599551,0.567151623720891,0.4377106642001582,-0.1771016753200904,-0.3141740526101999,10.325890816888204,-1.2859213455381393,0.1133320905939994,-1.0888980778987358
1.32,-1.4589421312181583,0.866726236038033,2.320332439360222,0.0410925280323958,0.1972654373367619,0.0121090838870973,0.4395212334545285,-0.8872879676784793,-0.8099980639324487,-1.466259820256096,0.8770288599472204,2.325916351740976,0.4789009806564411,-1.089014447476412,-1.0501229855560017,0.726894285728802,0.4947616993679987,-0.1421039903926002,-0.5132179063304154,10.06341162319586,-1.280446207191308,0.1126582344677477,-1.0947425302595934
1.34,-1.450486378361035,0.8498451056888098,2.304832818331482,0.0428930804411432,0.2011928819206087,0.0122659519521694,0.4501005103801263,-0.8897248804355737,-0.8210352746019561,-1.456982803830862,0.856048571009613,2.305713892041777,0.4939511400511822,-1.1290144480724589,-1.090122986152048,0.7740795556938316,0.5289638462798868,-0.1218456378547228,-0.5518605334753734,9.81283884921504,-1.2748153225057128,0.1105770788839699,-1.099517570385859
1.36,-1.441356489827551,0.8320097322711966,2.2882806120733328,0.045940518085734,0.2045633052899233,0.0124939860805834,0.4623515919903345,-0.8940405369643694,-0.8336593929602988,-1.4473295334207597,0.8340682820571046,2.2845114323276765,0.5090012994459232,-1.169014448668505,-1.1301229867480944,0.9056520526945794,0.6125540805104107,-0.2157828264397809,-0.6312059179171325,9.81283884921504,-1.2695794977631312,0.1072769558665886,-1.103299288437848
1.38,-1.4319718659679437,0.8140633772144337,2.2714668254179267,0.0491226305191025,0.2068839599320056,0.0126960326792147,0.4754620843815376,-0.9004086904238268,-0.8471101476130287,-1.4373000090257886,0.8110879930896949,2.262308972598676,0.5240514588406643,-1.2090144492645514,-1.1701229873441408,0.991666766044584,0.655524619560155,-0.3184076729728702,-0.6725377326364967,9.769381579023502,-1.2653716358835794,0.1038333015969972,-1.1051529562442348
1.4,-1.4223195869243033,0.7959770912340945,2.254374442114074,0.0518882470403056,0.2079775747898162,0.0128163946338593,0.4889772765611592,-0.9078174265959325,-0.8614313349355894,-1.4081987617488665,0.7690429426932424,2.2291113180372752,0.5345734969961216,-1.0004086919139428,-0.9471101491031448,1.0519579336264424,0.675759608981083,-0.3704368086052789,-0.7160593661280357,9.73776002219256,-1.2626832679814852,0.1009470727805749,-1.1052991165407071
1.42,-1.4128726339001587,0.7785881215698638,2.2382078449303395,0.0525186817111121,0.2093518985487439,0.0128140831466463,0.5050780606624627,-0.9214461791043936,-0.8396086801932358,-1.4081987617488665,0.7690429426932424,2.2291113180372752,0.5345734969961216,-1.0004086919139428,-0.9471101491031448,1.5175691117850687,0.805039205065175,-0.6814376254230647,1.0911327371176838,9.69809862782222,-1.257206816003236,0.1000479491380174,-1.0903513344328957
1.44,-1.402589509004253,0.7600345037058833,2.2216034638449305,0.0507118915157409,0.2121498211359275,0.0127152167820672,0.5224898298983194,-0.9330012323619844,-0.8224920606135016,-1.4081987617488665,0.7690429426932424,2.2291113180372752,0.5345734969961216,-1.0004086919139428,-0.9471101491031448,1.3506180340364742,0.8705884617928317,-0.5777526628795326,0.8558309789867102,12.06196286334216,-1.256453860658877,0.1017705576041347,-1.098361127310758
1.46,-1.39195264312516,0.7412733364366886,2.205248067467119,0.0473606825495024,0.2153291755255789,0.0125304022725595,0.5403984976728822,-0.942067335082756,-0.813853807527567,-1.4028530267789052,0.7590388557741029,2.219640216546244,0.5463957795190384,-1.020408692211966,-0.967110149401168,1.0926275856620862,0.8954333887281396,-0.4533051360385787,0.4319126542967288,11.49003978275232,-1.2548701176464576,0.104878720096548,-1.1054666987856678
1.48,-1.3809548641108482,0.7223650593827784,2.188996170856689,0.0436981101446351,0.2180842011263624,0.0123056416190631,0.5584704317697449,-0.9482516833367732,-0.8117506960473895,-1.392161556838983,0.7390306819358241,2.200698013564181,0.570040344564872,-1.0604086928080123,-1.0071101499972146,0.9608122126960744,0.9035967048431348,-0.3092174127008684,0.1051555740088749,11.001045607038575,-1.2528709677713978,0.1085000916132497,-1.110829896467466
1.5,-1.370173714417236,0.7043049253301826,2.1735446864686137,0.0405595900237541,0.2199198012378837,0.012086210032733,0.5754213601321863,-0.9525778951184368,-0.814807877424332,-1.3814700868990604,0.7190225080975452,2.181755810582118,0.5936849096107055,-1.100408693404059,-1.047110150593261,0.8879702116343064,0.8475464181220693,-0.2163105890831851,-0.1528590688471276,10.622084895781882,-1.2512673475439966,0.1117762401640018,-1.1141068371967378
1.52,-1.3584834843889653,0.6852169681487671,2.157175111805297,0.0378679458727602,0.2209092996641257,0.0118681685528613,0.5926091454358727,-0.9560773692798686,-0.8221623679947356,-1.3695963887068463,0.697014334229464,2.160813607570253,0.6173294746565391,-1.1404086940001052,-1.087110151189307,0.9509926584920418,0.8593892651843238,-0.1749737080715852,-0.3677245285201802,10.32219268564495,-1.251171508611021,0.1144679662267482,-1.1156057916455608
1.54,-1.3464535974458285,0.6660664843461169,2.140631260498489,0.0359087213473657,0.2209111720306208,0.0116751743489715,0.6094149533733969,-0.9589795272168996,-0.8318212829803802,-1.3577226905146322,0.6750061603613828,2.1398714045583875,0.6409740397023728,-1.1804086945961518,-1.127110151785354,0.9799902293190618,0.8402903968762088,-0.1451078968515484,-0.4829457492822264,10.080438501864592,-1.251785712409851,0.1164068315568112,-1.11488020171368
1.56,-1.3340867168395858,0.6468527386844438,2.123877090514582,0.0343548454069922,0.2197487468069735,0.0114813776793122,0.626337962381655,-0.9622260636215644,-0.8430857953460387,-1.3452578781962723,0.6519979864784006,2.1179292015316213,0.6646186047482063,-1.2204086951921982,-1.1671101523814005,1.029341380879626,0.8461504504129025,-0.1623268202332384,-0.5632256182829254,9.96923566024634,-1.2530973601008335,0.1178396140479285,-1.1127373097714164
1.58,-1.3220244830980743,0.628540727682733,2.1077367399009828,0.0330226813360526,0.2171706395866554,0.0112698802108471,0.6424140344997066,-0.965152622960236,-0.8553024417318456,-1.3322019517517665,0.6279898125805171,2.094986998489954,0.6882631697940399,-1.2604086957882443,-1.2071101529774466,1.0201118728151972,0.803803605902581,-0.1463279669335848,-0.6108323192903442,9.881919133343215,-1.2561731060374073,0.1191919285954682,-1.108405269520322
1.6,-1.3090032751073906,0.6092087875760304,2.0904794164325304,0.0317556378845952,0.2125233646540346,0.0110088904901057,0.6586223912553109,-0.9678539330875436,-0.869819828127856,-1.2899037813730891,0.5802830965347211,2.06497161781439,0.7218825231929439,-1.0651526244503522,-0.9553024432219616,1.0963147505300497,0.810417837780214,-0.1350655063653838,-0.7258693198005206,9.790669373763194,-1.2617290521206863,0.1204203665521787,-1.1014219812257606
1.62,-1.2956645866746808,0.589786807480773,2.07333813692387,0.0298264198797834,0.208419007680022,0.0107371025283468,0.6743394096922526,-0.9736674185398222,-0.8435567289201776,-1.2899037813730891,0.5802830965347211,2.06497161781439,0.7218825231929439,-1.0651526244503522,-0.9553024432219616,1.5576999563807,0.7858509218470866,-0.2906742726139222,1.3131549603839163,9.683695000841,-1.2622023573943644,0.1218520897138204,-1.0793715080420152
1.64,-1.2827292306774212,0.5712582357481107,2.057490779503193,0.0276610344494648,0.2076479235211949,0.0105675725009638,0.6868550363023075,-0.9764507661263416,-0.826053219070936,-1.2899037813730891,0.5802830965347211,2.06497161781439,0.7218825231929439,-1.0651526244503522,-0.9553024432219616,1.084851130653646,0.6257813305027449,-0.1391673793259773,0.8751754924620825,11.54665167080202,-1.2674140645656529,0.1243945049281259,-1.0848211527609184
1.66,-1.2688498582497816,0.5517142132684462,2.0410838706207164,0.0258653239230639,0.2091557510814182,0.0105002529526176,0.7005899642503087,-0.977900371050118,-0.8159427001534587,-1.2826849561411595,0.5696315702902176,2.055418593382171,0.7377762209315913,-1.0851526247483754,-0.9753024435199849,0.8558215248410266,0.686746397400062,-0.0724802461888163,0.5055259458738637,11.54665167080202,-1.268342476334295,0.126402007441167,-1.0919305410574984
1.68,-1.2546884851763718,0.5321519836309893,2.0248043799990487,0.0249108465021472,0.2118177975383143,0.0105312280771206,0.7149675959237893,-0.9783217783849532,-0.8127914872404386,-1.2682473056773007,0.5483285178012105,2.036312544517732,0.7695636164088863,-1.125152625344422,-1.0153024441160314,0.7362472741941228,0.7188815836740303,-0.0210703667417599,0.1575606456510059,11.015609345450684,-1.2674004599206965,0.1275615134119289,-1.0985544335515345
1.7,-1.24023385652714,0.5125922904295965,2.0085265030531447,0.0252218878710975,0.2147810971285997,0.0106676910216411,0.7298598981169797,-0.9778340334010088,-0.8151422166261454,-1.253809655213442,0.5270254653122035,2.0172064956532925,0.8013510118861812,-1.1651526259404683,-1.0553024447120778,0.7542288916958354,0.7446151096595188,0.0243872491972219,-0.1175364692853397,10.62217612366112,-1.2655064283407995,0.1274620556502768,-1.1039428526033814
1.72,-1.2262217694701676,0.4940248164004651,1.9929819783283045,0.0270370680512764,0.2174021456276318,0.0109088244409212,0.7443765360615876,-0.9768975299362022,-0.8210053120060018,-1.2377826349757182,0.5037224127933941,1.9961004467590509,0.8331384073634761,-1.205152626536515,-1.0953024453081242,0.7841965687691417,0.7258318972303945,0.0468251732403335,-0.2931547689928204,10.13399229917104,-1.2633602625924534,0.1257453557349864,-1.108572405030572
1.74,-1.2111692568691088,0.4744919279972305,1.9764841937612956,0.0306450829577983,0.2197079142511061,0.0112803157896259,0.7601267902453357,-0.9770381487088352,-0.8285266636004487,-1.2217556147379949,0.4804193602745847,1.9749943978648092,0.864925802840771,-1.2451526271325613,-1.1353024459041707,0.872727062573374,0.7875127091874046,-0.007030938631658,-0.3760675797223445,10.13399229917104,-1.261222808296361,0.1222303367607325,-1.111730705868965
1.76,-1.1957915915293753,0.4549215965897786,1.9598263132673823,0.0348373812527468,0.2212649234091867,0.0116783895514876,0.77681753282195,-0.9801136319936808,-0.8369071599765416,-1.204933909613339,0.4561163077408742,1.9528883489556668,0.896713198318066,-1.2851526277286076,-1.175302446500217,0.9464039897209282,0.8345371288307146,-0.1537741642422763,-0.4190248188046475,10.0692164504253,-1.2595280652140772,0.1180910582193476,-1.1135436652227515
1.78,-1.1800735913792428,0.4352713537081949,1.9429912922811312,0.0387714473324211,0.22170225686779,0.0120224326643774,0.794006498283717,-0.9847454075255726,-0.8461527306190888,-1.1873175196017502,0.4308132551922625,1.9297823000316228,0.9285005937953608,-1.325152628324654,-1.2153024470962634,1.002988602539907,0.8594482730883535,-0.2315887765945878,-0.4622785321273581,10.036590902644091,-1.2590313809102256,0.1143852249343988,-1.1136922487451664
1.8,-1.164821195884164,0.416507964099807,1.926816590539616,0.0420191083724761,0.2208631231856082,0.0122637578235545,0.8105567351686588,-0.9900482697067828,-0.8559626455664808,-1.140373266465057,0.3860340833319163,1.9006836557501767,0.8904177413648099,-1.0847454090156887,-0.9461527321092048,0.9978290428921928,0.8275118442470863,-0.2651431090605061,-0.4904957473696014,9.9969322489369,-1.259806002563239,0.1109795009070357,-1.1119957925543738
1.82,-1.1483886876437055,0.3965709488629604,1.9099578179777372,0.0430879983529844,0.2198784391043413,0.0123460171919647,0.8320904374505601,-1.002822025597513,-0.8274418996662273,-1.140373266465057,0.3860340833319163,1.9006836557501767,0.8904177413648099,-1.0847454090156887,-0.9461527321092048,1.897565624839073,1.0766851140950662,-0.6386877945365188,1.4260372950126776,9.938856195909466,-1.2551893005997614,0.1097008295132388,-1.0970639858931854
1.84,-1.1315244569679384,0.3764044476068175,1.8936696823902852,0.041182589184098,0.2200904006409926,0.0122758569711643,0.8532382756420182,-1.012929640600483,-0.8034627531102183,-1.140373266465057,0.3860340833319163,1.9006836557501767,0.8904177413648099,-1.0847454090156887,-0.9461527321092048,1.6765995428059974,1.0573919095729023,-0.5053807501484986,1.1989573278004484,12.626303910089518,-1.2590310987129922,0.1118958717125374,-1.104586013394901
1.86,-1.1142447022990032,0.3560658838562685,1.8777640617924012,0.0376051120516092,0.2206341125080493,0.0121105240211968,0.873619298131447,-1.0199263014665152,-0.7886445133683224,-1.131469089051409,0.3751866292417594,1.8912221284290849,0.9096999899810284,-1.104745409313712,-0.966152732407228,1.3075927978896689,1.0190511244714429,-0.3498330433016061,0.7409119870947944,11.949990073181652,-1.262410523656874,0.1156135466603169,-1.1116013956349322
1.88,-1.0965680833521183,0.3356236260734215,1.8620731769105088,0.03382074778164,0.2209119854445683,0.0119309298750985,0.8929257298095454,-1.0238967527858251,-0.7814746383170976,-1.1136607342241127,0.3534917210614456,1.8722990737869003,0.9482644872134656,-1.1447454099097585,-1.006152733003275,1.048701454264115,0.9653215839049212,-0.1985225659654976,0.3584937525612397,10.905290200893432,-1.2652280732733023,0.1197585947714566,-1.1161790041905024
1.9,-1.0794299448843525,0.3161480675631383,1.8472338002929856,0.0306986040549333,0.2206803494737661,0.0117877576169323,0.9100485214074322,-1.0260803853972218,-0.7808793818158841,-1.0958523793968165,0.3317968128811318,1.8533760191447164,0.9868289844459028,-1.1847454105058048,-1.046152733599321,0.8635863792760593,0.8561395798943383,-0.1091816305698323,0.0297628250606751,10.905290200893432,-1.2675144333333257,0.1233711125827125,-1.118091031833221
1.92,-1.0610521715957777,0.295613402680412,1.8315778205117357,0.0281445692001938,0.2199098221946103,0.0116848455264329,0.9267224312047646,-1.0273919587495948,-0.7849487623799094,-1.0761157997078985,0.3081019046710157,1.83245296447273,1.02539348167834,-1.2247454111018512,-1.0861527341953674,0.8606674020245848,0.8336954898666205,-0.0655786676186487,-0.2034690282012641,10.542822369591704,-1.269870606621304,0.1262046645921621,-1.1181968698064324
1.94,-1.0423505237312225,0.2750603572004195,1.815808439665037,0.026463767612294,0.2186290961171711,0.0116412647028659,0.94254958604836,-1.0280485063996192,-0.7917526778481895,-1.0563792200189803,0.2844069964608996,1.811529909800744,1.063957978910777,-1.2647454116978978,-1.126152734791414,0.8620080494975033,0.7913577421797657,-0.0328273825012215,-0.3401957734140037,10.25893562140118,-1.2719454999561084,0.1281039179577844,-1.1165369509789456
1.96,-1.0233331026858077,0.2544897722743116,1.799882153081778,0.025415149284106,0.2166039789248015,0.0116333767853301,0.9583198904896044,-1.0289933001328544,-0.8005099718185437,-1.0356785278992513,0.2597120882358823,1.789606855113856,1.102522476143214,-1.304745412293944,-1.1661527353874603,0.9031684990231588,0.7885152220622249,-0.0472396866617597,-0.4378646985177092,10.01139609657548,-1.2741901672873044,0.1292849994742614,-1.1138972211828475
1.98,-1.0049763620589376,0.2349308795656293,1.7845720101228688,0.0248243426464326,0.2135700552381071,0.0116352654114575,0.973077628331476,-1.0297950606973432,-0.8106153726563261,-1.0140137233487114,0.2340171799959639,1.7666838004120673,1.1410869733756512,-1.3447454128899905,-1.2061527359835067,0.8951993804516816,0.7378868920935755,-0.0400880282244386,-0.5052700418891221,10.01139609657548,-1.2777439324630957,0.1300905003868224,-1.1093060205155876
2.0,-0.9853584531613274,0.2143281588523674,1.7682295270888773,0.0246261533610191,0.2088690857991619,0.0116376723964951,0.9877471006181164,-1.0304462744475544,-0.8231545516050366,-0.9563224806423638,0.1834411265307621,1.7440412414900526,1.073077629821592,-1.094806711021211,-0.9106153741464422,0.9654642733223812,0.7334736143320308,-0.0325606875105632,-0.6269589474355242,9.902087647800728,-1.2829328350543774,0.1304573061656581,-1.1027942254426706
2.02,-0.9653978858792588,0.1935617997032637,1.7520260746200416,0.0203044648735119,0.2033181597301834,0.0113480568890526,1.0077009519073967,-1.0439947228316606,-0.7943973748856483,-0.9563224806423638,0.1834411265307621,1.7440412414900526,1.073077629821592,-1.094806711021211,-0.9106153741464422,1.8766271924396865,0.9976925644640088,-0.6774224192053091,1.437858835969413,9.78087644311654,-1.2796373420425522,0.1337630927048059,-1.0795627091527558
2.04,-0.945066977668644,0.1726285715776198,1.736385562092993,0.0114346128275043,0.1980530982071621,0.0108081937716853,1.0241665637522914,-1.0476925203813403,-0.7712792113757773,-0.9563224806423638,0.1834411265307621,1.7440412414900526,1.073077629821592,-1.094806711021211,-0.9106153741464422,1.4311180631016154,0.823280592244735,-0.1848898774839846,1.155908175493553,12.6113328456604,-1.292066902439583,0.1431282782306195,-1.0807087076450506
2.06,-0.9254846175186976,0.1527396718790515,1.7218514493238624,0.0024018240366459,0.1935303862406981,0.0103309639614098,1.0361946989142126,-1.0455216998620642,-0.759739919711958,-0.945591704344148,0.17249305942055,1.734935087748588,1.0930776301196152,-1.1078090410859844,-0.9306153744444654,0.8404518863430598,0.6014067580960569,0.1085410259638042,0.5769645831909642,11.839029426798334,-1.3013598282010044,0.1531078393228008,-1.0790083655381886
2.08,-0.904659350956631,0.1318869764380077,1.7067019015171396,-0.0063531491134613,0.1895170822360745,0.0099529206658914,1.045493462222676,-1.039848083196083,-0.7561897694253009,-0.924130151747716,0.1505969252001258,1.7167227802656593,1.1330776307156618,-1.1338137012155316,-0.970615375040512,0.5728448572632459,0.4649381654231788,0.2836808332990603,0.177507514332853,11.126718802144753,-1.3090981826184809,0.1623177538104716,-1.07629982598501
2.1,-0.8836821866747855,0.1111733891522978,1.6915354883516938,-0.0137801372913147,0.1866884347955215,0.0097169264591235,1.0517126131632872,-1.032008621557157,-0.7605765617730784,-0.9026685991512842,0.1287007909797015,1.6985104727827305,1.1730776313117082,-1.1598183613450788,-1.0106153756365583,0.5463033596657114,0.3109575470305548,0.3919730819463063,-0.219339617388875,10.157892361709855,-1.314578109721268,0.1701606763535306,-1.073656342503831
2.12,-0.8636611746595527,0.0916549581196199,1.6769916750464384,-0.019493925259639,0.1855007345636693,0.009602450349215,1.0555687014205355,-1.023218683729195,-0.7701195169115854,-0.87920704652505,0.1055044237528,1.6782981652699993,1.2130776319077543,-1.185823021474626,-1.0506153762326047,0.6767577418151237,0.192804412862424,0.4394968913980945,-0.4771477569253501,10.157892361709855,-1.3171899025293543,0.1762396397331638,-1.072380171905316
2.14,-0.8425097190891946,0.0712988382985432,1.6614600873006748,-0.0241176301292415,0.1858358723981351,0.0095720768218992,1.0595216069997733,-1.0130637882601172,-0.7826406959312417,-0.8557454938988158,0.0823080565258984,1.658085857757268,1.253077632503801,-1.211827681604173,-1.0906153768286513,0.829950734303768,0.1976452789618776,0.5077447734538887,-0.6260589509828163,9.843094378257774,-1.3170337679690571,0.1812179252994522,-1.07276075196673
2.16,-0.8212687768173453,0.0511474093020049,1.6456599677000716,-0.0275547778767848,0.1872573997230797,0.009614044806519,1.0644945670328667,-1.0027267360673744,-0.7968073432166274,-0.8312839412576806,0.0584615727957581,1.636873550229636,1.2930776330998477,-1.23783234173372,-1.1306153774246976,0.9114259087204488,0.2486480016546721,0.5168526096371417,-0.7083323642692818,9.712643603656945,-1.3151576305198307,0.1850218393095886,-1.0743929152631284
2.18,-0.7999181007288757,0.0312065210591018,1.6295620445282537,-0.0300456919191577,0.1891374401119405,0.0097214735792484,1.0704019559007931,-0.9920787135069692,-0.8122735812441687,-0.8058223886016441,0.0339649725623792,1.6146612426871023,1.3330776336958938,-1.2638370018632672,-1.170615378020744,0.9842283099062552,0.2953694433963316,0.5324011280202656,-0.7733119013770662,9.633511467656716,-1.3129337343771756,0.1877937343187323,-1.076431927880734
2.2,-0.7795179845401601,0.0124628354793277,1.6139721528228854,-0.0316509151806911,0.1909586097202787,0.0098860776923031,1.0767137326390233,-0.9816377815180648,-0.8279913166711247,-0.7463980029338361,-0.0183974146162465,1.5889483654660452,1.1704019573909097,-1.009550280303272,-0.8673806755916457,0.9948602833337632,0.3155888369114956,0.5220465994452195,-0.785886771347799,9.574177326312563,-1.3105684988547133,0.1899533901496657,-1.078556092569262
2.22,-0.7577827643450182,-0.0071754246499933,1.5977101107629594,-0.0371208554379403,0.1916905765613245,0.0098464759051946,1.0968512052704418,-0.9803179412058284,-0.7949834900959973,-0.7463980029338361,-0.0183974146162465,1.5889483654660452,1.1704019573909097,-1.009550280303272,-0.8673806755916457,1.9344097275684755,1.006873631570926,0.0659920156118099,1.6503913287563676,9.522091540663496,-1.3030261245833,0.194382990453983,-1.0640453041628373
2.24,-0.7356385913020813,-0.0266760278667963,1.5821263860770376,-0.0465072244952185,0.1900921001223388,0.0096521577552203,1.1162808443356205,-0.9690401184111822,-0.7653298486481508,-0.7463980029338361,-0.0183974146162465,1.5889483654660452,1.1704019573909097,-1.009550280303272,-0.8673806755916457,1.8601334712245807,0.9714819532589348,0.5638911397323143,1.4826820723923273,12.274717297327696,-1.308663655827768,0.2044522518762317,-1.0695010855116842
2.26,-0.7142665462569173,-0.0449291142970649,1.5677773417108518,-0.0554736282607753,0.1864134001431958,0.0096205379719004,1.132252900696254,-0.9529278466921424,-0.7465427755440799,-0.734693983359927,-0.0284929174192792,1.5802745587101288,1.1904019576889326,-1.0130445936625323,-0.878402094461141,1.4728085416586976,0.7986028180316795,0.8056135859519864,0.9393536552035452,11.638468227936755,-1.3193161920291443,0.2155400475340613,-1.0727376590809188
2.28,-0.6914760786400076,-0.063780364830486,1.5529797166126966,-0.0636095535093173,0.1804382306075717,0.0098725293957177,1.1454360045773089,-0.9331984087452252,-0.7344932242641575,-0.7112859442121088,-0.0486839230253447,1.562926945198296,1.2304019582849792,-1.0200332203810536,-0.9004449322001319,1.3306357838336251,0.6591551940527296,0.9864718973458586,0.6024775639961177,11.638468227936755,-1.3296118649439703,0.2251483453040986,-1.0709742142653826
2.3000000000000003,-0.668471134561787,-0.0822185679806586,1.5383487732035706,-0.0699582815535588,0.1732463740358943,0.0104081676781994,1.154035175207734,-0.9118940086538704,-0.7294325129077787,-0.6878779050642906,-0.0688749286314101,1.545579331686463,1.2704019588810256,-1.027021847099575,-0.9224877699391226,1.176258898177056,0.4299585315212684,1.0652200045677518,0.2530355678189433,11.140641090762983,-1.3401117346039089,0.2328158574407605,-1.0653391135705823
2.32,-0.6453394583309278,-0.1002202750222163,1.5237528413339096,-0.0743722983399215,0.1657892908591182,0.0111661214120884,1.1585066106982482,-0.8898349829362355,-0.7303202693639304,-0.6624698658866701,-0.0894153655734016,1.5271295762876804,1.310401959477072,-1.0340104738180955,-0.9445306076781134,1.1262575887452877,0.2235717745257104,1.102951285881737,-0.0443878228075844,10.7195938237046,-1.349776646579948,0.2382032202253058,-1.0582713010087106
2.34,-0.6233118805721807,-0.116909505041656,1.509847180984482,-0.0768997610450308,0.1591365237468263,0.0120161967994322,1.1598768108659736,-0.8684963422422542,-0.7333282641720108,-0.6370618267090495,-0.1099558025153931,1.508679820888898,1.3504019600731183,-1.0409991005366168,-0.9665734454171042,1.079656273926924,0.0685100083862688,1.066932034699064,-0.1503997404040224,10.389061089492316,-1.3589441000781692,0.2420396484780539,-1.0502040280384628
2.36,-0.6001166708583703,-0.1340410174044601,1.495133732058751,-0.0780036840831463,0.1529415925311252,0.0129874257595023,1.1594396651972565,-0.845983202951385,-0.7378936053359141,-0.610653787516528,-0.1306709551253476,1.4896789945466409,1.3904019606691649,-1.047987727255138,-0.988616283156095,1.1487763892601015,-0.0218572834358665,1.1256569645434644,-0.228267058195164,10.259334829598629,-1.3668745786017618,0.2442923181105786,-1.0431077165847773
2.38,-0.576949600984671,-0.1507155112436272,1.4803148600993985,-0.0772694571266843,0.1477383123848405,0.0140238180833608,1.1571447309222238,-0.8228136712504682,-0.7437898828553735,-0.5832457483091051,-0.1515608234032652,1.4701270972609088,1.4304019612652112,-1.0549763539736592,-1.0106591208950857,1.200895510809524,-0.1147467137516233,1.1584765850458367,-0.2948138759729712,10.09392162345921,-1.3737354584575487,0.244797925474929,-1.0374743841424034
2.4,-0.5550014976914158,-0.1661214780223539,1.4661171138222835,-0.0743509615882027,0.1440271715949007,0.0150666116790062,1.1532372417922758,-0.8005514336705309,-0.7503591078131128,-0.5190923644385598,-0.1918561948061506,1.4431253659566297,1.25714473241234,-0.7836039589537439,-0.7155733662563144,1.1768925289842929,-0.1953744564973991,1.113111878996864,-0.328461247886963,10.09392162345921,-1.379035835220617,0.24322312372969,-1.0343921151676
2.42,-0.5318881644395028,-0.1820625951675762,1.451500159684152,-0.0755173425414266,0.140646401831195,0.0158255274578666,1.158562269471688,-0.7927703660819296,-0.7087640106189855,-0.5190923644385598,-0.1918561948061506,1.4431253659566297,1.25714473241234,-0.7836039589537439,-0.7155733662563144,2.1325179033209656,0.266251383970606,0.3890533794300654,2.079754859706362,10.037499658344132,-1.3862325560503967,0.2448217924153045,-1.0232070249429783
2.44,-0.5086720152532519,-0.197727179052241,1.4377557526702307,-0.0827945851616749,0.1367661927910964,0.0162338706603052,1.1624993545434883,-0.7731121617560313,-0.6683682956747785,-0.5190923644385598,-0.1918561948061506,1.4431253659566297,1.25714473241234,-0.7836039589537439,-0.7155733662563144,2.2548610944108023,0.1968542535900175,0.9829102162949188,2.01978574721035,13.402030147921325,-1.3922517830847436,0.2536399246865303,-1.0252145802161658
2.46,-0.4854111373122561,-0.2129184046495177,1.424734894484595,-0.0906478538007679,0.1328415782323454,0.016663195347146,1.1632446287016562,-0.7470146168762295,-0.6357126383594384,-0.5065209171144364,-0.1996922343956881,1.4359696322940665,1.277144732710363,-0.775762016494399,-0.7099300629365026,2.090471978418408,0.037263707908397,1.304877243990088,1.6327828657670074,12.444202446111376,-1.3992627953845629,0.2626434674252472,-1.0260374422290812
2.48,-0.4633287012523592,-0.2268337318856999,1.4129129573404586,-0.0969346748212099,0.1297052302866383,0.0171481935607099,1.1611022055273446,-0.7194019666204657,-0.6103012252604137,-0.4813780224661896,-0.215364313574763,1.4216581649689404,1.3171447333064097,-0.7600781315757094,-0.698643456296879,1.879353843009771,-0.107121158715584,1.380632512788188,1.2705706549512308,12.444202446111376,-1.4061018321841423,0.271048841834973,-1.0273487170188729
2.5,-0.4401539330645465,-0.2409016029765065,1.400950375832551,-0.1018499168099888,0.1277692095316308,0.0176816799069933,1.1564536969542505,-0.6891486554672138,-0.5874402721200295,-0.4562351278179428,-0.2310363927538379,1.407346697643814,1.357144733902456,-0.7443942466570196,-0.6873568496572553,1.910166645986976,-0.2324254286547145,1.5126655576625958,1.1430476570192138,12.08152288430938,-1.411716304969076,0.2778500403008703,-1.0303530521462465
2.52,-0.4170833314421014,-0.2543535921177006,1.389408299885334,-0.1048457154408061,0.1276078984240397,0.0181906550397183,1.151075733851152,-0.6581221202848496,-0.5678662600062884,-0.4290922331398936,-0.2459242776869782,1.3935995606506688,1.3971447344985024,-0.7287103617383298,-0.6760702430176316,1.8538543111512644,-0.2688981551549063,1.55132675911821,0.9787006056870552,11.840314602716717,-1.4148336486532578,0.2826915192746677,-1.036117540805583
2.54,-0.3952613585015327,-0.2665505586633996,1.3788047514178805,-0.1058766862284464,0.1288623582621442,0.0186647595978602,1.146440536181674,-0.6277302305989995,-0.5492544529765242,-0.4019493384618445,-0.2608121626201186,1.3798524236575238,1.437144735094549,-0.7130264768196402,-0.664783636378008,1.796908022844519,-0.2317598834739032,1.519594484292508,0.9305903514882086,11.685292272410152,-1.4163604181003933,0.2859546560101734,-1.044068688170673
2.56,-0.3723715141942468,-0.2787571867071136,1.36803124278669,-0.1046527057803321,0.1312165058269291,0.0192246863704679,1.1429556366485625,-0.594810404498488,-0.5290321906423973,-0.3738064437688942,-0.2753079504302917,1.3663874518303691,1.4771447356905951,-0.6973425919009504,-0.6534970297383844,1.9395871784699747,-0.1742449766555798,1.6459913050255737,1.011113116706347,11.685292272410152,-1.4161594606651615,0.2870413998138671,-1.0547939357601377
2.58,-0.3495355072273063,-0.290302763137884,1.3576694619469216,-0.1005541077724423,0.1340780194512967,0.0199434795036867,1.1409683014581191,-0.5622958340552645,-0.5080577383503517,-0.3446635490610428,-0.2894116411174977,1.3532046451692052,1.5171447362866417,-0.6816587069822607,-0.6422104230987608,1.937185097775772,-0.0993667595221681,1.625728522161174,1.0487226146022766,11.747907364654566,-1.4152380295805391,0.2855361979507642,-1.0684219243999382
2.6,-0.3267231901033645,-0.3012313257214626,1.3477383154622364,-0.094474279614095,0.1369804357325668,0.0208103810358457,1.1404456393992997,-0.5329026073408204,-0.4860709587633307,-0.2924870921544004,-0.3184175548406472,1.332266575029404,1.2409683029482352,-0.4622958325651484,-0.4332529554829201,1.8355199732791565,-0.0261331029409728,1.4696613357222057,1.0993389793510526,11.802790916633969,-1.4140330677333304,0.2821713138562826,-1.081672106384162
2.62,-0.3049636555881723,-0.3112651012951491,1.338891793206867,-0.0938581741573685,0.1375784907638158,0.0214859256749351,1.1496434318855024,-0.5218745371744415,-0.4465106019334984,-0.2924870921544004,-0.3184175548406472,1.332266575029404,1.2409683029482352,-0.4622958325651484,-0.4332529554829201,2.1043048440740955,0.4598896243101391,0.5514035083189428,1.9780178414916136,13.235285069482416,-1.4144906175858465,0.2838486950412192,-1.0937402374266498
2.64,-0.2818834828722872,-0.321469236525506,1.3303861605390637,-0.099490638837564,0.1342138755145482,0.0221563775281928,1.1575056502172738,-0.4980262106990632,-0.4063370719733176,-0.2924870921544004,-0.3184175548406472,1.332266575029404,1.2409683029482352,-0.4622958325651484,-0.4332529554829201,2.3687917079358267,0.3931109165885682,1.192416323768916,2.008676498009037,13.086328902239076,-1.4192390351640125,0.2916203830668031,-1.0945700317629417
