t,x,y,z,roll,pitch,yaw,v_x,v_y,v_z,ref_x,ref_y,ref_z,ref_v_x,ref_v_y,ref_v_z,a_com,a_x,a_y,a_z,thrust,wind_x,wind_y,wind_z
0.0,-1.1269965817296033,0.7713959076763249,2.6347401026513046,0.0222598459480655,0.1500652492433129,0.0287423282633613,0.0015728299225565,-0.006385911837159,-0.0039122908170164,-1.1269540252826902,0.7712971220831493,2.634622071205538,0.0217734120730765,-0.1041185851193478,-0.1039299549346593,0.3826214950645349,0.0786414961278262,-0.31929559185795,-0.1956145408508233,10.662960661225952,-1.412906175950246,0.1689536706128197,-1.2783144469728558
0.02,-1.1270718944913931,0.7715256536168603,2.634452884888055,0.0287085789288861,0.1521723027292775,0.029232100523598,-0.0088483789156282,0.0155194196918974,-0.0260446712012698,-1.1269540252826902,0.7712971220831493,2.634622071205538,0.0217734120730765,-0.1041185851193478,-0.1039299549346593,1.6418643401025996,-0.5210604419092383,1.0952665764528209,-1.1066190192126697,10.662960661225952,-1.4080275375105926,0.1619069892645231,-1.2768231523360878
0.04,-1.1273156860942402,0.7718502797332913,2.633684374468939,0.0423053261331458,0.1573111651789495,0.0303360610594302,-0.0158434155807809,0.0168120183568747,-0.0536582094314707,-1.1269540252826902,0.7712971220831493,2.634622071205538,0.0217734120730765,-0.1041185851193478,-0.1039299549346593,1.4257531718764431,-0.3497518332576345,0.0646299332488662,-1.3806769115100426,9.268258682291162,-1.3970539762491323,0.1449351039387843,-1.2834167018211675
0.06,-1.1276780752283606,0.7721338056579243,2.6323031952143663,0.0573718874747992,0.1643196474094011,0.0316887972647219,-0.0196875733171343,0.0111048031728716,-0.0830243307850671,-1.1267362911619594,0.7702559362319558,2.6335827716561915,0.0258361760471471,-0.1241185854173711,-0.1239299552326825,1.508077366394568,-0.1922078868176699,-0.2853607592001542,-1.4683060676798194,9.024671856178884,-1.3855316633739576,0.1270884505562365,-1.2896184745622858
0.08,-1.1280854262557682,0.7722637479326305,2.6303429066653234,0.0719597443031587,0.1719751421156902,0.0331329766672075,-0.0205779329139651,0.0018621045146702,-0.1115228789427918,-1.1263008229204978,0.7681735645295689,2.6315041725574986,0.0339617039952882,-0.1641185860134175,-0.163929955828729,1.498655619043403,-0.0445179798415384,-0.4621349329100715,-1.4249274078862395,9.039551685944843,-1.3737502470779346,0.1098748799180652,-1.295170525110357
0.1,-1.1284836781180538,0.7721787701102921,2.627824303794726,0.0858757771642012,0.1797232919192008,0.0346240633741518,-0.0189778659620759,-0.0101891736732353,-0.1389655979876104,-1.1258653546790365,0.7660911928271819,2.629425573458805,0.0420872319434293,-0.204118586609464,-0.2039299564247755,1.5007467714321945,0.0800033475944563,-0.6025639093952804,-1.3721359522409258,9.108956825170026,-1.3629395067751722,0.0943457734508281,-1.2993653927162057
0.12,-1.1288118633913562,0.7718501699855692,2.624931276477976,0.0984668714275107,0.1869041100820095,0.0360544819946233,-0.015476621185315,-0.0240392523450925,-0.1642340591566629,-1.1250236100401676,0.7620088210949926,2.6253469743303097,0.0502127598915704,-0.2441185872055104,-0.2439299570208219,1.4513601586575091,0.1750622388380445,-0.692503933592856,-1.2634230584526245,9.245006956648467,-1.3525973844967862,0.078928067287398,-1.3023908574813332
0.14,-1.1290685301337502,0.7711960925942563,2.6213630799457968,0.1110802487821964,0.1941396965986551,0.0375498480952352,-0.0101979002044998,-0.0409040836039844,-0.1913173590841336,-1.1241818654012992,0.7579264493628033,2.621268375201814,0.0583382878397115,-0.2841185878015569,-0.2839299576168684,1.6169358085167875,0.263936049040763,-0.8432415629445972,-1.3541649963735372,9.236596379640105,-1.3430590082618237,0.0642247661126063,-1.3066951340667314
0.16,-1.129203078061868,0.7701808052841539,2.6172517819900896,0.123063447349897,0.2009862152439426,0.0390140255430539,-0.0033543194526554,-0.0600325771378778,-0.2184892871269158,-1.123136982563727,0.7528440776157129,2.6161897760584174,0.0664638157878526,-0.3241185883976034,-0.3239299582129148,1.6963545737443508,0.3421790375922204,-0.9564246766946702,-1.3585964021391104,9.257641482115105,-1.333502448016193,0.0502651067447831,-1.3096885665336946
0.18,-1.129184581606612,0.7687597915466712,2.612599211005313,0.1344433858351263,0.2074217003805231,0.0404294856441559,0.0050137865158358,-0.0813490162066764,-0.2454601629141838,-1.1218889615274514,0.7467617058537213,2.6101111769001197,0.0745893437359937,-0.3641185889936498,-0.3639299588089613,1.7690703157350338,0.4184052984245626,-1.0658219534399291,-1.3485437893634002,9.257641482115105,-1.3238848176474065,0.03762280372541,-1.311370237967838
0.2,-1.1289968444451828,0.7669865468488992,2.6076805362990125,0.1444386992140052,0.2131141022647634,0.0416899159529819,0.0144349119765941,-0.104244026323813,-0.270963334307658,-1.12893389228082,0.7646923407363374,2.600326202859604,0.019736211075131,-0.1813490176967925,-0.3454601644042999,1.7771823516004588,0.471056273037913,-1.1447505058568312,-1.275158569673708,9.29055213715219,-1.314593883839218,0.0253652470123945,-1.3122735725071977
0.22,-1.1285121049265143,0.7644756363202906,2.602090782222565,0.1494069399894539,0.2171630966195789,0.0423440488809377,0.033617984016457,-0.1437076972939112,-0.2856369474340346,-1.12893389228082,0.7646923407363374,2.600326202859604,0.019736211075131,-0.1813490176967925,-0.3454601644042999,2.313377672098371,0.9591536019931484,-1.9731835485049063,-0.7336806563188331,9.326313089907671,-1.3053158955389708,0.0196185617619974,-1.3092389256017352
0.24,-1.1276346313092218,0.7612477172285423,2.59623436373534,0.1481216778996934,0.2178748424739458,0.0420247961188783,0.052982914498563,-0.1766002152317065,-0.2993178333904353,-1.12893389228082,0.7646923407363374,2.600326202859604,0.019736211075131,-0.1813490176967925,-0.3454601644042999,2.027365846003764,0.9682465241053,-1.644625896889765,-0.6840442978200301,10.257797747708535,-1.3051600967203754,0.0214441445230969,-1.3033712656092025
0.26,-1.1263772478128038,0.7574054197644662,2.5900884035232408,0.143591360903488,0.2154023975396082,0.0409789322453229,0.0716187939841242,-0.2051890483476732,-0.3145200451145156,-1.1287365301700687,0.7628788505593694,2.596871601215561,0.02268069598699,-0.2013490179948157,-0.3654601647023232,1.867969903690048,0.9317939742780578,-1.4294416557983372,-0.7601105862040186,10.14865544854274,-1.307450653034839,0.0266114870776706,-1.2925949147593403
0.28,-1.1248577702891942,0.7532697518716064,2.583954144053753,0.1383240665186368,0.2103027616629357,0.0395225284196447,0.0869285424446183,-0.2285409864216873,-0.3302993643843198,-1.128341805948566,0.7592518702054336,2.5899623979274757,0.0285696658107081,-0.2413490185908622,-0.4054601652983696,1.603658572105206,0.7654874230247056,-1.167596903700703,-0.7889659634902096,10.00837307239908,-1.3160035594861808,0.0332626357109953,-1.2775030340308842
0.3,-1.122984338892865,0.7484644695043894,2.5771607745792338,0.1329352494022311,0.2031817724952651,0.0377805688913925,0.0992404606598561,-0.2507168204321734,-0.3482311007994469,-1.1279470817270636,0.7556248898514978,2.583053194639389,0.0344586356344261,-0.2813490191869087,-0.445460165894416,1.553140459730652,0.6155959107618909,-1.1087917005243086,-0.8965868207563565,9.872983249830211,-1.3253255188795043,0.0393495678132867,-1.260772368062913
0.32,-1.1209036238135868,0.7432321148969643,2.5699921442473164,0.1281435520104012,0.1953685131127208,0.0360203166423256,0.1079757710182104,-0.2714715855470132,-0.3676719388693379,-1.127257909014375,0.7499979094677596,2.5741439913215007,0.0403476054581442,-0.3213490197829551,-0.4854601664904625,1.4874576522448164,0.436765517917715,-1.037738255741988,-0.97204190349455,9.737764314781998,-1.3347161200828208,0.0445474102558679,-1.2432371151322332
0.34,-1.1186798950725667,0.7375943784323435,2.5624280365227348,0.1240138081467427,0.1876944900190844,0.0343549942074667,0.113765980181341,-0.2912957241937299,-0.387779770747184,-1.1265687363016863,0.7443709290840214,2.5652347880036124,0.0462365752818623,-0.3613490203790016,-0.525460167086509,1.441221615561577,0.2895104581565305,-0.9912069323358336,-1.005391593892302,9.619856867232556,-1.342738871000965,0.0486445774381795,-1.226840824037451
0.36,-1.116483555349336,0.7318705863366185,2.554861687556227,0.1204569779872718,0.1810674090910948,0.0329047006146135,0.1170780724037149,-0.3101172295419475,-0.4076232443490364,-1.125732339343405,0.7377439486853821,2.555325584670823,0.0521255451055804,-0.401349020975048,-0.5654601676825554,1.3774818175296433,0.1656046111186949,-0.941075267410882,-0.99217368009262,9.54822430429158,-1.349353407289314,0.0523812955980442,-1.2105469935036943
0.38,-1.1141226676494431,0.7254651195317775,2.546482062953462,0.1168447431748838,0.1750906336947633,0.0315289169533739,0.1187310713791679,-0.3293251339769849,-0.4293029087356686,-1.1247487181395306,0.7301169682718416,2.544416381323132,0.0580145149292984,-0.4413490215710944,-0.6054601682786018,1.4505894028940312,0.0826499487726499,-0.9603952217518668,-1.0839832193316106,9.4879796678606,-1.3541632241429542,0.0558980522452287,-1.1954935762418972
0.4,-1.1117485222397725,0.7186812528978627,2.537660498234074,0.1132683027622782,0.1704730003614409,0.030332715965454,0.1185427888433041,-0.3479453392613259,-0.4517171000384472,-1.1081861140804847,0.7089988628329282,2.5250169175166786,0.1515983800852131,-0.429325135467101,-0.5293029102257847,1.4570033175166996,-0.0094141267931932,-0.9310102642170526,-1.1207095651389276,9.419704930291118,-1.3571701803763043,0.0591955809891262,-1.1826400099426884
0.42,-1.1095207793286035,0.7118857237280541,2.5290930610621216,0.1103249692288567,0.1692752309887508,0.0295994875217898,0.1163346460102014,-0.3665823221590071,-0.4490450748572981,-1.1081861140804847,0.7089988628329282,2.5250169175166786,0.1515983800852131,-0.429325135467101,-0.5293029102257847,0.947830080853812,-0.1104071416551319,-0.9318491448840588,0.1336012590574503,9.365056030082997,-1.3577484567401474,0.0629486458555498,-1.1648650607791884
0.44,-1.1071961107500443,0.7043640866852484,2.5200988331695884,0.1081255618371773,0.1721460036166051,0.0293454940804224,0.1166794229806357,-0.3847274813440862,-0.4509390601505264,-1.1081861140804847,0.7089988628329282,2.5250169175166786,0.1515983800852131,-0.429325135467101,-0.5293029102257847,0.9123497866802084,0.0172388485217132,-0.907257959253957,-0.0946992646614131,10.432939632281888,-1.351864143406605,0.0644225551644357,-1.1694914583126428
0.46,-1.1048366752871055,0.6964815123603842,2.511007908221122,0.1066141526696255,0.1772558573477383,0.0293722576061793,0.1195403443593832,-0.4026099276692582,-0.4582794074115139,-1.106670130279633,0.7047056114782573,2.5197238884144206,0.1581718418264221,-0.4493251357651242,-0.5493029105238079,0.9770458735646942,0.1430460689373767,-0.8941223162585998,-0.3670173630493739,10.13897674510372,-1.3438301915480788,0.0653876698418014,-1.1753769762419914
0.48,-1.1023994945075375,0.6882475696291501,2.501723282516004,0.1055219435829194,0.1834233919069014,0.0295298279091983,0.1243049810804586,-0.4198887400845649,-0.4698179454822984,-1.1036381626779284,0.6961191087689153,2.509137830209905,0.1713187653088402,-0.4893251363611707,-0.5893029111198543,1.065829468510466,0.238231836053767,-0.8639406207653355,-0.5769269035392266,10.13897674510372,-1.3350910002924383,0.0660098820901947,-1.1809732193049738
0.5,-1.099980284311883,0.6801113029228788,2.4926603140139263,0.104865509472757,0.1896565116833412,0.0297358390486824,0.1303058882288668,-0.4357069170542572,-0.4836157243771052,-1.100606195076224,0.6875326060595732,2.4985517720053894,0.1844656887912582,-0.5293251369572172,-0.6293029117159008,1.091563456330292,0.3000453574204094,-0.7909088484846116,-0.6898889447403384,9.77705726907243,-1.325404676093925,0.0663128537334427,-1.186382718498972
0.52,-1.097296333366354,0.6712291052451621,2.482812917580256,0.1047028839419499,0.1962575281420562,0.0299855541195312,0.1379492560973764,-0.4516973689667006,-0.5005206706347555,-1.0969168813003989,0.6769461033204289,2.485965713771072,0.1976126122736763,-0.5693251375532636,-0.6693029123119473,1.2246354893513989,0.3821683934254805,-0.7995225956221735,-0.8452473128825133,9.77705726907243,-1.315624627609137,0.0660728331272115,-1.191182427709058
0.54,-1.0944445149333129,0.6620295286767582,2.4726148929613623,0.1051953414051366,0.2026981864740754,0.0302589283431185,0.1470244020634047,-0.467518261115479,-0.5184531987816994,-1.0932275675245735,0.6663596005812845,2.4733796555367533,0.2107595357560944,-0.6093251381493101,-0.7093029129079937,1.278900375741728,0.4537572983014146,-0.7910446074389205,-0.8966264073471952,9.650440573035668,-1.306520688455146,0.0652134553094984,-1.195046108277605
0.56,-1.0913965785128734,0.6525013250068904,2.462051568116926,0.1059746568522357,0.208868960838147,0.0305208510408257,0.1574699243845565,-0.4844229205531065,-0.5369918550600319,-1.089209580661688,0.654773097827239,2.4597935972875344,0.2239064592385124,-0.6493251387453565,-0.7493029135040401,1.35882138622963,0.5222761160575934,-0.8452329718813711,-0.9269328139166256,9.615251297282157,-1.297462298769274,0.0639798057335877,-1.1988336059538796
0.58,-1.0882957813123375,0.6431278665774944,2.451667453633253,0.106463892784362,0.214437284255804,0.0307172624488608,0.1685303822325825,-0.5012859433748412,-0.5551474420716699,-1.084862920711742,0.6421865950582923,2.445207539023414,0.2370533827209305,-0.6893251393414029,-0.7893029141000866,1.3567614070199157,0.5530228924012989,-0.843151141086737,-0.9077793505818998,9.599794878466128,-1.288793853686167,0.0630246231179988,-1.2018650287425194
0.6,-1.0847929742186495,0.6329108754821494,2.440356389006588,0.1063435150425601,0.2199463646150895,0.0308352802859921,0.181289821929806,-0.519432155810589,-0.5750361489136118,-1.0798692622007084,0.6180635694087524,2.42391008152967,0.2039991058575272,-0.6012859448649573,-0.655147443561786,1.4896719328388015,0.637971984861177,-0.9073106217873884,-0.9944353420970942,9.549815095611848,-1.2805114026247366,0.0627690391451656,-1.204202142231546
0.62,-1.08094605281756,0.6222776699711411,2.428890897993002,0.1044539631641346,0.2244535006892632,0.0307105271400933,0.2030954228337148,-0.5427814238126917,-0.5691697756560536,-1.0798692622007084,0.6180635694087524,2.42391008152967,0.2039991058575272,-0.6012859448649573,-0.655147443561786,1.6241050475658565,1.0902800451954395,-1.1674634001051345,0.2933186628779061,11.256859791702482,-1.2730210394912211,0.0645712205084381,-1.1994752287087307
0.64,-1.0768758280331574,0.6117720736477077,2.4181127115123644,0.100995049386177,0.2271920636684853,0.0302989801867976,0.2241018857590938,-0.5615332317204119,-0.5657667111235143,-1.0798692622007084,0.6180635694087524,2.42391008152967,0.2039991058575272,-0.6012859448649573,-0.655147443561786,1.4181701525698402,1.0503231462689455,-0.937590395386012,0.1701532266269678,11.256859791702482,-1.270145203298434,0.0679477047298369,-1.202612113868171
0.66,-1.0721681159588503,0.600359252188722,2.406785482402963,0.0970720411299368,0.2284695788411033,0.0296739584555332,0.2453980742770119,-0.5786324235400903,-0.5673421009046106,-1.0778292711421331,0.6120507099601028,2.417358607094052,0.2110928505825161,-0.6212859451629805,-0.6751474438598092,1.367837581037352,1.064809425895907,-0.8549595909839169,-0.078769489054814,10.904271342125869,-1.269366486740019,0.0716385421700406,-1.203528442898006
0.68,-1.0670437823487575,0.5886227909685217,2.39537676374074,0.0933025409963833,0.2280394382008573,0.0288920696102533,0.2658687560229907,-0.5940887134780712,-0.5736130120863443,-1.073749289024983,0.6000249910628037,2.4042556582228163,0.225280340032494,-0.661285945759027,-0.7151474444558557,1.320293562850014,1.0235340872989385,-0.7728144968990491,-0.3135455590866864,10.573503300605807,-1.2699997866376176,0.0751027026903107,-1.2015947198626116
0.7000000000000001,-1.0615177249602363,0.5765915394553658,2.383797555619965,0.0898498862977285,0.2256234890075761,0.0279536024059601,0.2855744860511855,-0.6082751735368749,-0.5839329428636223,-1.069669306907832,0.5879992721655045,2.3911527093515805,0.2394678294824719,-0.7012859463550735,-0.7551474450519021,1.3191592172591786,0.9852865014097406,-0.709323002940182,-0.5159965388638998,10.29895429379485,-1.2724591722223757,0.0780345581681025,-1.1966131069407664
0.72,-1.0559136021432316,0.5649088798755619,2.372576867628826,0.0869297535859241,0.221271980061701,0.026915545039488,0.3030877750007912,-0.6208168551248134,-0.5966099820070788,-1.0648799503181825,0.573973553238403,2.3760497604505426,0.2536553189324498,-0.7412859469511199,-0.7951474456479486,1.249716356148813,0.8756644474802844,-0.6270840793969279,-0.6338519571728263,10.0755195842803,-1.277914356306338,0.0807358232833206,-1.1873026374993672
0.74,-1.0496833126995255,0.5523620508249361,2.3604920220566163,0.084322361569675,0.2149248581588579,0.0257215826084234,0.3186549292095332,-0.6332641668433774,-0.6112133071110681,-1.0600905937285332,0.5599478343113016,2.3609468115495047,0.2678428083824277,-0.7812859475471664,-0.8351474462439951,1.235444214918927,0.7783577104370998,-0.6223655859281974,-0.7301662551994659,9.89063426015582,-1.2852254650391517,0.0828946318335991,-1.174501605412538
0.76,-1.0431713594708714,0.5395621473160283,2.348103208719418,0.0819377021848081,0.2075832849074223,0.0244823954777591,0.3314671079961713,-0.6460106350832997,-0.6269279900139837,-1.0549465499026345,0.544922115369299,2.344843862633565,0.2820302978324055,-0.8212859481432128,-0.8751474468400414,1.1974719585352671,0.6406089393319075,-0.6373234119961158,-0.7857341451457778,9.700052604336634,-1.2930478409371071,0.0847314623136212,-1.160409820103714
0.78,-1.0364319074401898,0.5265092314426444,2.3353862573653257,0.0794566122911625,0.199822345329822,0.02322873432834,0.3415938595920061,-0.6584879344758234,-0.6439031709442712,-1.049447818840486,0.5288963964123952,2.327740913702725,0.2962177872823834,-0.8612859487392592,-0.915147447436088,1.1687502573587014,0.5063375797917408,-0.6238649696261866,-0.8487590465143746,9.700052604336634,-1.3004003845195948,0.0864932333136084,-1.1469702331993945
0.8,-1.0298662940509324,0.5138826173625488,2.3229785153155205,0.0769623148526282,0.1924906087397474,0.0220593326060083,0.3488535199621099,-0.669861799539741,-0.6612702001242546,-1.0193522144605895,0.4935848347188532,2.303191098818112,0.4001871327548479,-0.7584879359659396,-0.7439031724343873,1.099637642271145,0.3629830185051891,-0.5686932531958788,-0.8683514589991725,9.607268689522243,-1.307731701960069,0.0884431720475592,-1.1332528285556345
0.8200000000000001,-1.0228448529422585,0.5003376871328543,2.3098666518704785,0.0741456311690528,0.1875637028379734,0.0210578086464606,0.3528451200292414,-0.6839526136843237,-0.6474020730471567,-1.0193522144605895,0.4935848347188532,2.303191098818112,0.4001871327548479,-0.7584879359659396,-0.7439031724343873,1.00847516451774,0.1995800033565753,-0.7045407072291343,0.6934063538548974,9.51068644607858,-1.3155836573830433,0.0912392548930029,-1.114178338010332
0.84,-1.0157424872337657,0.4865313629028896,2.2970251938382917,0.0715294411460391,0.1877968203446317,0.0204737862981144,0.3576842873063164,-0.6959607759402199,-0.6380669428938843,-1.0193522144605895,0.4935848347188532,2.303191098818112,0.4001871327548479,-0.7584879359659396,-0.7439031724343873,0.7980572593460598,0.2419583638537475,-0.6004081127948091,0.4667565076636182,11.606716012851392,-1.3146084274330578,0.0929875255844475,-1.117221746673395
0.86,-1.0088857312999542,0.4732037681888564,2.2849202949104908,0.0694715004290927,0.1907813533964567,0.0201539105761238,0.3641360461896416,-0.7063878475674668,-0.6365894964113009,-1.015350343133041,0.4859999553591938,2.295752067093768,0.4119057873874163,-0.7784879362639627,-0.7639031727324105,0.6175189541973606,0.322587944166261,-0.5213535813623438,0.0738723241291705,11.004702062120488,-1.310335728844167,0.09450324200352,-1.1228309507479524
0.88,-1.0015181923994998,0.4589699516653613,2.272154657896942,0.067740864823278,0.1954183571505721,0.0199538986595715,0.37249796268257,-0.716474163693456,-0.6403022293032123,-1.007346600477944,0.470830196639875,2.28087400364508,0.435343096652553,-0.8184879368600092,-0.803903173328457,0.6808814249830485,0.4180958246464195,-0.5043158062994602,-0.1856366445955715,10.571831840795312,-1.3042147893931548,0.0956501831599164,-1.1292447670652728
0.9,-0.9939697863238358,0.4445422968433701,2.259268219812589,0.0665197344520818,0.2007688436995926,0.0198394129079059,0.3821043410241183,-0.725792504581449,-0.6483393427573846,-0.9993428578228472,0.4556604379205562,2.2659959401963925,0.4587804059176897,-0.8584879374560557,-0.8439031739245034,0.7805593738163773,0.480318917077413,-0.4659170443996496,-0.401855672708612,10.26737046863218,-1.2975646999999284,0.096317889711064,-1.1351820431128448
0.92,-0.986218362952622,0.4299369129082031,2.2461825862276883,0.0659862152827968,0.2063632865236191,0.019792394947242,0.3927439101238267,-0.7343582906001808,-0.6598352587585803,-0.9901672497044932,0.4384906791714351,2.2491178767179023,0.4822177151828264,-0.8984879380521021,-0.8839031745205499,0.892649434902527,0.531978454985424,-0.4282893009365907,-0.5747958000597853,10.04093373896103,-1.2900473765756777,0.0963613827668264,-1.141256837389338
0.94,-0.9786452822508218,0.4159078982984636,2.233525915528518,0.0663030271831661,0.2116581130405943,0.0198098223392018,0.4040301135155837,-0.7420533712471169,-0.6718927053528777,-0.9809916415861396,0.4213209204223139,2.232239813239413,0.5056550244479632,-0.9384879386481486,-0.9239031751165964,0.9110086052520208,0.5643101695878505,-0.3847540323468068,-0.6028723297148708,9.873100042799706,-1.2823374007654014,0.0955163016029889,-1.14660905292801
0.96,-0.9704299852545905,0.4009749140746891,2.219945812750382,0.0673800851841011,0.2170665540778094,0.0198786298102623,0.4170422559024819,-0.7508642222153221,-0.6855386916800906,-0.9712301007361572,0.4031511616582917,2.214361749746021,0.5290923337130999,-0.978487939244195,-0.9639031757126428,1.0406246767246534,0.6506071193449064,-0.4405425484102609,-0.6822993163606461,9.823437469554849,-1.2747496159743577,0.0938801343106544,-1.151568399138066
0.98,-0.9619430689413382,0.3858569454547564,2.206084417167538,0.0688280270016616,0.2222325097699587,0.0199681960538236,0.4311229857418232,-0.7604927978279263,-0.6999594828253153,-0.9608826271545468,0.3839814028793682,2.1954836862377287,0.5525296429782366,-1.018487939840241,-1.0039031763086892,1.1168433623278868,0.7040364919670666,-0.4814287806302109,-0.7210395572612327,9.783460239462327,-1.2673610638297694,0.0918626913142413,-1.1559656422960891
1.0,-0.953162781420022,0.3705369389261885,2.191925867527589,0.0702439276697971,0.227071951763267,0.0200436659592785,0.4463037745975271,-0.77096186099902,-0.7151860880017302,-0.940386919654247,0.3478323055633601,2.1710864430262724,0.5010993155452901,-0.8558872080208928,-0.7999594843154314,1.195729002701113,0.7590394427851949,-0.523453158554682,-0.7613302588207471,9.756002839088069,-1.260570630368809,0.0899694195337236,-1.159677173649657
1.02,-0.944454378133451,0.3557090165109674,2.1784956107825284,0.0695616699807507,0.2312180728892557,0.0199471020876265,0.4696601408034694,-0.7885659948245515,-0.6977372512530283,-0.940386919654247,0.3478323055633601,2.1710864430262724,0.5010993155452901,-0.8558872080208928,-0.7999594843154314,1.7028558908317484,1.167818310297114,-0.8802066912765749,0.8724418374350951,9.72742038647175,-1.252257727269236,0.0902594609138749,-1.1544527357021328
1.04,-0.9348025006980892,0.3397723367563632,2.16468986995799,0.0659753807624748,0.2349144207584056,0.0195951138104417,0.4942413097602613,-0.8035586384610602,-0.6841586086852293,-0.940386919654247,0.3478323055633601,2.1710864430262724,0.5010993155452901,-0.8558872080208928,-0.7999594843154314,1.5916915251374433,1.2290584478395985,-0.7496321818254381,0.678932128389953,11.900578755327842,-1.2500603221347617,0.0936043172669795,-1.1626602992274695
1.06,-0.9246611972581888,0.3235819135248669,2.1510808643196686,0.0612970712329539,0.2375718199348933,0.0190948099255809,0.5185655947571198,-0.814477914705637,-0.6776887637812485,-0.935375926498794,0.3392734334831511,2.1630868481831182,0.5150945815059834,-0.8749660900594861,-0.8199594846134546,1.3718239021420875,1.216214249842923,-0.545963812228839,0.3234922451990363,11.418675872187125,-1.2480061695959304,0.09810228413803,-1.1681408273884877
1.08,-0.9140407816506668,0.3072026963414614,2.1375310774583323,0.0566788320759252,0.238804775704405,0.0185146840435953,0.5421008607160763,-0.8228667633909489,-0.6775542757452014,-0.9253539401878884,0.3221556893227333,2.147087658496809,0.5430851134273702,-0.9131238541366726,-0.859959485209501,1.249299416728947,1.1767632979478249,-0.4194424342655933,0.0067244018023548,10.98131305757306,-1.2470628606863472,0.1023382332330189,-1.170226647344427
1.1,-0.9035247717893836,0.2915038436329464,2.124614413997139,0.0527552272883591,0.2385693135049695,0.0179269041765988,0.5635669506266171,-0.8292912754721651,-0.6820712002748869,-0.9153319538769824,0.3050379451623154,2.1310884688105007,0.5710756453487569,-0.9512816182138591,-0.8999594858055475,1.142880110440272,1.0733044955270388,-0.3212256040608097,-0.225846226484272,10.627406102510577,-1.247466092107425,0.1062804604829061,-1.1701736755377137
1.12,-0.892025628550787,0.2748593058742025,2.1108858127714734,0.049292600912526,0.2367421981596788,0.0172895611975449,0.585095080876662,-0.8348952942770899,-0.6907070788476966,-0.9039104409700074,0.2860123127980382,2.11308927909439,0.5990661772701436,-0.989439382291046,-0.939959486401594,1.1931510985130511,1.0764065125022426,-0.2802009402462391,-0.4317939286404837,10.342457697501231,-1.2494751453112387,0.1094831303635352,-1.167369951598751
1.14,-0.8801046574386701,0.258110669951314,2.096959868755748,0.0465682835541068,0.2331545321608666,0.0166398224169161,0.60578990979815,-0.8397885293166237,-0.7015012597695607,-0.8924889280630323,0.266986680433761,2.095090089378279,0.6270567091915303,-1.0275971463682323,-0.9799594869976403,1.192407265802789,1.0347414460743998,-0.2446617519766936,-0.5397090460932064,10.105796753895447,-1.2539431181777645,0.111927533591933,-1.1615993696642308
1.16,-0.8677802907312756,0.241261372356285,2.08279859558184,0.0442907375974455,0.2276048542817901,0.0159553992139734,0.6251737804565376,-0.8448801784494274,-0.7139875333834199,-0.8803676518580223,0.2470071039675541,2.0760908996472667,0.655047241112917,-1.065754910445419,-1.0199594875936868,1.180642157210261,0.9691935329193824,-0.2545824566401844,-0.6243136806929617,9.986040010811848,-1.260733321422582,0.1138261397188751,-1.153223317813851
1.18,-0.8557393519885677,0.2251617557177895,2.0691000705859577,0.0422708784429659,0.2209075582582836,0.0152786908424725,0.6410077147449764,-0.8495156320549321,-0.7272645704115978,-0.8675466123549779,0.2260735833994177,2.0560917099013536,0.6830377730343037,-1.1039126745226056,-1.0599594881897332,1.0588680482323922,0.7916967144219411,-0.2317726802752329,-0.663851851408892,9.8834061685111,-1.2693589144338668,0.1156396253525451,-1.1420845337891696
1.2,-0.8427704757814299,0.2081242208400187,2.0543916412919696,0.0402512389355486,0.2129858988937047,0.0145676540745508,0.6547292882994468,-0.8539519591569968,-0.7429137222793081,-0.8236889662513188,0.1826859741150429,2.0327368420653777,0.7313257687057766,-0.9051171283043694,-0.8272645719017139,1.0640236523991322,0.6860786777235173,-0.2218163551032381,-0.782457593385516,9.772067627641263,-1.278644678447882,0.1173165287718785,-1.1294738601303134
1.22,-0.8295555809336369,0.1908608724905507,2.0397183268901884,0.0342440276541811,0.207195204715899,0.0137021163471213,0.6660638976866067,-0.8699313632149974,-0.7216738758931213,-0.8236889662513188,0.1826859741150429,2.0327368420653777,0.7313257687057766,-0.9051171283043694,-0.8272645719017139,1.4447714339274844,0.5667304693579955,-0.798970202900029,1.0619923193093406,9.643783400953907,-1.2811760945985358,0.1223683422082905,-1.1060525695099537
1.24,-0.8168036285953367,0.1742587292507545,2.026160952535889,0.0247559518318554,0.2062093547428766,0.0128233866845278,0.6761575330061682,-0.8760565187105783,-0.7067167150580338,-0.8236889662513188,0.1826859741150429,2.0327368420653777,0.7313257687057766,-0.9051171283043694,-0.8272645719017139,0.9527797017884296,0.5046817659780767,-0.3062577747790451,0.7478580417543734,12.145037091333506,-1.284789385916628,0.1322140440526771,-1.1096758828626292
1.26,-0.8031601462483071,0.1567274257992252,2.0121083936138078,0.0142511963545209,0.2080600085493606,0.011961887149911,0.6878682196176481,-0.8764761126738339,-0.6997386831721313,-0.816375708564261,0.1736348028319992,2.0244641963463605,0.7493893794979366,-0.9162374275542567,-0.847264572199737,0.6819258922474037,0.5855343305739946,-0.0209796981627763,0.3489015942951257,11.40590968333072,-1.2851395507781147,0.1428073320650139,-1.1159772510317725
1.28,-0.7892767714414468,0.1392302055122612,1.9981069788408885,0.0045493025849119,0.2114914583509188,0.0111840860664438,0.7001193060646863,-0.8732507893329183,-0.7007486314966127,-0.8017491931901455,0.1555324602659118,2.007918904908326,0.7855166010822567,-0.938478026054032,-0.8872645727957835,0.6354365141467331,0.6125543223519103,0.161266167045776,-0.0504974162240712,10.840318918527371,-1.2835435107739723,0.1522174988247291,-1.1223888841959
1.3,-0.775142245904325,0.1218246875799828,1.9840245458981216,-0.0038789627540344,0.2157005190775909,0.0104939114665457,0.7129074744919659,-0.8676201329960878,-0.7074635714769182,-0.78712267781603,0.1374301176998244,1.991373613470292,0.8216438226665768,-0.9607186245538069,-0.92726457339183,0.7751321846096086,0.6394084213639795,0.2815328168415287,-0.3357469990152739,10.413634946546154,-1.280405790577568,0.16090725009393,-1.1286399162753653
1.32,-0.7614725184777963,0.1054108563416623,1.9704801734536843,-0.0105681075006787,0.2200025564301868,0.0099240771773621,0.7255096505068901,-0.8606531703812103,-0.7179383413429536,-0.7706898013626984,0.1182157452087483,1.9728283220024556,0.8577710442508968,-0.9829592230535816,-0.9672645739878764,0.8903288888588249,0.6301088007462097,0.3483481307438751,-0.523738493301773,10.10920282356892,-1.2763629979417364,0.1681667715891037,-1.1343033457276828
1.34,-0.7468157537340031,0.0882881481526438,1.9559886227538577,-0.0162246450863192,0.2245944965091019,0.0094186520902653,0.7396247096001077,-0.8521533990792856,-0.7307481182076553,-0.7542569249093668,0.0990013727176721,1.9542830305346188,0.8938982658352169,-1.0051998215533566,-1.007264574583923,1.043517355765459,0.7057529546608821,0.4249885650962348,-0.6404888432350819,9.8868851795487,-1.2720016426657683,0.1739743455056782,-1.1393356855704446
1.36,-0.7318676946200867,0.0713413358708627,1.9412274973236192,-0.0206281575052819,0.2290986390309786,0.0090056900270053,0.7545952117204858,-0.8431513074434206,-0.7447397809174229,-0.7369208679164273,0.0792309852641016,1.9347377390518807,0.930025487419537,-1.0274404200531315,-1.0472645751799694,1.1190623451584991,0.7485251060189047,0.4501045817932481,-0.6995831354883797,9.806466585199814,-1.2678756848751112,0.1783248349810578,-1.1440027876493786
1.38,-0.7173743951358431,0.0554134042465344,1.9269346723998872,-0.0238870276421751,0.2329666528437045,0.008694574810539,0.7702798492996767,-0.8340950354954176,-0.7590748889125568,-0.7186816303838798,0.0589045828480368,1.9141924475542424,0.966152709003857,-1.0496810185529066,-1.0872645757760158,1.154901769436373,0.7842318789595459,0.4528135974001479,-0.7167553997566967,9.760578429177258,-1.263734534030928,0.1819729846897882,-1.14911614532701
1.4,-0.7017858777484259,0.0388364956745276,1.9115836756997904,-0.0264750114690153,0.2361838363720713,0.0084600655547137,0.7877412727086922,-0.8241938744126266,-0.7753173433037555,-0.6788604026708592,0.0137086524717635,1.8889809279542595,0.8702798507897929,-0.8365723093060725,-0.8590748904026729,1.2910767046407985,0.8730711704507732,0.4950580541395522,-0.8121227195599323,9.717840793665346,-1.260724953843282,0.1847795423837929,-1.1533053732027294
1.42,-0.685766628772132,0.0223196007283936,1.89624229196722,-0.0331960762382052,0.2386326280388962,0.0079705331402756,0.8137127041932407,-0.8253811195978439,-0.7563151902426731,-0.6788604026708592,0.0137086524717635,1.8889809279542595,0.8702798507897929,-0.8365723093060725,-0.8590748904026729,1.6101293623830504,1.298571574227425,-0.0593622592608644,0.9501076530541164,12.008828115628605,-1.2525515155178353,0.1902170091920713,-1.142927549667366
1.44,-0.6692212392383491,0.0058950976633091,1.881272091567541,-0.0443359601877378,0.240403279368834,0.0072089841152329,0.8394021499074907,-0.8160554217081942,-0.7418853468879555,-0.6788604026708592,0.0137086524717635,1.8889809279542595,0.8702798507897929,-0.8365723093060725,-0.8590748904026729,1.5452642504407652,1.2844722857125013,0.4662848944824826,0.7214921677358821,11.450621131287336,-1.2560070596418582,0.2027375667167141,-1.1509616546932389
1.46,-0.6530395936040152,-0.0094647012396037,1.867235755657272,-0.0552028025814055,0.2411406170715853,0.0065330763830429,0.8625129811662351,-0.8011528164809834,-0.7363255115800259,-0.6701576041629613,0.0053429293787027,1.8803901790502329,0.890279851087816,-0.8370677640682035,-0.8790748907006961,1.4027739774100714,1.155541562937218,0.7451302613605437,0.2779917653964792,11.450621131287336,-1.260602804789421,0.2158829257517737,-1.1570591512789727
1.48,-0.6355496404723601,-0.0252892980724616,1.8525076984487037,-0.0654534629525172,0.2407995907758684,0.0060085469003732,0.8851125561684934,-0.7821471308340925,-0.7370446543955433,-0.6527520071471654,-0.0113885168074186,1.863208681242179,0.9302798516838624,-0.8380586735924654,-0.9190748912967426,1.4768835800260642,1.1299787501129144,0.9502842823445434,-0.0359571407758718,10.947424330866852,-1.2656914083299204,0.2278347222100294,-1.1608792881600123
1.5,-0.6176239550941701,-0.0407076642728878,1.837699100588436,-0.0738960608837515,0.2392400437801469,0.0057453353338328,0.906229536291513,-0.760971473907798,-0.7437169281653178,-0.6353464101313696,-0.0281199629935401,1.8460271834341255,0.970279852279909,-0.8390495831167274,-0.959074891892789,1.5320366616329326,1.0558490061509829,1.0587828463147264,-0.3336136884887208,10.561328538515228,-1.2695995542630027,0.23724844519359,-1.1614515970786532
1.52,-0.6002161683689619,-0.0549496686676911,1.823465732393948,-0.080145184031513,0.2365063454203874,0.0057687899864105,0.9250127602136764,-0.7396144894258782,-0.7541429135160755,-0.6159408130857714,-0.0449009546558746,1.82684568559627,1.0102798528759551,-0.8400404926409893,-0.9990748924888356,1.5146216174389178,0.9391611961081736,1.0678492240959905,-0.5212992675378891,10.253159041761135,-1.274222843331286,0.2450835960775582,-1.159054448935763
1.54,-0.5815204573211713,-0.0694965481262559,1.808249164093466,-0.0849765334641061,0.2322912024364873,0.0060841549706271,0.9434112797684008,-0.716466913551579,-0.7669934731265059,-0.5965352160401732,-0.0616819463182092,1.8076641877584143,1.050279853472002,-0.8410314021652513,-1.039074893084882,1.612027196547279,0.9199259777362134,1.1573787937149582,-0.6425279805215178,9.909050019045935,-1.2804900200838287,0.2509976662543483,-1.1542702836752488
1.56,-0.562470464110387,-0.0835745148466002,1.792759461679705,-0.0881446489753143,0.2267195800557404,0.0066895817229475,0.9603276675791484,-0.692795594321682,-0.781314321788246,-0.5761296189796739,-0.0784877107186503,1.7874826899056573,1.0902798540680485,-0.8420223116895132,-1.0790748936809285,1.6214054374521547,0.8458193905373834,1.183565961494848,-0.7160424330870052,9.909050019045935,-1.2884116472710572,0.2552068862977942,-1.1477296538027817
1.58,-0.5431072078604658,-0.0971737170003696,1.776966811584211,-0.0896670110471416,0.2200882826687925,0.0075516176678929,0.9748492335751304,-0.6687130725853796,-0.7971354753041099,-0.5547240219042734,-0.0953182478571979,1.7663011920379992,1.1302798546640946,-0.8430132212137752,-1.1190748942769748,1.6133448412596638,0.7260782997990933,1.2041260868151216,-0.7910576757931942,9.819803846521609,-1.296892500324578,0.257629581439485,-1.1403112467257652
1.6,-0.5244670429847964,-0.109641942233585,1.7616566812911891,-0.0894545169192007,0.213207473263982,0.008568799251824,0.9863142526566724,-0.645245329829109,-0.8135897194551063,-0.4943647461817093,-0.1306093706296386,1.7371100378190054,1.0748492350652463,-0.6173707454376574,-0.877174134578688,1.5434731639999544,0.573250954077098,1.1733871378135308,-0.8227122075498194,9.72345836117347,-1.3062990210201697,0.2583929209771568,-1.13172335328589
1.62,-0.5045649060242018,-0.1224284387252685,1.7455949443690602,-0.0929972358728349,0.206200414284916,0.0093821558699357,1.003444040129971,-0.6322293567716767,-0.7899049454007888,-0.4943647461817093,-0.1306093706296386,1.7371100378190054,1.0748492350652463,-0.6173707454376574,-0.877174134578688,1.599854443001178,0.8564893736649204,0.6507986528716148,1.184238702715873,9.624033772473922,-1.3188496601144208,0.261969801409957,-1.1130588033718951
1.64,-0.4843437492885978,-0.1348426064157936,1.7300030407081477,-0.1013413051150078,0.2001853158263749,0.0098454189297805,1.0175013631879837,-0.6091156565742787,-0.771175861153953,-0.4943647461817093,-0.1306093706296386,1.7371100378190054,1.0748492350652463,-0.6173707454376574,-0.877174134578688,1.6451672142198908,0.7028661529006497,1.1556850098699,0.9364542123417918,11.632091938234224,-1.3282552818234006,0.2725270218621407,-1.1117346066481264
1.66,-0.4638801180820121,-0.1467262624065669,1.7146802101326135,-0.1100076500342635,0.1953013326750102,0.0102628642963705,1.0280481888834918,-0.580442361271932,-0.7619889665643496,-0.4836162538310569,-0.1367830780840152,1.7283382964732186,1.0948492353632695,-0.607102280008113,-0.8931818664336036,1.595142962203928,0.5273412847754066,1.4336647651173318,0.4593447294801711,11.632091938234224,-1.3357368513888883,0.2826854947273778,-1.1096407229759504
1.68,-0.4442719354000825,-0.1574562828850955,1.7002276345090872,-0.1170086585785116,0.1918831665720728,0.010682057232545,1.0353815572242349,-0.5507873512619055,-0.7597391392487409,-0.4621192691297519,-0.1491304929927684,1.7107948137816449,1.134849235959316,-0.586565349149024,-0.9251973301434347,1.5315512012873154,0.3666684170371526,1.4827505005013286,0.1124913657804316,10.708487313987462,-1.3425080258968234,0.2918990997251581,-1.1073075876152851
1.7,-0.4235048243457386,-0.1681326735957436,1.6850124122980925,-0.122729816797422,0.1899027559390284,0.0111027602643826,1.0408648238563691,-0.5186852788192874,-0.762076948011574,-0.440622284428447,-0.1614779079015215,1.693251331090071,1.1748492365553624,-0.5660284182899351,-0.957212793853266,1.6325399060067076,0.2741633316067138,1.6051036221309043,-0.1168904381416535,10.708487313987462,-1.347496923474643,0.2993548164911492,-1.1068937971503945
1.72,-0.4026389202699886,-0.178157634867179,1.6697056991249546,-0.1266436839306636,0.1897071880125161,0.0114678718344117,1.0456741441691837,-0.485902324877266,-0.7684267683582292,-0.4171252996973398,-0.1727984762673202,1.6741070752130056,1.2148492371514088,-0.5454914874308462,-0.9892282575630972,1.6868401298513325,0.2404660156407279,1.6391476971010703,-0.3174910173327605,10.431764815533825,-1.3501271354721736,0.3048310107906768,-1.1095750908070674
1.74,-0.3827216172962414,-0.1870697889647049,1.6550367238808374,-0.128762539116621,0.1907439231353999,0.0117959645975041,1.0507942040573448,-0.4542997190065795,-0.7753211542604392,-0.3936283149662325,-0.1841190446331189,1.6549628193359402,1.2548492377474554,-0.5249545565717573,-1.0212437212729284,1.6374311191962363,0.2560029944080555,1.5801302935343235,-0.3447192951105016,10.227486204821616,-1.351804945707469,0.3089266007550078,-1.1142678218500064
1.76,-0.361638154421094,-0.1957957003952314,1.6394491373707685,-0.1292068736811283,0.1925723682229096,0.0121928658885086,1.0573878995831616,-0.4201742162205236,-0.7830786869269577,-0.3691313302202241,-0.1949261897274404,1.6350181768661292,1.2948492383435015,-0.5044176257126685,-1.0532591849827595,1.7805940540732352,0.3296847762908395,1.706275139302793,-0.3878766333259231,10.19480548719912,-1.351720296353715,0.311167911758033,-1.120651244895807
1.78,-0.3404108048039648,-0.2038251937256299,1.6237018935498708,-0.1270875328910781,0.194581992931161,0.0127678815120936,1.0650784398674271,-0.3848029718823261,-0.7912365354249516,-0.3436343454593145,-0.2052199115502846,1.6142731478035723,1.334849238939548,-0.4838806948535795,-1.0852746486925908,1.855276143874952,0.3845270142132873,1.7685622169098747,-0.4078924248996973,10.18404034267951,-1.3511419249810803,0.3109020603752381,-1.1285633566299538
1.8,-0.3190194162953914,-0.2111541667946154,1.607790105263044,-0.1219955445118853,0.1963368957208816,0.0136052374434065,1.0736878984716278,-0.3509951774195172,-0.7994079994146694,-0.2871568828105934,-0.2230653423197462,1.5841400667786232,1.1650784413575437,-0.296816212040884,-0.7916138112313377,1.7915514000665962,0.4304729302100241,1.690389723140448,-0.4085731994858899,10.183593748771273,-1.3517853318355972,0.3080406720683494,-1.1377026531061691
1.82,-0.2983819042900276,-0.2175555125847289,1.592996680904333,-0.1185694711692814,0.1957341575329773,0.0145916792192256,1.0978979469081236,-0.3230986148393353,-0.7575608520779417,-0.2871568828105934,-0.2230653423197462,1.5841400667786232,1.1650784413575437,-0.296816212040884,-0.7916138112313377,2.7908459243163533,1.2105024218247884,1.3948281290090958,2.092357366836389,13.790728925447183,-1.358848046542649,0.3047625930560358,-1.131557198192487
1.84,-0.2761659805936661,-0.2236661027916323,1.5782780202750006,-0.1168711514447701,0.1907039963127864,0.01602792844658,1.1217158333479824,-0.2894763505831743,-0.7168689914800896,-0.2871568828105934,-0.2230653423197462,1.5841400667786232,1.1650784413575437,-0.296816212040884,-0.7916138112313377,2.8955033617180232,1.190894321992941,1.6811132128080468,2.0345930298926005,13.307285067639896,-1.3660458015031014,0.3063291512423338,-1.1377399736075875
1.86,-0.2535314383847186,-0.2290894035750786,1.5643031321490952,-0.1149665293646867,0.1821874603483141,0.0178886014626219,1.1398877661221651,-0.2547639445333735,-0.682843326678842,-0.275506098397018,-0.2260335044401551,1.5762239286663098,1.1850784416555666,-0.2792188600725956,-0.7916892663926148,2.5946657490332607,0.908596638709136,1.735620302490043,1.7012832400623843,13.307285067639896,-1.377691902223555,0.3075462978126426,-1.1375561328354804
1.88,-0.2305976307373143,-0.2338235721252338,1.5509385951879722,-0.1119733019710445,0.1717004251833037,0.0200354820734775,1.1520791652064082,-0.2209526074058511,-0.655153851132314,-0.2522045295698671,-0.2319698286809728,1.560391652441683,1.2250784422516132,-0.2440241561360187,-0.7918401767151693,2.2685588960968306,0.6095699542121524,1.690566856376119,1.3844737773264004,12.79893538833312,-1.389620670200883,0.307414288405717,-1.133831553186106
1.9,-0.2086390317658355,-0.2377121249283196,1.5387057268803803,-0.1082391785048552,0.1611193444622735,0.0221712044142247,1.1584260970559113,-0.1905045401507548,-0.6338020606469557,-0.2289029607427162,-0.2379061529217905,1.5445593762170562,1.2650784428476596,-0.2088294521994419,-0.7919910870377237,1.886310751442972,0.3173465924751539,1.5224033627548137,1.0675895242679143,11.966644693692617,-1.402142811444636,0.3060280007527008,-1.1276163781574198
1.92,-0.1854451894475899,-0.2412032069229087,1.5262268901480014,-0.1036763122823262,0.1503676531750664,0.0243699622738829,1.1602984746402842,-0.160552503297373,-0.615341885392099,-0.203601391885763,-0.2420827419657793,1.5287195544763017,1.305078443443706,-0.1736347482628651,-0.7921419973602781,1.7616812849695782,0.0936188792186487,1.4976018426690898,0.9230087627428328,11.966644693692617,-1.4144369761004294,0.3036675622657236,-1.1200367690928306
1.94,-0.1622568150451256,-0.2441136563342054,1.5140934984594727,-0.0987060857667578,0.140832206676638,0.0264126364393016,1.1582602135017563,-0.1322952798887684,-0.5989540905268785,-0.1782998230288098,-0.2462593310097681,1.5128797327355472,1.3450784440397523,-0.1384400443262882,-0.7922929076828326,1.636448138329758,-0.1019130569263948,1.412861170430231,0.8193897432610231,11.666312658518107,-1.4253793904468828,0.3005457670935821,-1.1119037317602365
1.96,-0.1391387800545473,-0.2464704236209837,1.5022690298672683,-0.0932846076181194,0.1329592822945198,0.0282650081231833,1.1536146899195925,-0.1052334889388685,-0.5842497341013021,-0.1519982541569555,-0.2495560524553426,1.497036138236729,1.3850784446357989,-0.1032453403897113,-0.7924438180053869,1.5573531364617617,-0.2322761791082039,1.353089547494992,0.7352178212788218,11.528516293064968,-1.433458102421585,0.2968463852780698,-1.1046319975886532
1.98,-0.1172843465220102,-0.2482234380844856,1.491296063830171,-0.0877338487019347,0.1271895597727079,0.0298432197780004,1.1470179458134924,-0.0810150595265289,-0.5714923905726655,-0.1246966852702,-0.2519729063025026,1.4811887709798468,1.4250784452318452,-0.0680506364531345,-0.7925947283279413,1.4078344806026444,-0.3298372053049947,1.2109214706169824,0.6378671764318278,11.414920877515216,-1.4401350874681915,0.2924684860605909,-1.099155503421268
2.0,-0.0944370387031332,-0.2495917991513775,1.479998575336391,-0.081651360031072,0.123376383883,0.031279132954886,1.1379500778278997,-0.0573893776896625,-0.5589509886357161,-0.0599334492313355,-0.2522741910608121,1.462721444301538,1.22248308108981,0.0099199546617607,-0.5297117995616182,1.412166628451731,-0.4533933992796335,1.1812840918433172,0.6270700968474707,11.262885902161544,-1.444352491282909,0.2878041659755294,-1.0970476763161765
2.02,-0.0716863067360977,-0.250493245042226,1.4692007964166476,-0.0758413860204303,0.1202112834105149,0.0326036806308723,1.1379094423666722,-0.0338906719640054,-0.5201307984632669,-0.0599334492313355,-0.2522741910608121,1.462721444301538,1.22248308108981,0.0099199546617607,-0.5297117995616182,2.2689193391606404,-0.0020317730613728,1.1749352862828577,1.94100950862246,11.262885902161544,-1.448489889268406,0.2832750227407797,-1.0943969710534571
2.04,-0.0489378339400404,-0.2509347018922087,1.4592057758653918,-0.0705031639054596,0.1153617551800687,0.0339842100178581,1.136649417345959,-0.0115844321769614,-0.4816041875337377,-0.0599334492313355,-0.2522741910608121,1.462721444301538,1.22248308108981,0.0099199546617607,-0.5297117995616182,2.2268002527198365,-0.0630012510356659,1.1153119893522,1.9263305464764624,13.185192715730407,-1.4525749154879697,0.2795946412993119,-1.092542713899005
2.06,-0.0273798455609223,-0.2509575236161527,1.4503813623212358,-0.0658125568983557,0.1098512506137557,0.0352909846936394,1.1324716520435985,0.0079945640053724,-0.4491764768163213,-0.0477086184204375,-0.2521749915141945,1.4574243263059217,1.2375761081450736,0.0281069574994186,-0.5213556813594087,1.9054836897766227,-0.2088882651180235,0.9789498091166922,1.62138553587082,12.918377041310125,-1.4580967865956107,0.2761235006483885,-1.0893218913933926
2.08,-0.0048093680047745,-0.2505972514487897,1.4417244071219784,-0.0613550669248894,0.104078833283959,0.0365867471118986,1.124550150120072,0.0269446772189197,-0.4183749671237733,-0.0232589567986412,-0.2519765924209592,1.4468300903146891,1.2677621622556006,0.0644809631747345,-0.5046434449549898,1.851074000999703,-0.3960750961763293,0.9475056606773662,1.5400754846273956,12.61091547579963,-1.4639735374089224,0.2732448033331328,-1.0871974903373474
2.1,0.0175629999433173,-0.2498732308446778,1.4336438587592923,-0.0574528092352057,0.0995417807558948,0.0377284614840487,1.1129681859640106,0.0445206408195047,-0.3912119996302635,0.0011907048231549,-0.251778193327724,1.436235854323457,1.2979482163661276,0.1008549688500503,-0.4879312085505708,1.7181990522454411,-0.5790982078030638,0.8787981800292521,1.358148374675494,12.373182891201395,-1.4684965983190386,0.2709645680721578,-1.0865274832727412
2.12,0.038571580644683,-0.2488714189498639,1.4264446886532154,-0.0542639784862407,0.0975294340826336,0.038617782478288,1.0991379489525217,0.0601071159086965,-0.3679586002174994,0.0271496691504774,-0.249761093950723,1.4264772301524455,1.3281342704766546,0.1372289745253662,-0.4712189721461519,1.5611968531782665,-0.6915118505744444,0.779323754459589,1.1626699706382029,12.153456173675297,-1.471359964442999,0.2690259473405422,-1.088384258099766
2.14,0.0604008140943529,-0.2475058320124099,1.4193379356227438,-0.0514952797756376,0.0982928124645734,0.0393390639450548,1.0848355122188345,0.0756998406968656,-0.3439676064156839,0.0531086334778,-0.247743994573722,1.4167186059814345,1.3583203245871818,0.1736029802006821,-0.4545067357417329,1.5994221975759366,-0.7151218366843626,0.7796362394084516,1.1995496900907732,11.988729242710178,-1.47064537232643,0.2676514013271377,-1.095290888023995
2.16,0.0819617400090523,-0.2458267163621457,1.4127081781419597,-0.0491144370853267,0.1013499438533805,0.0399052110095274,1.072314228574163,0.0913951874868372,-0.3202270976170872,0.0798222491578857,-0.2448175450548381,1.4073777877205331,1.3885063786977088,0.2099769858759979,-0.4377944993373139,1.554620703728115,-0.6260641822335766,0.78476733949858,1.1870254399298368,11.945262378651933,-1.4673373756066683,0.2666719786988622,-1.1055977416610598
2.18,0.1022337556896624,-0.2439422897960214,1.4068502594970456,-0.0469699465873188,0.1056016951538966,0.0403634926143484,1.0624584858166932,0.1061156981903941,-0.2976032158791392,0.1072905161907346,-0.2409817453940713,1.3984547753697427,1.4186924328082358,0.2463509915513137,-0.421082262932895,1.4367229426437862,-0.4927871378734849,0.7360255351778477,1.1311940868973995,11.955887181251455,-1.4622185134716417,0.2656937876261316,-1.1184304117432935
2.2,0.1233940353522571,-0.2416609681284671,1.4011513095049202,-0.0447937988143916,0.1108000362546526,0.0408030290183509,1.0543231480416586,0.1211884685440979,-0.2734862550003496,0.1553566799804971,-0.2386365048865017,1.3919700987030883,1.0678486418771505,0.2061156996805102,-0.208851318663296,1.4790198856662362,-0.4067668887517306,0.7536385176851907,1.2058480439394808,11.955887181251455,-1.4561693526183626,0.2647166436343887,-1.1321285118571187
2.22,0.1446315950974429,-0.239056081656564,1.3960877800238467,-0.0423642019198296,0.1098252108785909,0.0415233848066395,1.0694899322082847,0.1383319949068356,-0.2332238934047091,0.1553566799804971,-0.2386365048865017,1.3919700987030883,1.0678486418771505,0.2061156996805102,-0.208851318663296,2.3157016211965886,0.7583392083313045,0.8571763181368826,2.0131180797820223,11.987266358937632,-1.4511627096029738,0.2634660476875942,-1.1445895771213177
2.24,0.1661132429759839,-0.2361279256649589,1.3918560375918472,-0.0398342775954399,0.097884531522724,0.0426810740875742,1.0763993485630654,0.1535251627431598,-0.1920318038000998,0.1553566799804971,-0.2386365048865017,1.3919700987030883,1.0678486418771505,0.2061156996805102,-0.208851318663296,2.2222514648777896,0.3454708177390353,0.7596583918162092,2.059604480230468,13.41075779447965,-1.468465684195778,0.2626902284064292,-1.1352426574047951
2.26,0.1865404102069718,-0.2330843339115494,1.3885667339574983,-0.0378745341297555,0.0810162997877421,0.043920523400353,1.072531994994964,0.1661992228480048,-0.1562160900081867,0.1660351663992686,-0.2365753478896966,1.3898815855164557,1.068926673089242,0.2261156999785334,-0.1911009392201274,1.909419792493368,-0.1933676784050764,0.6337030052422532,1.7907856895956544,13.177717391661645,-1.4911308695592995,0.262086237113281,-1.1155552681671324
2.28,0.2078530440343935,-0.2296364184957604,1.3858045118496387,-0.0366117081664588,0.0611702350905903,0.0451996361833308,1.0581391834519955,0.1779605605574107,-0.12205577578804,0.1873921392368116,-0.2324530338960864,1.3857045591431896,1.0710827355134247,0.2661157005745799,-0.1556001803337901,1.9444852509374109,-0.7196405771484171,0.5880668854702953,1.708015711007333,12.848871133935065,-1.5150938244361525,0.2621875862409593,-1.0915880802227016
2.3000000000000003,0.2287799453912282,-0.2259678509987789,1.3836806805834774,-0.0365654655169446,0.0421670470210197,0.0463345418733081,1.0347994322745395,0.1883987203902148,-0.0922350642275087,0.2087491120743546,-0.2283307199024762,1.3815275327699237,1.0732387979376077,0.3061157011706263,-0.1200994214474528,1.9640353889995972,-1.1669875588727896,0.5219079916402011,1.4910355780265672,12.57328750205943,-1.5375599855616178,0.2634409030937725,-1.068261273279454
2.32,0.2491636946379407,-0.2220992900848954,1.382114672534561,-0.0380638375163216,0.0262038411688848,0.0472517676821622,1.0045595389017374,0.19808975427003,-0.0660110607905837,0.2302138880331068,-0.2222084058790636,1.379125544340975,1.0753948603617909,0.3461157017666728,-0.0845986625611155,2.0591658779212247,-1.5119946686401151,0.4845516939907632,1.311200171846251,12.303964563772752,-1.5555588681876589,0.2659658211038376,-1.0498919139831369
2.34,0.2679149789304249,-0.2182426471858989,1.3810934811430882,-0.0410198178952738,0.015267348268269,0.0478785097043076,0.9709219893015616,0.2079084909421182,-0.0428092973556616,0.251678663991859,-0.2160860918556511,1.3767235559120257,1.0775509227859734,0.3861157023627193,-0.0490979036747782,2.101317538730275,-1.681877480008792,0.4909368336044106,1.1600881717461011,12.117109022484328,-1.5692962649708786,0.2700896615825205,-1.037337189536171
2.36,0.2869262234542873,-0.2139481066063451,1.3804907932050603,-0.0446538117437887,0.0091863726125374,0.0483043196807043,0.9319558405446328,0.2211325926366544,-0.0186965575061225,0.2731973415112157,-0.2089637778173374,1.3752090864552349,1.0797069852101564,0.4261157029587657,-0.0135971447884409,2.3846707517108547,-1.948307437846436,0.6612050847268083,1.2056369924769577,12.068878561603924,-1.5775947189940875,0.2748308847107447,-1.0342900619463735
2.38,0.3051466330662983,-0.20936703926416,1.380375684778343,-0.0478583633388634,0.0092357988558031,0.048491575063219,0.8928330564686755,0.2362286190886142,0.006019976468087,0.294769920591177,-0.2008414637641226,1.3745821359706027,1.0818630476343392,0.4661157035548121,0.0219036140978962,2.43381865603752,-1.9561392037978689,0.7548013225979894,1.235826698710481,12.115163550086436,-1.5793064910678425,0.2791742531479048,-1.0435068103244027
2.4,0.3217569301714255,-0.2047228240910833,1.3807391603322308,-0.0501940928106605,0.0138554650501548,0.0484865447332147,0.8581916414442167,0.2517270480297636,0.0310317443236467,0.3497882858897321,-0.1975556083097293,1.3806766836017474,0.8272292787024478,0.308081697990382,0.1060199779582032,2.272563236634497,-1.7320707512229416,0.774921447057468,1.250588392777982,12.152125659269586,-1.575492953951608,0.2831325040783254,-1.0620152201325774
2.42,0.3387003405456935,-0.1993406168502484,1.3815854803584913,-0.0465964890404998,0.0176676332011077,0.0489395805436243,0.8382385750989573,0.283502049676782,0.0520799409405303,0.3497882858897321,-0.1975556083097293,1.3806766836017474,0.8272292787024478,0.308081697990382,0.1060199779582032,2.151047516368095,-0.9976533172629698,1.588750082350923,1.0524098308441807,12.241373516938438,-1.5642855411922432,0.2809167909028169,-1.0880722409513242
2.44,0.3552563007045569,-0.1934616575089572,1.3828730805995395,-0.0367517782870338,0.0155380289317613,0.0500754800327485,0.8178081254371573,0.301761710800056,0.0758056620938587,0.3497882858897321,-0.1975556083097293,1.3806766836017474,0.8272292787024478,0.308081697990382,0.1060199779582032,1.8122695315305863,-1.0215224830899985,0.9129830561636963,1.186286057666418,11.81727796008272,-1.5710451379494863,0.2728446201822774,-1.095282317962725
2.46,0.3713603825887881,-0.1873149378208203,1.3846533194443114,-0.0264333511587433,0.0095803316825015,0.0513059579734908,0.7931178023061546,0.3119544423106624,0.1009757716461648,0.3580605786767566,-0.1944747913298254,1.3817368833813295,0.8141085231492022,0.3224523137707355,0.1260199782562264,1.8351009828043043,-1.234516156550136,0.5096365755303228,1.2585054776153055,11.989382127590034,-1.5797463500698514,0.2642914372976752,-1.0948390105916612
2.48,0.3861567588865022,-0.18133512097211,1.386812290240858,-0.0180482704133182,0.0024714962196308,0.0523182123854116,0.7653755690355961,0.317340032089671,0.1249859256201097,0.3746051642508056,-0.1883131573700178,1.3838572829404936,0.7878670120427111,0.3511935453314426,0.1660199788522728,1.854132936144537,-1.3871116635279237,0.2692794889504274,1.2005076986972452,12.065846845968736,-1.589824704072578,0.2565086370746334,-1.0909223172318436
2.5,0.4011226027584546,-0.17495577314905,1.3895787757332003,-0.0112766202383233,-0.0048698949113412,0.0531452090915499,0.7324625911400864,0.3206244500395152,0.1503887552339286,0.3911497498248545,-0.1821515234102101,1.3859776824996577,0.7616255009362201,0.3799347768921497,0.2060199794483193,2.085278918759002,-1.6456488947754866,0.1642208974922121,1.2701414806909443,12.09558541759634,-1.6000665073297842,0.2507458058394228,-1.0863000942808767
2.52,0.4153922066977142,-0.1685266902075797,1.3928527682463492,-0.0066482215075714,-0.0107319164333491,0.0537358309775197,0.6959151595832731,0.3224867017814228,0.1757150912240132,0.4063822598435789,-0.1745528278723672,1.390098082088624,0.735383989829729,0.4086760084528568,0.2460199800443658,2.225200007658213,-1.827371577840664,0.0931125870953814,1.2663167995042302,12.139524627952596,-1.6098480015082572,0.2473223761498185,-1.0833093757903107
2.54,0.4282358267692469,-0.1623933272202632,1.396431993573175,-0.0041115636366496,-0.0134807239247127,0.054107762407489,0.6579331472276333,0.3235462436468029,0.199769263245943,0.4216147698623034,-0.1669541323345242,1.3942184816775904,0.7091424787232379,0.4374172400135639,0.2860199806404123,2.248532345336098,-1.8991006177819905,0.0529770932690021,1.202708601096493,12.231266419847998,-1.616714657971683,0.2455429830479783,-1.0850555209059691
2.56,0.4409710048920001,-0.1559099832843287,1.4007013793072731,-0.0029409236530794,-0.0126915469822171,0.0543549844921829,0.6179913862099984,0.3248943710266126,0.2259757818337399,0.4361912421033655,-0.1586369060076635,1.399338881281458,0.6829009676167468,0.466158471574271,0.3260199812364587,2.3895309880364577,-1.9970880508817457,0.0674063689904858,1.310325929389844,12.231266419847998,-1.6188560687593887,0.2451944948624835,-1.094282175285864
2.58,0.4529250206099875,-0.1494006051941723,1.4055076922361562,-0.0032377029666155,-0.0087584131369591,0.0544717522492528,0.5797962485331039,0.3261353190833694,0.253408421441478,0.4501116765667654,-0.1496011488917852,1.4054592809002266,0.6566594565102557,0.494899703134978,0.3660199818325051,2.352104488582798,-1.9097568838447263,0.0620474028378392,1.371631980386906,12.369075323800644,-1.6184830647994406,0.246396822770119,-1.10985542447733
2.6,0.4641401866108346,-0.1428635402002795,1.410878400373055,-0.0050812007871668,-0.0024803100653268,0.0544506312386484,0.5440677434414296,0.3277407983178634,0.2822947239864179,0.4819148330366427,-0.1330938392400038,1.41817811330823,0.4797962470429877,0.3802415247851974,0.3534084229315942,2.298652928551841,-1.7864252545837125,0.0802739617247028,1.4443151272469923,12.369075323800644,-1.6155636469488803,0.2489716973372105,-1.1279440889027557
2.62,0.4742233963596268,-0.1365161549996356,1.4163517676756647,-0.0051455090731508,0.0026592494565419,0.0545301437758128,0.5187989318095747,0.3391743322572255,0.2923273926882787,0.4819148330366427,-0.1330938392400038,1.41817811330823,0.4797962470429877,0.3802415247851974,0.3534084229315942,1.4746974104117154,-1.2634405815927452,0.5716766969681042,0.5016334350930407,12.45272829548412,-1.6061419679522395,0.2493083906151986,-1.1479823866293957
2.64,0.4843214601910521,-0.1296445680188047,1.4223369846792455,-0.0021218163254616,0.0051109127011362,0.054830221260558,0.492158321681605,0.3469672350324302,0.3059011397730705,0.4819148330366427,-0.1330938392400038,1.41817811330823,0.4797962470429877,0.3802415247851974,0.3534084229315942,1.5449094241865515,-1.332030506398485,0.3896451387602362,0.6786873542395905,11.155820742702415,-1.6077493513080603,0.2469655551898249,-1.1581217420317598
