t,x,y,z,roll,pitch,yaw,v_x,v_y,v_z,ref_x,ref_y,ref_z,ref_v_x,ref_v_y,ref_v_z,a_com,a_x,a_y,a_z,thrust,wind_x,wind_y,wind_z
0.0,0.8484873481613545,-1.29928025224029,1.986425125224936,0.0123172298969036,0.1363009471825022,0.025769115509594,0.0005918105594476,-0.003872965668198,-0.0005484825363332,0.8485061343242684,-1.2994635464645656,1.9864062216796543,-0.0993970005871264,0.0945975827038613,-0.031482516006351,0.1978063187689986,0.0295905279723836,-0.1936482834099021,-0.0274241268166647,10.544439510014854,-1.2841985776757756,0.1636449481994028,-1.1613662569465937
0.02,0.8486580327234973,-1.2995855415876287,1.986277116968072,0.0029800261431761,0.1309497874342632,0.0250962036085955,0.015789415936492,-0.022394208695616,-0.014756071252075,0.8485061343242684,-1.2994635464645656,1.9864062216796543,-0.0993970005871264,0.0945975827038613,-0.031482516006351,1.3927124879104793,0.7598802688522175,-0.9260621513709004,-0.7103794357870855,10.544439510014854,-1.279261448721637,0.1723060458689388,-1.1409107228821114
0.04,0.8490748454986923,-1.3000338119208772,1.9857947447486528,-0.0130690802214528,0.1158919773474047,0.0241251238395136,0.0236883747779616,-0.0207380195732791,-0.0327188699319509,0.8485061343242684,-1.2994635464645656,1.9864062216796543,-0.0993970005871264,0.0945975827038613,-0.031482516006351,0.9846301965737332,0.3949479420734794,0.0828094561168429,-0.8981399339937983,9.729992462185692,-1.3118617465636793,0.1901252402400443,-1.1177816335030808
0.06,0.8495118514017951,-1.3003550168832911,1.9850086789286776,-0.0286379144965767,0.0962858114878271,0.0235788720440531,0.0210112027411559,-0.0128407584605436,-0.0490345507375967,0.847512164318397,-1.298517570637527,1.9860913965195908,-0.1193970008851496,0.1145975830018845,-0.0376601690061097,0.9161542219368632,-0.1338586018402832,0.3948630556367773,-0.8157840402822865,9.483545552098803,-1.3429049134163522,0.2064523813606876,-1.0845510158227
0.08,0.8498135959353397,-1.3004931177697776,1.983856414309078,-0.0443664453796709,0.0738027340027283,0.0235123300095549,0.0085363367686641,-0.0010384360502026,-0.0652881898280465,0.8455242243066545,-1.2966256189834495,1.985461746199464,-0.1593970014811961,0.154597583597931,-0.0500154750056272,1.182262533230108,-0.6237432986245875,0.5901161205170505,-0.8126819545224914,9.477880380460192,-1.3708270410361765,0.2219639704885131,-1.0456504190679832
0.1,0.8497736255049134,-1.3003638716128385,1.9823879217871576,-0.0593125036069643,0.0522598591348351,0.0238693407288681,-0.0123765051398583,0.0136985853020424,-0.0807296284880783,0.843536284294912,-1.2947336673293726,1.9848320958793368,-0.1993970020772425,0.1945975841939774,-0.0623707810051446,1.494125817090806,-1.0456420954261267,0.7368510676122533,-0.772071933001589,9.502050396359664,-1.3918148522653455,0.2357289044574379,-1.0068497640336105
0.12,0.8492407310276929,-1.2999077293408594,1.9806172730785905,-0.0734112979746188,0.033727641737986,0.0244668369197629,-0.0398855704597689,0.0314234046541006,-0.095581192547572,0.8395483442533672,-1.290841715645493,1.9835846802592336,-0.239397002673289,0.2345975847900238,-0.0747260870046621,1.7968631353357518,-1.37545326599553,0.8862409676029123,-0.7425782029746849,9.552119844169283,-1.4039738018321692,0.2472590606739055,-0.9735306850479593
0.14,0.8481796452942719,-1.2991020263853288,1.9786574652550104,-0.0853775460800937,0.0199067245597339,0.0251193939776241,-0.0702511815304579,0.0522568412409894,-0.1099458999732291,0.8355604042118223,-1.2869497639616134,1.982337264639131,-0.2793970032693355,0.2745975853860704,-0.0870813930041795,1.976390165896524,-1.5182805535344506,1.0416718293444382,-0.718235371282857,9.627022465975188,-1.4098174393722298,0.2575259269554093,-0.944503758946866
0.16,0.8464075906133607,-1.29779487219413,1.976296263539386,-0.0958019102341737,0.0098760479261363,0.0257562087636336,-0.1053376073449237,0.0770652057944231,-0.1253842200236178,0.8305724641553763,-1.2820578122628328,1.98078096636904,-0.3193970038653819,0.3145975859821168,-0.099436699003697,2.2830100493801564,-1.7543212907232897,1.2404182276716869,-0.7719160025194363,9.627022465975188,-1.4108155062731536,0.2655492684887311,-0.9220661634575597
0.18,0.8439029166181483,-1.2959702538678766,1.9736254454476956,-0.1037451508316588,0.0052327142582237,0.0261514932965226,-0.1432314352645301,0.1037595308833398,-0.1408501237018588,0.8245845240840292,-1.2761658605491508,1.9789157854489612,-0.3593970044614283,0.3545975865781632,-0.1117920050032144,2.443216815459763,-1.894691395980321,1.3347162544458335,-0.7732951839120497,9.682488118880883,-1.405166659154227,0.2710807443639935,-0.9067730447756486
0.2,0.840641948819867,-1.2935982343651793,1.9706491323553137,-0.1092384545813,0.0062513691191641,0.0261646713782705,-0.1801789899437168,0.1315206645222759,-0.1558583037879682,0.8367413448549218,-1.2907822773237096,1.9665829392626024,-0.2432314367546462,0.2037595323734559,-0.1702976345403674,2.42953071970054,-1.847377733959335,1.388056681946804,-0.7504090043054675,9.682488118880883,-1.391976693813754,0.2741319951967541,-0.9001591704431164
0.22,0.8368542967568693,-1.290682069129529,1.967672533733714,-0.1083482749461228,0.0123417865230483,0.0260504606180046,-0.2156948612559519,0.1716267879458165,-0.1563566374142434,0.8367413448549218,-1.2907822773237096,1.9665829392626024,-0.2432314367546462,0.2037595323734559,-0.1702976345403674,2.6786781196770324,-1.7757935656117538,2.005306171177031,-0.0249166813137607,9.69091908819155,-1.3712925455802938,0.2731043839960119,-0.9092644390279316
0.24,0.8322057094344408,-1.2869089721096687,1.9645559937947823,-0.1013067886803648,0.0231315298969183,0.0259267400148261,-0.2465338081028223,0.2024747801002934,-0.1551983708209137,0.8367413448549218,-1.2907822773237096,1.9665829392626024,-0.2432314367546462,0.2037595323734559,-0.1702976345403674,2.181731447777196,-1.5419473423435206,1.542399607723846,0.0579133296664841,10.662122671838915,-1.3501681558678127,0.267459721078603,-0.9286633490734064
0.26,0.8270064473429181,-1.282597561610417,1.9614517986173985,-0.0929286891732257,0.0360494451180228,0.0257736457944712,-0.2712818681658869,0.2268465293819087,-0.1553565694963804,0.8343090304873754,-1.288744681999975,1.964879962917199,-0.2632314370526695,0.2237595326714791,-0.1761871367080691,1.7367164900696126,-1.237403003153227,1.2185874640807657,-0.0079099337733354,10.547834251437962,-1.330614641433933,0.2613071784077848,-0.951842189308183
0.28,0.8213722492429743,-1.2778414429502647,1.9583217450802144,-0.0850067545165949,0.0493207988187538,0.0256623323271193,-0.2905453310465222,0.2475923818054723,-0.1576646598173086,0.8294444017522824,-1.284669491352506,1.9614740102263917,-0.3032314376487159,0.2637595332675256,-0.1879661410434726,1.4202100864515197,-0.9631731440317648,1.0372926211781763,-0.1154045160464106,10.399072713968051,-1.3115921441235463,0.2549325882704518,-0.9746704458384896
0.3,0.8157079236568565,-1.2729614240526324,1.9552856193561343,-0.0784775749598883,0.0610657319095763,0.0256472676599242,-0.3045860737039532,0.2652190300290534,-0.1618581811936559,0.8245797730171894,-1.2805943007050369,1.958068057535584,-0.3432314382447624,0.3037595338635721,-0.199745145378876,1.1461095099334548,-0.7020371328715524,0.8813324111790574,-0.2096760688173618,10.260399938974842,-1.295408147200653,0.2493294744492017,-0.9944248705201036
0.32,0.8094934936429738,-1.2674777381110929,1.95198467168106,-0.0728043827336352,0.0717014332492744,0.0257510982975694,-0.3159844255397934,0.2823485599865717,-0.1681400796677946,0.8177151442522942,-1.2745191100277655,1.9540731546280063,-0.3832314388408088,0.3437595344596185,-0.2115241497142795,1.0756457009379332,-0.5699175917920074,0.8564764978759132,-0.3140949237069382,10.141080150732703,-1.2830795254005558,0.2448026232084389,-1.0104965437547475
0.34,0.803080530693588,-1.2616619481598244,1.948544736451118,-0.0683463418603252,0.0800386170377109,0.0259821874557171,-0.3248216115927554,0.2985975177741332,-0.1755814256296747,0.810850515487399,-1.268443919350494,1.950078251720429,-0.4232314394368554,0.383759535055665,-0.2233031540496829,0.9968677397742036,-0.4418593026481038,0.8124478893780762,-0.3720672980940004,9.997123204504533,-1.2742260943263886,0.2414662480213452,-1.0219371671905717
0.36,0.7968351473736098,-1.255833191976495,1.945131509392555,-0.0648099204155171,0.0858377901369932,0.0263212549133708,-0.3322290651375491,0.3141451402606035,-0.183350560808732,0.8029858867076025,-1.2613687286583213,1.9457888737044664,-0.4632314400329018,0.4237595356517114,-0.2350821583850864,0.9446671297744778,-0.3703726772396831,0.7773811243235146,-0.3884567589528695,9.970158648456165,-1.2684268114885524,0.2386979960074167,-1.030767469669042
0.38,0.7901135943345869,-1.2493822404024044,1.9413737186259228,-0.0614799464943177,0.0900187556773735,0.0267877420645536,-0.3395925077046651,0.3300915072295045,-0.1920475299799701,0.794121257912905,-1.2532935379512475,1.9412050205801183,-0.5032314406289482,0.4637595362477579,-0.2468611627204898,0.9799798195773456,-0.3681721283558009,0.7973183484450502,-0.4348484585619039,9.970158648456165,-1.2648432190164016,0.2362836168395395,-1.0367212901197944
0.4,0.7832456003844968,-1.2426169656861965,1.9374378320976515,-0.0584063291082002,0.092586686963962,0.0273401233133643,-0.3469079119419744,0.345575248608292,-0.2011207837634712,0.7731339689493537,-1.2328776650409292,1.9317713421269245,-0.4395925091947812,0.4300915087196206,-0.2308361429119369,0.9690011873834788,-0.3657702118654654,0.7741870689393748,-0.4536626891750564,9.947860015912738,-1.2628921788474143,0.2340914781293102,-1.040525333877167
0.42,0.7762316256331212,-1.235547949902447,1.9333757411846229,-0.0556229484680952,0.0940345190214799,0.0279367242924778,-0.35417709496421,0.3605647625546671,-0.2046445058838479,0.7731339689493537,-1.2328776650409292,1.9317713421269245,-0.4395925091947812,0.4300915087196206,-0.2308361429119369,0.851385881579207,-0.3634591511117779,0.7494756973187522,-0.176186106018833,10.259682280306151,-1.2589704101911183,0.2320917493706604,-1.043902685919862
0.44,0.7694396753082196,-1.2285734169848097,1.929440045910992,-0.0537095136269623,0.0944902591393984,0.0284994501437235,-0.3605401138677464,0.3731328045227614,-0.2094985841168794,0.7731339689493537,-1.2328776650409292,1.9317713421269245,-0.4395925091947812,0.4300915087196206,-0.2308361429119369,0.744992892534776,-0.3181509451768205,0.6284020984047178,-0.2427039116515747,10.259682280306151,-1.258811780716939,0.230951267349851,-1.0464028788710504
0.46,0.7621568526534553,-1.2209756614686027,1.9251811475398288,-0.0526771192994205,0.0938974815806965,0.0290751237391391,-0.3674760065084953,0.3860538147752934,-0.2162074249860954,0.7687380438574059,-1.228576749953733,1.929462980697805,-0.4595925094928044,0.4500915090176439,-0.2385938654983302,0.8063306680241289,-0.3467946320374448,0.6460505126266003,-0.3354420434608013,10.146314315592464,-1.259767879197309,0.2306924854501232,-1.046421463623477
0.48,0.7547324609484873,-1.2131234880043362,1.9207744267297,-0.0527366508025772,0.0921883521541345,0.0296285888857466,-0.3747202664480314,0.3986493068377236,-0.2241221462687422,0.7599461936735102,-1.2199749197793406,1.9248462578395664,-0.4995925100888509,0.4900915096136903,-0.254109310671117,0.8272976117279256,-0.3622129969768073,0.6297746031215107,-0.3957360641323362,10.055026141354574,-1.261383699635749,0.2313330503767606,-1.0443718709140273
0.5,0.7475398888228872,-1.2054308753167204,1.9164344740299024,-0.0538624948278846,0.0895381317932209,0.0301331194518117,-0.3821343527007105,0.4105895809811694,-0.2323141480782212,0.7511543434896146,-1.2113730896049482,1.9202295349813276,-0.5395925106848973,0.5300915102097368,-0.2696247558439037,0.8133998328456178,-0.3707043126339515,0.5970137071722892,-0.4096000904739508,9.992493695050143,-1.2639489137768325,0.2330268391519237,-1.0403336447438882
0.52,0.7398082979689917,-1.1970856594999215,1.9116930897327364,-0.0562178453029522,0.0857147556945352,0.0306443520634419,-0.3907705971790095,0.4235136598214643,-0.2414155983295615,0.7403624932759167,-1.2007712594007534,1.9148370398644492,-0.5795925112809438,0.5700915108057832,-0.2851402010166904,0.9006288486895274,-0.4318122239149513,0.646203942014742,-0.4550725125670146,9.95143927386198,-1.2673922805911908,0.2358387796373357,-1.034726784351313
0.54,0.7318904900603326,-1.188461552689749,1.9067689711573093,-0.0592608713921533,0.0809859519206959,0.0311730968824482,-0.4007470481537649,0.4384232620007938,-0.2505357392358085,0.7295706430622187,-1.1901694291965583,1.9094445447475716,-0.6195925118769903,0.6100915114018297,-0.3006556461894771,1.0062340450255194,-0.4988225487377706,0.7454801089664786,-0.456007045312351,9.920317691563469,-1.2718306338800798,0.2393402877713243,-1.0283090683844085
0.56,0.7237488609378258,-1.1795150020963834,1.901664201279936,-0.0619718973506368,0.0758857482843876,0.0317644663669092,-0.4131023234431405,0.4553633605428505,-0.2594608977421341,0.7177787928336197,-1.1785675989774629,1.9036641635013736,-0.6595925124730366,0.6500915119978761,-0.3161710913622638,1.1393838471448954,-0.6177637644687789,0.8470049271028318,-0.4462579253162818,9.924167009463416,-1.2770495995510731,0.2424909530120494,-1.0224461449256028
0.58,0.7157604023320359,-1.170691390014716,1.8966514275702409,-0.0637111310255446,0.0715433012243879,0.0323650028053712,-0.4272615156740167,0.4723341553141254,-0.2677376204064705,0.7049869425901194,-1.1659657687434657,1.8974958961258563,-0.6995925130690831,0.6900915125939225,-0.3316865365350505,1.1800367980088362,-0.7079596115438125,0.8485397385637472,-0.4138361332168189,9.943164161729328,-1.2814155555482227,0.2449632833728965,-1.0173323640648713
0.6,0.7070376268974726,-1.1610519137850563,1.8912042971280736,-0.0645326033486078,0.0683984855898237,0.0329806594850651,-0.4443946931823437,0.4906156858609011,-0.2765393234079068,0.694397326548335,-1.1470746822490097,1.8832645465499167,-0.5272615171641328,0.5723341568042415,-0.3045311019650318,1.3278084447596614,-0.8566588754163496,0.9140765273387864,-0.4400851500718145,9.962662994986204,-1.2835115104080816,0.2464058051784425,-1.0144225006682426
0.62,0.69792122966463,-1.1509904751598796,1.885666205226572,-0.0625567508110291,0.0687389294165424,0.0335632188820356,-0.4659034548857206,0.5141413850055462,-0.2763150660396458,0.694397326548335,-1.1470746822490097,1.8832645465499167,-0.5272615171641328,0.5723341568042415,-0.3045311019650318,1.5938441279060362,-1.075438085168842,1.1762849572322511,0.0112128684130519,9.967678288227944,-1.2768100210843032,0.2451635636780843,-1.019121941735322
0.64,0.6884076915018821,-1.14050556921848,1.8801360625958483,-0.0576539867123711,0.0730117077422928,0.0341030811487477,-0.4838279057658116,0.5325126712425401,-0.2767176605412161,0.694397326548335,-1.1470746822490097,1.8832645465499167,-0.5272615171641328,0.5723341568042415,-0.3045311019650318,1.2835031940815835,-0.896222544004549,0.9185643118496956,-0.0201297250785159,10.595451731373032,-1.26635554142657,0.2410220828948155,-1.0289094576634106
0.66,0.6790734896259734,-1.1302465656203302,1.874850647242725,-0.0526707989484363,0.0790297878073621,0.0345383566181611,-0.4975059986124177,0.5464425958680277,-0.2796257555879163,0.6891247113766936,-1.1413513406809672,1.880219235530267,-0.547261517462156,0.5923341571022647,-0.3118897982767441,0.986901769165484,-0.6839046423303047,0.6964962312743794,-0.1454047523350127,10.44159850289634,-1.256222225429659,0.2365677382929706,-1.0408466689310192
0.68,0.6690018934190683,-1.1191843894975555,1.8692028579987157,-0.0480024497089155,0.0861309742621752,0.0349356395535887,-0.5086758756514308,0.5591095292117293,-0.2851275534739327,0.678579481033411,-1.1299046575448826,1.8741286134909665,-0.5872615180582025,0.6323341576983111,-0.3266071909001686,0.88809787379971,-0.558493851950656,0.6333466671850807,-0.2750898943008173,10.119957786518173,-1.2464770708786348,0.232565561992597,-1.0520501125366557
0.7000000000000001,0.6587369578538639,-1.1078816095753428,1.8634189251438305,-0.0442352811235642,0.0930076203918685,0.035297549770279,-0.5171470705458312,0.5707207975986389,-0.2930044212146961,0.6680342506901283,-1.1184579744087977,1.8680379914516656,-0.627261518654249,0.6723341582943576,-0.3413245835235932,0.8194933524703563,-0.4235597447200201,0.5805634193454812,-0.3938433870381702,10.119957786518173,-1.2389407483690789,0.2295621775124366,-1.0610720986620918
0.72,0.6488491045278741,-1.0969348522670943,1.85776135696637,-0.0414688111433079,0.0987257591088703,0.0356293432316883,-0.523242915121391,0.5811634927944971,-0.3021496348793074,0.6554890203170434,-1.1050112912429106,1.8612114997811935,-0.6672615192502954,0.7123341588904041,-0.3560419761470177,0.758030568338728,-0.3047922287779891,0.5221347597929082,-0.4572606832305648,9.999842283896214,-1.2325344420489484,0.2271742448925169,-1.0683718766424313
0.74,0.6383315688560172,-1.085201406922693,1.851608413280679,-0.0393552258654347,0.1035024731271854,0.0359759569297946,-0.5281829825136228,0.5917685257107935,-0.3127114676000454,0.6429437899439584,-1.0915646080770234,1.8543850081107216,-0.7072615198463419,0.7523341594864505,-0.3707593687704422,0.788072489394814,-0.2470033696115925,0.5302516458148221,-0.5280916360369009,9.91068090769113,-1.2277771419909993,0.2255463430722152,-1.0732347365388553
0.76,0.6277212533825605,-1.0732488462492933,1.8452380041352852,-0.0376933279951757,0.106952542017359,0.0363391725400262,-0.5326251895003371,0.6029315301303017,-0.323818924194451,0.6293985595559722,-1.077117924896235,1.8471905816246643,-0.7472615204423882,0.7923341600824969,-0.3854767613938668,0.8181098070848671,-0.2221103493357135,0.5581502209754063,-0.5553728297202798,9.865082305200303,-1.224775131605827,0.2243729307877169,-1.076301163465499
0.78,0.6170247467560672,-1.0610716670355662,1.8386418585215285,-0.0360902530470448,0.1092768471228217,0.0367334141113056,-0.5368580056704708,0.6141397309036752,-0.3352357356064813,0.6148533291530849,-1.0616712417005456,1.8396282203230212,-0.7872615210384347,0.8323341606785434,-0.4001941540172913,0.8274721749464806,-0.2116408085066856,0.5604100386686794,-0.5708405706015163,9.8431990819372,-1.222905674905451,0.2232976365341031,-1.0780409687850534
0.8,0.6067846607638636,-1.049297706520569,1.8321619960053783,-0.034507799262547,0.1106556620839272,0.0371334026951001,-0.5408782701240763,0.6245704614665737,-0.3462785874406179,0.5901818464725437,-1.0303646804903823,1.8218800717412045,-0.6368580071605869,0.7141397323937914,-0.359640570562412,0.7856641187291817,-0.2010132226802741,0.5215365281449225,-0.5521425917068279,9.830638967147934,-1.2218296443053946,0.2220863019304089,-1.0787536687966397
0.8200000000000001,0.59592203022474,-1.0366731459084906,1.8252314134721652,-0.0322313549041814,0.1118626805993962,0.0375950468440881,-0.5450555128936854,0.6369815375720033,-0.3455756415914372,0.5901818464725437,-1.0303646804903823,1.8218800717412045,-0.6368580071605869,0.7141397323937914,-0.359640570562412,0.655702486112979,-0.2088621384804534,0.6205538052714787,0.035147292459034,9.820047105604315,-1.2155826722789531,0.2199522541237005,-1.0823007853008948
0.84,0.5849896470644266,-1.023830895965658,1.8183239155577504,-0.0298058816314972,0.1130082955249056,0.0380572267657583,-0.5479728429381042,0.646685709314528,-0.3453821853776351,0.5901818464725437,-1.0303646804903823,1.8218800717412045,-0.6368580071605869,0.7141397323937914,-0.359640570562412,0.5067523781472127,-0.1458665022209426,0.4852085871262346,0.0096728106901061,10.594871491776756,-1.214828453406044,0.2181452510407953,-1.0859579119598015
0.86,0.5740044765300458,-1.0108043124697756,1.811397407909716,-0.0279489781634255,0.1135895791921154,0.0384841159090793,-0.5504577016687032,0.6555763857245607,-0.3473694147549269,0.5838132664009378,-1.0232232831664447,1.8182836660355803,-0.6568580074586101,0.7341397326918145,-0.3645215375535982,0.4721433324132562,-0.1242429365299502,0.4445338205016358,-0.0993614688645894,10.34788207870497,-1.2152387671801987,0.2168769730718631,-1.0879927271424477
0.88,0.5635242972025923,-0.9982714805427908,1.804762693727931,-0.0268770503026728,0.1134154932078792,0.0388495410534748,-0.5526998771312808,0.6633295583985003,-0.3509118879085045,0.5710761062577261,-1.0089404885185689,1.811090854624332,-0.6968580080546566,0.774139733287861,-0.3742834715359704,0.4407044172705979,-0.1121087731288772,0.38765863369698,-0.177123657678882,10.34788207870497,-1.2162520696195458,0.2162910749268921,-1.0882848412778614
0.9,0.5524459858892034,-0.9849263140573102,1.7976946736966923,-0.0267329417656639,0.1123508897352593,0.039177229840551,-0.5550718594185254,0.6708644130976491,-0.3557491668757616,0.5583389461145143,-0.994657693870693,1.803898043213084,-0.7368580086507031,0.8141397338839075,-0.3840454055183427,0.4631403758995636,-0.1185991143622333,0.3767427349574415,-0.2418639483628554,10.256945768026526,-1.2178172764823756,0.2165850456307648,-1.0871063386463915
0.92,0.5413201312625998,-0.9714337405149956,1.7905214975218229,-0.0278645664532088,0.1101686765104231,0.0394372161190242,-0.5575103369193207,0.6781840361496331,-0.3613143661094219,0.5436017859415002,-0.9783748991930148,1.796217135102717,-0.7768580092467495,0.854139734479954,-0.393807339500715,0.4756429770724927,-0.1219238750397644,0.3659811525991985,-0.2782599616830167,10.19109942664545,-1.2203852723799435,0.2181034857659874,-1.0840926315576154
0.94,0.5301424877528258,-0.957791397745702,1.7832395330078257,-0.0303429544128776,0.1066892664640266,0.039638468930535,-0.5602827774717742,0.6859638377403525,-0.3665947964699745,0.5288646257684861,-0.9620921045153368,1.7885362269923502,-0.816858009842796,0.8941397350760004,-0.4035692734830873,0.490139480659575,-0.1386220276226757,0.3889900795359724,-0.2640215180276295,10.165111378008078,-1.2237828195112872,0.2207532439554997,-1.079640240044519
0.96,0.519459398370001,-0.9446596172148518,1.7762293374819431,-0.0331835864148653,0.102260907770624,0.0398372606952359,-0.5642602131479308,0.6959528443678388,-0.3710459879788166,0.513127465580571,-0.9448093098227576,1.780611270532424,-0.8568580104388424,0.9341397356720468,-0.4133312074654596,0.5818362179563832,-0.1988717838078302,0.4994503313743126,-0.2225595754421022,10.165111378008078,-1.2290758845075187,0.224130241853516,-1.0737467045453368
0.98,0.5081123332547608,-0.930615926680656,1.768764375920546,-0.0357565722813336,0.0968745164826957,0.0401103539074836,-0.5704827316594695,0.7077966302366752,-0.3751817257789951,0.4963903053777546,-0.926526515115277,1.7724422657229384,-0.8968580110348888,0.9741397362680932,-0.4230931414478319,0.7001773480431861,-0.3111259255769327,0.5921892934418194,-0.2067868900089281,10.197826793916647,-1.234967983784102,0.2271124683164123,-1.0677168519751232
1.0,0.4966149066217231,-0.9163255140018252,1.7612227734795802,-0.0375501495189069,0.0914971353802762,0.0404450152847722,-0.5790652632542589,0.7204230499372705,-0.3787631536782499,0.4795881966717873,-0.8952260951688223,1.7500052896315963,-0.6704827331495856,0.8077966317267913,-0.3809453519707602,0.7840805902914247,-0.4291265797394694,0.6313209850297652,-0.1790713949627376,10.22872208559329,-1.2398283402651138,0.2292037043433694,-1.0627845740228212
1.02,0.4854716290796082,-0.9024580529916588,1.7540979213986216,-0.0367660546024662,0.0885768844185753,0.0408514800855233,-0.5934613179025118,0.7378420848496701,-0.371029958993659,0.4795881966717873,-0.8952260951688223,1.7500052896315963,-0.6704827331495856,0.8077966317267913,-0.3809453519707602,1.1942272258082476,-0.7198027324126444,0.87095174561998,0.3866597342295469,10.259031934585437,-1.240562229238565,0.2288334112875815,-1.0621298309458684
1.04,0.4734527485717681,-0.8875423757445025,1.7467570632794165,-0.0329081855068369,0.0895618605554275,0.0413273702683818,-0.607125008687541,0.7522141099314518,-0.3635536050627003,0.4795881966717873,-0.8952260951688223,1.7500052896315963,-0.6704827331495856,0.8077966317267913,-0.3809453519707602,1.0596549189727025,-0.6831845392514635,0.7186012540890852,0.3738176965479345,10.920357841810072,-1.235890251724915,0.225545389991202,-1.071691751923448
1.06,0.4611938691145318,-0.8723866631927149,1.7395416528737118,-0.0281974088952052,0.0930833612908773,0.0417718396989592,-0.6177697242958501,0.7625058736960579,-0.3584774819042036,0.4728833693402914,-0.8871481288515545,1.7461958361118888,-0.6904827334476088,0.8277966320248145,-0.3820980772091132,0.7826196363631324,-0.532235780415452,0.5145881882303083,0.2538061579248324,10.920357841810072,-1.2299861501320413,0.2213082072839238,-1.0820469483490742
1.08,0.4487518121256276,-0.8570515356728655,1.7323998922461554,-0.0239333729973982,0.0977817857703605,0.0421529676926211,-0.6256952223068895,0.770619841877926,-0.3559595843558779,0.4594737146772997,-0.8709921962170186,1.7385769290724735,-0.7304827340436553,0.8677966326208609,-0.3844035276858192,0.5809255684750428,-0.3962749005519683,0.4056984090934024,0.1258948774162854,10.757800459643477,-1.2238677645347282,0.2175803907215656,-1.0915175339854162
1.1,0.4368083230510507,-0.8423447451255947,1.7256422297905614,-0.0206681773138666,0.1023956959623088,0.0424583345529857,-0.6310360385965159,0.7772482957820862,-0.3555119933803755,0.446064060014308,-0.8548362635824828,1.7309580220330585,-0.7704827346397017,0.9077966332169074,-0.3867089781625253,0.4262072778603958,-0.267040814481323,0.3314226952080112,0.0223795487751199,10.614693878534126,-1.217771854298617,0.2143924194570422,-1.1002821534315554
1.12,0.4241460977691511,-0.8267341391236949,1.7185228574329503,-0.0181413240062083,0.1067134312668367,0.0427254691678272,-0.634848817639809,0.7836247313213495,-0.3565239182997433,0.430654405321514,-0.8366803309181446,1.7232238424698076,-0.8104827352357482,0.947796633812954,-0.3890144286392313,0.3749006743852042,-0.1906389521646567,0.3188217769631629,-0.05059624596839,10.501821903139898,-1.2127204527923638,0.2121041707739318,-1.1073426148517869
1.14,0.4114227449293767,-0.810999712145,1.711374857742444,-0.0165345812661596,0.1100148322718206,0.0429400697515004,-0.6373070338263157,0.7896113519505917,-0.3582540660513287,0.4152447506287199,-0.8185243982538065,1.7154896629065572,-0.8504827358317947,0.9877966344090005,-0.3913198791159373,0.3349472518934455,-0.1229108093253328,0.2993310314621134,-0.086507387579271,10.4214669851317,-1.2089508714741255,0.2107126501028612,-1.1125417714592738
1.16,0.3986552409385984,-0.7951402801433309,1.7041889938631976,-0.0156094269055089,0.1121838254529107,0.0431154770165502,-0.6393922163885002,0.7960375793371877,-0.36025044482828,0.3988350959210248,-0.7993684655745672,1.707697847081389,-0.890482736427841,1.0277966350050467,-0.3936253295926434,0.3522425051116608,-0.1042591281092242,0.3213113693297964,-0.0998189388475651,10.392350847207126,-1.2070271228157357,0.2100630652564495,-1.116004232332717
1.18,0.3864883364398843,-0.7799527375594562,1.697325241899592,-0.0150809483042516,0.1133521469286444,0.0432605795945324,-0.6412952869196377,0.8023020126596523,-0.3621531284604383,0.3814254411984284,-0.7792125328804268,1.699848394994303,-0.9304827370238876,1.067796635601093,-0.3959307800693494,0.3408995720962842,-0.0951535265568737,0.3132216661232312,-0.0951341816079115,10.38562600838759,-1.2060185149039089,0.2097448496812324,-1.1185421912487312
1.2,0.3736409797656702,-0.7638371276998975,1.6900614450597091,-0.0147812232707333,0.1138109557008019,0.0433951122510443,-0.6433965091478491,0.80891136129206,-0.3641257730311728,0.3544235720939024,-0.7398376369264735,1.6792175854765703,-0.6969720824618778,0.9023020141497684,-0.3766365896169257,0.3605202865286759,-0.1050611114105704,0.3304674316203848,-0.0986322285367241,10.389800431225012,-1.2058536318788706,0.2096818654828146,-1.1201799584861405
1.22,0.3606609748511895,-0.7475514028198205,1.6827752642013751,-0.0133670269666046,0.1164247039401027,0.0435646134649095,-0.6540995356549999,0.8189965256734214,-0.3643119314496563,0.3544235720939024,-0.7398376369264735,1.6792175854765703,-0.6969720824618778,0.9023020141497684,-0.3766365896169257,0.7353570084806199,-0.5351513253575413,0.5042582190680711,-0.0093079209241786,10.394366387042282,-1.2059252102906677,0.2087378496985703,-1.1252676139409694
1.24,0.3475045445710902,-0.7310995990636538,1.675480165829828,-0.0107172443474443,0.1229961474027025,0.0437636691040324,-0.6604314432534839,0.8255700096150272,-0.3652188578706631,0.3544235720939024,-0.7398376369264735,1.6792175854765703,-0.6969720824618778,0.9023020141497684,-0.3766365896169257,0.4586018439218532,-0.3165953799242005,0.328674197080292,-0.0453463210503379,10.546819120904727,-1.1957968671543402,0.2060179350117463,-1.1349828663767534
1.26,0.3349282824240754,-0.7153673241870463,1.668517187754911,-0.008458813310664,0.1310110171092654,0.043919803217705,-0.6627289850631393,0.8302783262417873,-0.3677026238251545,0.3474538512692837,-0.7308146167849758,1.675451219580401,-0.7081074415703258,0.9223020144477916,-0.3795332818482232,0.2898966934169423,-0.1148770904827678,0.2354158313380039,-0.1241882977245728,10.37191562830867,-1.1851844086052865,0.2035093637335076,-1.145458446176041
1.28,0.3216757065542374,-0.6987188706680527,1.6611221522571935,-0.0067766398648231,0.1402023847072312,0.0440333962414386,-0.662087690100238,0.8344480626788366,-0.3717530410896206,0.3335144096200461,-0.7127685765019804,1.6679184877880626,-0.7303781597872219,0.962302015043838,-0.3853266663108182,0.292420250667527,0.0320647481450608,0.208486821852466,-0.2025208632233016,10.37191562830867,-1.1749546867293716,0.2018091624067901,-1.1558335389611512
1.3,0.3084639105682866,-0.6819925519847158,1.6536329623204964,-0.0060594261084328,0.1495432136400928,0.0440769268655452,-0.6588542105217015,0.8380744589882795,-0.3770307122654558,0.3195749679708086,-0.694722536218985,1.660385755995724,-0.752648878004118,1.0023020156398843,-0.3911200507734132,0.3586779663507234,0.1616739789268295,0.1813198154721418,-0.2638835587917637,10.297894568444462,-1.1653948616056748,0.2011729424635755,-1.1655594888831544
1.32,0.295351736936024,-0.6651985566977058,1.6460278335320326,-0.0066195772944672,0.1583488569970545,0.0440236423881245,-0.6523996616313757,0.8413394768383463,-0.3832413870989454,0.3045219904107262,-0.6746764959061874,1.6525633549802556,-0.774919596221014,1.0423020162359309,-0.3969134352360082,0.4766917893833517,0.3227274445162853,0.1632508925033415,-0.3105337416744791,10.244349129610782,-1.157078939397566,0.201818797833467,-1.1733186530008055
1.34,0.2830436488176998,-0.6491827903335147,1.63868363500187,-0.0085210679415333,0.1654642030470301,0.0438669770261207,-0.6435367449322751,0.8445533617696488,-0.3895352071008394,0.2894690128506438,-0.6546304555933896,1.6447409539647877,-0.7971903144379101,1.0823020168319777,-0.4027068196986031,0.5667727035220793,0.4431458349550332,0.160694246565124,-0.3146910000946967,10.212190461113096,-1.1506266654886093,0.2041059706153412,-1.179437189136065
1.36,0.2702870228229239,-0.6322369864156462,1.6308240364651685,-0.0115662736482864,0.1711815616176777,0.0436200787221889,-0.6326156700766751,0.8501743861147543,-0.3960930290446987,0.2738592673351391,-0.6335844152656909,1.6367737183377542,-0.8194610326548061,1.1223020174280238,-0.4085002041611982,0.6961875094707776,0.5460537427800005,0.2810512172552737,-0.3278910971929644,10.20770339745104,-1.1476623611141117,0.2076936780352924,-1.1832113457322782
1.38,0.2577606371935799,-0.6151515604554958,1.6228379103401271,-0.0145074265576603,0.1749441284968124,0.0433823230909333,-0.6206453386914239,0.8580369278728222,-0.4021670222934023,0.257692753864212,-0.6115383749230908,1.6286616480991565,-0.8417317508717022,1.1623020180240702,-0.4142935886237932,0.7778203365099617,0.5985165692625583,0.3931270879033943,-0.3036996624351834,10.226496104011858,-1.147441060178128,0.2112742042367611,-1.1861052288366651
1.4,0.2454802537277048,-0.5978953234929065,1.61473762231743,-0.0167678074282344,0.1767411249385466,0.0432079524281158,-0.6081942286881198,0.8669843182830045,-0.407552860932671,0.2267283702590087,-0.5722497140618547,1.6027295592254571,-0.6527423728477464,0.9580369293629384,-0.3857800868060128,0.8125472191122846,0.6225555001652061,0.4473695205091166,-0.2692919319634362,10.26721792040371,-1.1499874868676934,0.2141235514408308,-1.188370778305998
1.42,0.2340118683094677,-0.5812736989551045,1.6070403021495965,-0.0163268996399894,0.1782416462992928,0.0432186136193276,-0.5993242707620577,0.8813053576985898,-0.4024497420984224,0.2267283702590087,-0.5722497140618547,1.6027295592254571,-0.6527423728477464,0.9580369293629384,-0.3857800868060128,0.8800712263636973,0.4434978963031022,0.7160519707792634,0.2551559417124316,10.311539110648482,-1.1496941474057958,0.2138690996842882,-1.1897159839224691
1.44,0.2221439967449347,-0.5635218226296258,1.5990528868107594,-0.0126428181831763,0.1805623505916793,0.0434361679002978,-0.5877860030464662,0.8925493996367322,-0.3966038097618843,0.2267283702590087,-0.5722497140618547,1.6027295592254571,-0.6527423728477464,0.9580369293629384,-0.3857800868060128,0.8569349827535765,0.5769133857795761,0.5622020969071218,0.2922966168269036,10.975737653150643,-1.1508086165933005,0.2105342549551809,-1.1998631410532588
1.46,0.2105263885650118,-0.5455934189213713,1.5911731926330217,-0.0079479951104485,0.1826819935623388,0.0437211611279675,-0.5745378280629745,0.8995650099850188,-0.3917130334695208,0.2202009465305312,-0.5626693447682253,1.598871758357397,-0.6591617796790109,0.9780369296609616,-0.3825026997085348,0.7884361446784178,0.6624087491745867,0.3507805174143286,0.2445388146181754,10.971149657646492,-1.1531118362048556,0.2060397818455611,-1.2089235248450303
1.48,0.1991865431188618,-0.5275529451156065,1.5833804314053197,-0.0036890148061771,0.1839397624635256,0.0439738958813023,-0.5602463336770184,0.9042558914815706,-0.3878074818909632,0.2071460990735762,-0.5435086061809665,1.5911561566212766,-0.6720005933415398,1.018036930257008,-0.375947925513579,0.7770207753517304,0.7145747192978058,0.2345440748275917,0.1952775789278826,10.918735574615312,-1.156797745422807,0.2019357228478296,-1.2157648691383276
1.5,0.1886836957913668,-0.5103403746290975,1.5760443486690567,-0.0004710655117174,0.1840012550681469,0.0441479829928631,-0.5461855192748113,0.9075585178728952,-0.3846021585680113,0.1940912516166213,-0.5243478675937078,1.5834405548851564,-0.6848394070040689,1.0580369308530544,-0.3693931513186232,0.7397430978702105,0.7030407201103539,0.1651313195662251,0.1602661661475934,10.85142333145268,-1.1618826458380602,0.1989184599064995,-1.220515652033269
1.52,0.1779183798644577,-0.4921607584595935,1.5683868291161462,0.0019478677449097,0.1826103271627914,0.0442476815025944,-0.5311756762223093,0.9104027516752592,-0.3813156380748734,0.1803944634765399,-0.5031871289766466,1.576052691858784,-0.6976782206665979,1.0980369314491008,-0.3628383771236674,0.7813230307226771,0.7504921526250985,0.1422116901182046,0.1643260246568967,10.851692808358166,-1.1686838565604274,0.1967667859689077,-1.2239088027544145
1.54,0.1674555534809717,-0.4739289672301823,1.5608005537177605,0.0033600119780784,0.1793537324499073,0.0442554855678369,-0.5159822868592209,0.9127435259001762,-0.3774331610115917,0.1666976753364585,-0.4820263903595855,1.5686648288324117,-0.7105170343291268,1.138036932045147,-0.3562836029287115,0.7927671985793701,0.7596694681544225,0.1170387112458481,0.1941238531640826,10.851692808358166,-1.1774147458425697,0.1956766636325435,-1.2247840419066174
1.56,0.1572899503279479,-0.4556466422703829,1.5533022281945363,0.0039185102726653,0.173957560173791,0.044180921764758,-0.5017233407280667,0.9153842941554532,-0.3725202600540108,0.1526799168548139,-0.4598656517276233,1.561440835160913,-0.7233558479916559,1.1780369326411937,-0.3497288287337557,0.7655517578326049,0.7129473065577097,0.1320384127638574,0.2456450478790478,10.89247258505202,-1.1892579629307525,0.1956877437928476,-1.224947086590075
1.58,0.1478722583237953,-0.4382287448863096,1.5462827533406962,0.003873718689941,0.1673163869621076,0.0440536602666044,-0.4906756186005278,0.9179502245482916,-0.3665933614144382,0.1383411880316061,-0.4367049130807599,1.5543807108442882,-0.7361946616541848,1.21803693323724,-0.3431740545387999,0.6398521127416289,0.5523861063769453,0.1282965196419128,0.296344931978626,10.948994988685628,-1.203215432742831,0.1963442912325101,-1.2237374624442925
1.6,0.1381556020069564,-0.4198410112240784,1.53902699752001,0.0033169318192106,0.1595651758824849,0.0438758055975934,-0.4818854141039331,0.9207013234772448,-0.3592336487046603,0.1233384773937689,-0.392331233658895,1.5279530852699743,-0.4880561579097612,1.0179502260384077,-0.3568589152315912,0.5894947234269956,0.4395102248297339,0.1375549464476655,0.367985635488896,11.013041428636823,-1.2175156894841128,0.1975465201866639,-1.2222350356377598
1.62,0.1284691914378168,-0.4013469337184654,1.531876473210048,0.0040508748757159,0.1549725446249985,0.0437935748982894,-0.4874900345177841,0.9281416431894094,-0.3564656510112761,0.1233384773937689,-0.392331233658895,1.5279530852699743,-0.4880561579097612,1.0179502260384077,-0.3568589152315912,0.4858804859046094,-0.2802310206925507,0.3720159856082261,0.1383998846692102,10.820853791625268,-1.2365253975400785,0.1984188360806651,-1.2340564260271027
1.64,0.1186869853900526,-0.3827390865446778,1.5247744440247657,0.0065774782226904,0.1564924845420828,0.043849341562826,-0.4897321083844747,0.9321571889863745,-0.3538816396192916,0.1233384773937689,-0.392331233658895,1.5279530852699743,-0.4880561579097612,1.0179502260384077,-0.3568589152315912,0.263764185140467,-0.1121036933345309,0.2007772898482474,0.1292005695992276,10.820853791625268,-1.229498987114126,0.1949602272757399,-1.2341688273018991
1.66,0.1093975236330014,-0.3650117211755884,1.5180729780163396,0.0090576862696903,0.1610001590090407,0.0439243110661821,-0.4876512082528761,0.933790471914769,-0.3516932898871434,0.1184579158146713,-0.3821517313985109,1.5243844961176585,-0.4875322657716079,1.0379502263364309,-0.3549120259950218,0.1716583309372565,0.1040450065799308,0.0816641464197354,0.1094174866074104,10.798237557289212,-1.2219700304995362,0.1915927219291289,-1.2395702643843212
1.68,0.099696964594217,-0.3463306968551613,1.5110612378574282,0.010981310777237,0.1673117073441375,0.0439709232776796,-0.4822033740539374,0.9343963728288996,-0.3496269356590704,0.1086967926564761,-0.3617927268777428,1.5172473178130266,-0.4864844814953012,1.0779502269324774,-0.351018247521883,0.2928985881356596,0.2723917099469342,0.0302950457065298,0.1033177114036471,10.774114619213831,-1.2146829853111416,0.1892349330104709,-1.2473478452760394
1.7,0.0901340439916017,-0.3276463829247585,1.5040896887867958,0.0118101121621681,0.1742875340351624,0.0439477252347911,-0.4741166150304551,0.9342210656177732,-0.3476658614710305,0.0989356694982809,-0.3414337223569746,1.510110139508395,-0.4854366972189946,1.1179502275285238,-0.3471244690487442,0.41614966085875,0.4043379511741135,-0.0087653605563231,0.0980537094019934,10.769127790843411,-1.2083677791789111,0.1882849997506882,-1.255600460747848
1.72,0.0807567570286915,-0.3089716199714544,1.4971589319396537,0.0111788613557242,0.1814012497985088,0.0438166608883114,-0.4638126258462038,0.933510124535492,-0.3455421570678095,0.089226935553901,-0.3190747178064042,1.5031676501274198,-0.484388912942688,1.1579502281245702,-0.3432306905756054,0.5272280121633884,0.5151994592125647,-0.0355470541140545,0.1061852201610535,10.778631303332986,-1.2024576644398668,0.1890002996788035,-1.2644593474058496
1.74,0.072057476794395,-0.2912443464958763,1.490616076585663,0.0089355561260284,0.1880295081261483,0.043560299078804,-0.4522651362491758,0.9328135403993512,-0.3433148451841315,0.0795182016095211,-0.2967157132558337,1.496225160746445,-0.4833411286663813,1.1979502287206167,-0.3393369121024666,0.5890472470001158,0.5773744798514002,-0.034829206807041,0.1113655941838986,10.806777522339871,-1.1975168815173691,0.1918670374341011,-1.2733669225991495
1.76,0.0631539243729772,-0.2725706773028584,1.4837794180613733,0.005371842893641,0.1947285600035249,0.0431793780372216,-0.4385379995748816,0.9349195037026607,-0.3404709378068192,0.0698356622720488,-0.273356708690362,1.4893800158272985,-0.4822933443900747,1.237950229316663,-0.3354431336293278,0.7087968183484791,0.6863568337147102,0.1052981651654794,0.1421953688656135,10.885722314235863,-1.193626460349755,0.1963445121281142,-1.2832771286842652
1.78,0.054548116916864,-0.2538264178802139,1.4770057060225914,0.0018582230865843,0.2008385947191719,0.0427733360438536,-0.4226136713993978,0.939402746724138,-0.3370450299852933,0.0601793175414843,-0.2489977041099892,1.482632215369981,-0.4812455601137681,1.2779502299127097,-0.331549355156189,0.8447196875764806,0.7962164087741891,0.2241621510738589,0.1712953910762954,10.944197405829073,-1.1910986452677057,0.200676651286648,-1.2932162428104403
1.8,0.0466915751585223,-0.2359217116794372,1.470639574872719,-0.0009096607502608,0.2055116248995672,0.0424075217261361,-0.4052603099439059,0.9449333761602956,-0.3332748603992296,0.0334174333468941,-0.2068562805440069,1.4601534545233268,-0.3965775578988028,1.039402748214254,-0.2782727379971589,0.9299747234101652,0.8676680727745967,0.2765314718078782,0.1885084793031843,10.944197405829073,-1.190910867922876,0.2047230690326145,-1.303807779843114
1.82,0.0387996891782129,-0.2168875663537797,1.4640957386458608,-0.0009597304566338,0.2089905823279484,0.0422144173894594,-0.3847741876348052,0.9575010478647196,-0.3209172115771467,0.0334174333468941,-0.2068562805440069,1.4601534545233268,-0.3965775578988028,1.039402748214254,-0.2782727379971589,1.3512393049933256,1.024306115455034,0.6283835852211983,0.617882441104145,11.000298684681184,-1.189729510033357,0.2050577918465767,-1.3133964148942807
1.84,0.0313354598106031,-0.1976365880783392,1.457829578183438,0.0026796339415298,0.2109202217887003,0.0422789020514392,-0.3628436173995386,0.9662661663019884,-0.3063812071940815,0.0334174333468941,-0.2068562805440069,1.4601534545233268,-0.3965775578988028,1.039402748214254,-0.2782727379971589,1.3866079434070449,1.096528511763334,0.4382559218634396,0.7268002191532619,11.605260796563016,-1.1953112096297194,0.2018675057815676,-1.3280432667867923
1.86,0.0246576564984016,-0.1792368745504151,1.4521500429172445,0.0071214833589782,0.2111717717825736,0.0423986643509222,-0.3413610500304959,0.9700232107529716,-0.2922029102403725,0.0294516577679061,-0.1964622530618644,1.4573707271433551,-0.3913703351986837,1.0594027485122772,-0.2665182795995321,1.3006154199836262,1.074128368452132,0.1878522225491674,0.708914847685449,11.706265134174828,-1.2034197850681163,0.1970408669907198,-1.3409745056678817
1.88,0.0180707155658737,-0.1598217713886984,1.4464665735078892,0.0112257811217886,0.2096108268890152,0.0424560761807111,-0.3185826046145501,0.971405281324879,-0.2768700767153838,0.02152010660993,-0.1756741980975793,1.451805272383412,-0.3809558897984457,1.0994027491083238,-0.2430093628042783,1.3746485719430008,1.1389222707972906,0.0691035285953656,0.7666416762494355,11.74645661701834,-1.2134899075829535,0.1927156506347439,-1.350728934518105
1.9,0.0119390938621015,-0.1403936186732791,1.441094614537921,0.0142135580155979,0.2058874379567444,0.0423892090358896,-0.2958895524039197,0.9715447095696128,-0.2610604733847244,0.0135885554519539,-0.1548861431332942,1.4462398176234688,-0.3705414443982077,1.1394027497043702,-0.2195004460090245,1.38287528029702,1.1346526105315196,0.0069714122366948,0.7904801665329725,11.828573631720246,-1.2258865994721009,0.1896456600931758,-1.358271027222155
1.92,0.0062506908755961,-0.1209721526190163,1.4360478494454083,0.0159196356903219,0.1998192834403446,0.0421774638134031,-0.2746549429473434,0.970884464890912,-0.2443529719963343,0.0061777265639898,-0.1320980881392068,1.4418498087032885,-0.3601269989979696,1.1794027503004163,-0.1959915292137708,1.3513744525964362,1.0617304728288146,-0.033012233935048,0.8353750694195013,11.828573631720246,-1.241957323722686,0.188304870560091,-1.3636777512618603
1.94,0.0012104384135764,-0.1025412594920453,1.4315770496576696,0.0162357166286573,0.1925610884848763,0.0418479263764115,-0.2573396525070657,0.9694563206741124,-0.2270586586602683,-0.0012331023239743,-0.1093100331451194,1.4374597997831078,-0.3497125535977316,1.219402750896463,-0.172482612418517,1.2257162729412363,0.8657645220138871,-0.0714072108399743,0.8647156668033007,11.882509225591091,-1.258930905305705,0.1883497658203312,-1.366779481085677
1.96,-0.0037719251600989,-0.083165636228964,1.4272414014155603,0.015185983856038,0.1841916908992754,0.0413926472577102,-0.2421559205377116,0.9682795519809568,-0.207334287562256,-0.0083835700769325,-0.0855219781361308,1.4336575137828087,-0.3392981081974935,1.2594027514925097,-0.1489736956232633,1.2459748355068008,0.7591865984677051,-0.0588384346577874,0.9862185549006142,11.968415084989829,-1.2755786059152547,0.1900562522745693,-1.3688078617354322
1.98,-0.0084824538896661,-0.063807523733797,1.4233146436357655,0.0129239517702902,0.175756379337951,0.0408671265943703,-0.2299429616596989,0.9676956381670676,-0.1862702457529153,-0.0152736766948847,-0.0607339231122411,1.4304429507023908,-0.3288836627972555,1.2994027520885558,-0.1254647788280095,1.2177758180836624,0.6106479439006329,-0.0291956906944557,1.053202090467037,12.058786407328626,-1.2912940793172316,0.1932261770266223,-1.370882425926248
2.0,-0.0129786512054516,-0.0444432560273213,1.4198224822140049,0.009948136647107,0.1678060450969577,0.0403253041253082,-0.2204920145461975,0.968975448174692,-0.1640068983618093,-0.0199796019726511,-0.0154227418254436,1.4140011313481198,-0.2042762144174866,0.9975205060116492,-0.123986960790738,1.2110067630435437,0.4725473556750723,0.0639905003812169,1.113167369555297,12.20449539901074,-1.304534438884343,0.1970586807671152,-1.3742549109946247
2.02,-0.0171568583233922,-0.0257324202048087,1.4168134451700305,0.0161081640223424,0.1619227881613418,0.0404553458546705,-0.219619248376557,0.9948003723152008,-0.1538394128439368,-0.0199796019726511,-0.0154227418254436,1.4140011313481198,-0.2042762144174866,0.9975205060116492,-0.123986960790738,1.3884039302433389,0.0436383084820218,1.2912462070254482,0.508374275893629,12.20449539901074,-1.3282697703360784,0.1910659873630189,-1.3941856013894895
2.04,-0.021550021837493,-0.0057765679986,1.413860783513181,0.0307176555470043,0.1588828802845505,0.0411348895746961,-0.2196831522848396,0.9983903658919968,-0.1418755048377392,-0.0199796019726511,-0.0154227418254436,1.4140011313481198,-0.2042762144174866,0.9975205060116492,-0.123986960790738,0.624554305828736,-0.0031951954141268,0.1794996788397895,0.5981954003098755,11.55286645581873,-1.3332910543114695,0.1719776614865983,-1.3996001869555348
2.06,-0.0259377206223826,0.0141462225004377,1.4111466621351685,0.0461756297864675,0.159072653173213,0.0419153877845002,-0.2187280041950128,0.9933050075189748,-0.1302114945483288,-0.0220223641168259,-0.0054475367653271,1.4127612617402123,-0.1991428649690441,1.0034854795805654,-0.1115303037983025,0.638009235213402,0.04775740449134,-0.2542679186510965,0.5832005144705207,11.55286645581873,-1.3315032798219617,0.1513391682412433,-1.40736618224447
2.08,-0.0302829023069824,0.0338894334209718,1.4086585876641595,0.0600319461482341,0.1615015551753891,0.0426724865798865,-0.2155549865472942,0.9816277105836908,-0.1192099681041885,-0.0261078884051757,0.0145028733549058,1.4102815225243976,-0.1888761660721592,1.015415426718398,-0.0866169898134316,0.8177115763040198,0.1586508823859286,-0.5838648467641927,0.550076322207016,11.527711130464011,-1.327002149547125,0.1335038844602206,-1.4144933862474969
2.1,-0.0343284315444276,0.0523899825762288,1.4064956893330367,0.0706784949504043,0.1649621524933445,0.0432922927726592,-0.2102841919135614,0.9669446185359842,-0.1090173647983924,-0.0301934126935254,0.0344532834751388,1.407801783308583,-0.1786094671752743,1.0273453738562308,-0.0617036758285607,0.9317505437370804,0.2635397316866364,-0.734154602385334,0.5096301652898039,11.515706016560216,-1.3204846341092773,0.1180106765150813,-1.4225071804491496
2.12,-0.0384543855901542,0.0715435441766786,1.4044325163282405,0.0791367025645241,0.1690151588370907,0.0437924575603849,-0.2024362568920515,0.9495870691076402,-0.0978031877196736,-0.0337656020370309,0.0550001909522634,1.4065677097920115,-0.1683427682783894,1.0392753209940635,-0.0367903618436898,1.1052515254593738,0.3923967510754966,-0.8678774714172,0.5607088539359394,11.53087911044804,-1.3134382889069598,0.1061222505833632,-1.4308175779577998
2.14,-0.0424001298755397,0.0903331313138913,1.402597764590286,0.0848611276583966,0.1728178982038742,0.0440850123885608,-0.1925099340907766,0.9309128867180704,-0.0862177770183309,-0.0373377913805364,0.0755470984293881,1.4053336362754405,-0.1580760693815045,1.0512052681318962,-0.0118770478588189,1.2056934865387767,0.4963161400637433,-0.9337091194784874,0.5792705350671356,11.59535556546234,-1.30803226623063,0.0981903026926884,-1.4381609828725916
2.16,-0.0459475470081159,0.1078355226180887,1.401076459381208,0.0882040199197782,0.1757291910887617,0.0441507295857036,-0.1814531139792391,0.9128807104406244,-0.0744761644021399,-0.0406533132516197,0.0963922545849585,1.404722395608491,-0.1478093704846196,1.0631352152697289,0.0130362661260519,1.209626098334201,0.552841005576879,-0.9016088138723066,0.5870806308095513,11.641800912329018,-1.3038589616546723,0.0927005857759472,-1.4450605650833308
2.18,-0.0494427591891243,0.1258896949369212,1.3997276589656342,0.0899444398658146,0.1777527165465204,0.0439899850019124,-0.1686904510221575,0.8937395756371732,-0.0609495451440757,-0.043712167650281,0.1175356594189747,1.404733987791163,-0.1375426715877346,1.0750651624075611,0.0379495801109228,1.3343894070628193,0.6381331478540794,-0.9570567401725572,0.6763309629032109,11.712162985454595,-1.3017630121188462,0.0896300829266577,-1.4507158154939168
2.2,-0.0526730321823253,0.1435525502837707,1.3986633170860228,0.089771819263421,0.1785329819977541,0.0435667285584108,-0.1551464863787906,0.8738399757448871,-0.0461385983934263,-0.0578772817402322,0.1705766737187799,1.3966801817084304,-0.1558607775456403,0.8439871725865121,-0.0052416248013919,1.4131500254612184,0.6771982321683453,-0.9949799946143034,0.7405473375324705,11.901950041183229,-1.3018676726365124,0.0890583358655494,-1.4547568352560687
2.22,-0.0554870705575419,0.1602131036566545,1.3977760133626895,0.0952290623228537,0.1767481222080991,0.0433076485020094,-0.1418192750331982,0.8764443561764229,-0.0483134364872867,-0.0578772817402322,0.1705766737187799,1.3966801817084304,-0.1558607775456403,0.8439871725865121,-0.0052416248013919,0.6876177724883902,0.6663605672796169,0.1302190215767884,-0.1087419046930236,11.901950041183229,-1.3122270270034957,0.0808861879043484,-1.4675906592086343
2.24,-0.0581813084545004,0.1776025936690557,1.3967951324910444,0.1064084926520646,0.1708886183530111,0.0429569261997559,-0.1289408447594745,0.8616746394816924,-0.0494220587170205,-0.0578772817402322,0.1705766737187799,1.3966801817084304,-0.1558607775456403,0.8439871725865121,-0.0052416248013919,0.9813607145260412,0.6439215136861881,-0.7384858347365242,-0.0554311114866871,10.899493609454112,-1.3274584821909077,0.0657262080340209,-1.4556563883387417
2.26,-0.0606593430752952,0.1946176104836402,1.3958269850967286,0.1178725174950494,0.1625402782150219,0.0422299250681577,-0.1199683291638015,0.8403132159303571,-0.0473237760599291,-0.0594358895156886,0.179016545444645,1.3966277654604164,-0.1532948428503368,0.8340366919763799,0.0058999592671448,1.1632059602271512,0.4486257797836477,-1.068071177566765,0.1049141328545708,10.899493609454112,-1.341118286898776,0.0504804668954497,-1.4426388521098843
2.28,-0.0628845381858299,0.2103289920930872,1.3949702077461603,0.1274363650451671,0.1538282232254677,0.0412189619444697,-0.1149825688136197,0.8149105782823086,-0.0429125031511143,-0.0625531050666014,0.1958962888963753,1.396522932964389,-0.14816297345973,0.8141357307561154,0.0281831274042183,1.3130224050102302,0.2492880175090882,-1.2701318824024257,0.2205636454407397,11.243710079948867,-1.3545421601804546,0.0361283118223878,-1.427323307822901
2.3000000000000003,-0.0651583216191875,0.2263151814104749,1.3941831449522766,0.1354108993434198,0.14499448404492,0.0399268833031501,-0.1128822245811875,0.7853104371948162,-0.0358643936758752,-0.0656703206175142,0.2127760323481055,1.396418100468361,-0.1430311040691231,0.794234769535851,0.0504662955412918,1.5250046274266869,0.1050172116216108,-1.480007054374621,0.3524054737619526,11.403702721596346,-1.3651823207267035,0.0244739769578334,-1.41249527151902
2.32,-0.0674183868093169,0.241685858780453,1.393561660464892,0.1411175030055159,0.1373046297855465,0.0385356794939941,-0.1133428363112995,0.753607233224172,-0.0264805261622482,-0.0685309426988967,0.2286607277388225,1.3974274263791868,-0.1378992346785162,0.7743338083155866,0.0727494636783653,1.6533014506461694,-0.0230305865055971,-1.5851601985322097,0.4691933756813529,11.403702721596346,-1.371637283918864,0.0157593384284391,-1.3979252665627735
2.34,-0.069712651227044,0.2564071570338018,1.3931458618590429,0.1445799006517212,0.1313767532414272,0.037175006710126,-0.1161499445184196,0.7207227996509822,-0.0154869366492311,-0.0713915647802791,0.2445454231295395,1.3984367522900127,-0.1327673652879093,0.7544328470953221,0.0950326318154389,1.739342431996021,-0.1403554103560085,-1.644221678659491,0.5496794756508507,11.55270230066344,-1.3748820751949318,0.0101509079632186,-1.3868167778734155
2.36,-0.0719643751121577,0.2697731906218976,1.3929672711871492,0.1458819728203006,0.1280098543486864,0.0360397494938323,-0.1207661900767722,0.688369017564681,-0.003790915573389,-0.0741238901268964,0.25993259448975,1.4000031574042653,-0.1276354958973024,0.7345318858750577,0.1173157999525124,1.7355646396413855,-0.2308122779176261,-1.6176891043150563,0.5848010537921076,11.649385591339524,-1.3742512273419882,0.0069500869507531,-1.3778733571341053
2.38,-0.0744356677129714,0.2831728083171151,1.393033852580367,0.1449452993798993,0.1273202849907018,0.0350849812342621,-0.1257599021263559,0.6535748178686771,0.0099358880029624,-0.0767279187387486,0.2748222418194537,1.402126641721945,-0.1225036265066955,0.7146309246547933,0.1395989680895859,1.886795318087851,-0.2496856024791861,-1.7397099848001971,0.6863401788175726,11.746603695932208,-1.3656240787632914,0.006652509307658,-1.3713957182443248
2.4,-0.0769861460908655,0.2958709910983624,1.3933914102333784,0.1411570160738444,0.1289285828229886,0.0342540998938081,-0.1287526064247407,0.6189494375915371,0.025257138712585,-0.0807236628192892,0.315851549210549,1.393530646980515,-0.1169173845045407,0.553574816378561,0.0543826506541674,1.8990879137504657,-0.1496352149192387,-1.7312690138570008,0.7660625354811299,11.832718844635563,-1.35430037495638,0.0095949668382173,-1.3695757807810287
2.42,-0.0794747816382429,0.3074951008892115,1.3938341511415315,0.1403557012716933,0.1316061921725222,0.0338142021126331,-0.1328810549950936,0.6043782016118927,0.0203173894415935,-0.0807236628192892,0.315851549210549,1.393530646980515,-0.1169173845045407,0.553574816378561,0.0543826506541674,0.7965019278582957,-0.2064224285176455,-0.7285617989822191,-0.2469874635495732,11.914528122501906,-1.362379356843402,0.0102242881252148,-1.378598531654458
2.44,-0.0821587259356252,0.319370318359338,1.3942034769821796,0.1446229623557725,0.1348573291943333,0.0337651311198262,-0.1350903358179581,0.5828059763875797,0.0170073576215353,-0.0807236628192892,0.315851549210549,1.393530646980515,-0.1169173845045407,0.553574816378561,0.0543826506541674,1.0968114395060815,-0.1104640411432239,-1.0786112612156509,-0.1655015910029105,10.681014448799942,-1.3507182644561482,0.0046470028867479,-1.3681603816325234
2.46,-0.0848633266593991,0.3307351633045222,1.3945406587997875,0.1505195476258282,0.1381315764384126,0.033833148503991,-0.1351183960131331,0.5545077781629006,0.0170107240144714,-0.0818928366643346,0.3213872973743346,1.3940744734870567,-0.1151488809801776,0.5335748160805378,0.0632720031844084,1.4149106168503924,-0.0014030097587519,-1.4149099112339525,0.0001683196468055,10.91548939842869,-1.3378069814293612,-0.0031491331651238,-1.359105191011791
2.48,-0.087546800970351,0.3414882770363324,1.3949132758662632,0.1559448862787743,0.1411091906640569,0.0338212728098241,-0.1331848354904182,0.5223866739737573,0.0202590829789074,-0.0842311843544254,0.3324587937019058,1.3951621265001402,-0.1116118739314516,0.4935748154844913,0.0810507082448905,1.61713931572595,0.0966780261357436,-1.606055209457169,0.1624179482217999,11.12201637525959,-1.326167220196276,-0.0101173858557178,-1.3517731830523596
2.5,-0.0900444404667683,0.3510854808018719,1.3953539769195495,0.1599776089283699,0.1434411039572856,0.0336472735603611,-0.1298249133046697,0.4897502921923073,0.0260097683721677,-0.0865695320445162,0.343530290029477,1.3962497795132234,-0.1080748668827255,0.4535748148884448,0.0988294133053725,1.6654525476361532,0.1679961092874271,-1.6318190890724975,0.2875342696630166,11.12201637525959,-1.3150948686374355,-0.016022213811047,-1.3441788160877308
2.52,-0.0925920329118682,0.3605073676486018,1.39596199278941,0.1629486117159188,0.145226033014579,0.0332559779712609,-0.1250925417960387,0.4543488461877393,0.0346417597558812,-0.0887310293821707,0.3526017863272459,1.3982263677793307,-0.1045378598339994,0.4135748142923984,0.1166081183658545,1.8372322897217883,0.2366185754315491,-1.770072300228398,0.4315995691856719,11.479732883056386,-1.3052429218060275,-0.0206171023481037,-1.33851106953476
2.54,-0.0950363076235412,0.3692103417405458,1.396759246528294,0.1645846671415903,0.14625268527052,0.0326328191492611,-0.1195968757506871,0.4179227307490856,0.0447417215719613,-0.0908925267198252,0.3616732826250148,1.4002029560454383,-0.1010008527852733,0.3735748136963519,0.1343868234263366,1.9098910046900817,0.2747833022675783,-1.821305771932688,0.5049980908040055,11.479732883056386,-1.297902072749367,-0.0237253972999616,-1.333992707841935
2.56,-0.0973652010563274,0.3771636782495611,1.3977709726192509,0.1642897092989749,0.1465101240761493,0.0317330407391813,-0.113660491930159,0.3796524732062465,0.0559976358982078,-0.0929655988812616,0.3697447789078825,1.4026240119380575,-0.0974638457365472,0.3335748131003055,0.1521655284868186,2.016524778287922,0.296819191026406,-1.913512877141954,0.5627957163123254,11.570844365322955,-1.2923062296861862,-0.0244377126089963,-1.3285047299178516
2.58,-0.0994661198047346,0.3839996710619859,1.3989530035136828,0.161507694858952,0.1461096642923256,0.0305879470164102,-0.1078762459755957,0.3423756154417686,0.067961238598532,-0.0949502458664798,0.3768162751758491,1.4054895354571897,-0.0939268386878212,0.2935748125042591,0.1699442335473006,1.978730284568364,0.2892122977281648,-1.863842888223893,0.5981801350162088,11.654090475968587,-1.2869809042584393,-0.0222298333561817,-1.3231515358522767
2.6,-0.101559555210414,0.3904582765541021,1.4004625747656323,0.1563596314801777,0.1450932786539422,0.0291319951903496,-0.1018235002975589,0.3060696928065516,0.0825350792363022,-0.1048599321035144,0.4011184518340744,1.402351065443609,-0.1236361853034317,0.2423756139516525,0.0770200372618501,1.979363900077799,0.3026372839018396,-1.815296131760849,0.7286920318885136,11.833625310424395,-1.282340922398571,-0.0176571892953389,-1.320170726085367
2.62,-0.1035359369951862,0.3962527241415234,1.402030122837081,0.1500509818886527,0.1423125561107041,0.0273348865442664,-0.0962204807270589,0.2758323612662842,0.0723493389279754,-0.1048599321035144,0.4011184518340744,1.402351065443609,-0.1236361853034317,0.2423756139516525,0.0770200372618501,1.619752567996214,0.2801509785250004,-1.511866577013371,-0.5092870154163438,11.833625310424395,-1.2978170952165535,-0.0107647061614593,-1.3189549767277235
2.64,-0.1054073602684031,0.4014914726392702,1.4033883091732549,0.1438308717220467,0.1363259726676373,0.0250997032041891,-0.0918104791938538,0.249395217062135,0.0641775808356154,-0.1048599321035144,0.4011184518340744,1.402351065443609,-0.1236361853034317,0.2423756139516525,0.0770200372618501,1.4010249261825272,0.2205000766602544,-1.321857210207461,-0.408587904617997,10.142863578988,-1.3032523693169609,-0.0036461946509046,-1.297757013548245
