t,x,y,z,roll,pitch,yaw,v_x,v_y,v_z,ref_x,ref_y,ref_z,ref_v_x,ref_v_y,ref_v_z,a_com,a_x,a_y,a_z,thrust,wind_x,wind_y,wind_z
0.0,1.94657865359948,-2.433656669831766,2.0522286233977582,0.0138490388147119,0.1499587405464081,0.028152738938105,0.0002379619945727,-0.0044232397954893,0.0019549295763795,1.9465880227712875,-2.4338535796741363,2.0522849963452297,-0.0997065107189537,0.093996633885855,0.0257256705247387,0.2420920581507467,0.0118980997286388,-0.2211619897744697,0.0977464788189796,10.663301829040392,-1.413483436674956,0.1788366334846853,-1.2788981656015643
0.02,1.946789567148212,-2.433973450158581,2.0522775004600757,0.0044645122985473,0.1436873153517757,0.0274604338114355,0.0201030834084169,-0.0229609138638896,0.0032916511047082,1.9465880227712875,-2.4338535796741363,2.0522849963452297,-0.0997065107189537,0.093996633885855,0.0257256705247387,1.3601978101523544,0.9932560706922068,-0.9268837034200108,0.0668360764164322,10.921704304031664,-1.413259508535347,0.1884472317179925,-1.274050543410965
0.04,1.947294314861552,-2.434409872106047,2.052345256810902,-0.010830933248955,0.1275469141462014,0.0265146822759933,0.0305008281076052,-0.0213728971279365,0.0039434322503986,1.9465880227712875,-2.4338535796741363,2.0522849963452297,-0.0997065107189537,0.093996633885855,0.0257256705247387,0.5269243556836313,0.5198872349594175,0.0794008367976545,0.0325890572845193,10.921704304031664,-1.4371680509107598,0.2070098590408126,-1.2422921541684189
0.06,1.9479128801691084,-2.4347534446235306,2.0524448536606843,-0.0272952518149585,0.1046395963308721,0.0259485810498274,0.0296025479110473,-0.0126387135369591,0.0061165294933854,1.945590957664098,-2.432913613335278,2.052542253050477,-0.1197065110169769,0.1139966341838782,0.0304909173332676,0.4522588361212635,-0.0449140098278946,0.4367091795488698,0.1086548621493427,10.66303839565444,-1.4687561005399976,0.2256260577715638,-1.20079169364185
0.08,1.948390933820113,-2.434879186544125,2.0526021687445954,-0.0430801251556497,0.0797420063399422,0.0259478590202351,0.0173570605396087,4.492314642784846e-06,0.009554987885667,1.9435968274497188,-2.4310336806575608,2.053056766460972,-0.1597065116130234,0.1539966347799246,0.0400214109503254,0.8966961738592044,-0.6122743685719301,0.6321602925800954,0.1719229196140791,10.66303839565444,-1.500684550673743,0.2428946249664247,-1.1566218774792467
0.1,1.9485162808772705,-2.434713222324322,2.0528366598869807,-0.0579304004352301,0.0561328585238965,0.0264065147511275,-0.004527329112608,0.0162225967915127,0.0136870686842646,1.94160269723534,-2.429153747979844,2.0535712798714667,-0.1997065122090698,0.1939966353759711,0.0495519045673832,1.3775226994489609,-1.09421948261084,0.8109052238434963,0.206604039929877,10.698930494273554,-1.5279177332116636,0.2579332385532523,-1.117476416236303
0.12,1.9481573846025515,-2.434204216749043,2.0531371846103097,-0.070406575746678,0.0368994080433094,0.0271247192808549,-0.0321581260049129,0.0362464876456444,0.0177224770211834,1.9376085669911585,-2.425273815272324,2.0545623179628145,-0.2397065128051163,0.2339966359720175,0.059082398184441,1.7180669823144727,-1.381539844615248,1.001194542706586,0.2017704168459425,10.75268050714658,-1.5514182839019692,0.2718100686473633,-1.0835634402376348
0.14,1.9471633493794311,-2.433229908573605,2.053538993504485,-0.0813471255282098,0.0211169162336157,0.0279876962805008,-0.065810864358395,0.0599342873108067,0.0222686400226727,1.933614436746977,-2.421393882564805,2.055553356054162,-0.2797065134011628,0.273996636568064,0.0686128918014988,2.0701970013146687,-1.682636917674105,1.1843899832581148,0.2273081500744657,10.8109899453475,-1.5691448137776518,0.2833936518006839,-1.0588674457108618
0.16,1.945447900849013,-2.4317483123304267,2.054033386191009,-0.089669232816233,0.0107510686293211,0.0287637170489928,-0.1038282457944265,0.0863805562117108,0.0269725652387451,1.9286203064878944,-2.4165139498423844,2.056782656485936,-0.3197065139972092,0.3139966371641104,0.0781433854185566,2.3274735994582394,-1.9008690718015704,1.3223134450452076,0.2351962608036198,10.95445158502298,-1.5815483893085216,0.2924801406179677,-1.043558748285026
0.18,1.942939052243224,-2.4297238759059585,2.054624274532893,-0.0953721981090671,0.0067396255461757,0.0292329552011272,-0.1445405415402786,0.1140851890315717,0.031960865038157,1.9226261762139107,-2.410634017105062,2.0582502192581367,-0.3597065145932556,0.3539966377601569,0.0876738790356144,2.4748337517244705,-2.0356147872926047,1.3852316409930403,0.2494149899705918,10.95445158502298,-1.5861462520746406,0.2989498899499523,-1.0407310857663874
0.2,1.939814267572064,-2.427281896638145,2.0552832817468065,-0.0986210742515022,0.0085227838934093,0.0293187968589798,-0.1816707739832494,0.1410207170012978,0.0372594600691619,1.93571202516621,-2.42401961645438,2.0562223177848007,-0.2445405430303947,0.2140851905216878,0.0341351039453302,2.3088156799426063,-1.8565116221485436,1.3467763984863073,0.2649297515502455,11.00868571637784,-1.5845404948105826,0.3036212583650888,-1.0472693363498005
0.22,1.9357565224367208,-2.424058789999381,2.055997602363615,-0.0965998587788803,0.0160252191186929,0.029243129911475,-0.2213774017855496,0.178505977489263,0.0336828594424205,1.93571202516621,-2.42401961645438,2.0562223177848007,-0.2445405430303947,0.2140851905216878,0.0341351039453302,2.736125507594732,-1.9853313901150096,1.8742630243982608,-0.1788300313370697,11.02525112249532,-1.5758970644135752,0.3028576974579377,-1.062843016382769
0.24,1.9309740594462912,-2.420183887615375,2.05665158857842,-0.0890744791351385,0.0281795400313282,0.0291615059425044,-0.2541292967881154,0.2061553665897023,0.032142899461019,1.93571202516621,-2.42401961645438,2.0562223177848007,-0.2445405430303947,0.2140851905216878,0.0341351039453302,2.144496922725059,-1.6375947501282877,1.3824694550219632,-0.0769979990700747,10.509219744572874,-1.5619019732673605,0.297235697345674,-1.0879301326443849
0.26,1.9258813847266316,-2.4160579517325265,2.0572599942753262,-0.0811740054967271,0.0416507884023118,0.029064949095359,-0.2798328212775197,0.2267066391049522,0.0319680857710079,1.933266619735906,-2.421878764549163,2.056563668824254,-0.2645405433284179,0.234085190819711,0.0345699517267649,1.6454912131333983,-1.2851762244702136,1.027563625762498,-0.0087406845005532,10.570153180996384,-1.5451258365844514,0.2901542994125669,-1.116384189543234
0.28,1.920053267780167,-2.4113290865787933,2.057900487018933,-0.0737195856807823,0.0560929353826115,0.0289940056743344,-0.3012279017414747,0.2451967502280773,0.0320478561551803,1.9283758088752985,-2.4175970607387294,2.0572463709031608,-0.3045405439244644,0.2740851914157575,0.0354396472896342,1.413895364515008,-1.0697540231977498,0.9245055561562506,0.0039885192086201,10.564807831784492,-1.5277828112804472,0.2836624286958504,-1.1444561439351435
0.3,1.9138506535952,-2.406251118842152,2.058538820743128,-0.0677085879035227,0.0692651301094002,0.0290098477103184,-0.3178488718507907,0.2619741329010603,0.0317103573709969,1.9234849980146904,-2.413315356928296,2.057929072982067,-0.3445405445205108,0.3140851920118039,0.0363093428525035,1.180943608052279,-0.8310485054658034,0.8388691336491505,-0.0168749392091729,10.564807831784492,-1.5118530037118945,0.2784358328250642,-1.1694434639291036
0.32,1.907352048599171,-2.4008457947828874,2.05916451109714,-0.0630506950146913,0.0803074159120139,0.0291398207635526,-0.3310861773966244,0.2778943709754586,0.0308071576107989,1.91659418712428,-2.4070336530880594,2.058655259839117,-0.3845405451165573,0.3540851926078504,0.0371790384153728,1.036214273529011,-0.6618652772916817,0.7960119037199176,-0.0451599880098952,10.545354493820014,-1.4989655057112976,0.274675692104727,-1.189503870308865
0.34,1.9009590939543304,-2.3954224463572147,2.0597340849919723,-0.0597950612056194,0.088347954346493,0.0293718029635548,-0.3412918579464172,0.2924384351348871,0.029145491610081,1.90970337623387,-2.4007519492478235,2.0593814466961677,-0.4245405457126038,0.3940851932038969,0.0380487339782421,0.8922539600023274,-0.5102840274896409,0.7272032079714247,-0.0830833000358988,10.528745340726346,-1.4884847214993315,0.2719220764119418,-1.205709221128979
0.36,1.894029564335399,-2.389409355168662,2.060293150680335,-0.0571246969412203,0.0943366228050505,0.029730288141945,-0.3511713236985997,0.3081290375117428,0.0268100629451259,1.9018125653285587,-2.3934702453926864,2.060129375942289,-0.4645405463086502,0.4340851937999433,0.0389184295411114,0.934415691149059,-0.4939732876091257,0.7845301188427828,-0.1167714332477542,10.49783761576964,-1.4812247125070992,0.2699651944274618,-1.2172754267914596
0.38,1.8869060806626023,-2.3830818095698567,2.060802279563938,-0.0547971128886603,0.0982180524529211,0.0301946462426752,-0.3607511429282882,0.3238013755458063,0.0242049056494017,1.892921754408346,-2.385188541522648,2.0608990475774824,-0.5045405469046966,0.4740851943959897,0.0397881251039808,0.9276070833910888,-0.478990961484424,0.7836169017031769,-0.1302578647862111,10.481433967617704,-1.4764899390960378,0.2683446191451666,-1.22533618518763
0.4,1.8795898985156545,-2.376443302542151,2.0612587305139143,-0.0526079740863205,0.1004852244013049,0.030741098401411,-0.3704572055914694,0.3392021784132123,0.0215686993017252,1.868868523516188,-2.3668917407925663,2.0620125248464083,-0.4607511444184043,0.4238013770359224,0.0224075372486715,0.9197037094763596,-0.4853031331590623,0.7700401433702986,-0.1318103173838208,10.478759678260758,-1.4737968611994343,0.2669159083055821,-1.230506177399454
0.42,1.8724575663407936,-2.369847388451997,2.061628054874365,-0.0503175677360756,0.1014907939627011,0.0313344316060642,-0.3798962587923897,0.354125892140075,0.017359055579883,1.868868523516188,-2.3668917407925663,2.0620125248464083,-0.4607511444184043,0.4238013770359224,0.0224075372486715,0.9076536467673112,-0.4719526600460155,0.7461856863431343,-0.2104821860921117,10.484812022365077,-1.4722133630236969,0.2651278507523742,-1.2339563603460637
0.44,1.8647599145410532,-2.362625547342242,2.0619285267486336,-0.0481693957695274,0.1013868018688328,0.0319945248386447,-0.3894410237824898,0.3674335701653716,0.0129179475150511,1.868868523516188,-2.3668917407925663,2.0620125248464083,-0.4607511444184043,0.4238013770359224,0.0224075372486715,0.8484106817819959,-0.477238249505002,0.6653839012648294,-0.2220554032415971,10.376040136108712,-1.4719083137073143,0.2635863008189036,-1.2355057366069455
0.46,1.85686848855266,-2.3551440771354053,2.062143764486157,-0.0468611543038796,0.1000829749612827,0.0326473873110577,-0.3993357179683532,0.3801803189389124,0.0088252956425264,1.864261012072004,-2.362653727022207,2.062236600218895,-0.4807511447164275,0.4438013773339457,0.0220480635685254,0.8323676721815979,-0.4947347092931736,0.6373374386770408,-0.2046325936262358,10.383366669994755,-1.4732923479601707,0.2629589796705776,-1.2345372233054948
0.48,1.8487722969222875,-2.3474128893536323,2.0622819340462244,-0.0465393970180448,0.0977842424643134,0.0332724768350081,-0.4099022442349532,0.3924326438654461,0.0051967354413876,1.855045989183636,-2.3541776994814887,2.0626847509638684,-0.5207511453124739,0.4838013779299921,0.0213291162082334,0.8290618079814589,-0.5283263133299965,0.612616246326686,-0.1814280100569395,10.40224580461745,-1.475788520322815,0.2633768858829169,-1.231842815094118
0.5,1.840876007561084,-2.3398432960507223,2.0623508742703134,-0.0473119425052728,0.0949096073664185,0.0338217352842812,-0.420864439554145,0.4038849985776529,0.0022426264872912,1.845830966295268,-2.34570167194077,2.063132901708842,-0.5607511459085204,0.5238013785260386,0.0206101688479413,0.8063078109242588,-0.5481097659595896,0.5726177356103396,-0.1477054477048203,10.426397484745394,-1.4794032633919505,0.265069772387459,-1.22741671776782
0.52,1.832327281231957,-2.331638458796284,2.062367887244692,-0.0493641876481879,0.0914572085129965,0.0343384009253845,-0.4335654266278906,0.4161240418558583,-0.0003624142183577,1.8346159433770972,-2.335225644370249,2.0635451050858005,-0.6007511465045668,0.5638013791220851,0.0198912214876492,0.8914811973498462,-0.6350493536872837,0.6119521639102676,-0.1302520352824465,10.453455946423674,-1.4834480242836316,0.2681574609182528,-1.2218610236821166
0.54,1.823508467390308,-2.323172025258601,2.0623379303867524,-0.0523614828808501,0.087971041082697,0.0348025315964946,-0.4478270316608887,0.4301936625994407,-0.0024907771064447,1.823400920458927,-2.324749616799729,2.06395730846276,-0.6407511471006133,0.6038013797181315,0.0191722741273571,1.0073201260881122,-0.713080251649903,0.7034810371791239,-0.10641814440435,10.4812009249963,-1.4876619774673647,0.2722784753290356,-1.215746596829686
0.56,1.8143798036854413,-2.314394362683174,2.062270507911886,-0.0551035150327114,0.0852072734474175,0.0352591762832149,-0.4643929778429828,0.4466755322328384,-0.004140220817388,1.8111858975258557,-2.313273589214307,2.064351538155711,-0.6807511476966597,0.6438013803141779,0.018453326767065,1.1713275204612106,-0.828297309104703,0.8240934816698825,-0.0824721855471681,10.511362297427697,-1.4910426922458078,0.2759842719489859,-1.2114232307790451
0.58,1.8053817860534576,-2.305739050150524,2.0621794868976453,-0.0568899305114074,0.0841231521359215,0.0356712667788524,-0.4817901243212124,0.463329971745725,-0.005354669650132,1.7979708745778826,-2.300797561613984,2.064727794164656,-0.7207511482927061,0.6838013809102244,0.017734379406773,1.2057217206311823,-0.8698573239114799,0.8327219756443294,-0.0607224416371959,10.54989404007938,-1.4920081636307794,0.2790817275761138,-1.2117454077492271
0.6,1.795555513947131,-2.296281697429785,2.062059893306908,-0.0577340689197551,0.084826894496165,0.0360724580471829,-0.4997138866614072,0.4814343535877843,-0.0065382044279898,1.781292279837397,-2.282572551563238,2.0619117534151385,-0.5817901258113285,0.5633299732358411,-0.0190050003650134,1.275177098368376,-0.8961881170097441,0.9052190921029684,-0.059176738892892,10.58728485112806,-1.49038304254007,0.2810290438736603,-1.2158124470981515
0.62,1.785346059289416,-2.2864114219761964,2.061871890127359,-0.0556857782851405,0.0879550501638757,0.0365337157953438,-0.519995835005511,0.5041531787907872,-0.0124002241719959,1.781292279837397,-2.282572551563238,2.0619117534151385,-0.5817901258113285,0.5633299732358411,-0.0190050003650134,1.550698006315713,-1.0140974172051898,1.1359412601501444,-0.2931009872003026,10.58728485112806,-1.4873094119692318,0.2796233689610163,-1.2211529709155182
0.64,1.7747653868086537,-2.276140518740076,2.061559251361747,-0.0507685060093316,0.0934105498350967,0.037073394953789,-0.5366767966940336,0.5212384954203843,-0.0185325436195936,1.781292279837397,-2.282572551563238,2.0619117534151385,-0.5817901258113285,0.5633299732358411,-0.0190050003650134,1.232647424240733,-0.8340480844261255,0.8542658314798501,-0.3066159723798886,10.324096822480897,-1.4788878719748615,0.2753990376035653,-1.2353376310316888
0.66,1.7644359744222395,-2.266107936517656,2.0611438140268223,-0.0459762758344913,0.0994302544667148,0.0375691853391357,-0.5495963587496856,0.5340318804967459,-0.0249115088429331,1.7754743785792837,-2.2769392518308798,2.0617217034114885,-0.6017901261093517,0.5833299735338643,-0.0217350665079897,0.9634274528246672,-0.6459781027826017,0.6396692538180815,-0.3189482611669731,10.305321386081232,-1.4692430317461016,0.2704568840046595,-1.248545180019202
0.68,1.753326235470299,-2.255304997860464,2.0605684923804994,-0.0417127806346762,0.1057344766312217,0.0380558528662422,-0.5605303001907003,0.5457244882036029,-0.032339337538201,1.763838576063057,-2.2656726523661628,2.061341603404188,-0.6417901267053981,0.6233299741299108,-0.0271951987939422,0.8823842552259118,-0.5466970720507336,0.5846303853428492,-0.371391434763396,10.22575305986993,-1.4597175577439472,0.2662866992037652,-1.26067730287509
0.7000000000000001,1.7420221368580815,-2.2442784400300813,2.059837057937948,-0.0385253322473267,0.1113117231282973,0.0385089636049996,-0.5693038682651242,0.556605729583986,-0.0404573458926028,1.7522027735468304,-2.254406052901446,2.060961503396888,-0.6817901273014446,0.6633299747259572,-0.0326553310798948,0.8082063015976372,-0.4386784037211988,0.5440620690191578,-0.4059004177200918,10.22575305986993,-1.4512678776118166,0.2632727909832816,-1.2708705957854216
0.72,1.7305596984156306,-2.2330375633051247,2.058938864327417,-0.0363171148101875,0.1157688727140748,0.0389399398413305,-0.5765374857521278,0.5671756911319343,-0.0489763194232099,1.7385669710008016,-2.2411394534069267,2.06030839677529,-0.7217901278974911,0.7033299753220037,-0.0381154633658474,0.7691264835652414,-0.3616808743501787,0.5284980773974157,-0.4259486765303525,10.198019316954742,-1.4445993180958054,0.2614257687911402,-1.2785948179035351
0.74,1.7195462794143264,-2.222165621544788,2.057924803924195,-0.0350523872678483,0.1188019615703805,0.0393320321414583,-0.5824814330042721,0.5768424023369899,-0.0573510338424922,1.7249311684547728,-2.2278728539124075,2.059655290153692,-0.7617901284935376,0.7433299759180502,-0.0435755956517999,0.7051802182115496,-0.2971973626072155,0.4833355602527789,-0.418735720964114,10.18567503165741,-1.4392259848841074,0.2604554362370445,-1.2843513505062778
0.76,1.7078316928157773,-2.210517910433077,2.056684606635991,-0.0344293326464641,0.120857708317159,0.0397286490544463,-0.5887029814873246,0.587426087037844,-0.0662312981524716,1.710295365893843,-2.213606254402987,2.0588656802249456,-0.8017901290895839,0.7833299765140965,-0.0490357279377525,0.7575967621188061,-0.3110774241526226,0.5291842350427067,-0.4440132154989687,10.176543953414694,-1.4355501460508542,0.2603148047573318,-1.2877002650680511
0.78,1.6959913956965456,-2.198653922083483,2.055269055732505,-0.0342163185117336,0.1220657846134278,0.040117799100539,-0.5950572321031958,0.5984031923768451,-0.0748817223970261,1.6946595633180117,-2.1983396548786653,2.05793956698905,-0.8417901296856304,0.823329977110143,-0.0544958602237051,0.7676313928631436,-0.3177125307935624,0.5488552669500546,-0.4325212122277287,10.196522458704749,-1.432939815052015,0.2606456881152256,-1.2897700399901284
0.8,1.684021637336361,-2.186566143388549,2.053683765320603,-0.0341494302259053,0.1227351598026324,0.0405068681278772,-0.6016214231653203,0.6097604823043415,-0.0832165230575628,1.6662385340913857,-2.168733762464641,2.0515249696126534,-0.695057233593312,0.6984031938669613,-0.0987689189527598,0.7770867725810421,-0.3282095531062234,0.5678644963748203,-0.4167400330268321,10.196522458704749,-1.4310912201626522,0.2611213300880302,-1.291156500689022
0.8200000000000001,1.6725007042426765,-2.174841815805713,2.0520070277702382,-0.033082511169452,0.1238086640800636,0.0409235293870173,-0.6105385106453624,0.6233562570377326,-0.0928648571012366,1.6662385340913857,-2.168733762464641,2.0515249696126534,-0.695057233593312,0.6984031938669613,-0.0987689189527598,0.9453172609581284,-0.4458543740021026,0.679788736669551,-0.4824167021836904,10.217169460536752,-1.4296298720226075,0.2604094972552138,-1.2918150856984307
0.84,1.6602098287493825,-2.1622540649894524,2.0500411235672917,-0.0309644893489558,0.1256714906470564,0.0413985111278279,-0.6179600689896643,0.6346813632583999,-0.1032250653975274,1.6662385340913857,-2.168733762464641,2.0515249696126534,-0.695057233593312,0.6984031938669613,-0.0987689189527598,0.8524545077448529,-0.3710779172150957,0.5662553110333646,-0.5180104148145417,10.116755485510112,-1.4251112269798154,0.2584283584606777,-1.296719885048283
0.86,1.6477840170910132,-2.149455540817728,2.047864505551666,-0.0289317706208456,0.1275465017334736,0.0418585430803348,-0.6242246684783577,0.6446618947199189,-0.1139249122942216,1.6592879617554526,-2.161749730525971,2.050537280423126,-0.7150572338913351,0.7184031941649844,-0.1035463582639065,0.795837512656957,-0.31322997443467,0.4990265730759502,-0.5349923448347101,10.106188166495484,-1.421097160073931,0.2565530467167735,-1.3001353116760006
0.88,1.6358719964497732,-2.137121429742141,2.045596310838935,-0.027484835657658,0.1290386956572398,0.042261585055224,-0.6293744691188955,0.6532767315563216,-0.1243010596557811,1.6453868170835864,-2.147781666648632,2.0485619020440704,-0.7550572344873816,0.7584031947610309,-0.1131012368862,0.7218038071801847,-0.2574900320268913,0.430741841820137,-0.5188073680779753,10.088396573015416,-1.41713405545461,0.255093588567384,-1.3025233418168545
0.9,1.6232336067429267,-2.123968670789156,2.0429940501736867,-0.0267831877407709,0.1300997481635185,0.0426327858413575,-0.634212511379749,0.6616169742059277,-0.1353865857050444,1.6314856724117202,-2.133813602771293,2.046586523665016,-0.7950572350834281,0.7984031953570774,-0.1226561155084935,0.7346005515942106,-0.2419021130426746,0.4170121324803044,-0.5542763024631636,10.070055187163234,-1.413904899275474,0.2546076761529501,-1.3037381906978749
0.92,1.61050214285704,-2.110653435748939,2.0401707699231597,-0.027211633622497,0.1305304041398723,0.0429323263014232,-0.6387386448549855,0.6695884950976988,-0.1463805847240697,1.6155845277100516,-2.117845538864151,2.0441334013548453,-0.8350572356794745,0.8384031959531238,-0.132210994130787,0.7157147546228326,-0.226306673761828,0.3985760445885555,-0.5496999509512629,10.070055187163234,-1.4115957479938914,0.2553907081468529,-1.3039946083548362
0.94,1.5976815613474051,-2.0971788382217147,2.037130415548788,-0.028938978927895,0.1303068325767069,0.0431515070419853,-0.6431868319542232,0.6776364595361366,-0.1571029773964454,1.599683383008383,-2.1018774749570097,2.041680279044676,-0.875057236275521,0.8784031965491703,-0.1417658727530805,0.7062680169255875,-0.2224093549618833,0.4023982219218902,-0.5361196336187868,10.07735769861756,-1.4102418385786697,0.2577294380108665,-1.3029871579220742
0.96,1.585413430408872,-2.0842115850026657,2.0340482576573677,-0.0313891040742142,0.1296768960741433,0.0433115668994159,-0.6480229505271112,0.6870871993392252,-0.1668002871121374,1.5827822382918133,-2.084909411034967,2.0389882847689487,-0.9150572368715674,0.9184031971452168,-0.1513207513753739,0.718926876321179,-0.2418059286444007,0.4725369901544318,-0.484865485784601,10.09235804652326,-1.40974025592706,0.2611435225723328,-1.3008228672742392
0.98,1.572394563396386,-2.070346231830249,2.0306093679162487,-0.0338458306905658,0.1288659474101753,0.0434911773118927,-0.6536347532624892,0.6988961903349754,-0.1765565847984976,1.5648810935603426,-2.066941347098023,2.036057418527664,-0.9550572374676138,0.9584031977412631,-0.1608756299976674,0.8156744798376709,-0.280590136768899,0.5904495497875084,-0.4878148843180108,10.150970560660426,-1.409345026057114,0.264480700468931,-1.2995596513007273
1.0,1.559258684745574,-2.056232310587369,2.026980794066825,-0.0356209859817403,0.1281118497182048,0.0437136505621193,-0.6596733713427436,0.711764375930953,-0.1857891264395041,1.5397128257332615,-2.035401422313501,2.021781538676324,-0.7536347547526053,0.7988961918250915,-0.1921650538227982,0.8474888406413074,-0.3019309040127205,0.6434092797988789,-0.461627082050324,10.150970560660426,-1.408791158215274,0.2670265350492105,-1.2990611004859425
1.02,1.5459698595406872,-2.041808941459398,2.023206892795875,-0.0350019118312933,0.1285695519153,0.0440538898517769,-0.6686999518949243,0.7294800860053866,-0.1909384706179648,1.5397128257332615,-2.035401422313501,2.021781538676324,-0.7536347547526053,0.7988961918250915,-0.1921650538227982,1.026938758367121,-0.451329027609032,0.8857855037216811,-0.2574672089230345,10.182951630854404,-1.407349729608752,0.2668687445377379,-1.3005797241118355
1.04,1.5331974318130674,-2.027804747551852,2.0195316115527464,-0.0316723814782346,0.1305590182807197,0.0445058328654904,-0.6751291958609281,0.7433471948015808,-0.1956985460795061,1.5397128257332615,-2.035401422313501,2.021781538676324,-0.7536347547526053,0.7988961918250915,-0.1921650538227982,0.8004533133472742,-0.321462198300193,0.6933554398097119,-0.2380037730770626,10.457851213417598,-1.402974991819657,0.2633311447728744,-1.3083951512958936
1.06,1.5196412638075083,-2.0128215177461013,2.015554754913209,-0.0273092607096641,0.1332189579419135,0.0450177462170151,-0.6800284988085226,0.7541014370585953,-0.2017985192596707,1.5321764781857354,-2.02741246039525,2.019859888138096,-0.7736347550506285,0.8188961921231147,-0.1952867476276583,0.6649559547323265,-0.244965147379722,0.5377121128507245,-0.3049986590082335,10.357073263782697,-1.39824808037458,0.2585394999372666,-1.3152549954620816
1.08,1.5060036419496026,-1.9976487135478929,2.0114427330349463,-0.0233862461088923,0.1357666373758769,0.0454965258997903,-0.6834728640624732,0.7627744287259561,-0.2091052852522109,1.5171037830906835,-2.011434536558748,2.01601658706164,-0.813634755646675,0.8588961927191612,-0.2015301352373786,0.5926070910275906,-0.1722182626975321,0.4336495833680398,-0.3653382996270063,10.295602301239342,-1.3935836712333665,0.2541463652485546,-1.3207217973681973
1.1,1.4923086424357646,-1.982314275435577,2.0071754577319423,-0.0202863442368466,0.1377573604192309,0.0459229016049382,-0.6858998919464925,0.7704344880089647,-0.2172623165676205,1.5020310879956311,-1.9954566127222464,2.012173285985184,-0.8536347562427214,0.8988961933152076,-0.2077735228470988,0.5725035642893135,-0.1213513942009636,0.3830029641504306,-0.4078515657704826,10.295602301239342,-1.3897695594057686,0.2508298171492322,-1.3245715158588751
1.12,1.4792599766452,-1.9676099053877767,2.0029655790705303,-0.0181531795214125,0.1388967387906082,0.0462764051415459,-0.6876052045537683,0.7772083156459594,-0.2254752220930757,1.484958392870777,-1.977478688855942,2.008017815528242,-0.8936347568387679,0.938896193911254,-0.214016910456819,0.5390840591092861,-0.0852656303637899,0.3386913818497317,-0.4106452762727572,10.253169885656462,-1.386798120926706,0.2483204961219711,-1.32703250963968
1.14,1.465492708666429,-1.9519969471559504,1.998364588828233,-0.0167754699056043,0.1391958885788927,0.0465916184400106,-0.6891083097790311,0.7838171798265525,-0.2341893706720946,1.4678856977459225,-1.9595007649896377,2.0038623450713,-0.9336347574348144,0.9788961945073006,-0.2202602980665393,0.5519800642526811,-0.0751552612631434,0.3304432090296572,-0.4357074289509474,10.230250831500598,-1.385074077066578,0.2468765732446806,-1.327993870255659
1.16,1.4516914108024543,-1.9362466774689489,1.9935928489815369,-0.0161329019309879,0.1386861431860267,0.0468558538968362,-0.6910234348566918,0.7908814202610487,-0.242543782204049,1.4498130026061669,-1.9405228411084323,1.999550789924115,-0.9736347580308607,1.018896195103347,-0.2265036856762595,0.5553543666540931,-0.0957562538830336,0.353212021724808,-0.4177205765977188,10.229333722966658,-1.3845224825170916,0.2463033099937862,-1.3273814897394844
1.18,1.437846805912825,-1.9203516500810665,1.9886594196275151,-0.015890657166493,0.1376373436171093,0.0470881875513724,-0.6934030294768593,0.7982323830158091,-0.2503768027350079,1.4307403074515102,-1.920544917212326,1.9950831500866868,-1.0136347586269072,1.0588961956993934,-0.2327470732859797,0.5501257461177137,-0.1189797310083728,0.3675481377380218,-0.3916510265479442,10.278884368637591,-1.384686400837135,0.2462051553108211,-1.3261517790217463
1.2,1.4246453596332624,-1.9051124398871675,1.9838324085993144,-0.0158367875882067,0.1363443154261248,0.0472902593952134,-0.6961523076672304,0.8054786877586192,-0.2573341720461265,1.403176654438982,-1.880440030930276,1.9761405794907647,-0.7934030309669754,0.8982323845059252,-0.278668171592034,0.5207505418264512,-0.1374639095185537,0.3623152371405036,-0.3478684655559311,10.278884368637591,-1.3853202798617272,0.2463213976278132,-1.3243768765435102
1.22,1.4106355694422228,-1.888893129963792,1.9785905950938585,-0.0148358041893806,0.1363556686548108,0.04753541931312,-0.7045141637181865,0.8157964170572601,-0.2665971212782165,1.403176654438982,-1.880440030930276,1.9761405794907647,-0.7934030309669754,0.8982323845059252,-0.278668171592034,0.809596200233832,-0.4180928025478092,0.5158864649320472,-0.4631474616045017,10.306045298228128,-1.3850880077370966,0.2452556455830274,-1.3225730233847173
1.24,1.396480510871112,-1.872496575793417,1.9731571155476908,-0.0128438588393358,0.1385993335373258,0.0478043512037337,-0.7102979374055455,0.8233380592056996,-0.2762939888232001,1.403176654438982,-1.880440030930276,1.9761405794907647,-0.7934030309669754,0.8982323845059252,-0.278668171592034,0.6788918259683578,-0.289188684367947,0.3770821074219721,-0.4848433772491806,10.187065200217148,-1.3796190225848943,0.2428553012090099,-1.3266032272382635
1.26,1.3822344371607358,-1.8559627023172556,1.9675213999975,-0.0109508764163393,0.1416994473211525,0.0480457080292219,-0.7138917517264416,0.8297253644667626,-0.2868032275109431,1.3952426241293123,-1.8714577070852163,1.9733538977748444,-0.8134030312649986,0.9182323848039484,-0.2843264453634392,0.6406193637157607,-0.1796907160448058,0.3193652630531507,-0.5254619343871475,10.16883705121927,-1.3738008064137603,0.2406639635093008,-1.330850213896512
1.28,1.368652147522038,-1.840146760718334,1.9619660930476477,-0.0096522219972641,0.144673105935895,0.0482312242746379,-0.7156100842791803,0.8349017303237517,-0.2974456312521932,1.3793745635099728,-1.853493059395098,1.967780534343004,-0.853403031861045,0.9582323853999948,-0.2956429929062497,0.5979301540292515,-0.0859166276369338,0.2588182928494553,-0.5321201870625042,10.124549142558864,-1.3677395970617232,0.238955456959339,-1.3349577578530567
1.3,1.3543340837125208,-1.8233994820103976,1.955894511062186,-0.0091770257010522,0.1472755107315966,0.0483590440827951,-0.7160887385089078,0.8396364436123496,-0.3091756216735279,1.3635065028906332,-1.8355284117049795,1.962207170911163,-0.8934030324570915,0.9982323859960414,-0.3069595404490601,0.6329283037624905,-0.0239327114863741,0.2367356644298934,-0.5864995210667356,10.091167681489424,-1.3625216084988752,0.2383457909227706,-1.3379026093006043
1.32,1.3400169029114144,-1.8065613650260737,1.9495863538504965,-0.0099284826268304,0.1489796290019687,0.048397902204603,-0.7156457987579063,0.844051916509684,-0.3210517092125296,1.3456384422414915,-1.8155637639850584,1.9560679801021816,-0.933403033053138,1.0382323865920875,-0.3182760879918705,0.6339046690239474,0.0221469875500701,0.220773644866723,-0.5938043769500856,10.066391007680068,-1.3586000487772951,0.2392245257682146,-1.3390849294707134
1.34,1.3257150759308585,-1.789634726108385,1.9430422181750464,-0.0121030056004222,0.1495846021423568,0.0483381392101469,-0.7147002957476892,0.8485832869001413,-0.332757551315767,1.3277703815923496,-1.7955991162651377,1.949928789293201,-0.9734030336491843,1.0782323871881343,-0.329592635534681,0.6293926296513345,0.0472751505108559,0.2265685195228628,-0.585292105161872,10.075884603254964,-1.356343135628136,0.2416738496967851,-1.3383943555835731
1.36,1.3121426455151517,-1.7734472465235471,1.9366144140920991,-0.0149408623528175,0.1492312001862635,0.0482330335143051,-0.7141030067365882,0.8552755547929028,-0.343263996911239,1.3089023209283066,-1.7746344685303157,1.9435066847956493,-1.013403034245231,1.1182323877841809,-0.3409091830774914,0.6235555363435575,0.0298644505550504,0.334613394638078,-0.5253222797735962,10.075884603254964,-1.355378080850273,0.2452638386750283,-1.335814966407889
1.38,1.2978646030477208,-1.75625018575356,1.9296388896200665,-0.0176759928208762,0.1480447604543992,0.0481499536943849,-0.7137890230697723,0.8640176372219528,-0.3537037890405448,1.2890342602493623,-1.7526698207805926,1.936801666609528,-1.0534030348412773,1.158232388380227,-0.3522257306203018,0.6810136757849421,0.0156991833407948,0.4371041214524973,-0.5219896064652924,10.111140905435605,-1.355674304186605,0.2486262836629912,-1.3335008444972698
1.4,1.2835887872731484,-1.7388664276564447,1.922463039312515,-0.019703239730789,0.1461243933583556,0.0481282374325771,-0.7138836623000396,0.8736999396138998,-0.3633528698787272,1.262175151894232,-1.7130493038924623,1.911953700168039,-0.8137890245598884,0.9640176387120688,-0.3312905259431394,0.6834849983993556,-0.0047319615133656,0.4841151195973503,-0.4824540419091194,10.14642727642604,-1.3569252142989705,0.2510300115688308,-1.3308495439711698
1.42,1.270013759276554,-1.722121667010044,1.9156074876280151,-0.0194542761216651,0.1444797424447219,0.0482516742975974,-0.715120319900861,0.8880254090595723,-0.3569895366360783,1.262175151894232,-1.7130493038924623,1.911953700168039,-0.8137890245598884,0.9640176387120688,-0.3312905259431394,0.7861940072551525,-0.0618328800410683,0.7162734722836239,0.3181666621324464,11.272891767474905,-1.35813993814892,0.2509358139231872,-1.3300877406560925
1.44,1.2557046711932949,-1.7042258131161026,1.908555526815113,-0.0161006245514779,0.1438098158727213,0.048562423382216,-0.7155952874241805,0.9003252307548801,-0.348653314194907,1.262175151894232,-1.7130493038924623,1.911953700168039,-0.8137890245598884,0.9640176387120688,-0.3312905259431394,0.7433098487058772,-0.0237483761659773,0.6149910847653928,0.4168111220585635,11.272891767474905,-1.359799165435562,0.2473207172646457,-1.3356474323178615
1.46,1.2413980832715623,-1.6861299394554687,1.9016570336871583,-0.0115876082820804,0.1434442796159713,0.0489296791105857,-0.7150421209695156,0.9084379838693136,-0.3416796667051017,1.2540372616486333,-1.7034091275053416,1.9086407949086075,-0.8337890248579116,0.984017639010092,-0.3268078733236583,0.5356176703918224,0.0276583227332483,0.4056376557216745,0.3486823744902667,11.243654958754632,-1.3611821263763015,0.2421393289378314,-1.3401671243552262
1.48,1.227109663253568,-1.667901861219325,1.8948820863715117,-0.0074536785796783,0.1427831185260798,0.0492532393804402,-0.7139376057500572,0.9140845725953004,-0.3361555456805072,1.2377614811574351,-1.6841287747311002,1.9020149843897447,-0.8737890254539581,1.024017639606139,-0.3178425680846961,0.3988102029939258,0.0552257609729212,0.2823294362993389,0.2762060512297215,11.151710810299846,-1.3627053606447044,0.2375079853159289,-1.3426328259593754
1.5,1.2135591378674082,-1.6504939983185911,1.8885387439970684,-0.0043404653668401,0.1415242919135972,0.0494887149353518,-0.7125760558397846,0.9182443382792312,-0.3318338600190161,1.2214857006662376,-1.664848421956859,1.895389173870882,-0.9137890260500046,1.064017640202185,-0.3088772628457339,0.307548515116354,0.0680774955136298,0.2079882841965419,0.2160842830745551,11.070209078129665,-1.36495464567696,0.2335821842881603,-1.3435549994102602
1.52,1.1993257629598757,-1.6320912396279346,1.881945408392911,-0.0020285836596087,0.1391296120003655,0.0496527281536487,-0.7109105340413375,0.921989047590994,-0.3277360029334576,1.2032099201452375,-1.6435680691528152,1.8892116286139675,-0.953789026646051,1.1040176407982314,-0.2999119576067718,0.2897811388978185,0.0832760899223516,0.1872354655881369,0.2048928542779243,10.985245761048644,-1.3685526464016784,0.2308258736306278,-1.3424023434381234
1.54,1.1851261576394094,-1.6136184717278503,1.8754386379012145,-0.0007278679957304,0.1352227856344625,0.0497288596764911,-0.7092561001079248,0.9251976899555652,-0.3231004407600755,1.1849341396242374,-1.6222877163487714,1.8830340833570527,-0.9937890272420976,1.144017641394278,-0.2909466523678096,0.2937727613608833,0.0827216966706345,0.1604321182285539,0.2317781086691089,10.985245761048644,-1.3742086188692506,0.2292967540807119,-1.33893307498789
1.56,1.1709473003162112,-1.5950781733136787,1.8690359369374483,-0.0003092779916042,0.1297202359680463,0.0497281606486249,-0.7090623066966673,0.9286966774505102,-0.3173752877755149,1.1656583590883365,-1.6000073635298266,1.877080670731112,-1.033789027838144,1.1840176419903243,-0.2819813471288474,0.3356257069737508,0.009689670562879,0.1749493747472574,0.2862576492280277,11.019970348533208,-1.382112715876875,0.2288742181543206,-1.3327981762691732
1.58,1.1574550910827035,-1.5773984518205326,1.8630711712807235,-0.0004802228181175,0.1236759052044205,0.0496774217160188,-0.7114045908890448,0.9321508284849442,-0.3107636146347081,1.145382578537534,-1.5767270106959803,1.8713513907361452,-1.0737890284341902,1.2240176425863707,-0.2730160418898852,0.3909337422358497,-0.1171142096188793,0.1727075517217013,0.3305836570403425,11.076137262773043,-1.3915285310685943,0.2291400161541193,-1.3247811855373213
1.6,1.1431790601747478,-1.5587161702788894,1.8569391844278225,-0.0011346620832733,0.1172321986390972,0.0495845603882659,-0.7162756602478495,0.9359079154847448,-0.3027265404446568,1.1218848615382515,-1.5307909103962851,1.847532990548988,-0.7717875642917834,1.0321508299750604,-0.2886407453666483,0.5060572619742354,-0.2435534679402329,0.1878543499900242,0.4018537095025642,11.141239127903646,-1.400407493508991,0.2299121001676687,-1.316864592163089
1.62,1.128670039291238,-1.539911442031927,1.8509310847757692,-0.0005601627450514,0.1145756569853433,0.0495664637012978,-0.7344851230346009,0.9439800819565652,-0.298723185594607,1.1218848615382515,-1.5307909103962851,1.847532990548988,-0.7717875642917834,1.0321508299750604,-0.2886407453666483,1.0158386394825245,-0.9104731393375698,0.4036083235910204,0.2001677425024883,11.20093523927062,-1.4079196034158794,0.229569104038832,-1.3103361556434747
1.64,1.1138267851163306,-1.5209767708355533,1.845001047574716,0.0017290185216675,0.1183541304562338,0.0496546901067563,-0.7481521334448628,0.9490676639704588,-0.2944717501087106,1.1218848615382515,-1.5307909103962851,1.847532990548988,-0.7717875642917834,1.0321508299750604,-0.2886407453666483,0.7595152532915977,-0.683350520513093,0.2543791006946849,0.2125717742948202,11.004969555918253,-1.40066556184613,0.2265431600243119,-1.3176823357958398
1.66,1.0995239758118005,-1.5029153895171714,1.839441870163292,0.0041182997678459,0.1250645046764776,0.0497589541705805,-0.7563103519570781,0.9519341176478812,-0.2909427293421282,1.1141669858953336,-1.5204694020965348,1.8446465830953211,-0.7838641589723311,1.0521508302730835,-0.2842161715130364,0.4669771770355357,-0.407910925610766,0.1433226838711221,0.1764510383291201,10.990334320942566,-1.38998119349668,0.22326552423688,-1.3299979897113816
1.68,1.0843423027929482,-1.4838585091203995,1.833656238578169,0.006029197401217,0.1336638213264837,0.0498379149099892,-0.7610460873278524,0.9537683051941706,-0.2878561119849274,1.098731234609498,-1.4998263854970335,1.8388737681879883,-0.8080173483334265,1.09215083086913,-0.2753670238058125,0.2971474388529153,-0.2367867685387159,0.0917093773144639,0.1543308678600391,10.940833152047162,-1.377925086751473,0.2207763730568998,-1.3443203008985305
1.7,1.0691002775038243,-1.4647734085807522,1.827925467487433,0.0069041656461102,0.1428481521925473,0.0498492479707763,-0.7626066693309442,0.9548587458983576,-0.2854119785146636,1.0832954833236623,-1.4791833688975324,1.8331009532806557,-0.832170537694522,1.1321508314651765,-0.2665178760985886,0.1549053383375316,-0.0780291001545918,0.0545220352093589,0.1222066735131893,10.889808365041972,-1.366119225563138,0.2196298529852993,-1.358881302402316
1.72,1.054617631465383,-1.4466273183676464,1.8225231705358036,0.0064538835099678,0.1516110632658325,0.0497633385381794,-0.7615710841275606,0.9554137767449756,-0.2834073376279386,1.066652072569772,-1.456540352268229,1.827770595758684,-0.8563237270556174,1.1721508320612228,-0.2576687283913647,0.1161796135181896,0.0517792601691824,0.0277515423309004,0.1002320443362514,10.889808365041972,-1.353783484713196,0.220109305961926,-1.3740334153516454
1.74,1.0394183848346377,-1.427514792525435,1.8168756969245208,0.0043351777907326,0.1605920973816017,0.0495367030780684,-0.75816320987456,0.9560059042790968,-0.2814781229215511,1.0500086618158817,-1.4338973356389255,1.822440238236712,-0.8804769164167129,1.2121508326572694,-0.2488195806841408,0.1980283522899606,0.1703937126500299,0.0296063767060594,0.0964607353193758,10.891641357640763,-1.341964577485218,0.2227721996218865,-1.3886661234385052
1.76,1.0243092468866923,-1.4083647349821915,1.8112677034410076,0.0009885936338874,0.1691750401693197,0.049190785741091,-0.7527101531037371,0.9593187039241198,-0.279441985322755,1.0327614213279634,-1.4102543189947208,1.8173311094074207,-0.9046301057778082,1.2521508332533158,-0.2399704329769169,0.3348743270060857,0.2726528385411431,0.1656399822511423,0.101806879939803,10.903978766102227,-1.3309345369528798,0.2270672396998205,-1.4022270553488223
1.78,1.0093404102313557,-1.389117946431823,1.8057033836667968,-0.0022354257348277,0.1769316809977916,0.0488198933504904,-0.744357025439072,0.9651108113394632,-0.277143400269524,1.0149103511060185,-1.385611302335615,1.8124432092708105,-0.9287832951389036,1.292150833849362,-0.231121285269693,0.5210727956341804,0.4176563832332558,0.2896053707671764,0.1149292526615497,10.93186035025883,-1.3220036634950478,0.2312105861624285,-1.41656973808284
1.8,0.9953001344222946,-1.370712401171526,1.8004616934742348,-0.0046709742481517,0.1829345328028311,0.0484912515175655,-0.7340190191310987,0.97184272340185,-0.2747634424973908,0.9721225589594018,-1.34086240586485,1.7918462136533204,-0.7507598057409409,1.0651108128295794,-0.2363638431904473,0.6282062030825192,0.5169003153986662,0.3365956031193384,0.1189978886066617,10.974984183826564,-1.3149380242122084,0.2348866021403775,-1.4314272066532
1.82,0.980704116116048,-1.3511314489218589,1.7949759985904816,-0.004359416883248,0.1886508022378451,0.0483356815236444,-0.7259678929348528,0.9852522262949888,-0.2740670845692676,0.9721225589594018,-1.34086240586485,1.7918462136533204,-0.7507598057409409,1.0651108128295794,-0.2363638431904473,0.7828159349953144,0.4025563098122964,0.6704751446569401,0.0348178964061585,11.018536689499342,-1.310469370679829,0.2348741600755175,-1.4449996049699745
1.84,0.9662882145655394,-1.3313207923019887,1.7895127252853544,-0.0004580227736547,0.194692614502393,0.0484356099861722,-0.7157529335382044,0.994465058763027,-0.2722493919995164,0.9721225589594018,-1.34086240586485,1.7918462136533204,-0.7507598057409409,1.0651108128295794,-0.2363638431904473,0.6937681237946915,0.5107479698324202,0.4606416234019084,0.0908846284875614,10.915360543046518,-1.3026461501958009,0.2301021109216869,-1.460953498085129
1.86,0.9528038722232584,-1.3123783138025928,1.7843660898477969,0.0040966940000169,0.2004161114674073,0.0486050485867327,-0.7040114805683377,0.9989618647249248,-0.2696435933195693,0.9646149609019924,-1.330211297736554,1.7894825752214158,-0.7520403618013147,1.0851108131276026,-0.2282079317746319,0.6420147359347826,0.5870726484933309,0.2248402980948916,0.1302899339973545,11.022375951727554,-1.2948872942217875,0.2236766448492325,-1.4756499966719807
1.88,0.93886929320674,-1.29237377940886,1.7790076446491596,0.0083379779176637,0.2062514001179743,0.048758816118487,-0.6899049687994245,1.0013656187956,-0.2663419581217396,0.9495997647871736,-1.3089090814799629,1.784755298357607,-0.7546014739220622,1.1251108137236492,-0.2118961089430012,0.7342896276305441,0.70532558844566,0.1201877035337528,0.1650817598914833,11.094507653281651,-1.2878306136145068,0.2179330044928437,-1.4892935616828011
1.9,0.9252335438852506,-1.2723342037625578,1.773720882128265,0.0115455427492758,0.2118071488793703,0.0488473562178336,-0.6742372095375259,1.0026580268646164,-0.2625019200635466,0.9345845686723548,-1.287606865223371,1.780028021493798,-0.7571625860428098,1.1651108143196955,-0.1955842861113705,0.8091583454337622,0.7833879630949336,0.0646204034508213,0.1920019029096525,11.1560197164099,-1.2814766603559984,0.2135716272879297,-1.5023257075624026
1.92,0.9119392640934924,-1.2522752500643035,1.7685189937634969,0.013619281648088,0.2166545641908531,0.0488506267323015,-0.6559843316129915,1.003467894607408,-0.2578768963680271,0.9194413169514986,-1.2643046489369771,1.7761163357715706,-0.7597236981635574,1.205110814915742,-0.1792724632797398,0.9423564644985518,0.9126438962267168,0.040493387139584,0.231251184775974,11.213896044887406,-1.2765566064333222,0.2108824001145761,-1.5143164153985178
1.94,0.8996696902730643,-1.2332080431024135,1.7636712311533564,0.0145384358207034,0.2199811434496177,0.048759041345509,-0.6365839952881166,1.0037382767228915,-0.2526334912664314,0.9042980652306424,-1.241002432650583,1.7722046500493431,-0.762284810284305,1.2451108155117885,-0.1629606404481091,1.0049122512265372,0.970016816243746,0.0135191057741845,0.2621702550797855,11.2800875452358,-1.2737464136115302,0.2095709866247151,-1.5246898175843038
1.96,0.8871646013788883,-1.2131269065114083,1.7586878241389912,0.0144528495327568,0.221769348166288,0.0485562881529953,-0.6150506545164567,1.0044130917843956,-0.2459091322293746,0.8890907857067675,-1.216700216349288,1.7687007598979063,-0.7648459224050526,1.2851108161078348,-0.1466488176164783,1.1284471017895692,1.0766670385829955,0.0337407530751954,0.3362179518528407,11.350570382003752,-1.2737728685847731,0.2097199134679797,-1.5304515014193127
1.98,0.8750993377020365,-1.1930273741666912,1.7538541730870485,0.0135090201489008,0.2216067778199371,0.0482577681801577,-0.592627155146148,1.0055512066659191,-0.2377173103948672,0.8738194783798738,-1.1913980000330917,1.7656046653172606,-0.7674070345258001,1.3251108167038812,-0.1303369947848477,1.195004784992605,1.1211749685154315,0.0569057440761744,0.4095910917253698,11.438148407509289,-1.2768492573162122,0.2110917934551033,-1.5341149425898086
2.0,0.8634922663536188,-1.1728976950509442,1.7492023874848714,0.011936815445892,0.2190606264337599,0.0478800977773644,-0.569408876267148,1.0073812567656253,-0.2278497178871798,0.8454679799447291,-1.1427498138333954,1.741968307567305,-0.6100859889002107,1.1055512081560352,-0.1750996508260806,1.2647202648888642,1.1609139439500038,0.0915025049853079,0.4933796253843686,11.536035767754584,-1.2833958399936507,0.2132457265129698,-1.5348840536955604
2.02,0.8528729575335511,-1.1536882675541442,1.744895395649463,0.0115410242846124,0.2140891015146161,0.0475683944272977,-0.5500134761051488,1.014234320855914,-0.2264018233936648,0.8454679799447291,-1.1427498138333954,1.741968307567305,-0.6100859889002107,1.1055512081560352,-0.1750996508260806,1.0310703580915734,0.9697700080999572,0.3426532045144426,0.0723947246757519,11.641006938073588,-1.2945422169566227,0.213933327900426,-1.5306660126729932
2.04,0.8420700721507802,-1.1333553264939225,1.7404126715295114,0.0129818267263719,0.2065573752364229,0.047331062921651,-0.5317021472002809,1.0185820743581937,-0.2216444010198554,0.8454679799447291,-1.1427498138333954,1.741968307567305,-0.6100859889002107,1.1055512081560352,-0.1750996508260806,0.9706193826903258,0.9155664452433988,0.217387675113978,0.2378711186904691,11.306607852853633,-1.307743575006303,0.2117033621157092,-1.523275862769525
2.06,0.8316070909359712,-1.1129554849760992,1.736071231736686,0.0150813997700418,0.197617968565982,0.0470952832072683,-0.5159455409532172,1.0211872131060342,-0.2127134296330921,0.839367120055727,-1.131694301751835,1.7402173110590442,-0.6135777556510232,1.1255512084540584,-0.1625761189123232,0.9149038723162262,0.7878303123531827,0.1302569373920259,0.4465485693381649,11.306607852853633,-1.3231846946041046,0.2085181057041301,-1.513128767780922
2.08,0.8214292611794978,-1.092524923863177,1.7319414132193225,0.0171063722904659,0.188120217892337,0.046814087876772,-0.5029838690160402,1.0218181000564837,-0.2006937077899047,0.8271654002777228,-1.1095832775887142,1.7367153180425223,-0.6205612891526483,1.165551209050105,-0.1375290550848086,0.8844160092100958,0.6480835968588505,0.0315443475224719,0.6009860921593682,11.53186642397486,-1.338387110075634,0.2055420724563672,-1.5021365917951
2.1,0.8119739264304412,-1.073120094491665,1.7282646814092169,0.0182968341661346,0.179187036066125,0.0464724089078792,-0.4932089258772043,1.0209466663477578,-0.1868932118383156,0.8149636804997186,-1.0874722534255936,1.733213325026001,-0.6275448226542734,1.2055512096461514,-0.1124819912572939,0.8467033107677197,0.4887471569417934,-0.0435716854362944,0.6900247975794582,11.711396907824565,-1.3542305355106137,0.2034641710028604,-1.4906171114112623
2.12,0.802196274613895,-1.052723174466686,1.7247001723815372,0.0182718965625801,0.1703353269160678,0.0460204244471203,-0.4853040494313544,1.018925565554427,-0.1701656119758056,0.8024127840466331,-1.0633612292326706,1.730963685200855,-0.6345283561558984,1.2455512102421975,-0.0874349274297793,0.9305704127055578,0.3952438222924931,-0.1010550396665421,0.8363799931254967,11.857667242135904,-1.369069181314177,0.203183088208501,-1.4797579823285938
2.14,0.7925521435099704,-1.03237472831322,1.721488446677229,0.0164321534403923,0.1623861386219392,0.0454632291463529,-0.4796647072125397,1.0163166520039686,-0.1518230399801237,0.7898618875935476,-1.0392502050397476,1.728714045375709,-0.6415118896575235,1.2855512108382443,-0.0623878636022646,0.9683214316427268,0.2819671109407395,-0.1304456775229168,0.9171285997840978,11.98719964259726,-1.3825121349077112,0.2053859770033003,-1.4700178768779977
2.16,0.7829976014860465,-1.0120598910133507,1.7186588153714295,0.0130589632389366,0.1555973096708948,0.0448410565215343,-0.4762122841311831,1.0157650335544963,-0.1320366540756212,0.7771364028029215,-1.0141391808319231,1.7270905821462512,-0.6484954231591485,1.3255512114342909,-0.03734079977475,1.0046449313169992,0.1726211540678285,-0.0275809224736023,0.9893192952251232,12.067596875127492,-1.3937340777515423,0.2094368849187429,-1.4618629171283843
2.18,0.7739645420303612,-0.9927421289018148,1.716350943441974,0.0096365922871123,0.1505335905567187,0.0442791116814257,-0.4749171140244552,1.0177210882593988,-0.1118841612855898,0.7642363296747549,-0.988028156609198,1.726093295512481,-0.6554789566607736,1.365551212030337,-0.0122937359472353,1.0144291267336023,0.0647585053363958,0.0978027352451116,1.0076246395015704,12.23329161318634,-1.4031872458129824,0.2140333805183193,-1.4557235390561958
2.2,0.7644642086649728,-0.9723529894187646,1.7143470368316716,0.0064554713530811,0.1471162531754575,0.0437563590002997,-0.475294320727482,1.0210555186562678,-0.0895213911031542,0.7502186863291385,-0.941856074488845,1.7107567353776945,-0.5231566990366527,1.117721089749515,-0.08958642316563,1.13065711115351,-0.0188603351513438,0.166721519843449,1.118138509121777,12.23329161318634,-1.4092373451078706,0.2180254489375357,-1.4528006597999756
2.22,0.7549053813744141,-0.9518149841147868,1.7125516747531262,0.0062573827331818,0.1460376431315496,0.0434669318115247,-0.4804759089365349,1.0318114482308716,-0.0924394793268492,0.7502186863291385,-0.941856074488845,1.7107567353776945,-0.5231566990366527,1.117721089749515,-0.08958642316563,0.6145203744858664,-0.2590794104526422,0.5377964787301903,-0.1459044111847503,12.314794172884833,-1.4127830114031583,0.2183459737929105,-1.4560422058702576
2.24,0.7457432644350647,-0.932151892097894,1.7107618617819795,0.0092260358658857,0.146554969550244,0.0434189355801314,-0.4835446829748543,1.037193546187186,-0.0956823882184463,0.7502186863291385,-0.941856074488845,1.7107567353776945,-0.5231566990366527,1.117721089749515,-0.08958642316563,0.3496455726475961,-0.1534387019159699,0.2691048978157195,-0.1621454445798545,10.542905020379294,-1.4108800834757558,0.2137093755223621,-1.4589612253064477
2.26,0.736053039154041,-0.911387209529916,1.7088283768721058,0.0130547708647077,0.1478669445803687,0.0434209223123641,-0.4851996593818701,1.038916054360593,-0.0974306189943986,0.7449871193387719,-0.93067886359135,1.709860871146038,-0.5328046160390922,1.137721090047538,-0.085126875541638,0.1480058458407977,-0.082748820350792,0.0861254086703566,-0.0874115387976118,10.681441925640684,-1.408393969903588,0.2080559212897921,-1.462044979077129
2.28,0.7263446193610531,-0.8906133977996288,1.706874272819025,0.0162093862579335,0.1494677541789137,0.0433772951384331,-0.4854916299834765,1.0385523400371994,-0.097843164426841,0.7345239853580389,-0.9083244417963596,1.7080691426827257,-0.5521004500439712,1.1777210906435849,-0.076207780293654,0.0311339314524034,-0.0145985300803175,-0.018185716169683,-0.0206272716221207,10.86803369484096,-1.4057675097651854,0.2033071308338993,-1.4649333961462412
2.3000000000000003,0.7166434616945954,-0.8698590072045201,1.7049256660112997,0.0182042237465475,0.1509485394241139,0.0432485432115428,-0.4846211898373868,1.0372399193653676,-0.0970013162700788,0.7240608513773058,-0.8859700200013693,1.706277414219413,-0.5713962840488502,1.217721091239631,-0.0672886850456701,0.0892863705559251,0.0435220073044861,-0.0656210335915896,0.0420924078381089,10.86803369484096,-1.4036414650948952,0.200257008577716,-1.4672259570608823
2.32,0.707452396900563,-0.8501731838612087,1.7031012811829482,0.0188669611574619,0.1519821747016846,0.0430310198830986,-0.4829477135931008,1.0352433818809397,-0.095079619976828,0.7126329256963287,-0.8616155981765766,1.7049316405184995,-0.5906921180537292,1.2577210918356774,-0.0583695897976862,0.1618610616424618,0.0836738122142966,-0.0998268742214092,0.0960848146625385,10.943668642194098,-1.4021870844370516,0.1987918990844916,-1.4690043265913282
2.34,0.6978165215875151,-0.8294977505159175,1.7012231060888978,0.0179098457808656,0.1525149543477463,0.0426743856135145,-0.4807728190726724,1.0325859259773196,-0.0928246580846208,0.7012050000153518,-0.837261176351784,1.703585866817586,-0.6099879520586082,1.297721092431724,-0.0494504945497022,0.205408685247123,0.108744726021423,-0.1328727951809938,0.1127480946103612,11.019926967273022,-1.4017400183849669,0.1996374801229962,-1.469691564829834
2.36,0.6882237759147176,-0.8088651753563872,1.6993954591022191,0.0152777332455066,0.1524736709940821,0.0421920743497404,-0.4786702255138044,1.0310205551451308,-0.0900195825291644,0.6892946784842527,-0.8119067545120902,1.7024630704978725,-0.6292837860634872,1.3377210930277703,-0.0405313993017183,0.1919618086227014,0.1051296779433969,-0.0782685416094386,0.140253777772821,11.067029674796686,-1.4022059765601964,0.2025582071130706,-1.468909134474878
2.38,0.6786711495249192,-0.7882363955082206,1.6976344849673894,0.011867101949093,0.1519646351850303,0.0416543050977979,-0.4767754663292294,1.032100596122124,-0.0862140551890684,0.6769019611030318,-0.7855523326574952,1.7015632515593582,-0.6485796200683662,1.377721093623817,-0.0316123040537344,0.2193093660547458,0.0947379592287495,0.054002048849655,0.1902763670048012,11.067029674796686,-1.4033442470658668,0.2067252419052883,-1.467501785230808
2.4,0.6696285016524067,-0.7685993169531528,1.6960417588422647,0.008868634310444,0.1511589568134984,0.0411645734681402,-0.4752318058011254,1.034823122536583,-0.0816332053614915,0.6548323762084578,-0.7366313657021144,1.693323782207936,-0.4942300197247392,1.1158423876684689,-0.0728716495196772,0.2773951290409776,0.0771830264052031,0.1361263207229512,0.2290424913788412,11.12245725185403,-1.4049928300938943,0.2106002400887059,-1.466241634691673
2.42,0.6600483828935829,-0.747746331072888,1.6943912708556983,0.0101678446746957,0.1523966484649275,0.0409838878822578,-0.4825694857861942,1.0491470418346394,-0.0840913787724815,0.6548323762084578,-0.7366313657021144,1.693323782207936,-0.4942300197247392,1.1158423876684689,-0.0728716495196772,0.8140313693878918,-0.3668839992534395,0.7161959649028216,-0.1229086705494972,11.182507725000503,-1.40454613328922,0.208497717349131,-1.467772087663329
2.44,0.6503532692200016,-0.7266971137554273,1.692684017728789,0.0165729002896722,0.1571792573095464,0.0412070410201587,-0.4860485334335193,1.0541389858205283,-0.0865136850705014,0.6548323762084578,-0.7366313657021144,1.693323782207936,-0.4942300197247392,1.1158423876684689,-0.0728716495196772,0.327455512596898,-0.1739523823662575,0.249597199294449,-0.121115314900997,10.70686482173096,-1.3963765964116026,0.1997653408207997,-1.4781001373845395
2.46,0.6411149269023269,-0.7066737698176009,1.6910120151924457,0.023117338846325,0.1633639662010353,0.0415059955266162,-0.4859485725820885,1.053406372893665,-0.08940125118951,0.6498900760112104,-0.7254729418254298,1.692595065712739,-0.4977209304038411,1.1325907459777376,-0.070203168385799,0.1490365052937772,0.0049980425715384,-0.0366306463431831,-0.1443783059504294,10.749777734219606,-1.3857859113847129,0.1897791699682299,-1.489135288959822
2.48,0.6314246847748027,-0.6856426085506531,1.6891863945976364,0.0289563343896547,0.1705143545354599,0.0417966616536555,-0.4828242575746148,1.0499462972926787,-0.0930512806908997,0.6400054756167156,-0.7031560940720604,1.6911376327223455,-0.5047027517620449,1.1660874625962756,-0.0648662061180425,0.2960413095814444,0.1562157503736866,-0.1730037800492967,-0.1825014750694832,10.72186424443862,-1.3744499473472649,0.181202882001919,-1.4998984870313234
2.5,0.621830063013877,-0.664695767719161,1.6872839703457363,0.0332491991972533,0.177422229205971,0.0419997563226466,-0.4766279106757853,1.0451928617850412,-0.0970049124358553,0.6301208752222208,-0.680839246318691,1.6896801997319522,-0.5116845731202488,1.1995841792148134,-0.0595292438502861,0.4376673051263468,0.3098173449414737,-0.2376717753818757,-0.1976815872477805,10.705902854998383,-1.364027683892187,0.1750001158517323,-1.5090726955099407
2.52,0.6123884007819707,-0.643851425615592,1.6853047607475682,0.0359428489578357,0.1832942583451819,0.0420711620774127,-0.4678578873900011,1.0399061643328102,-0.1007064876840127,0.6198871837598159,-0.6568475627343947,1.6884896148549464,-0.5186663944784528,1.2330808958333512,-0.0541922815825296,0.5444358036132322,0.4385011642892095,-0.2643348726115491,-0.1850787624078725,10.70673236908442,-1.354771357967887,0.170626143150076,-1.516623678462666
2.54,0.6035992583558067,-0.6241500875551274,1.6833589278782612,0.0371401348294462,0.1875004691187814,0.041997456245676,-0.4578340626756935,1.0344480251033357,-0.1039198915373784,0.609653492297411,-0.6328558791500983,1.687299029977941,-0.5256482158366567,1.2665776124518893,-0.0488553193147731,0.5928623577111275,0.5011912357153814,-0.2729069614737289,-0.1606701926682809,10.73399665163197,-1.3479435463166225,0.1682962127837546,-1.521862441603164
2.56,0.5945631123628526,-0.603519504658101,1.6812514638015417,0.0370708473126053,0.1903433208870968,0.0417643856561112,-0.446366171261266,1.0289923510705017,-0.1066134154967862,0.5992452553010509,-0.6080267776503386,1.6862418691576289,-0.5326300371948605,1.300074329070427,-0.0435183570470167,0.6490993451805865,0.5733945707213778,-0.27278370164171,-0.1346761979703896,10.76289300805638,-1.3438168753263888,0.1678935826334002,-1.5244000475348622
2.58,0.5857636087381664,-0.5829957511203822,1.6791014880278392,0.0357502303195614,0.1915705993828065,0.0413787306042237,-0.4343316446073187,1.0237834504026893,-0.1082327323597661,0.5886624727707357,-0.5823602582351155,1.685318132394011,-0.5396118585530644,1.3335710456889651,-0.0381813947792602,0.6606524522289177,0.6017263326973638,-0.2604450333906105,-0.0809658431489952,10.811306280786084,-1.342315993229647,0.1691398275089498,-1.52456361730737
2.6,0.577628998251517,-0.5635887061956486,1.6770405135478963,0.0334641271928415,0.1913322061548158,0.0408881874478029,-0.4226590008522731,1.019460474386844,-0.1086182354615052,0.5640470265078004,-0.5318065786002477,1.6736898514098508,-0.4501771855182779,1.0349302956987143,-0.0787494494211665,0.6226703512036461,0.583632187752281,-0.2161488007922596,-0.0192751550869549,10.875632627859886,-1.342981493616474,0.1719640812334944,-1.5225315593618065
2.62,0.5692922667060031,-0.5429643265917526,1.6748467065367647,0.0390628086964257,0.1894785140942955,0.0408706689157939,-0.4115879761826481,1.039347584522845,-0.110959354677219,0.5640470265078004,-0.5318065786002477,1.6736898514098508,-0.4501771855182779,1.0349302956987143,-0.0787494494211665,1.1440559164427486,0.5535512334812503,0.9943555068000488,-0.117055960785694,10.947199524272037,-1.3447221165200578,0.1634068563671546,-1.5196304686510451
2.64,0.5611827915543803,-0.5221685676131402,1.6726080141803572,0.0526957666086786,0.1857747082658681,0.0412810488744062,-0.4000088539712969,1.0382420445679847,-0.1127310271216958,0.5640470265078004,-0.5318065786002477,1.6736898514098508,-0.4501771855182779,1.0349302956987143,-0.0787494494211665,0.5882965090575427,0.5789561105675578,-0.0552769977430145,-0.0885836222238402,10.7795549273269,-1.3501922953972312,0.14358087216695,-1.5177679640586894
