t,x,y,z,roll,pitch,yaw,v_x,v_y,v_z,ref_x,ref_y,ref_z,ref_v_x,ref_v_y,ref_v_z,a_com,a_x,a_y,a_z,thrust,wind_x,wind_y,wind_z
0.0,-1.5117474712692314,1.9873290160214656,1.873978084497432,0.0167977171292659,0.1499086308386593,0.0284125385663964,0.0013623197844126,0.0066750888762564,-0.0030593664422519,-1.5117026943447642,1.9874647640657503,1.8738873502714355,0.012437911372624,-0.0948744756619206,-0.1030328399443802,0.3734047727630896,0.0681159892206339,0.3337544438128202,-0.1529683221125998,10.658507924407786,-1.4134589235028694,0.1756333496098756,-1.2801417239280573
0.02,-1.511807437715825,1.987668416276556,1.873700409923277,0.0258695372416184,0.15140520775057,0.0290781381705895,-0.0070640372096361,0.0241985448527124,-0.0262391884643099,-1.5117026943447642,1.9874647640657503,1.8738873502714355,0.012437911372624,-0.0948744756619206,-0.1030328399443802,1.5127616720126713,-0.421317849702443,0.8761727988228006,-1.158991101102896,10.658411310906558,-1.4074948608415263,0.1644984072440176,-1.2776765457718526
0.04,-1.512032943461218,1.9881700922209484,1.8728715521170272,0.0407908000729685,0.155609692334913,0.0302415895945352,-0.0146725162640551,0.0244163141863148,-0.0555596873846361,-1.5117026943447642,1.9874647640657503,1.8738873502714355,0.012437911372624,-0.0948744756619206,-0.1030328399443802,1.514618791925084,-0.3804239527209467,0.0108884666801202,-1.466024946016311,9.207287122586877,-1.3992420667692878,0.1468242978341572,-1.2812082675047969
0.06,-1.5123808928283649,1.988604165280708,1.8714524312893943,0.0560209949311288,0.1616660624695477,0.0315570984445091,-0.0193993742144497,0.018638823038598,-0.0848736460177575,-1.511578315231038,1.9865160193091316,1.872857021871992,0.014634110260747,-0.1148744759599438,-0.1230328402424034,1.5124737690200671,-0.2363428975197324,-0.2888745573858394,-1.4656979316560694,9.004660450877964,-1.3891627394429935,0.1288426854204825,-1.285970658800801
0.08,-1.5127913562948383,1.988886433583123,1.869456080686371,0.0706802264740431,0.1686047175997285,0.032956258591819,-0.0211458446497959,0.0095678335555491,-0.1133421525834399,-1.5113295570035854,1.984618529795893,1.870796365073104,0.0190265080369931,-0.1548744765559903,-0.1630328408384499,1.496486614760908,-0.0873235217673079,-0.4535494741524439,-1.4234253282841212,9.041487935314308,-1.3787168915366652,0.11241975933295,-1.290447006058606
0.1,-1.5131867128363778,1.9889602414144585,1.86703938091829,0.0839653388030347,0.17529943770067,0.0343183086136724,-0.0202270893626012,-0.0016004787021685,-0.1396625651591117,-1.511080798776133,1.9827210402826545,1.8687357082742164,0.0234189058132392,-0.1948744771520367,-0.2030328414344963,1.4303316294807458,0.0459377643597347,-0.5584156128858871,-1.3160206287835894,9.101306914224551,-1.36790294895686,0.0959998393458232,-1.294227279703616
0.12,-1.5135604828042328,1.988782820087263,1.863958801624764,0.0972748187923026,0.1819221505073066,0.0357341455408753,-0.0170440528766864,-0.0158392691422306,-0.1670175597595431,-1.5106124206598683,1.9788235507396137,1.8646750514455264,0.0278113035894852,-0.2348744777480832,-0.2430328420305428,1.5501375778106736,0.1591518242957393,-0.7119395220031012,-1.3677497300215695,9.19911523758583,-1.358525424032123,0.0805617630315718,-1.295987492428036
0.14,-1.5138505914203084,1.9882956002598504,1.8603281280862205,0.1099101839314061,0.1877349594044319,0.037074682986097,-0.012075225963969,-0.0324367670172848,-0.1947203055445321,-1.5101440425436037,1.9749260611965729,1.8606143946168363,0.0322037013657313,-0.2748744783441297,-0.2830328426265893,1.6337137912044897,0.2484413456358678,-0.8298748937527125,-1.3851372892494482,9.19911523758583,-1.350966630309632,0.0665792084180411,-1.2982394517261049
0.16,-1.514019453039379,1.9875037955484591,1.856364523838604,0.1213080362237105,0.1922896764746585,0.0382287030151993,-0.0059531978894643,-0.0503025724831328,-0.2211394471659538,-1.509565854482933,1.970028571638631,1.8555537377732452,0.0365960991419774,-0.3148744789401761,-0.3230328432226357,1.6237589697221726,0.3061014037252375,-0.8932902732923995,-1.320957081071085,9.213384912743097,-1.3440834625894915,0.0526320624885691,-1.2985044385427191
0.18,-1.5140616642713982,1.986281770969348,1.8516480646831888,0.1326890569291351,0.1959724758044222,0.0392764249440252,0.0014209724054993,-0.0712044760402262,-0.2491365824044998,-1.5088778564778556,1.964131082065788,1.8494930809147527,0.0409884969182234,-0.3548744795362225,-0.3630328438186821,1.7854323995986192,0.3687085147481843,-1.0450951778546695,-1.399856761927301,9.213384912743097,-1.33747666410264,0.0393891789903516,-1.2964110747378617
0.2,-1.513948019455306,1.984614102516452,1.8463727028108716,0.1432823788652501,0.1985288388732784,0.0401121984267533,0.009555269639518,-0.0946549995556318,-0.2769840471009063,-1.5139906156511231,1.9827215471673365,1.8391912355629645,-0.0044169998704134,-0.1712044775303423,-0.3491365838946159,1.865191099227882,0.4067148617009354,-1.1725261757702825,-1.3923732348203266,9.220122548851576,-1.332592685561501,0.0271405638149718,-1.2924325453695622
0.22,-1.5136032522295404,1.98229445541922,1.84066480258953,0.1483144248231118,0.1990878915787855,0.0402392621601406,0.0246491987316294,-0.1341623678398939,-0.2913224641797649,-1.5139906156511231,1.9827215471673365,1.8391912355629645,-0.0044169998704134,-0.1712044775303423,-0.3491365838946159,2.2328507834791047,0.7546964546055676,-1.975368414213101,-0.7169208539429289,9.248541760247464,-1.3278209136889376,0.0214434467564278,-1.2843111545126509
0.24,-1.5129883840655762,1.9794226046602612,1.834999224951614,0.1471514609250271,0.196675762193286,0.0394717514617573,0.0390986260212273,-0.1655584972707971,-0.3042798178716371,-1.5139906156511231,1.9827215471673365,1.8391912355629645,-0.0044169998704134,-0.1712044775303423,-0.3491365838946159,1.845532380463479,0.7224713644798955,-1.5698064715451612,-0.6478676845936088,10.232923420157933,-1.331185179388874,0.022853259975221,-1.2741439102219123
0.26,-1.5120672704198848,1.9758009919672004,1.8287534783657016,0.1427727232927617,0.1912523175477115,0.038006592172873,0.0517155070342515,-0.1941767602666173,-0.3195252755242657,-1.5140347856498273,1.981009502392033,1.835699869724018,-0.0055845943255959,-0.1912044778283655,-0.3691365841926391,1.7396944001985204,0.6308440506512102,-1.430913149791012,-0.762272882631429,10.099765252491125,-1.3399061842450668,0.028193951065116,-1.258441528575349
0.28,-1.5109359887778748,1.971654623894863,1.8221856682262023,0.1373756304796237,0.1839838492558966,0.036226134967951,0.0604191992789778,-0.2188066626341281,-0.3363689650561575,-1.5141231256472354,1.977585412841426,1.8287171380461256,-0.007919783235961,-0.231204478424412,-0.4091365847886856,1.5541044256828307,0.4351846122363181,-1.231495118375539,-0.8421844765945902,9.783250964885156,-1.3492823472246331,0.0340821634472724,-1.2414743976678877
0.3,-1.509735951533547,1.967283890738393,1.8156193020680536,0.1323530748151198,0.1763939796746489,0.0344812715878985,0.0652490705071446,-0.2400161255792279,-0.353926164806206,-1.5142114656446437,1.9741613232908195,1.8217344063682333,-0.0102549721463261,-0.2712044790204584,-0.449136585384732,1.3976983200635058,0.2414935614083395,-1.0604731472549909,-0.8778599875024246,9.783250964885156,-1.3586495269384289,0.0398570749334983,-1.2231941994285285
0.32,-1.5084069478255728,1.9622655041642525,1.8083304874580144,0.1276259682322318,0.1685184736551102,0.0327359541831122,0.0671837069856229,-0.260722002725495,-0.3740943656764595,-1.5144165650875705,1.96873723371041,1.8127516746605388,-0.0125901610566912,-0.3112044796165049,-0.4891365859807784,1.4484754856771491,0.096731823923913,-1.0352938573133543,-1.008410043512678,9.646127366362634,-1.3670934539615858,0.044832723928047,-1.205113950369181
0.34,-1.5070672459080796,1.9568433880644132,1.8006274901039334,0.1236042380769012,0.1613760091591344,0.031165430925078,0.0665691351680777,-0.2804927822360121,-0.3952178653825416,-1.5146216645304966,1.963313144130001,1.803768942952844,-0.0149253499670563,-0.3512044802125514,-0.5291365865768249,1.446948220225289,-0.0307285908772617,-0.9885389755258543,-1.0561749853041036,9.512614489504813,-1.373034519818639,0.0486809485934927,-1.1888532672910432
0.36,-1.5057624581079332,1.9510246770806292,1.7924928772924926,0.1199758414200877,0.1554165100982559,0.02979249791532,0.0639038995156874,-0.3002776237518475,-0.4171385423874053,-1.5148851436961823,1.9568890545346904,1.7937862112302485,-0.0172605388774214,-0.3912044808085978,-0.5691365871728713,1.4824468921693734,-0.1332617826195113,-0.9892420757917686,-1.0960338502431832,9.44007477328887,-1.3775537137866718,0.0522332739475577,-1.173307589970205
0.38,-1.5045899936058131,1.9451342240784584,1.7843527032919384,0.1166058071610837,0.151214927761556,0.0286857239206292,0.0596053602324718,-0.3186440404127411,-0.438584829509536,-1.515207002584627,1.9494649649244795,1.7828034794927514,-0.0195957277877865,-0.4312044814046442,-0.6091365877689178,1.428063314646595,-0.2149269641607835,-0.9183208330446808,-1.0723143561065351,9.38532265599406,-1.3801322997756509,0.0556700320567404,-1.159734846281274
0.4,-1.5034607770984938,1.9385653359819195,1.775335943250844,0.1131128751008829,0.1488244407358497,0.0277734949330407,0.0534764493277756,-0.3371614927537952,-0.4619800062638368,-1.5016097255941896,1.9292020220578212,1.7624234618164616,0.0692294232698076,-0.4186440419028572,-0.5385848309996522,1.5229854607364866,-0.3064455452348097,-0.925872617052706,-1.1697588377150403,9.334485161039083,-1.380102418015955,0.0590055773464122,-1.1492255231485655
0.42,-1.5024648318200415,1.93161993108,1.7660725814893117,0.1100760542997212,0.1500706663400527,0.0273075092473476,0.0470964571012484,-0.3566436286202861,-0.4620734336842663,-1.5016097255941896,1.9292020220578212,1.7624234618164616,0.0692294232698076,-0.4186440419028572,-0.5385848309996522,1.0250203015231496,-0.3189996113263572,-0.9741067933245418,-0.0046713710214751,9.272385187842248,-1.3756786543933397,0.062312221519149,-1.136062417460752
0.44,-1.5015596243993423,1.924298153061615,1.756799762164548,0.1079183292319723,0.1549448032736832,0.0272955074023227,0.0442522567082664,-0.3738508994626346,-0.4651992848782353,-1.5016097255941896,1.9292020220578212,1.7624234618164616,0.0692294232698076,-0.4186440419028572,-0.5385848309996522,0.8859325473818765,-0.1422100196491003,-0.8603635421174288,-0.1562925596984538,10.335898026240102,-1.3677438874533097,0.0638298501357315,-1.142835658594384
0.46,-1.5007268812474637,1.9170090727533864,1.74787878186584,0.1064910430152705,0.1612631067995207,0.0274985537630725,0.0439051697988727,-0.3916287566223945,-0.4735100523773839,-1.5009174313614917,1.9250155816387928,1.7570376135064651,0.0711542358772748,-0.4386440422008804,-0.5585848312976753,0.9813785341808748,-0.0173543454696882,-0.8888928579879912,-0.4155383749574304,10.048985439754688,-1.3580154775336517,0.0648258597604807,-1.150653569242546
0.48,-1.4998338830521551,1.908995657150548,1.7382819076535432,0.1054379339465302,0.1686984520188881,0.0278153805219324,0.0456665403497896,-0.4088014323047881,-0.4859341867149906,-1.4995328428960957,1.916642700800736,1.746265916886472,0.0750038610922092,-0.4786440427969269,-0.5985848318937218,1.0634405605735668,0.0880685275458491,-0.8586337841196834,-0.621206716880332,10.048985439754688,-1.3474372626846185,0.0654499525748815,-1.1584452907243237
0.5,-1.498886614537895,1.9006450453562187,1.7284027317269457,0.1048327179927674,0.1763698227329253,0.0281780784134343,0.0491905468649806,-0.4253889030568502,-0.5014979453204993,-1.4981482544306992,1.9082698199626784,1.735494220266479,0.0788534863071435,-0.5186440433929733,-0.6385848324897683,1.1508620571121548,0.176200325759546,-0.8293735376031036,-0.7781879302754341,9.836892245972194,-1.33708803324743,0.0656692556109187,-1.1653209919643526
0.52,-1.4979069922585104,1.892410008316858,1.7187033871898532,0.1047324531732275,0.1835844777692713,0.0285411012893786,0.0539374805922305,-0.4406592449259062,-0.5187188261431215,-1.4965711847045564,1.8978969390948195,1.7227225236166834,0.0827031115220779,-0.5586440439890198,-0.6785848330858147,1.175027081513127,0.2373466863624954,-0.763517093452798,-0.8610440411311093,9.68064938864154,-1.3261161935120682,0.0653952619743202,-1.171941213698902
0.54,-1.496762341500182,1.8834322284210243,1.7081283429499057,0.1052486697094191,0.1909322147041096,0.0289367348907073,0.0604620181912143,-0.4563596205168683,-0.5379430478432592,-1.4949941149784134,1.88752405822696,1.7099508269668882,0.0865527367370122,-0.5986440445850663,-0.7185848336818612,1.2832011578021192,0.3262268799491916,-0.7850187795481078,-0.9612110850068856,9.512943633295436,-1.3153121077547514,0.0644725986165733,-1.1775388693806987
0.56,-1.4954707785020476,1.8741296288410687,1.6971605271482952,0.1061417434917688,0.1979210074027383,0.0293196379945226,0.0685343698984505,-0.4730887489987587,-0.557908408756407,-1.493320804621897,1.876151177344199,1.6961791303021916,0.0904023619519466,-0.6386440451811126,-0.7585848342779076,1.363490225708608,0.4036175853618082,-0.8364564240945171,-0.9982680456573912,9.512943633295436,-1.3050366817278598,0.0631589735028613,-1.1824046331016158
0.58,-1.4939946069160817,1.864482862651598,1.6857856837843923,0.1068261314645662,0.204225738841682,0.0296129198059383,0.0787862209642714,-0.4906831092079856,-0.5786019529230689,-1.4915512536350075,1.8637782964465373,1.681407433622594,0.0942519871668809,-0.6786440457771591,-0.798584834873954,1.4516238593600872,0.5125925532910469,-0.8797180104613472,-1.0346772083330955,9.473998734858467,-1.295889319423628,0.0620511259594309,-1.1866262377481207
0.6,-1.4923849208156812,1.854984699918088,1.674588943968671,0.106805763028344,0.209134500354611,0.0297230763655035,0.0901158974096706,-0.5080851489522304,-0.5989468263354437,-1.490055295867868,1.8399487071911989,1.6568555861382388,0.1003921074832266,-0.5906831106981018,-0.678601954413185,1.453535714889097,0.5664838222699586,-0.8701019872122406,-1.017243670618739,9.473998734858467,-1.2879846431344917,0.0616552966170446,-1.189115158264865
0.62,-1.49040684496867,1.8445810488986272,1.6626259579537397,0.1050933944635407,0.2133948626064107,0.0296128178246277,0.1074314733270441,-0.5311944641832167,-0.5949780311563484,-1.490055295867868,1.8399487071911989,1.6568555861382388,0.1003921074832266,-0.5906831106981018,-0.678601954413185,1.457412909035243,0.8657787958686741,-1.1554657615493125,0.1984397589547659,9.453136668472323,-1.2819949559023227,0.0636577064423569,-1.182440949896274
0.64,-1.488068685102746,1.833742404583496,1.6507506382353614,0.101677125665039,0.2169590436300248,0.0292950445030454,0.1254723237329901,-0.5510479601594747,-0.5931124632065238,-1.490055295867868,1.8399487071911989,1.6568555861382388,0.1003921074832266,-0.5906831106981018,-0.678601954413185,1.344538889010306,0.902042520297302,-0.992674798812898,0.093278397491231,11.085596509292373,-1.277675410434915,0.0668091525127498,-1.185633951411488
0.66,-1.4853683112679366,1.8225368293631976,1.6388505147353138,0.0978899320642343,0.2194221225985695,0.0288264055882957,0.1435650549242829,-0.568369410794128,-0.5969361292707303,-1.4890513747930358,1.8340418760842176,1.650069566594107,0.1047132847870177,-0.6106831109961249,-0.6986019547112082,1.2668859422020546,0.9046365595646408,-0.8660725317326645,-0.1911833032103238,10.422617089541744,-1.27488144372229,0.0701520810669499,-1.1875878591527
0.68,-1.4824712875271144,1.811588251552111,1.6274323371661918,0.0943664312194672,0.2205103297722957,0.0282570548022565,0.1603463313052211,-0.5832064498196022,-0.6047460519760537,-1.4870435326433713,1.822228213870256,1.636497527505843,0.1133556393945998,-0.6506831115921714,-0.7386019553072547,1.186111142220669,0.8390638190469104,-0.7418519512737143,-0.3904961352661718,10.168988521842948,-1.2735038149808011,0.0736161357950456,-1.187003563715736
0.7000000000000001,-1.47908524445578,1.7997735576649818,1.6152177814863442,0.0909803444560097,0.2203130480889095,0.027552972462631,0.1772827911293535,-0.5974701252377506,-0.6164387267628253,-1.4850356904937068,1.8104145516562935,1.6229254884175794,0.1219979940021819,-0.6906831121882179,-0.7786019559033012,1.25201313040034,0.8468229912066194,-0.7131837709074162,-0.5846337393385803,10.168988521842948,-1.2734074128322597,0.0766847060433784,-1.184157667026268
0.72,-1.4753661688316255,1.7876840732443384,1.602734347985324,0.0880226703388822,0.218587526549585,0.0267447310977577,0.1936701845571528,-0.610813007642723,-0.6312745451387711,-1.482595730613663,1.7966008894125294,1.6073534492995134,0.130640348609764,-0.7306831127842643,-0.8186019564993476,1.2910080180952137,0.8193696713899634,-0.6671441202486195,-0.7417909187972915,9.957585096828552,-1.2747539444429026,0.0792442107890411,-1.1788438676834068
0.74,-1.4713245324667108,1.7753349901934958,1.589939876395914,0.0854927489320887,0.2151275222076002,0.0258234534768221,0.2095334369297307,-0.6234985865837631,-0.6473884222319064,-1.4801557707336197,1.782787227168765,1.5917814101814474,0.1392827032173461,-0.7706831133803108,-0.8586019570953941,1.2963638801259958,0.7931626186288967,-0.6342789470520083,-0.8056938546567638,9.709754156406234,-1.2777367782464917,0.0812222192462486,-1.1710482718543902
0.76,-1.4672000223250068,1.7633647121091476,1.5774774419469069,0.0832117530263246,0.210121427197065,0.0248228961250046,0.2234799795345824,-0.6357858597240992,-0.6635581826707208,-1.477499751988386,1.7679735649100994,1.5752093710484802,0.1479250578249282,-0.8106831139763572,-0.8986019576914405,1.2318119626213384,0.6973271302425851,-0.6143636570168032,-0.8084880219407176,9.709754156406234,-1.2833901932488685,0.0831476029649866,-1.160271089373242
0.78,-1.4625993826807224,1.7505161213459233,1.5640185824513229,0.0807366718453273,0.203548767539058,0.0236758803432535,0.2355424458568992,-0.6483174987142516,-0.6814708739809859,-1.4746276743779634,1.7521599026365329,1.557637331900612,0.1565674124325103,-0.8506831145724036,-0.9386019582874868,1.2484085664691111,0.6031233161158389,-0.6265819495076208,-0.8956345655132592,9.64545701750285,-1.2899972476960666,0.0850437217876302,-1.148321219662461
0.8,-1.4577850837410264,1.737420804271476,1.550189662439328,0.0781251580004772,0.1962925961390182,0.0224900604562583,0.2450276800316011,-0.6604304170493562,-0.7004486119098184,-1.4508222603878775,1.7181002464102106,1.5299450387522735,0.2665510265564622,-0.7483175002043677,-0.7543322995595801,1.221522610144092,0.4742617087350936,-0.6056459167552319,-0.9488868964416252,9.564341689431783,-1.2966511842831678,0.0869340404390184,-1.1360712263703974
0.8200000000000001,-1.452777187152802,1.7240459086943751,1.536376644644362,0.0749828592091826,0.1904490418706914,0.0214065632712766,0.2552429171451116,-0.675986282927972,-0.6798644100586757,-1.4508222603878775,1.7181002464102106,1.5299450387522735,0.2665510265564622,-0.7483175002043677,-0.7543322995595801,1.3874845930381663,0.5107618556755275,-0.7777932939307897,1.0292100925571368,9.484350716480549,-1.305662855145727,0.0901682794512709,-1.1124797114646447
0.84,-1.4478530903945328,1.7110767180573965,1.5236069512987416,0.0718298856518776,0.1879146195000665,0.0206177455306669,0.2626699240807019,-0.6883625257583105,-0.6654537021982677,-1.4508222603878775,1.7181002464102106,1.5299450387522735,0.2665510265564622,-0.7483175002043677,-0.7543322995595801,1.0198042945276735,0.3713503467795143,-0.6188121415169223,0.7205353930203995,11.933630411846934,-1.3097930056571507,0.0928398541830598,-1.1114227401267436
0.86,-1.4425172164282407,1.6971884003063662,1.510393535163369,0.0688305045924659,0.187847818587386,0.0200137346904005,0.2707246178734246,-0.6997924699032858,-0.6569585928359633,-1.448156750122313,1.710617071408167,1.5224017157566776,0.2727527426963748,-0.7683175005023909,-0.768904584675299,0.8180595918533302,0.4027346896361361,-0.5714972072487667,0.4247554681152232,11.39698627845155,-1.3098561668726263,0.0951949058071717,-1.1132954684794407
0.88,-1.437011632196148,1.683083237822084,1.4972876797705494,0.0662660843986617,0.189249089183992,0.0195512015747663,0.2795452825984283,-0.7101550611254693,-0.6542861118234915,-1.4428257295911835,1.6956507214040797,1.507315069765486,0.2851561749762,-0.8083175010984374,-0.7980491549067367,0.6934146987752382,0.4410332362501851,-0.5181295611091763,0.1336240506235875,10.9579908359392,-1.3081099354123442,0.0970718480202416,-1.116254802964073
0.9,-1.4313227324349231,1.668780722840538,1.4841820321975256,0.0641640102914756,0.1912323812044384,0.0191663582625783,0.2889903900889314,-0.7196568903403419,-0.6563999906547672,-1.4374947090600545,1.6806843713999922,1.4922284237742944,0.2975596072560252,-0.8483175016944838,-0.8271937251381744,0.6781653516088058,0.4722553745251545,-0.4750914607436263,-0.1056939415637836,10.36787159578489,-1.305413749456903,0.0986485709917955,-1.1189690443097835
0.92,-1.4257380853407378,1.6550240438477302,1.4716590135587146,0.0626105354661885,0.1931329618134844,0.0188385573078516,0.2984213356546253,-0.7280136219843448,-0.6617039417464324,-1.431543516914934,1.6637180213661025,1.475684549271531,0.3099630395358504,-0.8883175022905303,-0.856338295369612,0.6835744202640597,0.4715472782846924,-0.4178365822001484,-0.265197554583263,10.36787159578489,-1.302543355869958,0.0997800615007182,-1.120858590845471
0.94,-1.4196602003163956,1.6403801114621608,1.458353494045846,0.0616163307321237,0.1948198315598062,0.01852521042209,0.3088676981804595,-0.7360374553272532,-0.6685656185407789,-1.4255923247698137,1.6467516713322128,1.4591406747687674,0.3223664718156757,-0.9283175028865768,-0.8854828656010497,0.742615310854137,0.5223181262917126,-0.4011916671454174,-0.343083839717323,10.113509188641729,-1.2999074709233491,0.1002701726234948,-1.1215792695097642
0.96,-1.413366432812643,1.6255698414270023,1.4449008299565025,0.0611422793938255,0.1959297899514376,0.0182198224207596,0.319924477066857,-0.7445507948025826,-0.6763439997613646,-1.4193310468176974,1.628785321283422,1.441868186010218,0.3347699040955009,-0.9683175034826232,-0.9146274358324874,0.7987999167151413,0.5528389443198722,-0.4256669737664698,-0.3889190610292858,10.06829760007713,-1.2978517012459203,0.1002367373243119,-1.1216049325695607
0.98,-1.4071798548715388,1.6113395222947284,1.4319682746546665,0.0608763971169466,0.1962627061046839,0.0179051839172028,0.3306510391548389,-0.7528969953531881,-0.6845700975589223,-1.4127596830585858,1.6098189712197302,1.4238670829958826,0.3471733363753261,-1.0083175040786696,-0.9437720060639252,0.7943344428407373,0.5363281043990947,-0.4173100275302766,-0.4113048898778837,10.06829760007713,-1.2965688104143154,0.100006944930949,-1.1204711419246662
1.0,-1.400448755054729,1.5961881418872783,1.4181763641513525,0.0606264489232986,0.1957807417420855,0.0175325864891601,0.3418355037708404,-0.7617652623385647,-0.6942196956617556,-1.390647302913797,1.573694672527069,1.3977397697767202,0.3620134758666271,-0.8528969968433042,-0.7038177095435328,0.8614713454560063,0.5592232308000739,-0.4434133492688286,-0.4824799051416639,10.020742173485814,-1.2961521303391332,0.0997428194541965,-1.1181057160549988
1.02,-1.3933837648414853,1.5807818571206276,1.4046102933071227,0.0586045702991713,0.1935958415122212,0.0169430454061886,0.3638806561837884,-0.7775835933239874,-0.6618336670530972,-1.390647302913797,1.573694672527069,1.3977397697767202,0.3620134758666271,-0.8528969968433042,-0.7038177095435328,2.1125004077605114,1.102257620647401,-0.7909165492711367,1.619301430432918,9.960333039519355,-1.2924528727699236,0.1009546139370027,-1.1060205811132235
1.04,-1.3862659299406532,1.5658906671329884,1.392309156165994,0.054854698138984,0.188966684273624,0.016129752291969,0.3839328602258362,-0.78871807920053,-0.6346890186650894,-1.390647302913797,1.573694672527069,1.3977397697767202,0.3620134758666271,-0.8528969968433042,-0.7038177095435328,1.776864934925711,1.0026102021023913,-0.5567242938271322,1.3572324194003893,12.755362811950365,-1.3020491730461718,0.1045205780029268,-1.105946864089031
1.06,-1.378398757748741,1.5500242159060649,1.379862021393795,0.0507028231974453,0.1815047439552275,0.0151610313794445,0.401155541757949,-0.7972741363659529,-0.6116482426251258,-1.3870271681551307,1.565165702558636,1.390701592681285,0.3682859632089847,-0.8728969971413274,-0.707667231940455,1.5005867468246556,0.861134076605638,-0.4278028582711424,1.1520388019981789,12.290382685626357,-1.314406799890779,0.1083642869552573,-1.1001871826556584
1.08,-1.370236623450915,1.5340066590570975,1.3678188518554015,0.0470383874478551,0.1723297833382793,0.0141929744809365,0.4137157190105339,-0.8040863072440283,-0.5939965460362704,-1.379786898637798,1.54810776262177,1.376625238490414,0.3808309378937,-0.912896997737374,-0.7153662767342992,1.1355022205542606,0.6280088626292479,-0.3406085439037698,0.882584829442773,11.868164938238806,-1.3264739382261703,0.1115026611304982,-1.0911538895341326
1.1,-1.3618716901220094,1.5178654611033962,1.3560796752759832,0.04408435178769,0.1623461518177046,0.0132889586022249,0.4217397868954293,-0.8097796496225529,-0.580956156777977,-1.3725466291204655,1.531049822684904,1.3625488842995437,0.3933759125784152,-0.9528969983334205,-0.7230653215281434,0.8167795982826831,0.4012033942447701,-0.2846671189262295,0.6520194629146714,11.49076402677565,-1.3393729168777742,0.1141056839426852,-1.0796071733150383
1.12,-1.3538178768038538,1.5024342193665643,1.345128139121213,0.042016745108947,0.1528542350378516,0.0125232197956094,0.4253973850650638,-0.8144564156701204,-0.5724405743562535,-1.3646791108688971,1.5119918827182357,1.3480875778689805,0.4059208872631305,-0.9928969989294668,-0.7307643663219876,0.5190503564572503,0.1828799084817256,-0.2338383023783752,0.4257791210861728,11.180271263107898,-1.3517302572487584,0.115922917266489,-1.067309368469054
1.14,-1.3453000536790538,1.4861008431186409,1.3337610921208058,0.0406677997183312,0.1434847951855863,0.0118350047919005,0.4259575838387647,-0.8187147314401385,-0.5647482805877777,-1.356811592617329,1.492933942751567,1.3336262714384175,0.4184658619478458,-1.0328969995255133,-0.7384634111158318,0.440506694851998,0.0280099386850418,-0.2129157885009058,0.38461468842379,10.92743992794567,-1.3627266352637093,0.1169086852047267,-1.0549605656142094
1.16,-1.3368003627948948,1.4696789303460738,1.3225351703890105,0.0400885778683575,0.1351862097470963,0.0112675821342276,0.4238252697792827,-0.8232768545585935,-0.5582670846730803,-1.3486304499986428,1.4728760027699974,1.3189724888880088,0.431010836632561,-1.0728970001215596,-0.7461624559096761,0.410382842845848,-0.1066157029740971,-0.228106155922747,0.3240597957348712,10.83749179467486,-1.3720908401978211,0.1171592583329501,-1.0440091717830715
1.18,-1.3283686789418574,1.453163894506981,1.3114259287008336,0.0400338331891605,0.1282455647384097,0.0108070823308926,0.4193827078768856,-0.8279987321990675,-0.5529622809662286,-1.3401356830128386,1.4518180627735269,1.3041262302177536,0.4435558113172763,-1.112897000717606,-0.7538615007035203,0.4188479052008816,-0.2221280951198556,-0.2360938820237024,0.2652401853425856,10.754136452531384,-1.3794242518284625,0.1169552685632214,-1.0350107452498718
1.2,-1.3204613555528262,1.437385038876576,1.300960686871374,0.0403404962738852,0.1231914067045441,0.0104669155262683,0.4131162894432494,-0.8326904454947671,-0.5488964138245656,-1.307399543548013,1.4117639578970276,1.2837778146525225,0.471480125291074,-0.9279987336891836,-0.530184315673894,0.4410539911624073,-0.3133209216818117,-0.2345856647849808,0.2032933570831507,10.681033852332805,-1.385416216516525,0.1164179580999099,-1.0273460161204238
1.22,-1.3122991196665736,1.420617011937943,1.2902946807716598,0.0393653007784543,0.1214815860050907,0.0101753209861461,0.4037403790896736,-0.8435164333133573,-0.5165119136665466,-1.307399543548013,1.4117639578970276,1.2837778146525225,0.471480125291074,-0.9279987336891836,-0.530184315673894,1.7704982050903668,-0.4687955176787883,-0.5412993909295116,1.6192250079009485,10.618407160259268,-1.3879556092697136,0.1171713863252897,-1.0197879946216952
1.24,-1.3043068849591313,1.403655933624616,1.280294470445297,0.0363275720588132,0.1245903659588689,0.0099424492252821,0.3965656392489156,-0.8515255480699286,-0.4852987057617097,-1.307399543548013,1.4117639578970276,1.2837778146525225,0.471480125291074,-0.9279987336891836,-0.530184315673894,1.650671953082333,-0.358736992037903,-0.4004557378285645,1.560660395241842,12.66070948691231,-1.3859104244365212,0.1196235572643138,-1.0298254803150972
1.26,-1.2964250079757522,1.3865757651539996,1.2708737636606064,0.0330047333219929,0.1307218010099964,0.0098017868134748,0.392462383322214,-0.8561193632277427,-0.4583656813017633,-1.3026847422951022,1.4024839705601355,1.2784759714957834,0.4818996087739117,-0.9479987339872068,-0.5256287226154271,1.3814192461597663,-0.205162796335076,-0.2296907578907048,1.346651222997322,12.314376853661088,-1.381195345457123,0.1226370630132011,-1.0446303664950465
1.28,-1.2889821786486195,1.3702833007586264,1.2623899552683904,0.0304309848446727,0.1380651447246335,0.0097550112936232,0.3915290605862734,-0.858836267220374,-0.4360510314051925,-1.2932551397892809,1.383923995886352,1.2678722851823054,0.5027385757395871,-0.9879987345832534,-0.5165175364984933,1.1249402857942346,-0.04666613679703,-0.1358451996315623,1.115732494828539,12.019015762565688,-1.374545557762113,0.1251813347961094,-1.0610731728358536
1.3,-1.2811346132327917,1.3530875523880337,1.253893380277374,0.0286334914665448,0.1463456316449623,0.0097835645100758,0.3935677922590004,-0.8607505492102874,-0.4149179459390872,-1.2838255372834593,1.3653640212125684,1.2572685988688277,0.5235775427052625,-1.0279987351792998,-0.5074063503815595,1.065866084093115,0.10193658363635,-0.0957140994956695,1.056654273305263,11.805308458467152,-1.3670961446388423,0.1269061942391507,-1.077636114478061
1.32,-1.2732153192458548,1.335863138317923,1.2457961920378622,0.0280345829845143,0.1543484106475767,0.0098920536648073,0.3984344750784299,-0.8618068715663166,-0.395898599070839,-1.273353986429354,1.3448040465089823,1.2471204718611963,0.5444165096709378,-1.0679987357753462,-0.4982951642646256,0.9830259074402884,0.2433341409714712,-0.052816117801463,0.9509673434124122,11.670643320739146,-1.360149077473479,0.127510273909075,-1.092658102712075
1.34,-1.2651702007166368,1.31862403193488,1.2380755563170007,0.0289588612655185,0.1614425912766397,0.0100946976613117,0.4059108431195231,-0.8622971190886493,-0.3771562801975911,-1.2628824355752488,1.3242440718053965,1.236972344853565,0.5652554766366132,-1.1079987363713928,-0.4891839781476918,1.0092211582026227,0.3738184020546597,-0.024512376116631,0.9371159436623948,11.569092764881134,-1.3536698463738044,0.1267120843090923,-1.1068432145168623
1.36,-1.2573660782704938,1.3022284885569095,1.23108727144903,0.0312023554585827,0.1668806984390457,0.0103639434639455,0.415167696644543,-0.8636515457716711,-0.3594154918507452,-1.2518899105470016,1.3026840970869091,1.2270519974988572,0.5860944436022886,-1.1479987369674391,-0.480072792030758,1.0028202480890338,0.4628426762509963,-0.067721334151094,0.8870394173422974,11.58357706591687,-1.3486177423586978,0.1244117546537972,-1.1191680345108928
1.38,-1.2489459632555289,1.284921702640195,1.224095800297083,0.0343969787727192,0.1709406884736428,0.0106743423646043,0.4263269444317146,-0.8672182244754559,-0.3406734842597316,-1.2403764113446127,1.280124122353521,1.217359429797073,0.6069334105679639,-1.1879987375634855,-0.4709616059138242,1.1051163476000323,0.5579623893585794,-0.1783339351892399,0.937100379550676,11.605759863204185,-1.3454222976938104,0.12120016755729,-1.1287777298947628
1.4,-1.2402915387843592,1.26752037370051,1.2174782413638356,0.0374570721791432,0.1731456852955853,0.010927208781535,0.438373255606875,-0.8726927455541944,-0.3220217356760337,-1.227629616033943,1.241560791416422,1.2070621260840964,0.4860114668816848,-0.967218225965572,-0.2895140465139221,1.1434287463587565,0.6023155587580209,-0.2737260539369235,0.9325874291848946,11.646575156943072,-1.344332564734876,0.1182406548157888,-1.1352441752190074
1.42,-1.2313232445005584,1.2499141361910502,1.2113696770287727,0.0374190061246902,0.1721390722905361,0.0108525948878138,0.4575496888072006,-0.8863779172297723,-0.2897017182617298,-1.227629616033943,1.241560791416422,1.2070621260840964,0.4860114668816848,-0.967218225965572,-0.2895140465139221,1.9997518844456057,0.9588216600162792,-0.6842585837788961,1.6160008707151978,11.646575156943072,-1.3398551350597925,0.1176226701819078,-1.1349715466801125
1.44,-1.2224573994327887,1.2329762521342515,1.2061672865835908,0.0339428560792015,0.1670551116799638,0.0104086894177937,0.4740774883345,-0.8952633077575628,-0.2594775634804792,-1.227629616033943,1.241560791416422,1.2070621260840964,0.4860114668816848,-0.967218225965572,-0.2895140465139221,1.7787761623423428,0.826389976364969,-0.4442695263895235,1.5112077390625311,12.674880326000675,-1.3502155016120136,0.1215019887999021,-1.1321649014374298
1.46,-1.2128387261325233,1.2150226154473278,1.201295179834352,0.0292933790744968,0.1587400758246406,0.0098220393089057,0.4863524711683087,-0.8995074350978985,-0.2293726784268937,-1.2227695013651263,1.2318886091567662,1.2041669856189572,0.4979483713716789,-0.9872182262635952,-0.2792821589647601,1.6393534735840791,0.6137491416904367,-0.2122063670167873,1.5052442526792706,12.542628275105017,-1.3647930628249905,0.1265382093929652,-1.1252179796491508
1.48,-1.2030313466276126,1.1970158490576464,1.1969995288901376,0.0252899368527302,0.1490723157596526,0.0093032776941052,0.4933283586462479,-0.9010959452774088,-0.2017895014348323,-1.2130492720274926,1.2125442446374548,1.1983767046886786,0.5218221803516669,-1.0272182268596417,-0.2588183838664363,1.4247964974608334,0.3487943738969629,-0.0794255089755058,1.379158849603071,12.36690591065235,-1.3790104328692792,0.1306734651569047,-1.116446731976531
1.5,-1.193137790555841,1.178993819354701,1.1932277615614193,0.0225042894600927,0.139457694371698,0.0089248531794353,0.4954473865114408,-0.901382746220022,-0.1767400962652091,-1.2033290426898589,1.1931998801181434,1.1925864237584003,0.5456959893316551,-1.067218227455688,-0.2383546087681125,1.257025490220954,0.1059513932596428,-0.0143400471306731,1.252470258481159,12.1623151478434,-1.392746021771177,0.1337830578770541,-1.1064809090292598
1.52,-1.1837389404466176,1.1618748464996296,1.190090229170392,0.021092449385893,0.1313235948679417,0.0087087576804431,0.4937298809764208,-0.9008791789016706,-0.1547739984885089,-1.1924151229032258,1.1718555155690296,1.187819331583038,0.5695697983116432,-1.1072182280517344,-0.2178908336697887,1.1019447091874546,-0.0858752767510018,0.0251783659175774,1.0983048888350098,11.98733812601222,-1.4047819758991504,0.135561401119744,-1.0977364280494522
1.54,-1.173912339798412,1.1438712605140475,1.1872319304219774,0.0211401880932564,0.1245338610592946,0.0086448452824019,0.4888339466578863,-0.899676615232614,-0.1322364327031684,-1.1815012031165926,1.1505111510199155,1.1830522394076757,0.5934436072916313,-1.147218228647781,-0.1974270585714648,1.1547274610899456,-0.2447967159267233,0.0601281834528288,1.126878289267029,11.853354691325876,-1.4145116995246516,0.1357821592910666,-1.0910662898916257
1.56,-1.1642146935856623,1.1258859118895206,1.1848175041108076,0.0228193351488678,0.1203868928201053,0.0087555742456073,0.4811330450861211,-0.8990927754543157,-0.1103378928313359,-1.1699904381054598,1.1281667864559008,1.1787967416097715,0.6173174162716194,-1.1872182292438274,-0.176963283473141,1.161024119498575,-0.3850450785882614,0.0291919889149172,1.0949269935916244,11.820251157495475,-1.421161752460116,0.134527835269998,-1.0886022910946975
1.58,-1.1551578348583451,1.1087989937289957,1.1829275962413877,0.0255870766362595,0.1194274790649475,0.009010789466556,0.4729887172380023,-0.8998737487703921,-0.0897200788546961,-1.1578828278698274,1.1048224218769849,1.1750528381893257,0.6411912252516074,-1.2272182298398735,-0.1564995083748172,1.1090922511150585,-0.4072163924059374,-0.0390486658038202,1.030890698831987,11.791479279757368,-1.423645935104078,0.131935802010894,-1.0918728889841414
1.6,-1.14577438721837,1.0907707861216485,1.1813635394045194,0.0288312119665065,0.1209556882378044,0.0093724265784851,0.4660583877222002,-0.9029920557549108,-0.0677710657004478,-1.131508398996445,1.063805306290476,1.1784415922986529,0.5415578856864505,-0.9998737502605082,-0.0030033822347086,1.1613704018234925,-0.3465164757901068,-0.1559153492259324,1.0974506577124183,11.771692560090742,-1.4232184362606708,0.1289734245445465,-1.0985838488898554
1.62,-1.136480582682295,1.0725898921637125,1.1803247626407436,0.0294393882092292,0.1236692142332522,0.009594053954539,0.4638817508003768,-0.9141758199302346,-0.0367343845923983,-1.131508398996445,1.063805306290476,1.1784415922986529,0.5415578856864505,-0.9998737502605082,-0.0030033822347086,1.6530955081463476,-0.1088318460911674,-0.5591882087661926,1.5518340554024703,11.79145006856288,-1.418859615526698,0.128450750056671,-1.105896600276168
1.64,-1.127214742943666,1.0542202496461937,1.1799308710631744,0.0264339661230153,0.1265081733531791,0.0095746335578242,0.4628914595056517,-0.9217199977501176,-0.0042686496365138,-1.131508398996445,1.063805306290476,1.1784415922986529,0.5415578856864505,-0.9998737502605082,-0.0030033822347086,1.6672726547060095,-0.0495145647362554,-0.3772088909941573,1.6232867477942283,12.48497779002446,-1.4183810520759612,0.1316053294633916,-1.115899811340518
1.66,-1.118424110974393,1.0366795930737065,1.18015230613277,0.022534332837141,0.1292148018900121,0.0094872313639945,0.4625649639531729,-0.9242249224640526,0.0259299428385935,-1.1260928201395803,1.0538065687878708,1.1784115584763055,0.5552717193761401,-1.0198737505585314,0.0143399570892888,1.515203150278769,-0.0163247776239411,-0.1252462356967465,1.509929623755369,12.51017374368439,-1.4181020233919543,0.1361864877249636,-1.1268171140234031
1.68,-1.10917097712345,1.0181965831855642,1.1809993683180284,0.0190998187850514,0.132001679234914,0.0094444896699972,0.4628446589426818,-0.9241322740737358,0.0571361811557035,-1.1152616624258511,1.0338090937826607,1.1783514908316115,0.5826993867555194,-1.059873751154578,0.0490266357372838,1.5603814621076213,0.013984749475443,0.0046324195158431,1.5603119158554986,12.463486208358518,-1.4174857589076868,0.1401524036073805,-1.1374231969215982
1.7,-1.099905421168201,0.9997312693882144,1.1824619041158926,0.0170025484884626,0.134659953818531,0.0094984255792126,0.4637678029717689,-0.9228078870071734,0.0875230455946581,-1.1044305047121223,1.0138116187774506,1.1782914231869177,0.6101270541348986,-1.0998737517506243,0.0837133143852788,1.5214858908579454,0.0461572014543554,0.0662193533281174,1.5193432219477283,12.435270564325036,-1.4160833705515723,0.1426529473053226,-1.1478257429911438
1.72,-1.0910797331744058,0.982221549830536,1.1844097786804983,0.0164405102879908,0.1370003095397155,0.0096534982751126,0.4652522249869404,-0.9206623408357196,0.115970578833584,-1.0922279636294243,0.991814143742438,1.179965689474623,0.6375547215142779,-1.1398737523466709,0.1183999930332737,1.4283460929277283,0.0742211007585785,0.1072773085726952,1.4223766619462972,12.395932503681252,-1.4146178247572323,0.1437746799052898,-1.1587837255532651
1.74,-1.0817521332950188,0.963839744763862,1.1870485867328262,0.0177535440084754,0.1392203286482615,0.0099544999785232,0.4674825131231943,-0.9178529976917232,0.1464211967350245,-1.0800254225467265,0.9698166687074256,1.1816399557623287,0.6649823888936572,-1.1798737529427172,0.1530866716812688,1.5330579935629962,0.1115144068126905,0.1404671571998084,1.5225308950720238,12.38354627553781,-1.4133351897850088,0.1428515157445326,-1.169732239618843
1.76,-1.072370287622293,0.945500336399267,1.190300423604646,0.0209558793232858,0.1410609387105582,0.0103897859355644,0.470616371291962,-0.91667955771057,0.1772325329680793,-1.067137189779544,0.946819193657512,1.1841813890162345,0.6924100562730364,-1.2198737535387636,0.1877733503292638,1.5496261394911357,0.1566929084383883,0.0586719990576689,1.5405668116527425,12.440606964381914,-1.4121490640518253,0.1400518747666214,-1.1799458551577409
1.78,-1.0629173956502225,0.9271482753425888,1.1941740565683268,0.0247749988046745,0.1423273989187126,0.0108632357983302,0.4744692247397635,-0.9186940038378172,0.2085645673191257,-1.053563265327877,0.9228217185926972,1.1875899892363395,0.7198377236524157,-1.25987375413481,0.2224600289772587,1.5816121912979844,0.1926426723900753,-0.1007223063623552,1.566601717552317,12.47837403403355,-1.411543942149096,0.1363542090604838,-1.1896653973805762
1.8,-1.0538618693994053,0.909655757403042,1.1984389369409336,0.028034062449546,0.1429316361730283,0.0112760962042511,0.4784868576109924,-0.9224213848730796,0.2387901728581351,-1.0391939344132344,0.8812135751506979,1.204602284934283,0.5425967898256514,-1.0186940053279332,0.278357873610229,1.5359215258842245,0.200881643561443,-0.1863690517631244,1.5112802769504703,12.531343715387266,-1.4118287527357585,0.133002782439887,-1.1977374483407532
1.82,-1.0442240547201658,0.8910823363293763,1.203410035333538,0.0282661981417973,0.1416278051072878,0.0114354194911055,0.485011087067421,-0.933856185020676,0.2560498190348856,-1.0391939344132344,0.8812135751506979,1.204602284934283,0.5425967898256514,-1.0186940053279332,0.278357873610229,1.0853750625500616,0.3262114728214305,-0.5717400073798173,0.8629823088375274,12.581553186904785,-1.4123536344549732,0.1329826341243282,-1.2026789014203043
1.84,-1.0344685330694885,0.8723318865948813,1.20871827579982,0.0246904262354069,0.1371227024249915,0.0112574379158789,0.4898610410710597,-0.940021645341802,0.2740438544936251,-1.0391939344132344,0.8812135751506979,1.204602284934283,0.5425967898256514,-1.0186940053279332,0.278357873610229,0.9814788165049276,0.2424977001819345,-0.3082730160563096,0.8997017729369727,11.677990629393207,-1.418750839939783,0.136994522406924,-1.1967239795726858
1.86,-1.024657484131451,0.8535173619647695,1.2143988066066906,0.0204563465266909,0.1307943550774004,0.0110268621448098,0.4906752438904369,-0.9411968977794364,0.2931270548222674,-1.033767966514978,0.8710266350974185,1.2073858636703854,0.556222302842829,-1.0386940056259564,0.2923165348684497,0.956834206258248,0.0407101409688609,-0.0587626218817083,0.9541600164321152,11.677990629393207,-1.4276568791580866,0.1419977754974219,-1.1879023789122984
1.88,-1.0153618947500884,0.8356489704231562,1.2201527062418338,0.0173532605243502,0.124653810631855,0.0109067420524236,0.4876730648997545,-0.93999585378842,0.3115878594987314,-1.0229160307184648,0.8506527549908599,1.2129530211425898,0.5834733288771842,-1.078694006222003,0.3202338573848911,0.9370924376268946,-0.1501089495341195,0.0600521995508196,0.9230402338231996,11.71730947183096,-1.4366636311121563,0.1459876704447284,-1.1797806248015577
1.9,-1.0056738568914878,0.8168749954480761,1.2265926920856594,0.0155363161529623,0.1193564151459233,0.0109292364789053,0.4810615558869446,-0.9377369787803922,0.3314513448967771,-1.0120640949219517,0.8302788748843012,1.2185201786147946,0.6107243549115393,-1.118694006818049,0.3481511799013324,1.052820758589434,-0.3305754506404967,0.1129437504013841,0.9931742699022832,11.72801064317082,-1.4444843419444755,0.1484120349111905,-1.1735218288984552
1.92,-0.9961564890284892,0.798155583175647,1.2334336530414969,0.015564212909805,0.1167452019335577,0.0111355680349961,0.4710574329040283,-0.9346659254395234,0.3516331478444707,-0.9998496078237208,0.8079049947479402,1.2254832022128213,0.6379753809458945,-1.1586940074140957,0.3760685024177738,1.1366826904410363,-0.5002061491458126,0.1535526670434384,1.0090901473846807,11.76468287913849,-1.449039356350149,0.148895981269405,-1.1721368400709695
1.94,-0.986844934377332,0.7795002196402734,1.240678963364508,0.0177556358322793,0.1175358360984169,0.0115505568876404,0.4610788051051812,-0.9313713370768744,0.3718585868073476,-0.98763512072549,0.7855311146115792,1.232446225810848,0.6652264069802497,-1.1986940080101425,0.4039858249342151,1.1396224226342349,-0.4989313899423586,0.1647294181324587,1.0112719481438464,11.792788285400093,-1.4489405157402555,0.1472110413892196,-1.1775208522851162
1.96,-0.9781619892898976,0.7618132534557719,1.2479409463087252,0.0213715988971626,0.1206777069979718,0.0121012051764619,0.4537372769535627,-0.9310047524950952,0.3915180738084845,-0.9747393579764004,0.7621572344603171,1.2401071824717855,0.6924774330146048,-1.2386940086061886,0.4319031474506565,1.0494377649537818,-0.3670764075809241,0.0183292290889591,0.982974350056845,11.792788285400093,-1.445689276683352,0.143653292693079,-1.1871837611286136
1.98,-0.9691435904500968,0.7431697209098509,1.255998749299505,0.0253047118225931,0.125465875873916,0.0127362065486513,0.4487759093204547,-0.9334042449549408,0.4132596559918133,-0.9611623195764518,0.7377833542941539,1.2484660721956342,0.71972845904896,-1.278694009202235,0.4598204699670978,1.1214601293516262,-0.2480683816553974,-0.1199746229922804,1.087079109166439,11.823224285343713,-1.4408137388556277,0.1398881340073518,-1.1980920923167295
2.0,-0.9601935114233408,0.7244584390112007,1.264502838144299,0.0286191120118883,0.1308032200419451,0.0133593880333552,0.4466598187659391,-0.937437181447223,0.4360284927039865,-0.946704794984074,0.6964995086621039,1.2766617320990958,0.5248304004231502,-1.0334042464450568,0.4642201483345238,1.160993476738026,-0.1058045277257807,-0.2016468246141156,1.1384418356086612,11.982686858254056,-1.4354743440280957,0.136888105317081,-1.2089669531124738
2.02,-0.9516951872921864,0.7065245126446899,1.2728617607938135,0.0284302979866065,0.1347380112391873,0.013696272030084,0.4477636595843107,-0.9488122931764504,0.4427514537578504,-0.946704794984074,0.6964995086621039,1.2766617320990958,0.5248304004231502,-1.0334042464450568,0.4642201483345238,0.6629665088382716,0.0551920409185779,-0.5687555864613725,0.336148052693197,11.982686858254056,-1.4300073914412086,0.1373276384103635,-1.217151688395118
2.04,-0.9427323385044044,0.6874800706914256,1.2818077989186707,0.0245387917113876,0.1369683942577,0.013739308368716,0.4483765022969548,-0.9543859363706566,0.4516872265739129,-0.946704794984074,0.6964995086621039,1.2766617320990958,0.5248304004231502,-1.0334042464450568,0.4642201483345238,0.5274682702946273,0.0306421356322084,-0.2786821597103084,0.4467886408031224,10.983657504051736,-1.4277009817965478,0.1420786208336482,-1.2195499021563092
2.06,-0.933763989164915,0.6683847545554188,1.290949675073147,0.0201991372171512,0.1380751352894567,0.0137259310910571,0.4483785522686628,-0.954926663884498,0.4620850385036946,-0.9414564909798426,0.6861654661976533,1.281303933582441,0.5400412986436893,-1.05340424674308,0.4744122468030659,0.520593131374494,0.0001024985853997,-0.0270363756920744,0.5198905964890865,11.147503457522362,-1.4268439645200095,0.1471060864094607,-1.2211797157347897
2.08,-0.9248029933568976,0.649308339687066,1.3003092398225298,0.0170373558367399,0.1386882192098264,0.0137907898034956,0.4477278745446981,-0.9531365677753878,0.4733280761514852,-0.9309598829713795,0.6654973812687521,1.2905883365491315,0.5704630950847674,-1.0934042473391266,0.4947964437401501,0.570161646224015,-0.0325338861982382,0.0895048054555147,0.5621518823895277,11.221933177401295,-1.426638971592471,0.1511898300698138,-1.2227743876627433
2.1,-0.916306830692074,0.6312290846918344,1.3094158831450178,0.0155358280874555,0.1392555336805137,0.0139625115459222,0.4466883492585106,-0.9504217109609696,0.4846860269080515,-0.9204632749629166,0.644829296339851,1.299872739515822,0.6008848915258457,-1.133404247935173,0.5151806406772343,0.5862041149036796,-0.0519762643093724,0.1357428407209093,0.5678975378283185,11.270665071588155,-1.426471654466181,0.1535157217682292,-1.2249069245828506
2.12,-0.9073861295754398,0.6122591734525134,1.3192442863857805,0.0158077853462684,0.1401373012528984,0.014280932634737,0.4455030619022243,-0.9469283074176604,0.4975881320210652,-0.9084455771323996,0.6221612113811475,1.3101763523293668,0.6313066879669239,-1.1734042485312193,0.5355648376143185,0.6709565760550945,-0.0592643678143156,0.174670177165459,0.6451052556506826,11.318643910355604,-1.4259131961693692,0.1537344570311179,-1.2280531812555069
2.14,-0.8984877155610586,0.5933609820834447,1.32933601050466,0.0183235920536951,0.1414646833907258,0.0147653178784102,0.4444889688359582,-0.9433515205907728,0.510939699106662,-0.8964278793018827,0.599493126422444,1.320479965142911,0.661728484408002,-1.213404249127266,0.5559490345514028,0.6929757073542292,-0.0507046533133076,0.1788393413443778,0.6675783542798408,11.38666834670039,-1.4245943065196958,0.1514281425138896,-1.2321810158561322
2.16,-0.8896009516486472,0.5745005900669929,1.3397012658909082,0.0223609785736085,0.1431540696237332,0.0153643200580875,0.4443283674843662,-0.9432303813141062,0.5248953413491244,-0.8836496365603389,0.5758250414488395,1.331293182879883,0.6921502808490803,-1.2534042497233122,0.5763332314884869,0.6978546014716904,-0.008030067579598,0.006056963833334,0.6977821121231187,11.414846311698966,-1.4229405504348105,0.147608048129236,-1.2368585835094452
2.18,-0.8807069763324139,0.5556088321468875,1.3503545434227109,0.0262865583603789,0.1449562074815718,0.0159598352610673,0.4451320625670882,-0.9458723160601604,0.5397209131445057,-0.870110848907768,0.5511569564603337,1.342616005540282,0.7225720772901584,-1.2934042503193586,0.5967174284255711,0.7540280565874267,0.0401847541361022,-0.1320967373027171,0.7412785897690621,11.45899828338588,-1.4210886695416067,0.1436406624837624,-1.2414455223010536
2.2,-0.8722343546201401,0.5375975745653198,1.3607573086243017,0.0293181916353589,0.1465778682101053,0.0164753020069942,0.4467045050836117,-0.9497301496281432,0.5545576737614148,-0.8584503732040595,0.5083152163438794,1.377340589079936,0.5317378498443099,-1.0458723175502769,0.5759670713271267,0.7705272884679216,0.0786221258261721,-0.1928916783991263,0.7418380308454597,11.524767382982644,-1.4193010532886403,0.1404713449533662,-1.245674951526138
2.22,-0.8632675375697749,0.5184794905796583,1.3718919720217906,0.0291604390419663,0.1472138453261022,0.0167522936414464,0.4497616058006596,-0.9610397922642536,0.5575408132119498,-0.8584503732040595,0.5083152163438794,1.377340589079936,0.5317378498443099,-1.0458723175502769,0.5759670713271267,0.6044687798638685,0.1528550358523978,-0.5654821318055336,0.1491569725267483,10.755707590485144,-1.4176538485705308,0.1410230791613929,-1.2461279789394375
2.24,-0.8542549517477389,0.4991917779149946,1.3830826697305485,0.0251935309007737,0.1463453462722695,0.0167251682660484,0.4512102120669551,-0.9665059849364812,0.5614811349623166,-0.8584503732040595,0.5083152163438794,1.377340589079936,0.5317378498443099,-1.0458723175502769,0.5759670713271267,0.3446152127412434,0.0724303133147724,-0.2733096336113738,0.1970160875183368,10.875723952891349,-1.4189788615754797,0.1459652189779603,-1.2436488001607904
2.26,-0.8452339129399129,0.4798569441950743,1.394364370122999,0.0208440729026401,0.1451209924461648,0.0166751328950057,0.4507451634225306,-0.9668765842086756,0.5664853606275182,-0.8531329947056164,0.4978564931683766,1.3831002597932072,0.5490590072997543,-1.0658723178482998,0.5832163029636509,0.2519716679038282,-0.023252432221224,-0.0185299636097147,0.2502112832600822,10.875723952891349,-1.4209369060966497,0.1511086909691316,-1.2411604654419193
2.28,-0.8366885602757773,0.4615077218051109,1.4051805166139586,0.0178222714995432,0.1445240603151824,0.0167275022385714,0.4489159680713318,-0.9650313203669838,0.5717856107227935,-0.8424982377087302,0.4769390468173711,1.3946196012197498,0.583701322210643,-1.1058723184443464,0.5977147662366993,0.2951423612037446,-0.0914597675599426,0.0922631920845851,0.2650125047637675,10.92397833940322,-1.422173520436074,0.1552456313874158,-1.2400985493476475
2.3000000000000003,-0.8277343555418761,0.4422394768157421,1.4166811204364886,0.0162431578652256,0.1449136592730059,0.0169182079563002,0.4467200963892263,-0.9621642967400024,0.5780098624763375,-0.831863480711844,0.4560216004663656,1.4061389426462922,0.6183436371215316,-1.1458723190403928,0.6122132295097477,0.359801983087354,-0.1097935841052749,0.1433511813490717,0.3112125876771954,10.953939141713818,-1.4220386278069648,0.1575353576296043,-1.2411346715777485
2.32,-0.8188217763557445,0.4230375016294218,1.428315099167309,0.0166800801182819,0.146450731087634,0.0172700583001682,0.444854416108658,-0.9585440500984924,0.5850508625145254,-0.8194966079694134,0.4331041540855577,1.4183832072364873,0.6529859520324203,-1.1858723196364391,0.626711692782796,0.4067020721376681,-0.0932840140284135,0.181012332075503,0.3520500019093986,11.047866449078356,-1.4205264367962938,0.1576070328653176,-1.244200403334787
2.34,-0.8103812666917222,0.4048629496653401,1.43950331329646,0.0192038386177481,0.1488401873345602,0.0177684651440503,0.4438941490623842,-0.9551109563307724,0.5922811559507791,-0.8071297352269827,0.4101867077047498,1.430627471826682,0.687628266943309,-1.2258723202324855,0.6412101560558445,0.40306757743724,-0.0480133523136888,0.171654688385997,0.3615146718126849,11.047866449078356,-1.4176709051914642,0.1551770859686354,-1.2493355228550516
2.36,-0.8014990805081015,0.3857667299308519,1.4514366568686097,0.0232803534125541,0.1519610992610829,0.018408348033438,0.4445350404577219,-0.9550276779241836,0.6006936686155397,-0.7938968046117799,0.3862692613090408,1.4432341979987031,0.7222705818541977,-1.265872320828532,0.6557086193288929,0.4218650447962583,0.0320445697668841,0.0041639203294363,0.4206256332380309,11.08530082559082,-1.4139043888091465,0.1510246393978343,-1.2556006223382523
2.38,-0.7925849041396035,0.3666386397523139,1.4635500575956002,0.027206253034186,0.1551900019888422,0.0190460815362755,0.4469309919907117,-0.95768728152942,0.6102041974516152,-0.7797978161238048,0.3613518148984307,1.4562033857525507,0.7569128967650863,-1.3058723214245784,0.6702070826019413,0.5080950546581966,0.1197975766494885,-0.1329801802618213,0.4755264418037752,11.146804419031469,-1.410007878523364,0.1471827051593426,-1.261498253512166
2.4,-0.7840574017343547,0.3484030342489108,1.4752427690464334,0.0302042217945984,0.1579727639937651,0.0195965400367964,0.4506004630482494,-0.9615169402168988,0.6201218291934243,-0.7702383545400678,0.3187542756758429,1.4940602674681809,0.5423905202580952,-1.0576872830195363,0.5998280858473419,0.5623404726471908,0.1834735528768893,-0.1914829343739321,0.495881587090452,11.29381563115112,-1.4062073949355942,0.1439685781232677,-1.2669982094294407
2.42,-0.7750032886594083,0.3290557274747232,1.487568724882251,0.0301116257684457,0.1596987120731785,0.0199122925206972,0.4543917043306349,-0.972205614140382,0.61102182275744,-0.7702383545400678,0.3187542756758429,1.4940602674681809,0.5423905202580952,-1.0576872830195363,0.5998280858473419,0.7270340051173174,0.1895620641192752,-0.5344336961741636,-0.4550003217992149,11.29381563115112,-1.4018445005842952,0.1443519703063494,-1.2670673905609426
2.44,-0.7658952426053728,0.3095535212975231,1.499691189111869,0.0264938797992256,0.1601371373264331,0.0199423526429634,0.4561718724713606,-0.977014998805376,0.6018100627420058,-0.7702383545400678,0.3187542756758429,1.4940602674681809,0.5423905202580952,-1.0576872830195363,0.5998280858473419,0.5271520227768458,0.0890084070362812,-0.2404692332497071,-0.4605880007717111,10.05043753071277,-1.401783592910753,0.1487216800135991,-1.2656092057069597
2.46,-0.7572213245688789,0.2909870385040074,1.5110468773619792,0.0227414669240175,0.1603897955411772,0.019947174873295,0.4568328569174884,-0.9772820059358572,0.5939736287606038,-0.7648144493374869,0.3081774028456475,1.5000585483266542,0.5614824259115719,-1.0776872833175597,0.5977528635264873,0.3934396103299161,0.0330492223063916,-0.01335035652405,-0.3918216990700995,10.145637832525608,-1.40142715679911,0.1537223868657584,-1.2641943010255694
2.48,-0.7480841856821369,0.2714611902565365,1.5228453482146165,0.0198712986417696,0.1610475527134658,0.0200389452075509,0.4569196991107997,-0.9755855677618852,0.5862934566985811,-0.753966638932325,0.2870236571852568,1.512055110043601,0.5996662372185253,-1.117687283913606,0.5936024188847779,0.3932889743780059,0.0043421096655643,0.0848219086985957,-0.3840086031011325,10.185867801065797,-1.4005608280189958,0.1574640797907854,-1.2638336218216657
2.5,-0.7389467198067354,0.2519795114490253,1.5344966965066698,0.0185679348223841,0.1624473139223665,0.0202548797862906,0.4569473041384653,-0.9729065440479144,0.5792355232256279,-0.743118828527163,0.2658699115248661,1.524051671760548,0.6378500485254788,-1.1576872845096524,0.5894519742430686,0.3774664058105194,0.0013802513832789,0.1339511856985442,-0.3528966736476624,10.215607995388382,-1.3986269888937428,0.1593992743807754,-1.2650461252689318
2.52,-0.7298045566556582,0.2325602847819546,1.5460162946903413,0.01924629924208,0.1647111563397303,0.0206239996537061,0.4574632501658392,-0.969499410689366,0.5730513560619845,-0.7303618275566535,0.242716165834673,1.535840711245409,0.6760338598324322,-1.1976872851056988,0.5853015296013593,0.3539727444803474,0.0257973013686962,0.1703566679274126,-0.3092083581821669,10.252133412459443,-1.395640661861537,0.1591153564466635,-1.2678726220496614
2.54,-0.7211018838735029,0.2141745987121328,1.5568486888005586,0.0219545235492597,0.1675778718550738,0.0211329936104937,0.4587542723088433,-0.9664067539279984,0.5674857763444706,-0.7176048265861439,0.21956242014448,1.5476297507302703,0.7142176711393857,-1.2376872857017454,0.58115108495965,0.3248343485892572,0.0645511071502069,0.1546328380683859,-0.2782789858756962,10.303165656423516,-1.391524969757552,0.1563104058574459,-1.272340737579582
2.56,-0.7118976885580962,0.1948475287056413,1.5681418138527905,0.0260599699461198,0.1710275136810225,0.0217698409000415,0.4617467256531751,-0.9667284230701524,0.5621296986743112,-0.7038932303329605,0.1954086744393857,1.5593150290990891,0.7524014824463391,-1.2776872862977915,0.5770006403179406,0.3071881185194054,0.1496226672165868,-0.0160834571077017,-0.2678038835079721,10.323339433528416,-1.3866550399417412,0.1519406425695645,-1.2775979465313352
2.58,-0.7026153859773354,0.1754841170679546,1.5793366987914623,0.0299493938391721,0.174456135798428,0.0223957084390564,0.4664351174723067,-0.9695428422758308,0.557659793592245,-0.6892270387971032,0.1702549287193904,1.5708965463518652,0.7905852937532925,-1.317687286893838,0.5728501956762313,0.353136038792677,0.2344195909565832,-0.1407209602839243,-0.2234952541033064,10.36491289341393,-1.3816781830768214,0.1477810732906613,-1.2825834082544063
2.6,-0.6932232383396916,0.1560492489226617,1.5904520291799344,0.0330143988019179,0.1774750284958773,0.022953386003886,0.4725595002901009,-0.9735839724570206,0.5540880717344332,-0.6792936301037201,0.1270069749541631,1.6072196884710748,0.5664351189624228,-1.0327508336970537,0.5180015749700374,0.4080318463973899,0.3062191408897075,-0.2020565090594839,-0.1785860928905924,10.43041447665746,-1.377406616510241,0.144696285738866,-1.286514341817615
2.62,-0.6841507450054707,0.1373224209647399,1.6008707757246408,0.0290634996406321,0.1786248355402935,0.022945299560529,0.481838755219863,-0.9938307078433573,0.5429597609336386,-0.6792936301037201,0.1270069749541631,1.6072196884710748,0.5664351189624228,-1.0327508336970537,0.5180015749700374,1.2448636141510945,0.4639627464881057,-1.0123367693168297,-0.5564155400397286,10.48976918160588,-1.3737735131080602,0.1494202587084694,-1.285799291378431
2.64,-0.6744341811504294,0.1173752150810869,1.6116098335475784,0.0184466081497576,0.1774292014713024,0.0224288000435058,0.4891042852277102,-0.9989121546277028,0.5316056652485748,-0.6792936301037201,0.1270069749541631,1.6072196884710748,0.5664351189624228,-1.0327508336970537,0.5180015749700374,0.7202855623685838,0.3632765003923621,-0.2540723392172817,-0.5677047842531924,10.06567852864191,-1.3748022103608764,0.1621854774434787,-1.2797300046362583
