t,x,y,z,roll,pitch,yaw,v_x,v_y,v_z,ref_x,ref_y,ref_z,ref_v_x,ref_v_y,ref_v_z,a_com,a_x,a_y,a_z,thrust,wind_x,wind_y,wind_z
0.0,2.2711791386241207,-1.5862621277928906,1.8996033740949567,0.0133036579333397,0.1498863182741811,0.0281500341251805,-1.855988698014269e-05,0.0048733931616984,-0.0015295793367451,2.27118373322341,-1.586214426483035,1.8995561101758236,-0.0998934047381137,0.1023716112609504,0.0747336144006236,0.2553914560302063,-0.0009279943490071,0.2436696580849217,-0.0764789668372576,10.65971762220306,-1.4135399291159505,0.179548014432701,-1.2796366655734834
0.02,2.271427962057516,-1.5864312263000069,1.8997175084900424,0.0055028704620841,0.1429695532401852,0.0275608854317397,0.0240979308573822,-0.0172537909400409,0.0140435942448705,2.27118373322341,-1.586214426483035,1.8995561101758236,-0.0998934047381137,0.1023716112609504,0.0747336144006236,1.812278357136618,1.2058245372181209,-1.1063592050869708,0.7786586790807826,11.960925502712598,-1.4165228938004164,0.1883883858336993,-1.2762661324741589
0.04,2.2720689003529886,-1.5867876868614683,1.9001769955493173,-0.010407805882604,0.1243779444720165,0.0265749751003232,0.037011058391223,-0.0163423651603223,0.0311292582028107,2.27118373322341,-1.586214426483035,1.8995561101758236,-0.0998934047381137,0.1023716112609504,0.0747336144006236,1.071796940353946,0.645656376692039,0.0455712889859332,0.8542831978970138,11.960925502712598,-1.4445881892867014,0.2071407431528558,-1.245543906627902
0.06,2.272825974572055,-1.587029480874036,1.9009885809093363,-0.0268634843822897,0.0996953712664372,0.0260420981200741,0.0367608137844307,-0.0074399825025841,0.0492937189488389,2.270184799176029,-1.5851907103704257,1.9003034463198296,-0.1198934050361369,0.1223716115589736,0.0899853984272463,1.0115120779580724,-0.0125122303396174,0.4451191328869067,0.9082230373014076,11.66117073224541,-1.478243888550029,0.2253011600436241,-1.2086033229557849
0.08,2.2734182825003657,-1.5870526428785698,1.9021043948795933,-0.0418882520223446,0.0745671453302293,0.026080387436613,0.0248979856250732,0.0049103808830082,0.0672597246331971,2.268186931081267,-1.5831432781452064,1.901798118607842,-0.1598934056321834,0.16237161215502,0.1204889664804919,1.2410031506255514,-0.5931414079678741,0.6175181692796201,0.8983002842179111,11.643121367107597,-1.5139109545196892,0.243189067353721,-1.166268930492299
0.1,2.273692661173889,-1.5867690987330685,1.9036507057807983,-0.0563326167927868,0.0494740845684385,0.0266192819501198,0.0025793214046787,0.0228512485786369,0.0864018856356346,2.2661890629865047,-1.5810958459199873,1.9032927908958543,-0.1998934062282298,0.2023716127510665,0.1509925345337374,1.722222281020956,-1.1159332110197258,0.8970433847814352,0.9571080501218736,11.643121367107597,-1.545501010992187,0.2591655732244935,-1.1271439307218574
0.12,2.273430578676119,-1.5860807168224538,1.905577535280868,-0.0685600069995701,0.0280364590544624,0.0274895791537012,-0.0279348574071626,0.0448746893315288,0.1052925818504225,2.26219119486194,-1.577048413664966,1.9063126415865288,-0.2398934068242763,0.2423716133471129,0.1814961025869829,2.105353565696612,-1.5257089405920703,1.101172037644595,0.9445348107393982,11.694946784403328,-1.5715731994972535,0.2726581957812221,-1.0952822947980476
0.14,2.272490189054209,-1.584919969845666,1.9078876448262276,-0.0781747402052665,0.0118103700435627,0.0284471252682016,-0.0643211514479646,0.0695790631158747,0.124775715849879,2.2581933267373757,-1.5730009814099448,1.909332492277204,-0.2798934074203227,0.2823716139431594,0.2119996706402285,2.405130447886951,-1.819314702040098,1.2352186892172945,0.9741566999728244,11.749061913856169,-1.5906496365385796,0.2830000165835385,-1.0736918056623244
0.16,2.270878686056954,-1.5833372740711256,1.9104471266225929,-0.0848211213017459,0.0020242880272566,0.0292308958135207,-0.1033160353522851,0.0951427720748063,0.1436946671673848,2.2531954585979097,-1.5679535491400225,1.9131149321692096,-0.3198934080163692,0.3223716145392059,0.2425032386934741,2.5159644797783542,-1.949744195216024,1.2781854479465815,0.9459475658752874,11.860426723503224,-1.6051201312327608,0.2912882583856245,-1.0595595083773426
0.18,2.2683556898807944,-1.5811412141385497,1.913536357447976,-0.0893963340235651,-0.0014788664050709,0.0297110181600261,-0.1463349166310296,0.1227082207902295,0.1643495691527086,2.247197590443543,-1.5619061168551986,1.917659961262547,-0.3598934086124156,0.3623716151352523,0.2730068067467196,2.755495910621478,-2.150944063937225,1.378272435771159,1.0327450992661926,11.983579547354566,-1.610512767082699,0.2973684423638891,-1.05988366826861
0.2,2.264989607527641,-1.578384246454099,1.9170472855056784,-0.091674393988618,0.0013475332965649,0.0298021028125871,-0.1872969171735103,0.1510220824743638,0.1858126433912609,2.261038944049243,-1.575005803099038,1.921753835905611,-0.2463349181211457,0.2227082222803456,0.2092604582716185,2.7111915312644768,-2.048100027124036,1.4156930842067177,1.0731537119276116,12.05227217551692,-1.607432605505296,0.3010456102832389,-1.0706403208841924
0.22,2.2610340702349387,-1.5751451435482364,1.920593756007095,-0.0883412075884036,0.0094017677415528,0.0297926418329959,-0.2260370553089969,0.1862456736640792,0.1867246897167331,2.261038944049243,-1.575005803099038,1.921753835905611,-0.2463349181211457,0.2227082222803456,0.2092604582716185,2.618363757939574,-1.9370069067743272,1.7611795594857675,0.0456023162736102,12.075388415287309,-1.5965392770207023,0.2986616434793624,-1.0858378579386838
0.24,2.256150110933444,-1.571139671798468,1.9243722188250776,-0.0799354202198844,0.0221327561029707,0.0298211486167029,-0.2595752211760662,0.2117076249643785,0.1913848070283469,2.261038944049243,-1.575005803099038,1.921753835905611,-0.2463349181211457,0.2227082222803456,0.2092604582716185,2.118275375809217,-1.6769082933534671,1.273097565014966,0.2330058655806932,10.786853456953397,-1.5814682376691538,0.2918816799229203,-1.1158506516429354
0.26,2.2506600972705746,-1.566697677844903,1.9282768463207336,-0.0712166430645035,0.0367622737735136,0.0298397862001246,-0.2871917381799372,0.2311852986518817,0.1989108672502941,2.2585755948680317,-1.5727787208762347,1.923846440488327,-0.2663349184191689,0.2427082225783688,0.2182426360954004,1.7311075689903863,-1.3808258501935482,0.9738836843751568,0.3763030110973592,10.950530688517574,-1.5637767580554152,0.2843041067770154,-1.1472331955333297
0.28,2.2446851779040977,-1.5619031333287154,1.9323503947309664,-0.0638220686916286,0.0514253023488653,0.029882453330967,-0.3086253477839684,0.2476228690879707,0.2079865979594503,2.2536488965056085,-1.5683245564306276,1.9280316496537595,-0.3063349190152153,0.2827082231744153,0.2362069917429644,1.4247475481682086,-1.0716804802015616,0.8218785218044519,0.4537865354578091,11.061084658660548,-1.5468964820985276,0.2781496963526493,-1.176757985612779
0.3,2.2386625990215783,-1.5570591299861904,1.9363941263306688,-0.0583741749588258,0.0639104717940499,0.0299897989290472,-0.3241983712725805,0.2618102087823907,0.2171350746657835,2.2487221981431857,-1.5638703919850208,1.932216858819192,-0.3463349196112618,0.3227082237704617,0.2541713473905284,1.1483621970311124,-0.7786511744306029,0.7093669847210007,0.4574238353166587,11.13007384553748,-1.5312407271828572,0.2732760337145502,-1.2050824610125002
0.32,2.2320413416881046,-1.5516751735568637,1.940841426993143,-0.0542193059614224,0.0745727493683187,0.0301931131072593,-0.3370483929343159,0.2760948204869439,0.2270741362452608,2.2417954997509604,-1.5574162275096115,1.9373002857670023,-0.3863349202073082,0.3627082243665082,0.2721357030380923,1.0816169993782074,-0.6425010830867689,0.714230585227657,0.4969530789738649,11.173020500876191,-1.5189010014672923,0.2700327598572126,-1.2283636364748205
0.34,2.225190242755265,-1.5460091035210817,1.9454820291628816,-0.0514818823129062,0.0821842737064759,0.0304923169104969,-0.3476156529220781,0.2901216808185249,0.2364244266810872,2.234868801358735,-1.5509620630342025,1.9423837127148127,-0.4263349208033548,0.4027082249625547,0.2901000586856562,0.9947961168562984,-0.52836299938811,0.7013430165790507,0.4675145217913207,11.198292090126415,-1.510729869650328,0.2682829917219022,-1.2446289890321165
0.36,2.2181329369794938,-1.5400533068545914,1.9503043691556203,-0.0495332313087705,0.0869568204319817,0.030894189719754,-0.3577701770089407,0.3048140517527872,0.2453117922286349,2.2269421029516088,-1.543507898543892,1.9479162485538128,-0.4663349213994012,0.4427082255586011,0.3080644143332202,0.997453494500329,-0.5077262043431341,0.7346185467131144,0.4443682773773841,11.198292090126415,-1.50569158692459,0.2672770943958941,-1.256833254270101
0.38,2.211238037410856,-1.5341210448953206,1.9550498599786472,-0.0479698139145074,0.0894003372805508,0.0313624942506392,-0.3676451620515373,0.3188744950401676,0.2537548906924792,2.218015404529581,-1.5350537340386805,1.9538978932840012,-0.5063349219954476,0.4827082261546475,0.3260287699807841,0.95720596882191,-0.493749252129827,0.7030221643690215,0.4221549231922139,11.19116149101319,-1.503445404461643,0.2666011832773887,-1.2652729743239906
0.4,2.2037708767900264,-1.527590344393525,1.9602214046661224,-0.0464845229070307,0.0903877797706277,0.0319192415523031,-0.3786583175445165,0.3334121624941314,0.2629659105032434,2.1928557793082786,-1.5181773201433122,1.9677376045132715,-0.4676451635416534,0.4188744965302837,0.2466781443739898,1.0216117839826313,-0.5506577746489633,0.7268833726981921,0.460550990538211,11.205683576549744,-1.5032152844059556,0.2660838301244979,-1.2709975527926134
0.42,2.196043342864449,-1.5207659872082886,1.9653687015104744,-0.0446060490683472,0.0907334690697712,0.0325297356855714,-0.3936587517008174,0.3479489503531587,0.2502267947247731,2.1928557793082786,-1.5181773201433122,1.9677376045132715,-0.4676451635416534,0.4188744965302837,0.2466781443739898,1.223331820228213,-0.7500217078150434,0.7268393929513617,-0.6369557889235128,11.236792312449325,-1.502508118745063,0.2642617784108334,-1.2662272365440284
0.44,2.188018340976117,-1.5136895820672505,1.970233501267776,-0.0429946708613351,0.0909509907930684,0.033121949228503,-0.4081244057584355,0.3592633276312096,0.2370041459719289,2.1928557793082786,-1.5181773201433122,1.9677376045132715,-0.4676451635416534,0.4188744965302837,0.2466781443739898,1.1314909638899564,-0.7232827028809036,0.5657188639025451,-0.6611324376422103,9.836564109967185,-1.5007000182264068,0.2629963459731437,-1.2655769302013284
0.46,2.1801263719809323,-1.5067626874256017,1.974629866877506,-0.0425083587276387,0.0909609536387823,0.0336158818870265,-0.421901800105363,0.3694832091269717,0.2264246976071249,2.188179327672862,-1.513988575178009,1.970204385957011,-0.4876451638396766,0.438874496828307,0.245262795110292,1.0077044463553386,-0.688869717346377,0.510994074788107,-0.5289724182402034,9.938155188650851,-1.4995300886920364,0.2629557424246277,-1.2643470053001349
0.48,2.171536608494402,-1.4992643278045843,1.979057138369366,-0.0433444836640708,0.0908877127545971,0.0340426136906947,-0.4363536181836912,0.3799527245731967,0.2169272251827412,2.178826424402029,-1.5056110852474038,1.975137948844491,-0.5276451644357231,0.4788744974243534,0.2424320965828963,1.0107766591831298,-0.7225909039164091,0.5234757723112465,-0.4748736212191823,10.051586547093391,-1.4986384091869431,0.2645346873758339,-1.262898996908976
0.5,2.162657590601865,-1.491553472690201,1.983312170076772,-0.0457164977374233,0.0908132904946874,0.0343622030261487,-0.4508269059952561,0.3908567618239741,0.2090372690859221,2.169473521131196,-1.497233595316798,1.9800715117319707,-0.5676451650317695,0.5188744980203999,0.2396013980555005,0.9882123957587124,-0.7236643905782464,0.5452018625388744,-0.3944978048409542,10.22778359504082,-1.4979528527670949,0.2677001242778798,-1.2613658346707424
0.52,2.153954044675028,-1.484005104744001,1.9872203997875908,-0.0488819841928538,0.0908063022970714,0.0346015683608413,-0.4646086391097218,0.403404579430725,0.2027359072394645,2.1581206178305603,-1.4868561053563902,1.9848635396930807,-0.607645165627816,0.5588744986164463,0.2367706995281048,0.9837314870566,-0.6890866557232811,0.6273908803375416,-0.3150680923228788,10.22778359504082,-1.497308318678033,0.272210322702425,-1.260137824590423
0.54,2.1445095092088358,-1.4757821590387732,1.9912070025885067,-0.0522710397795016,0.0908787410345969,0.0348488771366395,-0.4791113111943927,0.418297136177336,0.1962554718056146,2.146767714529925,-1.476478615395982,1.9896555676541907,-0.6476451662238625,0.5988744992124928,0.2339400010007091,1.088705409487364,-0.7251336042335466,0.7446278373305498,-0.3240217716924953,10.3019722553272,-1.4966344989161278,0.2768510943928419,-1.2594960793965682
0.56,2.134769660887733,-1.4672396798435632,1.9950653438572192,-0.0550506746558135,0.091182892986187,0.035129127586193,-0.4941056853606852,0.4350441958620993,0.1899170544967605,2.1344148112143886,-1.465101125420673,1.994376828152116,-0.6876451668199088,0.6388744998085392,0.2311093024733134,1.1677658141778566,-0.7497187083146256,0.8373529842381683,-0.3169208654427088,10.311909050912618,-1.4958599358122018,0.280845074286032,-1.2597252770242309
0.58,2.124726875339003,-1.4583507336534562,1.99879944786089,-0.0567410573993608,0.0919905622847417,0.0354581356217029,-0.509302761600266,0.4527207267124342,0.1838176849444606,2.1210619078839508,-1.452723635430463,1.999027321186856,-0.7276451674159553,0.6788745004045856,0.2282786039459176,1.204795810573304,-0.7598538119790388,0.8838265425167441,-0.3049684776149933,10.328232674386529,-1.4946515059647505,0.2835530451680368,-1.2616153096004896
0.6,2.1149057137076865,-1.4495726505620112,2.002235171575058,-0.0571557933906239,0.0933189579360937,0.0358205805597177,-0.5236215947817788,0.4701973594955904,0.1781452982992842,2.0992617372589897,-1.4357146973178343,2.0079903321081134,-0.6093027630903821,0.5527207282025504,0.1620810053457715,1.164729203902841,-0.7159416590756418,0.8738316391578099,-0.2836193322588193,10.347084024282594,-1.49272206971397,0.2850357166981139,-1.265356815957871
0.62,2.104251468786402,-1.4399253194762125,2.005682401313172,-0.0544845174277948,0.0959376286131457,0.0363478549371267,-0.5408385337841257,0.4929270238547383,0.1666441805503294,2.0992617372589897,-1.4357146973178343,2.0079903321081134,-0.6093027630903821,0.5527207282025504,0.1620810053457715,1.5373161190573128,-0.8608469501173444,1.1364832179573958,-0.5750558874477396,10.360087173186002,-1.4897279711118614,0.2828450546669608,-1.2710098032378536
0.64,2.0932778335331594,-1.4298914250498242,2.008893068569998,-0.0491579322159192,0.0998369863088522,0.0369952990630853,-0.5554200930485528,0.5089318135325761,0.1550471708451569,2.0992617372589897,-1.4357146973178343,2.0079903321081134,-0.6093027630903821,0.5527207282025504,0.1620810053457715,1.2280734885540083,-0.7290779632213529,0.8002394838918875,-0.5798504852586234,10.040746929564191,-1.48377590428777,0.2775227260379853,-1.2807295560421594
0.66,2.082035085256463,-1.4195809879409764,2.011870200265093,-0.0440578491028912,0.1040669485818396,0.0376204034514844,-0.5680052651329854,0.5214609392178088,0.1432284982612096,2.093168709628086,-1.430187490035809,2.009611142161571,-0.6293027633884053,0.5727207285005735,0.1577336694260337,1.066591028086314,-0.629258604221633,0.6264562842616339,-0.5909336291973655,10.044045693828592,-1.477756788739775,0.2724407865181314,-1.287852509347169
0.68,2.071137608625052,-1.409571424974075,2.014476419179843,-0.0401638900519234,0.1079125232181921,0.0381624581403156,-0.5784216996488849,0.5318177291413951,0.1316853880140851,2.080982654366278,-1.419133075471758,2.012852762268486,-0.6693027639844518,0.61272072909662,0.1490389975865581,0.9340885928574882,-0.5208217257949732,0.5178394961793176,-0.5771555123562269,10.005885958624276,-1.4715084444551827,0.2681115675014232,-1.2937549040611105
0.7000000000000001,2.059466340520819,-1.398829527322693,2.0169797664743103,-0.0372256913077266,0.1114203106199283,0.0386759818735735,-0.5881167311244754,0.5420436070823004,0.1192330155367798,2.068796599104471,-1.408078660907707,2.016094382375402,-0.7093027645804982,0.6527207296926665,0.1403443257470824,0.940244376862384,-0.4847515737795238,0.5112938970452618,-0.6226186238652655,10.005885958624276,-1.4660219899638236,0.2651466805420825,-1.2981706310517305
0.72,2.0476112183831683,-1.3878860921557197,2.0192328568884967,-0.0354169194761769,0.1141588712625123,0.039136689202342,-0.5969088184827729,0.5519499760343063,0.1066921508805027,2.054610543812861,-1.3950242463138536,2.0189012688903434,-0.7493027651765447,0.692720730288713,0.1316496539076068,0.9120173137833794,-0.4396043679148753,0.4953184476002958,-0.6270432328138522,9.991375324132605,-1.4614850484374378,0.2634743598113587,-1.3008060209145675
0.74,2.035586826501587,-1.3767489935757753,2.021234529738623,-0.0347706931201344,0.1160479296629356,0.0395403743498504,-0.605148262045718,0.5614400617831955,0.0941000789983545,2.040424488521251,-1.3819698317200002,2.021708155405285,-0.7893027657725912,0.7327207308847594,0.1229549820681312,0.8895370032120871,-0.4119721781472574,0.4745042874444605,-0.6296035941074113,9.9904885118749,-1.4582125187317057,0.2631477854511413,-1.3017420750726314
0.76,2.024008773668508,-1.3659850507815872,2.0229045591224364,-0.0350214500536285,0.1172372269633616,0.0398778778567736,-0.6131939915023401,0.5711498523876702,0.0823206378572643,2.0252384332147395,-1.3679154171112458,2.02429767512424,-0.8293027663686375,0.7727207314808058,0.1142603102286555,0.8627992664407967,-0.4022864728311037,0.4854895302237372,-0.5889720570545105,9.988795674593348,-1.4556908965462112,0.2639313342188829,-1.3020940160804326
0.78,2.0116543363527475,-1.3544492234922128,2.024422841721693,-0.0358470247800487,0.1181509976619991,0.0401989281885155,-0.6218230760827819,0.5819354389279086,0.070135592044642,2.009052377893328,-1.35286100248759,2.026669828047208,-0.869302766964684,0.8127207320768522,0.1055656383891799,0.9209578154957656,-0.4314542290220879,0.5392793270119156,-0.6092522906311175,10.001290305425757,-1.4534792276845463,0.2654551274988956,-1.3028492232853528
0.8,1.9991256572444596,-1.3426887658152589,2.025701031817189,-0.0369141315018294,0.1189481223495864,0.0405007674795122,-0.6305914210246063,0.5935589202862519,0.0583062844859675,1.9805631825486083,-1.3253524515458173,2.027929621323925,-0.721823077572898,0.6819354404180247,0.0379333966684842,0.9379788233540864,-0.4384172470912217,0.5811740679171673,-0.5914653779337239,10.015735823972136,-1.451434840125197,0.2672803022183183,-1.303676492856023
0.8200000000000001,1.9863951412897844,-1.330652841617326,2.026728011773313,-0.0366862877068816,0.1205156947496413,0.0408575540473552,-0.6418741769531936,0.6091219403836048,0.0449024975999344,1.9805631825486083,-1.3253524515458173,2.027929621323925,-0.721823077572898,0.6819354404180247,0.0379333966684842,1.171718480246933,-0.5641377964293648,0.7781510048676443,-0.670189344301652,9.95207957330058,-1.4491295993429891,0.2675376048656784,-1.3041277125073008
0.84,1.97410953242557,-1.3189550810971735,2.0274517708165445,-0.0349467011091127,0.122980636299652,0.0412606105523869,-0.65065853252837,0.6214407363866021,0.0319532946713552,1.9805631825486083,-1.3253524515458173,2.027929621323925,-0.721823077572898,0.6819354404180247,0.0379333966684842,0.9957402953583362,-0.4392177787588214,0.6159398001498673,-0.6474601464289638,9.95207957330058,-1.4437446035324877,0.2659426389678365,-1.3102996088886671
0.86,1.961012780287408,-1.3064026152236778,2.0279425206890878,-0.0325579080746103,0.1257960148365532,0.0417107359419459,-0.6584544886560932,0.6330499351784522,0.0177733500157541,1.9733449517728796,-1.318533097141637,2.0283089552906097,-0.7418230778709212,0.7019354407160479,0.0314929575932526,0.9957676171803193,-0.3897978063861607,0.5804599395925036,-0.7089972327800546,9.944551491953462,-1.4378300142278364,0.2634977808119649,-1.3154998460637366
0.88,1.9477736119588585,-1.2936362466896472,2.0281446358496504,-0.0303158962759788,0.128392041875823,0.0421521362763916,-0.665048764074627,0.6431034636613371,0.0031425292134598,1.958908490221421,-1.3048943883332764,2.0290676232239795,-0.7818230784669676,0.7419354413120943,0.0186120794427895,0.9468616855176142,-0.3297137709266873,0.5026764241442438,-0.7315410401147139,9.912518730918237,-1.432172221725322,0.2611252195902848,-1.3192396029141058
0.9,1.934412314204358,-1.2806785181427085,2.028050970816826,-0.0286704038652558,0.1304970292090598,0.0425596232475091,-0.6707683716412204,0.6523127473078456,-0.0117816988420288,1.9444720286699635,-1.291255679524916,2.029826291157349,-0.8218230790630141,0.7819354419081408,0.0057312012923264,0.9223033652897484,-0.2859803783296699,0.4604641823254263,-0.7462114027744354,9.891401458197834,-1.4274083094332528,0.2594947635228699,-1.321626462243493
0.92,1.9216191751893863,-1.2682042014944146,2.0276843842823657,-0.0278871271293962,0.131905102795892,0.0429012009105342,-0.6756346351897812,0.6604317220172771,-0.026061979128091,1.9280355670887035,-1.275616970686753,2.029940915183196,-0.8618230796590606,0.8219354425041873,-0.0071496768581366,0.8566280936102553,-0.2433131774280394,0.4059487354715729,-0.7140140143031105,9.877916080965406,-1.4232337031576665,0.2587581338513519,-1.3232863027752657
0.94,1.9080563629006135,-1.2549116578394557,2.027004468064425,-0.0281589849297505,0.1327084218872233,0.0431942663394323,-0.6804304978161633,0.6684955802247672,-0.0411808736475948,1.911599105507443,-1.2599782618485904,2.0300555392090422,-0.901823080255107,0.8619354431002337,-0.0200305550085997,0.8896728036383889,-0.2397931313191048,0.4031929103745058,-0.7559447259751902,9.874274855267686,-1.4199108233773825,0.2593456721350325,-1.3234281944955764
0.96,1.8943941331078291,-1.2414476391120115,2.0260251762300205,-0.0294131054229363,0.1329679205818676,0.0434261148089735,-0.6855843910713241,0.6775418319492605,-0.0559731533031742,1.8941626439112813,-1.2433395529955265,2.029848141281128,-0.9418230808511534,0.90193544369628,-0.0329114331590628,0.904445718876148,-0.2576946627580401,0.4523125862246679,-0.739613982778966,9.870164494754135,-1.41744029312302,0.2610971319314725,-1.322135026659513
0.98,1.8806250455396976,-1.2277903219660902,2.0247558825743064,-0.0311120991618185,0.132992673840233,0.0436274057101163,-0.6910668107758711,0.6876982395219104,-0.0702158354016711,1.875726182300219,-1.2257008441275612,2.029318721399451,-0.9818230814472,0.9419354442923266,-0.0457923113095259,0.9166017864337672,-0.2741209852273496,0.5078203786324953,-0.7121341049248445,9.890762139291835,-1.4153574449325514,0.2632586813755876,-1.3206253048250585
1.0,1.8674404526262085,-1.2146164798966614,2.0232909987682945,-0.0326910711190912,0.1329984458460888,0.0438164411369949,-0.6964906483015384,0.6984350169188644,-0.0832702050942694,1.846071705000904,-1.193405409989995,2.0212450908042228,-0.7910668122659872,0.7876982410120266,-0.0962419260087181,0.8875710822908903,-0.2711918762833665,0.5368388698477,-0.6527184846299161,9.920687073525189,-1.4132870126934298,0.2655267244923084,-1.3193735059495046
1.02,1.8534266678034037,-1.2004796983348005,2.0215209334911237,-0.0326205396548942,0.1339391995425969,0.0440989667802418,-0.7044120412193837,0.7143176974128631,-0.0928467318302392,1.846071705000904,-1.193405409989995,2.0212450908042228,-0.7910668122659872,0.7876982410120266,-0.0962419260087181,1.008362372560182,-0.3960696458922663,0.7941340246999329,-0.4788263367984893,9.949225625116924,-1.4101680096073816,0.2657556352130777,-1.3208386775701966
1.04,1.83927535946503,-1.186049482857635,2.019564699350228,-0.0302672469062159,0.136133734998607,0.0444915777442866,-0.7101702932091929,0.7278030256357552,-0.1023300093463381,1.846071705000904,-1.193405409989995,2.0212450908042228,-0.7910668122659872,0.7876982410120266,-0.0962419260087181,0.873132429395188,-0.2879125994904585,0.6742664111446028,-0.4741638758049449,10.192814386055034,-1.4051396624559664,0.2633107993074354,-1.326802124385018
1.06,1.825026519054856,-1.1713727648123935,2.0174084561045533,-0.0268634494816905,0.1386372383376508,0.0449413098110922,-0.7143428070779881,0.7388995308400488,-0.1128221418935095,1.838161036878244,-1.1855284275798743,2.020282671544136,-0.8110668125640104,0.8076982413100497,-0.1014471441301275,0.7915603974454789,-0.2086256934397623,0.5548252602146808,-0.524606627358571,10.192814386055034,-1.399979056064875,0.2596918383285922,-1.3323552902776197
1.08,1.811425577519076,-1.1572489286913497,2.01515637503603,-0.0237847868152726,0.140798046800638,0.0453572471452913,-0.7171284201236426,0.7473661681397171,-0.1237190495789671,1.8223397006329245,-1.1697744627596338,2.0183578330239613,-0.8510668131600568,0.8476982419060962,-0.1118575803729464,0.7038930748161272,-0.139280652282725,0.4233318649834172,-0.5448453842728802,10.134345624997875,-1.395093059736608,0.25595842750347,-1.3365147798178698
1.1,1.7970606851763462,-1.1422196573664989,2.0125540697911117,-0.0212186513171705,0.1424943637498887,0.0457530034632018,-0.7192300545477007,0.7552444232138268,-0.1359741656043895,1.8065183643876048,-1.154020497939393,2.016432994503787,-0.8910668137561033,0.8876982425021427,-0.1222680166157652,0.7359885173385595,-0.1050817212029042,0.3939127537054832,-0.6127558012711177,10.08209765425363,-1.3910239479226811,0.253004279112902,-1.3390427344572238
1.12,1.7826593323870583,-1.1270382889502333,2.0097017391873533,-0.0194734212441877,0.1433999472472065,0.0460970508972073,-0.720852837542653,0.7626079311032875,-0.1486574698575164,1.7886970281124828,-1.1362665330893504,2.0139876341714715,-0.9310668143521498,0.9276982430981892,-0.1326784528585841,0.7377683916112229,-0.081139149747611,0.3681753944730359,-0.6341652126563471,10.040111322131452,-1.3881130107885458,0.2510953196347293,-1.3399779186868233
1.14,1.7689510938829112,-1.1124851638085145,2.006757357035605,-0.0186946759662401,0.1434461954858246,0.0463670261089828,-0.722134789074466,0.7690598517151442,-0.1606361923726391,1.7708756918373607,-1.1185125682393076,2.011542273839156,-0.9710668149481962,0.9676982436942356,-0.1430888891014029,0.6833016764320285,-0.0640975765906548,0.3225960305928366,-0.5989361257561373,10.020612617522602,-1.3862342886684935,0.2501977739196288,-1.3395473335766888
1.16,1.754490315769847,-1.0970278660443855,2.0034152095827413,-0.018678031168381,0.14276868379797,0.0465974635599019,-0.7239365209777963,0.7763477497341523,-0.1729284581713756,1.7520543555473376,-1.0997586033743636,2.008836652600771,-1.0110668155442426,1.007698244290282,-0.1534993253442217,0.7201727116701349,-0.0900865951665108,0.3643949009504044,-0.6146132899368231,10.027279626822748,-1.3856471178086829,0.2503347325093019,-1.3378808752505529
1.18,1.739988136481316,-1.0814185536147658,1.999833742004495,-0.0191460300209276,0.14160700766194,0.0467930703940065,-0.7262503862596439,0.7841896652009669,-0.1845980756768715,1.7322330192424131,-1.0800046384945183,2.0058707704563146,-1.051066816140289,1.0476982448863283,-0.1639097615870405,0.712442249336362,-0.1156932640923813,0.3920957733407282,-0.5834808752747958,10.044581439161448,-1.385696118551008,0.2510605746075622,-1.3356240665526724
1.2,1.7261625325396024,-1.066438494171636,1.9962210304159025,-0.0197528834916826,0.1402897101812539,0.0469635153673938,-0.7290046223875715,0.7922113328067649,-0.1950995177800201,1.7036756171683338,-1.0422090703547175,1.9906038382206517,-0.82625038774976,0.884189666691083,-0.1947862324157488,0.6749319485549486,-0.1377118063963789,0.4010833802899016,-0.5250721051574272,10.109142313365735,-1.386064929243176,0.2519457315317412,-1.3332866710132965
1.22,1.7115189092055836,-1.050465536474806,1.9922633453236085,-0.0191709521378085,0.1399944434051971,0.0471971512657477,-0.735035342662253,0.8043539753462976,-0.1998172410147553,1.7036756171683338,-1.0422090703547175,1.9906038382206517,-0.82625038774976,0.884189666691083,-0.1947862324157488,0.7177573883177446,-0.3015360137340772,0.6071321269766339,-0.2358861617367591,10.109142313365735,-1.3847660753326294,0.2514058491843933,-1.3338045187084862
1.24,1.6967746988568406,-1.0342743629331157,1.988222089254097,-0.0170170680755537,0.1413792773708966,0.0474961915748551,-0.738915118102519,0.8141137176154678,-0.204118050678639,1.7036756171683338,-1.0422090703547175,1.9906038382206517,-0.82625038774976,0.884189666691083,-0.1947862324157488,0.5674552634183476,-0.1939887720132982,0.4879871134585101,-0.2150404831941885,10.51385554438184,-1.3816388795760224,0.2491494414218591,-1.3380958299603272
1.26,1.682713092168732,-1.0187294288551425,1.984294294581768,-0.0145432250551063,0.143222253617839,0.0477909844926137,-0.7409995194694254,0.8216234419065102,-0.209125574940425,1.6954131132908363,-1.0333671736878067,1.988655975896494,-0.8462503880477832,0.9041896669891062,-0.1968238637635243,0.4631845939207389,-0.1042200683453231,0.3754862145521176,-0.250376213089297,10.49338685370185,-1.378037961950732,0.2461719654341181,-1.3428871232936304
1.28,1.6678828784639133,-1.002229418442066,1.980047851752568,-0.0123058295320539,0.1450359616540177,0.0480671969720457,-0.7418876765389083,0.8280810723491755,-0.2152974932229325,1.6788881055358411,-1.015683380353985,1.984760251248179,-0.8862503886438297,0.9441896675851528,-0.2008991264590752,0.4488384709448974,-0.0444078534741432,0.322881522133267,-0.3085959141253772,10.387510260915406,-1.374732412800181,0.2435724029733074,-1.3464410316089113
1.3,1.6530456289592983,-0.9856089651438628,1.9756702891182432,-0.0108134048277109,0.1462281498891563,0.0482874555971252,-0.7418737154138382,0.8337943418062984,-0.2221451754360327,1.662363097780846,-0.9979995870201634,1.980864526599864,-0.926250389239876,0.9841896681811992,-0.2049743891546261,0.4459046829040821,0.0006980562535063,0.2856634728561458,-0.3423841106550113,10.387510260915406,-1.372395152816265,0.2419203414250889,-1.3485711600378414
1.32,1.6382140681048052,-0.9688805340820658,1.9711529518004955,-0.0102790638024174,0.1465502053499784,0.048437956077138,-0.741406694613098,0.8389030925750468,-0.2292382024927691,1.6438380899960483,-0.9783157936565394,1.976765038816772,-0.9662503898359226,1.0241896687772456,-0.209049651850177,0.4376884613315315,0.0233510400370062,0.2554375384374197,-0.3546513528368183,10.356255115822933,-1.3710674864451708,0.2412928816712082,-1.349249986777489
1.34,1.6241356742077202,-0.9528974975032688,1.966733058370428,-0.0108896014151098,0.1459214672665141,0.0485023211945618,-0.7406414087961545,0.8434158106448331,-0.2356508788248722,1.625313082211251,-0.9586320002929156,1.9726655510336792,-1.006250390431969,1.064189669373292,-0.213124914545728,0.3939311630834303,0.0382642908471786,0.2256359034893129,-0.320633816605155,10.345513154743458,-1.370966996217875,0.2421194122603192,-1.348282018018715
1.36,1.609328622253966,-0.9359702483360706,1.9619550468126925,-0.0125651387669238,0.144229236248482,0.0485024540449649,-0.7401849871429236,0.8491304551081164,-0.2417761529637912,1.6057880744115522,-0.9379482069143904,1.9684641816831976,-1.0462503910280154,1.1041896699693383,-0.2172001772412789,0.419477250110724,0.0228210826615449,0.2857322231641646,-0.3062637069459487,10.366596644670608,-1.372490618171973,0.244258004407108,-1.3452661042548464
1.38,1.5945247027871876,-0.9189149831330066,1.9570650202640856,-0.0147987104594237,0.1416011771443085,0.0484735019778692,-0.740343445036714,0.8561631364772716,-0.2469110714247816,1.5852630665969525,-0.916264413520964,1.964160930765328,-1.0862503916240618,1.144189670565385,-0.2212754399368298,0.4354626957191285,-0.0079228946895215,0.3516340684577623,-0.2567459230495214,10.40136805162456,-1.3753273799688628,0.2470744041929948,-1.3407659087394768
1.4,1.5797076453246557,-0.9017009314410732,1.9520826584873292,-0.0168903241011055,0.1382395598198564,0.048466806488566,-0.7414722307335406,0.8647794146075775,-0.2510577171210488,1.5575075305353518,-0.8761068263091429,1.9447194666928465,-0.8403434465268301,0.9561631379673876,-0.2490872572617971,0.4814277632691085,-0.0564392848413308,0.4308139065152927,-0.2073322848133607,10.452401276955245,-1.3789658560495903,0.2496073672479795,-1.3360081126073473
1.42,1.5655475527722176,-0.885134382216094,1.9472983227060423,-0.0167907931457769,0.1362681892776537,0.0485827025335338,-0.7489312277656476,0.8778624767201845,-0.2523526735163935,1.5575075305353518,-0.8761068263091429,1.9447194666928465,-0.8403434465268301,0.9561631379673876,-0.2490872572617971,0.7557778493597798,-0.3729498516053475,0.6541531056303507,-0.0647478197672357,10.504324594467109,-1.3820295604832935,0.2496609970292562,-1.3312752551328375
1.44,1.5505018522120195,-0.8674633471103833,1.9422395465041928,-0.0141508349595968,0.1369859762598275,0.0488230120165329,-0.7548994356595511,0.8884088498434451,-0.2534700870917974,1.5575075305353518,-0.8761068263091429,1.9447194666928465,-0.8403434465268301,0.9561631379673876,-0.2490872572617971,0.608469606098744,-0.2984103946951755,0.5273186561630339,-0.0558706787701951,10.67979157555328,-1.379402186787126,0.2465146386702922,-1.3358226053555793
1.46,1.5353626291226177,-0.8496123639418415,1.937149403838575,-0.0104974069310855,0.1391389827989978,0.0491031991055774,-0.7585551545548634,0.8959525837598626,-0.2555016474841356,1.5491040960700837,-0.866545194929469,1.9422285941202284,-0.8603434468248533,0.976163138265411,-0.2495224944292002,0.4312755490141092,-0.1827859447656177,0.3771866958208747,-0.1015780196169074,10.67979157555328,-1.375827700958168,0.2423409230247013,-1.3415463291766123
1.48,1.5209320606460912,-0.832538147807374,1.932266052684832,-0.007310887636777,0.1415777171293057,0.0493383368714546,-0.7602212321775168,0.9010902939253564,-0.258441227473618,1.532297227139547,-0.8474219321701213,1.9372468489749928,-0.9003434474208998,1.0161631388614574,-0.2503929687640064,0.3074614240188877,-0.083303881132668,0.2568855082746846,-0.1469789994741205,10.621196060579678,-1.371703753945417,0.2382096566450511,-1.3469060762971004
1.5,1.5057233587862549,-0.8144709267942633,1.927056937267346,-0.0047355668944517,0.1438510581550088,0.0495257510941369,-0.7605409880465642,0.9055147106535084,-0.2623529491683729,1.5154903582090102,-0.8282986694107736,1.9322651038297567,-0.9403434480169462,1.056163139457504,-0.2512634430988126,0.2957163920776093,-0.0159877934523711,0.2212208364076096,-0.1955860847377449,10.563222114116796,-1.3680791186896697,0.235015797038215,-1.351177684226737
1.52,1.4905193869370263,-0.7963208258080726,1.9217638899179663,-0.0030893956970301,0.1453482808778982,0.0496418213463265,-0.759882623402494,0.9093985240452463,-0.2667710622685729,1.4966834892486711,-0.8071754066216235,1.9272398349677804,-0.9803434486129926,1.0961631400535503,-0.2521339174336188,0.2959610355796989,0.0329182322035104,0.1941906695868966,-0.220905655009998,10.49884248361832,-1.3655561782424597,0.2329437191077363,-1.3539694537192948
1.54,1.4753357464414132,-0.7780995463902486,1.9163818061451283,-0.0025437585632532,0.1457863686559094,0.0496728444199459,-0.7586622060570646,0.9127027277417404,-0.2712066606053787,1.4778766202883324,-0.7860521438324733,1.922214566105804,-1.020343449209039,1.136163140649597,-0.253004391768425,0.2832036068380146,0.0610208672714718,0.1652101848246989,-0.2217799168402923,10.50366936474893,-1.36452477470761,0.2322256007020678,-1.3550090989208208
1.56,1.460931166116294,-0.7607215511986213,1.91119095485451,-0.0029147323939256,0.1452696641346628,0.0496327325688202,-0.7577507620592924,0.9164231245351916,-0.274971210527189,1.4580697513130925,-0.7639288810284222,1.9171675353854576,-1.0603434498050854,1.1761631412456433,-0.2538748661032313,0.2685326729450129,0.0455721998886105,0.1860198396725521,-0.1882274960905122,10.531186512308524,-1.3648547675729996,0.2326235704815313,-1.354241857019831
1.58,1.4457840527902408,-0.7423473833957344,1.9056556500634223,-0.0039557027943504,0.1438777853303013,0.0495395943502383,-0.7570770590460378,0.9208260364317056,-0.2783278658090548,1.4372628823229512,-0.7408056182094698,1.912098742806741,-1.1003434504011318,1.2161631418416896,-0.2547453404380375,0.2788666509275181,0.0336851506627267,0.2201455948257102,-0.1678327640932897,10.531186512308524,-1.366334917812399,0.2338465761315493,-1.3523083548712775
1.6,1.430645772930937,-0.7238771508225517,1.9000613150479808,-0.0053949569058312,0.1416999316769566,0.0494166782062879,-0.7568692292997122,0.9259883435685724,-0.2808985161213073,1.407930199837939,-0.6963060815741491,1.8917392567729696,-0.857077060536154,1.0208260379218217,-0.2515143680422024,0.2885344485788786,0.0103914873162802,0.2581153568433358,-0.1285325156126282,10.565972977618912,-1.368769411151783,0.2354679361776467,-1.3494891996228522
1.62,1.4162313701479965,-0.7061852168779172,1.8947690319429404,-0.005450454457289,0.1401980083417632,0.0493831714112234,-0.7603850560189508,0.9354502925514852,-0.2760702652940794,1.407930199837939,-0.6963060815741491,1.8917392567729696,-0.857077060536154,1.0208260379218217,-0.2515143680422024,0.5594674300743178,-0.1757913359619278,0.473097449145643,0.2414125413613965,10.608715641758865,-1.3704595113867666,0.2355546012034919,-1.3480264821506225
1.64,1.4009987158592152,-0.6873963099987569,1.889308923091314,-0.0036944537042731,0.1401662100080294,0.0494547799691618,-0.7625263505967753,0.9428591265488846,-0.2702034988427657,1.407930199837939,-0.6963060815741491,1.8917392567729696,-0.857077060536154,1.0208260379218217,-0.2515143680422024,0.4844969356567212,-0.1070647288912263,0.3704416998699666,0.2933383225656866,11.090459543186626,-1.3701969226196804,0.233407490500041,-1.3518470637939752
1.66,1.3857397583036506,-0.6684764905727797,1.88396279470982,-0.0011375699374267,0.1406786566712683,0.0495672966175702,-0.7632131199193087,0.948580524080174,-0.2647325390233387,1.3993594292325775,-0.6860978211949309,1.889224113092548,-0.8770770608341771,1.0408260382198449,-0.2461516684888319,0.3972953660666103,-0.034338466126671,0.2860698765644653,0.2735479909713484,11.11064035894924,-1.3700227777265404,0.23032416391698,-1.3569247955227932
1.68,1.3704795174134086,-0.6494658824190722,1.8787199906803709,0.0012599793256858,0.1410232744994212,0.0496557691767492,-0.7628463298469438,0.952319776999712,-0.2598217464608767,1.3822178880218543,-0.6656813004364944,1.884193825731704,-0.9170770614302236,1.0808260388158917,-0.2354262693820909,0.3091618950687152,0.0183395036182476,0.1869626459769069,0.2455396281230981,11.083359209631451,-1.3703499614493198,0.2275300125650029,-1.3606442618364394
1.7,1.3559950720761744,-0.6313473401981331,1.873827033356096,0.0028614096918335,0.1407934219902734,0.0496796430651587,-0.7619675193916594,0.9548891327571252,-0.2554672513896093,1.365076346811131,-0.645264779678058,1.87916353837086,-0.95707706202627,1.1208260394119378,-0.22470087027535,0.2565907449137662,0.0439405227642186,0.1284677878706508,0.2177247535633697,11.040501543274331,-1.3716223453439316,0.2254272523667283,-1.3631612751522026
1.72,1.3407695640649362,-0.6122301563919073,1.868765899846193,0.0035271589343856,0.1396854405979271,0.0496188633965085,-0.7606815560044344,0.9567956507028552,-0.2508678483657367,1.345934805570606,-0.6228482588898192,1.8746695209653528,-0.9970770626223164,1.1608260400079842,-0.213975471168609,0.2571138886110711,0.0642981693612487,0.0953258972865023,0.2299701511936314,11.044625458797782,-1.3739374635339945,0.2245885758429512,-1.3641017276679694
1.74,1.3255743837177685,-0.5930815640682747,1.8638027049180828,0.0027522482427493,0.1372994448115406,0.049444309047074,-0.7590420671886227,0.9581858858189934,-0.2456684121192541,1.3267932643300806,-0.6004317381015805,1.8701755035598455,-1.037077063218363,1.2008260406040308,-0.2032500720618681,0.2813130575380065,0.0819744407905886,0.0695117558069169,0.2599718123241279,11.082043459803572,-1.378009012035649,0.2255344349326982,-1.3627408895136155
1.76,1.310404852102934,-0.573893505862199,1.858954578537005,0.0006958482139769,0.133483938335584,0.0491757933225971,-0.7581598804588071,0.9606305434134552,-0.2393896431603318,1.306651723074654,-0.5770152172984405,1.8659496211320072,-1.0770770638144094,1.2408260412000771,-0.1925246729551271,0.3397703041024488,0.0441093364907774,0.1222328797230831,0.313938447946116,11.082043459803572,-1.3839831969386125,0.2279405014534747,-1.3590973303973948
1.78,1.2990318722707064,-0.5594612551534914,1.8554088902396657,-0.0013479635026069,0.1297866389697335,0.0489440999829187,-0.7583723166020853,0.9636546602099886,-0.2336774142772445,1.2855101818043262,-0.5525986964803995,1.8619918736818373,-1.1170770644104555,1.2808260417961237,-0.1817992738483862,0.3233418095716345,-0.0106218071639074,0.1512058398266735,0.2856114441543655,11.142271918881306,-1.3904280887772875,0.230655873203697,-1.354415761335593
1.8,1.2838473294968118,-0.540134428700191,1.8508287093385232,-0.0040895605583047,0.1240420469646852,0.0486476599249198,-0.7603821314574449,0.9688714784789048,-0.2247062863376753,1.261113256440602,-0.511278522142992,1.8437250195258037,-0.8583723180922014,0.9886661996692172,-0.2261276543453821,0.528525508163612,-0.1004907427679835,0.2608409134458145,0.4485563969784584,11.217691394038413,-1.399235783457545,0.2339531984845531,-1.348619505426206
1.82,1.2692691508294724,-0.52138657467405,1.846551888282011,0.0027654919292422,0.1203343531148001,0.0490115172183858,-0.7737418434753996,0.9983243196339512,-0.2259324616982692,1.261113256440602,-0.511278522142992,1.8437250195258037,-0.8583723180922014,0.9886661996692172,-0.2261276543453821,1.6182206766399334,-0.6679856008977358,1.4726420577523158,-0.0613087680296955,11.293755687323028,-1.410960805676611,0.2261721669376882,-1.3467909236615545
1.84,1.2536633746475754,-0.5013335883872279,1.8420182669671752,0.0181753565655881,0.1205579162822142,0.0499285364262601,-0.785536655983967,1.0045014792933895,-0.2273320432103494,1.261113256440602,-0.511278522142992,1.8437250195258037,-0.8583723180922014,0.9886661996692172,-0.2261276543453821,0.6693910142424412,-0.5897406254283699,0.3088579829719273,-0.0699790756040097,10.695912060552471,-1.4062758880797737,0.2064352493330496,-1.3533159860913548
1.86,1.2378552834031762,-0.4812553911942738,1.8374365410937652,0.0343542957935445,0.1234388294393954,0.0509337732008223,-0.7943364834997119,1.002592115155808,-0.2307975554532099,1.25252953325968,-0.5013918601462998,1.8414637429823495,-0.8783723183902246,0.9936685075610628,-0.2246177023590097,0.4824220424642692,-0.4399913757872409,-0.0954682068790901,-0.1732756121430229,10.662672893708075,-1.4001850988537077,0.186721381601627,-1.3575502720782897
1.88,1.2227022316720424,-0.4622584083724169,1.8330016529830424,0.0491582682303731,0.1273960899867308,0.0519080147018712,-0.8000831295464534,0.9969046852448904,-0.2358764714791467,1.235362086897836,-0.4816185361529154,1.836941189895442,-0.918372318986271,1.0036731233447542,-0.2215977983862647,0.477404932359965,-0.2873323023370788,-0.284371495545882,-0.2539458012968412,10.530644031327938,-1.3920145180267438,0.1666446617546642,-1.361533264874006
1.9,1.2066610009646157,-0.4424359544803025,1.8282130022754068,0.0631045599208704,0.1318174052410542,0.0528583867531525,-0.8036006948373405,0.9857634477800082,-0.2427807495305037,1.218194640535992,-0.4618452121595311,1.8324186368085345,-0.9583723195823176,1.0136777391284455,-0.2185778944135198,0.6785453065842302,-0.1758782645443546,-0.5570618732441024,-0.3452139025678494,10.429931305856371,-1.3837305381825231,0.1486500079925974,-1.3646241840461817
1.92,1.1905717347560956,-0.422872825380658,1.823273013078178,0.0745500087632423,0.1357440829128156,0.0536200295972614,-0.8051033287146865,0.9714077038585588,-0.2508891634962044,1.1990271941443458,-0.4415716573769622,1.828047078920264,-0.998372320178364,1.023682354912137,-0.2155579904407749,0.8277857046765597,-0.0751316938672974,-0.7177871960724669,-0.4054206982850347,10.360894853851278,-1.37640138826457,0.1338460887975285,-1.3652318847720946
1.94,1.1744694427722433,-0.4036204005869944,1.818161706671466,0.0833078624937583,0.1386533680662029,0.0541171722425297,-0.8051445380872436,0.955112520141712,-0.2597800552317465,1.1798597477526993,-0.4212981025943932,1.8236755210319937,-1.0383723207744104,1.0336869706958285,-0.2125380864680299,0.9281468989757304,-0.0020604686278569,-0.8147591858423398,-0.4445445867771042,10.315840029523317,-1.3709109150163692,0.1229587083358115,-1.3637529403708666
1.96,1.1591761409951349,-0.3856406786222889,1.8131423010537648,0.0894764299757176,0.1403839872081287,0.0543379069648298,-0.8047613801804759,0.9387349308051358,-0.2680853589136001,1.1596923013461518,-0.4007744324172321,1.8193794607430416,-1.0783723213704568,1.0436915864795198,-0.209518182495285,0.918354930986471,0.0191578953383841,-0.8188794668288146,-0.415265184092678,10.28928965535215,-1.367113466084943,0.114327502991541,-1.3612423474981967
1.98,1.143087679514024,-0.3670543670909647,1.807694302697924,0.0941419951607702,0.1412580288014001,0.0543323940460151,-0.8041686587490893,0.9210172124943496,-0.2762093017546084,1.1385248549247031,-0.3800006468454786,1.8151588980534088,-1.1183723219665032,1.053696202263211,-0.20649827852254,0.9750221896443726,0.0296360715693333,-0.8858859155393084,-0.4061971420504157,10.30589558171414,-1.3645617156928251,0.1080321090630804,-1.3572174881503036
2.0,1.1270115953974666,-0.3488280247023506,1.8020936306842104,0.0972333640501069,0.1413102709599564,0.0541098147150568,-0.8035432051423841,0.9027631769057972,-0.2833686747920855,1.1028792465765695,-0.3210035064662472,1.7938838376101935,-0.8825468294777727,0.8724404663583996,-0.2479852358547594,0.980889430277482,0.0312726803352592,-0.9127017794276217,-0.357968651873855,10.34444584310404,-1.3632597633929415,0.1036894315778781,-1.351915818102946
2.02,1.110882435302534,-0.3308042691448747,1.796368211244732,0.1044135676652517,0.1424349040309942,0.0542514312977522,-0.8091039995325905,0.8978644484421573,-0.2891020230284252,1.1028792465765695,-0.3210035064662472,1.7938838376101935,-0.8825468294777727,0.8724404663583996,-0.2479852358547594,0.4684849432206078,-0.2780397195103201,-0.2449364231819961,-0.2866674118169848,10.399055783800575,-1.3621233259897108,0.0951645506946049,-1.3475944567079752
2.04,1.0954856579771517,-0.3138980596230344,1.7908215402454692,0.1150622911517819,0.1455098797021514,0.0548475552127555,-0.81106927357022,0.8815167664146034,-0.2945298922703828,1.1028792465765695,-0.3210035064662472,1.7938838376101935,-0.8825468294777727,0.8724404663583996,-0.2479852358547594,0.8668488539312641,-0.0982637018814736,-0.8173841013776939,-0.2713934620978825,10.391111007584186,-1.3554851805672352,0.0805162013000247,-1.3504590436423232
2.06,1.0792705983426285,-0.2965001912174556,1.784870236331893,0.1262326818971216,0.1494302267113567,0.0555497444400127,-0.8101550813456958,0.8589728871396484,-0.3003206600690857,1.0940537782817918,-0.3122791018026633,1.791403985251646,-0.8982224636235094,0.8627251171312096,-0.2423404226747896,1.1646836822562834,0.0457096112262078,-1.1271939637477524,-0.2895383899351428,10.484896670321175,-1.3485338520537864,0.0661257734492157,-1.3513721204751934
2.08,1.0631014453427667,-0.2795977285138323,1.7788048192637065,0.1360214092138638,0.1530865340822791,0.0561189588944459,-0.806741309273293,0.8325448965537486,-0.3059225481794609,1.0764028416922362,-0.2948302924754952,1.7864442805345508,-0.9295737319149828,0.8432944186768295,-0.2310507963148501,1.3615007129743686,0.1706886036201393,-1.3213995292949865,-0.2800944055187632,10.484896670321175,-1.342296481477164,0.0535566049577814,-1.350803122559776
2.1,1.0470213740385452,-0.2632505340100433,1.7726332077204832,0.1438384467644822,0.1558087043968845,0.0564077543710269,-0.8014527386700698,0.8037478703866547,-0.3108674805611431,1.0587519051026808,-0.2773814831483273,1.7814845758174556,-0.9609250002064562,0.8238637202224495,-0.2197611699549105,1.4846633047201108,0.2644285301611593,-1.4398513083546949,-0.2472466190841099,10.529331766782889,-1.337833391330095,0.0439501378390925,-1.348407262685046
2.12,1.0318577410427747,-0.2482717117261928,1.7666910666111366,0.1492997325348302,0.157118904924299,0.0563338707358919,-0.7951519725615744,0.7748461081647684,-0.3142943850521844,1.0395334050985516,-0.2609042087438782,1.7770893524183573,-0.9922762684979296,0.8044330217680694,-0.2084715435949709,1.4889217469994345,0.3150383054247696,-1.445088111094317,-0.1713452245520608,10.596226202266736,-1.3353415093129706,0.0364247621109287,-1.343603510528567
2.14,1.0160333049160213,-0.2331041609057447,1.760382241243186,0.1532377364311149,0.1569338091058705,0.0558571993158328,-0.7876801709129179,0.7437042144525776,-0.3162684552427953,1.0203149050944225,-0.2444269343394292,1.772694129019259,-1.023627536789403,0.7850023233136894,-0.1971819172350313,1.6043240920834183,0.3735900824328286,-1.5570946856095391,-0.0987035095305483,10.687397866327956,-1.3352928462617606,0.0311080893766554,-1.33725481010458
2.16,1.0003636424883202,-0.2185735656888451,1.754055679414389,0.1553289684455691,0.1548978031809641,0.0549244706446613,-0.77983236113413,0.7114153007324723,-0.3161858984952074,1.0003126233830064,-0.2284354273963398,1.7685811462791594,-1.0549788050808764,0.7655716248593094,-0.1858922908750918,1.66145183737373,0.3923904889393925,-1.614445686005267,0.0041278373793973,10.790888179095418,-1.3380308374876493,0.0280481993586091,-1.3297448315553002
2.18,0.9848497896103334,-0.2047003751271228,1.7477539035797662,0.1554432736384688,0.1509110349406326,0.0535117105967852,-0.7721524030533062,0.6778947126479297,-0.3138972459110963,0.9795265599643036,-0.2129296879146098,1.7647504041980582,-1.0863300733723498,0.7461409264049293,-0.1746026645151522,1.7232596382347245,0.3839979040411889,-1.6760294042271306,0.1144326292055547,11.040849731446542,-1.344031331075909,0.0270706483177099,-1.319664077204786
2.2,0.9702414058653474,-0.1921536812843224,1.7418326696762034,0.1532301454851474,0.1454638188668422,0.0517282328756706,-0.7663411708873581,0.6448740190668262,-0.3093927105381544,0.946242169457668,-0.1708056394947263,1.7320590412842114,-0.8122124724652993,0.6151540737958102,-0.2616272246215093,1.6914693780776555,0.2905616082974072,-1.6510346790551744,0.2252267686470938,11.040849731446542,-1.3529122638091855,0.0290331010259883,-1.3071422573924756
2.22,0.9548251537868347,-0.1795686647154397,1.7356194704950811,0.149585662188772,0.1423038108116683,0.0501509262734883,-0.7759235874773249,0.6156760674976619,-0.3126022665057321,0.946242169457668,-0.1708056394947263,1.7320590412842114,-0.8122124724652993,0.6151540737958102,-0.2616272246215093,1.5448659594346263,-0.4791208294983418,-1.4598975784582136,-0.1604777983788829,11.18207978794362,-1.3619293187412496,0.0331482079909257,-1.2969699338223877
2.24,0.939238013940908,-0.1675584273804535,1.7293672726929403,0.1459906118242941,0.1450242600877737,0.0494504455799585,-0.7815592694480893,0.5869537543071992,-0.3121698489188848,0.946242169457668,-0.1708056394947263,1.7320590412842114,-0.8122124724652993,0.6151540737958102,-0.2616272246215093,1.463659088770367,-0.281784098538218,-1.436115659523135,0.0216208793423627,10.874393757892904,-1.356475172046162,0.0365711724130908,-1.295055357154533
2.26,0.9235951487755536,-0.1561174586460926,1.7231672403886995,0.1423587797093498,0.150812015137479,0.0491690614642935,-0.782043329191713,0.5587747963830726,-0.3078808090197406,0.9381200447330152,-0.1646540987567682,1.7294427690379963,-0.8202244863476978,0.6026059460253863,-0.2511732203635919,1.425380516547727,-0.0242029871811877,-1.4089478962063309,0.2144519949572099,10.874393757892904,-1.348677330134611,0.0398256956313209,-1.2989750499259116
2.28,0.9087631115467472,-0.1457644405273105,1.7173814013583666,0.1389005271861892,0.1576285919298784,0.0490557380126092,-0.7789221034470389,0.5325877810849111,-0.3013852741406304,0.9218757952837092,-0.152351017280852,1.7242102245455662,-0.8362485141124951,0.5775096904845386,-0.230265211847757,1.3580259512810289,0.1560612872337052,-1.3093507649080738,0.3247767439555127,11.069791801988686,-1.339086566731006,0.0431760207070194,-1.3065053570913396
2.3000000000000003,0.8932533414578316,-0.1353951561088931,1.7114434764675712,0.1352943033482254,0.1650934326506248,0.0489406866562037,-0.7719637195920269,0.5058429872163678,-0.2926790237714233,0.9056315458344032,-0.1400479358049358,1.718977680053136,-0.8522725418772923,0.5524134349436908,-0.2093572033319222,1.448707959213902,0.3479191927506009,-1.3372396934271669,0.435312518460354,11.22313982648484,-1.329721321224612,0.0464930812536166,-1.3151833737844516
2.32,0.8779238423839671,-0.1255537952186635,1.705697095473118,0.1317091168840503,0.1717381113918817,0.0486777977969487,-0.7613221488249013,0.4797841125867154,-0.2824076398657639,0.8885860949968574,-0.128999667106062,1.7147905359864974,-0.8682965696420895,0.527317179402843,-0.1884491948160874,1.4981733066413894,0.5320785383562787,-1.3029437314826169,0.5135691952829674,11.456701201653232,-1.3220722548816648,0.0496353757828693,-1.3224041724241242
2.34,0.8635839351642913,-0.116679598817697,1.7004369934387196,0.1283027642181706,0.1765062137828975,0.0481933935274818,-0.7487846727250135,0.455768454062217,-0.2717938585951532,0.8715406441593114,-0.1179513984071882,1.710603391919859,-0.8843205974068867,0.5022209238619952,-0.1675411863002526,1.454813144514564,0.6268738049943934,-1.200782926224922,0.5306890635305372,11.456701201653232,-1.3167635084339795,0.0529755266305947,-1.3276768935557466
2.36,0.8487598657694801,-0.1078260661216644,1.6951285335178763,0.1246425200541026,0.1795565300028131,0.0474005695446882,-0.734375811132666,0.4310090093298458,-0.2595342605805754,0.8540945926276458,-0.1075305360968356,1.7069389480661166,-0.9003446251716839,0.4771246683211474,-0.1466331777844178,1.557998025770419,0.7204430796173722,-1.237972236618559,0.6129799007288911,11.52533455273806,-1.3145857547513409,0.0563776845770324,-1.3303567110518502
2.38,0.834232002001434,-0.0994615101929332,1.690079011375097,0.1208198933087629,0.1805311610279033,0.0463212569629583,-0.719247015273233,0.406863147477604,-0.2459428263622166,0.83624794040186,-0.0977370801750041,1.7037972044252698,-0.9163686529364812,0.4520284127802997,-0.125725169268583,1.5784725154844474,0.7564397929716526,-1.207293092612091,0.6795717109179394,11.606522464914631,-1.3152846558363904,0.0599092207892852,-1.3303503058280923
2.4,0.8200129387180829,-0.0915724354287031,1.685318096274344,0.1168147038782991,0.1792849932419815,0.0449556585084411,-0.7036060562872547,0.3834630937726907,-0.2307831371710909,0.7982696512377724,-0.079118352819053,1.6777818700569862,-0.7169128664173531,0.3653477412564526,-0.1980916028636337,1.598451037540258,0.7820479492989141,-1.1700026852456635,0.7579844595562809,11.782808919034323,-1.3187172445376358,0.0634050804264066,-1.32755992750795
2.42,0.8066573251671401,-0.0845198740170485,1.680909361523184,0.1118621842198711,0.179098113299789,0.0436954693229502,-0.7025969165363588,0.3610322122371011,-0.2339658789479024,0.7982696512377724,-0.079118352819053,1.6777818700569862,-0.7169128664173531,0.3653477412564526,-0.1980916028636337,1.1339010701096848,0.0504569875447946,-1.121544076779482,-0.1591370888405718,11.782808919034323,-1.3286836168761584,0.0694924528416249,-1.321761407876338
2.44,0.7926483588211983,-0.0775119999571004,1.6762270021559798,0.1058536983087411,0.1823263804075207,0.0426934800419138,-0.6978770043192377,0.341153997470218,-0.2338468885412286,0.7982696512377724,-0.079118352819053,1.6777818700569862,-0.7169128664173531,0.3653477412564526,-0.1980916028636337,1.0215614915076543,0.2359956108560545,-0.9939107383441532,0.0059495203336909,10.56073696335534,-1.3226766787835371,0.0754238466321133,-1.3228885870645573
2.46,0.7787751060402847,-0.0708782872885719,1.6715889360964469,0.1000728807290731,0.1872867003682006,0.0418719778325266,-0.6893771661460811,0.3232915723359476,-0.2298441567446717,0.7911005225735989,-0.0754648754064885,1.6758009540283498,-0.7164460366461771,0.3570446600122223,-0.1885213581639171,1.0091275222716296,0.4249919086578291,-0.8931212567135194,0.2001365898278415,11.04487454653554,-1.315729192052819,0.0811791313533554,-1.3275030729108537
2.48,0.7651045697330446,-0.0645870056073121,1.667064896831808,0.0948670728709476,0.1929516406425638,0.0411367045575914,-0.6778890716483407,0.3067328206790563,-0.2228167815727914,0.7767622652452517,-0.0681579205813595,1.671839121971077,-0.7155123771038251,0.3404384975237618,-0.169380868764484,1.067183879926484,0.5744047248870232,-0.8279375828445679,0.3513687585940186,11.04487454653554,-1.3090401558419116,0.0860642440529032,-1.3335770850345885
2.5,0.7523629771413968,-0.0589069550435616,1.662916972699935,0.0905043131685621,0.1981618247117876,0.0404414600190806,-0.6638511399330614,0.2919658581630755,-0.2141918416084762,0.7624240079169047,-0.0608509657562304,1.6678772899138046,-0.7145787175614732,0.3238323350353013,-0.1502403793650509,1.106250760654273,0.7018965857639614,-0.7383481257990376,0.4312469982157563,11.36418012775539,-1.3025388410679477,0.090491315122509,-1.340365458884084
2.52,0.7392650419284823,-0.0532225259699673,1.6587444416186004,0.0865051509940275,0.2026740706287234,0.0396464400431608,-0.6466289537374413,0.277240862211346,-0.2034532380344622,0.7481324335656752,-0.0543743190555244,1.6648724823265035,-0.7136450580191213,0.3072261725468407,-0.1310998899656177,1.253741211190417,0.8611093097810052,-0.7362497975864746,0.5369301787007036,11.36418012775539,-1.2979116875047405,0.0942119348989529,-1.3462006624750555
2.54,0.7265303583570232,-0.0478254582037597,1.6547958658250024,0.0830540603671885,0.2056833963776736,0.0387503774261978,-0.6277544838580997,0.2631903800457006,-0.1919169012184176,0.7338408592144458,-0.0478976723548183,1.6618676747392025,-0.7127113984767692,0.2906200100583802,-0.1119594005661846,1.3102945560507726,0.9437234939670802,-0.7025241082822681,0.5768168408022273,11.490080205804588,-1.2958660861188351,0.0972932372345003,-1.3501930796228458
2.56,0.7141842906717768,-0.0427060575178374,1.6510870157022437,0.0799881831528304,0.2069036315973436,0.0377312754832404,-0.6080093811317827,0.2494735001128745,-0.1795288058680711,0.7195726263517751,-0.0418361797163238,1.6593413793868874,-0.7117777389344173,0.2740138475699196,-0.0928189111667515,1.3523006167025642,0.987255136315851,-0.685843996641304,0.6194047675173231,11.547590097429747,-1.2965328077073397,0.0997827518311188,-1.3519400926375569
2.58,0.7028254178682767,-0.0380929446770465,1.6478028738582489,0.0772951673209838,0.2063322390151212,0.0366454464623406,-0.5887860080981662,0.2368372675621265,-0.1667723851993105,0.7053277349776632,-0.0361898411400408,1.657293596269558,-0.7108440793920653,0.2574076850814591,-0.0736784217673183,1.3152363971398306,0.9611686516808272,-0.6318116275374042,0.6378210334380324,11.607351299688162,-1.2998882774396412,0.102096169032783,-1.3516932465687326
2.6,0.6912648756236932,-0.033491566237604,1.6446199495085023,0.074649274587835,0.2036978457362719,0.0353710925753103,-0.5683959918590534,0.2240017226139373,-0.1521130806486742,0.6733861174633684,-0.0262510812989401,1.6394642545982834,-0.5779075559983065,0.210469599499678,-0.1341339434280417,1.4101411155063277,1.019500811955637,-0.6417772474094585,0.7329652275318149,11.675707234794572,-1.3059901549740975,0.1041243809532598,-1.3488624350578695
2.62,0.6800280536067311,-0.0291594912550787,1.6415621957536493,0.071279738913699,0.2001029712424987,0.0339939672918675,-0.5568051793413124,0.2104369190301794,-0.1552289452615761,0.6733861174633684,-0.0262510812989401,1.6394642545982834,-0.5779075559983065,0.210469599499678,-0.1341339434280417,0.9056205653767044,0.5795406258870539,-0.6782401791878945,-0.1557932306450973,11.754168671193838,-1.316706583776019,0.1074409208707326,-1.3408078265284802
2.64,0.6690037185962513,-0.0250684965803343,1.638444519875404,0.0673073898707227,0.197226545057234,0.0326539539205054,-0.5462625155909798,0.1994652544169249,-0.1562554471775306,0.6733861174633684,-0.0262510812989401,1.6394642545982834,-0.5779075559983065,0.210469599499678,-0.1341339434280417,0.7625268675951289,0.5271331875166263,-0.5485832306627275,-0.0513250957977204,10.504507344254309,-1.3206937222127393,0.1108289517801294,-1.334645166254661
