t,x,y,z,roll,pitch,yaw,v_x,v_y,v_z,ref_x,ref_y,ref_z,ref_v_x,ref_v_y,ref_v_z,a_com,a_x,a_y,a_z,thrust,wind_x,wind_y,wind_z
0.0,-1.5671096287810584,1.9820215259399512,2.168314630599109,0.0239692062455898,0.1500553108449985,0.0289075820000473,0.0012489952847412,0.0033337540647519,-0.0034628098515687,-1.5670737382637074,1.9822001473758224,2.1682095323075155,-0.0016805036595772,-0.0948370338096154,-0.103408303792826,0.2483191366652891,0.0624497642370608,0.166687703237598,-0.173140492578439,10.660453470108225,-1.41305007503868,0.1670677659120122,-1.280806802615474
0.02,-1.5671461524887444,1.9823012261619832,2.168033477842943,0.0322798139018626,0.1508246983459783,0.0294941938202964,-0.004851844509988,0.0208316323623883,-0.0258681174873647,-1.5670737382637074,1.9822001473758224,2.1682095323075155,-0.0016805036595772,-0.0948370338096154,-0.103408303792826,1.4537828254028384,-0.3050419897364622,0.8748939148818176,-1.1202653817898,10.660453470108225,-1.407679040904341,0.1569519492446361,-1.2781949772272287
0.04,-1.56730743752631,1.982727101850125,2.1672209449950346,0.0467750162649791,0.152992608016107,0.030554226882234,-0.010756503466827,0.0201771518492346,-0.0543264097996585,-1.5670737382637074,1.9822001473758224,2.1682095323075155,-0.0016805036595772,-0.0948370338096154,-0.103408303792826,1.453588441986448,-0.2952329478419525,-0.0327240256576847,-1.422914615614688,9.24902603766759,-1.4021038987322971,0.1397900660081646,-1.2780870676099805
0.06,-1.56757195804478,1.9830652448594344,2.16583415218358,0.0616561518515573,0.1561957450078704,0.0317016679630584,-0.0151877769526843,0.0133308785485149,-0.0829407439736497,-1.5670905433003033,1.9812517770377265,2.167175449269587,-0.0022525981205265,-0.1148370341076387,-0.1234083040908493,1.4876892846251957,-0.2215636742928661,-0.3423136650359837,-1.4307167086995605,9.053150077841565,-1.396358040436285,0.1231620318500255,-1.2784503171414556
0.08,-1.5678894312195917,1.9832268074770367,2.163992887343217,0.0752794720744895,0.1597716832144893,0.0328090973049607,-0.0178636974367736,0.0037524816747464,-0.1094714840957553,-1.5671241533734948,1.9793550363615344,2.1651072831937306,-0.0033967870424252,-0.1548370347036851,-0.1634083046868957,1.416674282020476,-0.1337960242044611,-0.4789198436884261,-1.3265370061052817,9.076474995892568,-1.3896961000355392,0.1063850762425858,-1.2780664431106732
0.1,-1.5682627626798562,1.9831725144327703,2.161513778959715,0.088951061850073,0.1637214458204953,0.0339656954602764,-0.0191889086225962,-0.008972896728679,-0.1370448843187336,-1.5671577634466862,1.977458295685342,2.163039117117874,-0.0045409759643238,-0.1948370352997316,-0.2034083052829422,1.5198551247190737,-0.0662605592911331,-0.6362689201712743,-1.3786700111489107,9.124627963781675,-1.3830426526447686,0.0905548815337106,-1.2765218968476664
0.12,-1.5686472221886236,1.9828369415180136,2.158488492417973,0.1019393181368673,0.1675567262786894,0.0350847767754149,-0.0190853776222868,-0.0242263932655435,-0.1641015329861969,-1.5672485829659726,1.9735615549793477,2.1589709510122157,-0.0056851648862224,-0.234837035895778,-0.2434083058789886,1.5530149004297296,0.0051765500154711,-0.7626748268432243,-1.3528324333731647,9.155519227002516,-1.3775563917640254,0.0756740761065019,-1.27487861768994
0.14,-1.5690176454927465,1.982171647087467,2.154919382051504,0.1142679170988382,0.1710472122876511,0.0361353634754139,-0.017909688630037,-0.0418013281232879,-0.1914882239790432,-1.5673394024852592,1.9696648142733528,2.1549027849065565,-0.006829353808121,-0.2748370364918245,-0.2834083064750351,1.6281058191945832,0.0587844496124916,-0.8787467428872193,-1.3693345496423162,9.18808525778968,-1.372965547238179,0.0622294425617298,-1.2740229659668745
0.16,-1.5693387552879288,1.981193030207027,2.1510192876784653,0.1253931489721489,0.1739134295350426,0.0370440469367298,-0.0159261184379578,-0.0605488422192445,-0.2176996340768165,-1.567458826727593,1.9647680735524569,2.1498346187859965,-0.0079735427300196,-0.314837037087871,-0.3234083070710815,1.614343407394046,0.0991785096039581,-0.9373757047978284,-1.310570504888665,9.18808525778968,-1.3673368799061834,0.0487599878396542,-1.2716273702591512
0.18,-1.5696290602050738,1.979756830026342,2.146372807185666,0.1365116061893266,0.1763912451492342,0.0378846895509821,-0.013178767340504,-0.0823228313072699,-0.245596363115773,-1.5676068556929743,1.95887133281666,2.143766452650535,-0.0091177316519182,-0.3548370376839174,-0.3634083076671279,1.7747408472303012,0.1373675548726927,-1.0886994544012696,-1.3948364519478271,9.191806438510866,-1.3618491414684144,0.0360184341923742,-1.267971206585869
0.2,-1.5698577234627251,1.977841215246602,2.141165539449604,0.1463175590382052,0.1783094226635823,0.0385400433606546,-0.0098150477826309,-0.1079844727701706,-0.2736907614756482,-1.570287998572099,1.9756406884609783,2.134092989029877,0.000477768776692,-0.182322832797386,-0.3455963646058891,1.90992779381698,0.1681859778936538,-1.2830820731450372,-1.4047199179937562,9.187757041379882,-1.3575217459225415,0.0253861869689868,-1.2634924593443515
0.22,-1.570021631152691,1.9752309452254848,2.135557727696668,0.1499160950458027,0.1810482993066321,0.0388593991024223,-0.0063716294151786,-0.1488369181963698,-0.2852971934532656,-1.570287998572099,1.9756406884609783,2.134092989029877,0.000477768776692,-0.182322832797386,-0.3455963646058891,2.130427592412468,0.1721709183726144,-2.04262227130996,-0.580321598880873,9.20708840325824,-1.35407051103094,0.0218467381633399,-1.2529258604884774
0.24,-1.570098510441222,1.972073686500577,2.130019253724988,0.1476766889455698,0.1851067341155101,0.0389589596111396,-0.0016649517205715,-0.1807948261548772,-0.2970760690185722,-1.570287998572099,1.9756406884609783,2.134092989029877,0.000477768776692,-0.182322832797386,-0.3455963646058891,1.719158664571363,0.235333884730353,-1.5978953979253685,-0.5889437782653301,10.266585623777246,-1.3476707750052352,0.0244618829110606,-1.2530976679880237
0.26,-1.570064609353917,1.9681578195619451,2.12392581878525,0.1426671958161564,0.1900537029588338,0.0389407414018379,0.004970901803359,-0.2085450125754408,-0.311711152534126,-1.570283220884332,1.9738174601330047,2.1306370253838183,0.0032090760001312,-0.2023228330954092,-0.3655963649039124,1.6033504513005958,0.3317926761965316,-1.3875093210281797,-0.7317541757776908,9.916030620002855,-1.340625198590258,0.0301899891540775,-1.2546257076536258
0.28,-1.5698818662862295,1.9637310671089303,2.1175131373721543,0.1371000831760284,0.1949386831415116,0.0388320817283304,0.013064195270527,-0.2325752804446846,-0.3287926215203976,-1.5702736655087983,1.970171003477057,2.1237250980917004,0.0086716904470097,-0.2423228336914557,-0.4055963654999588,1.528669156277999,0.4046646733584017,-1.201513393462193,-0.8540734493135776,9.771487762450306,-1.3342216214420908,0.0362203168431492,-1.2558707627976895
0.3,-1.5695474805507774,1.9591044754273748,2.1110851487992224,0.1320837502084144,0.1990738926477522,0.0386416142109923,0.0217580507713072,-0.2532390787524812,-0.3469766523396593,-1.5702641101332644,1.9665245468211088,2.1168131707995825,0.0141343048938881,-0.2823228342875021,-0.4455963660960053,1.4432902175321476,0.4346927750390061,-1.033189915389826,-0.9092015409630838,9.771487762450306,-1.327915682926306,0.0422499513523827,-1.2555710669405975
0.32,-1.5690104676777663,1.953827927896424,2.10392741000903,0.1274333516365323,0.2026638379486502,0.0383518321730736,0.0315026982801921,-0.2733608674023667,-0.3679282096813898,-1.5699814240353869,1.960878090135359,2.1079012434776625,0.0195969193407665,-0.3223228348835485,-0.4855963666920517,1.5320021936887844,0.4872323754442463,-1.0060894324942753,-1.0475778670865243,9.65131573670351,-1.321503705093375,0.0474170061694075,-1.2536082486867832
0.34,-1.5682721617924706,1.948159447046884,2.0963409429637827,0.1235183538870872,0.205377622156215,0.0379753135843498,0.0418363991918432,-0.2925385048437242,-0.3896943166255664,-1.569698737937509,1.9552316334496087,2.0989893161557425,0.025059533787645,-0.3623228354795951,-0.5255963672880982,1.5397488138239883,0.5166850455825555,-0.9588818720678766,-1.0883053472088315,9.541777663234823,-1.3158938533953026,0.0516605431357355,-1.2501311960410997
0.36,-1.567321238006241,1.942106063054168,2.0883127405551587,0.1200055104021273,0.2071404138953324,0.0374887889540877,0.0526686542028394,-0.311751722600621,-0.4120024754357363,-1.5692794864784592,1.948585176748958,2.089077388818921,0.0305221482345234,-0.4023228360756415,-0.5655963678841446,1.5685498355941296,0.5416127505498084,-0.9606608878448386,-1.1154079405084976,9.499953263586576,-1.3116318828284106,0.0551338887890055,-1.2462133105071684
0.38,-1.5662155898717085,1.936002944087991,2.0802688343286286,0.1167363824091756,0.2079377596728751,0.0369114442378075,0.063093460694533,-0.329603114255045,-0.4335708327583485,-1.5687236696582374,1.9409387200334052,2.078165461467199,0.0359847626814018,-0.4423228366716879,-0.605596368480191,1.4937727504416265,0.5212403245846833,-0.8925695827212005,-1.07841786613061,9.445943706408798,-1.3083474870221092,0.0586413034413198,-1.2407211389304036
0.4,-1.56483991982602,1.929220234148844,2.071353390753532,0.1133279574434925,0.2079339013311854,0.036197065785185,0.0738696315920761,-0.3476258310753519,-0.4568399768078957,-1.5630609168369816,1.9195227883752384,2.058590292690712,0.0719271829059536,-0.4296031157451611,-0.5335708342484646,1.5671608449650296,0.5388085448771528,-0.9011358410153436,-1.1634572024773582,9.445943706408798,-1.306179456553526,0.062035745075414,-1.234126604090822
0.42,-1.5632057619666924,1.922071410331292,2.062187355774144,0.1103082298939316,0.2071779409593258,0.035418268860465,0.0891636554907471,-0.3665506602532733,-0.4574696990797685,-1.5630609168369816,1.9195227883752384,2.058590292690712,0.0719271829059536,-0.4296031157451611,-0.5335708342484646,1.2170177449058817,0.7647011949335508,-0.9462414588960716,-0.0314861135936372,9.401303612005904,-1.304510346915769,0.0652373725341917,-1.2200815125705322
0.44,-1.5612676471748088,1.9145570471686888,2.0530089537028515,0.1081274021673547,0.2057252472944855,0.0346173528789387,0.1037784492673861,-0.3841939682871876,-0.4604734016816061,-1.5630609168369816,1.9195227883752384,2.058590292690712,0.0719271829059536,-0.4296031157451611,-0.5335708342484646,1.1553146160608754,0.7307396888319474,-0.8821654016957142,-0.1501851300918816,10.80513876879013,-1.3064164848404678,0.0670111356948648,-1.2169803755360102
0.46,-1.559164544655328,1.907091695855252,2.044187990351128,0.1066445636950497,0.2035207426749926,0.0338049190023674,0.1167929393611734,-0.4007780267228797,-0.4678636916680677,-1.562341645007922,1.915226757217787,2.0532545843482266,0.0736939273482377,-0.4496031160431843,-0.5535708345464878,1.1169426268655591,0.6507245046893672,-0.8292029217846053,-0.3695144993230814,10.49043913749847,-1.3087096391131412,0.0680239580066911,-1.2118799758166965
0.48,-1.5566945438743955,1.89889971841616,2.0347142316199,0.1055717150779837,0.200095032617849,0.0328624362969736,0.1293937145216793,-0.4175451773557717,-0.4792579012986798,-1.560903101349803,1.906634694902884,2.042583167663257,0.0772274162328059,-0.4896031166392308,-0.5935708351425343,1.1934664721914543,0.6300387580252961,-0.8383575316445985,-0.5697104815306053,10.212526845118193,-1.3119991418039836,0.0684904732691601,-1.2040917268350912
0.5,-1.5539866574106596,1.8903779549919124,2.0249772269467714,0.1050551737586006,0.1954029451979663,0.0318209062450975,0.1405843708361269,-0.4338326061758399,-0.4938084921687079,-1.559464557691684,1.8980426325879804,2.031911750978288,0.0807609051173741,-0.5296031172352773,-0.6335708357385808,1.2270195811231173,0.5595328157223772,-0.8143714410034142,-0.727529543501404,9.988403402254336,-1.316449239782392,0.0683860060031999,-1.1942356598082136
0.52,-1.551228678122622,1.881983286893202,2.0154359926154823,0.105107002872619,0.1900006113632488,0.0307644995221734,0.1489408688172051,-0.4490475159010724,-0.5097510988649199,-1.5578493395893365,1.887450570243275,2.0192403342635163,0.0842943940019423,-0.5696031178313238,-0.6735708363346272,1.178443088066665,0.4178248990539118,-0.7607454862616214,-0.7971303348105974,9.81063118655402,-1.3224344973507969,0.067706620740069,-1.181598142911069
0.54,-1.54817921252781,1.8728363575434213,2.005054865968089,0.1058254002026145,0.1839481782898932,0.0296514052143817,0.1553643805242723,-0.464903952541893,-0.5275425668090136,-1.5562341214869888,1.8768585078985691,2.0065689175487447,0.0878278828865105,-0.6096031184273702,-0.7135708369306737,1.234123593082253,0.3211755853533574,-0.7928218320410296,-0.8895733972046849,9.66738690166585,-1.328294984768866,0.0662491525058657,-1.16852909311065
0.56,-1.5450224422539478,1.8633589217223403,1.9943090244617756,0.1069118492382509,0.178006248019948,0.0285625971791723,0.1598413885900345,-0.4820267368768913,-0.5461499681340428,-1.554530566162527,1.8652664455389627,1.992897500819072,0.0913613717710788,-0.6496031190234166,-0.75357083752672,1.2840061610779598,0.2238504032881116,-0.8561392167499154,-0.9303700662514623,9.589241228559333,-1.3337050916770143,0.0643983157379394,-1.1555895385886523
0.58,-1.5417947473516944,1.8535260052282263,1.983181646630945,0.1076848316861409,0.1724970346027544,0.0274861363122225,0.1626159740794187,-0.5002667201903263,-0.5656046717590736,-1.5527386736159512,1.852674383164455,1.978226084074498,0.094894860655647,-0.6896031196194631,-0.7935708381227665,1.3405976363641632,0.1387292744692098,-0.911999165671748,-0.9727351812515384,9.535050603522905,-1.338038155533548,0.0629583975861833,-1.1435341924269875
0.6,-1.5386924563304103,1.843838449179016,1.972242354325349,0.1076531162233163,0.1679051515387355,0.0264733530768245,0.1637155431205604,-0.5183925833193136,-0.5848783083281416,-1.5336639486477237,1.82851266921871,1.954901413042992,0.1847824404198413,-0.6002667216804424,-0.6619677319354461,1.3240364731036824,0.0549784520570875,-0.906293156449367,-0.9636818284534,9.481344178715515,-1.3416860978897494,0.0623050110198206,-1.131281415834427
0.62,-1.535433160105972,1.8332141309059191,1.9606040145111232,0.1057694117365975,0.1659965535743371,0.0255950646737807,0.1622638730860681,-0.5429085146748497,-0.5764765976226438,-1.5336639486477237,1.82851266921871,1.954901413042992,0.1847824404198413,-0.6002667216804424,-0.6619677319354461,1.2978125624462078,-0.0725835017246184,-1.2257965677768046,0.4200855352748889,9.426570225603427,-1.3451678254219153,0.0645543022717453,-1.1132573479546852
0.64,-1.5321854400385229,1.822126439108444,1.9491376841981995,0.1019437532923526,0.1686078856475432,0.0250634240747323,0.1630541869881135,-0.5640343070351231,-0.5710282384941382,-1.5336639486477237,1.82851266921871,1.954901413042992,0.1847824404198413,-0.6002667216804424,-0.6619677319354461,1.0915680419771423,0.0395156951022698,-1.0562896180136727,0.2724179564252804,10.816905948610838,-1.3395943622574322,0.0673473488285666,-1.1178320200986736
0.66,-1.529062044942802,1.811235099165451,1.9382792570610672,0.097843399056926,0.1733589307155512,0.0247502120797913,0.1659903882063922,-0.5811889741197942,-0.5722118533520605,-1.531816124243525,1.8225100020019056,1.9482817357236373,0.1892157336879258,-0.6202667219784656,-0.6812403439707206,0.8722167513181753,0.1468100609139377,-0.857733354233553,-0.0591807428961144,10.43346209856736,-1.3329698375394283,0.0706903405927546,-1.1244849199346176
0.68,-1.525694103695078,1.7994424638888429,1.9267754837236144,0.0936456726199213,0.1795229695612907,0.0245264971141176,0.1708897732531926,-0.5970820105215919,-0.5783340775774594,-1.5281204754351283,1.810504667568297,1.9350423810849284,0.1980823202240949,-0.660266722574512,-0.7197855680412696,0.8861069480764434,0.2449692523400173,-0.7946518200898867,-0.3061112112699438,10.43346209856736,-1.324920211827271,0.0742473276011426,-1.131765874604552
0.7000000000000001,-1.5222129544021166,1.7873485144198955,1.9151009583309144,0.089828028196101,0.1861753803042769,0.024356393589368,0.1772164012236833,-0.6115130437179955,-0.5888170809182741,-1.5244248266267315,1.798499333134688,1.92180302644622,0.2069489067602639,-0.7002667231705585,-0.7583307921118186,0.9462746689469066,0.3163313985245344,-0.7215516598201799,-0.5241501670407378,10.147026565148735,-1.316808712672233,0.0773569078824859,-1.1385107780441726
0.72,-1.518591506316712,1.774978488147596,1.903182485807844,0.0864639067384377,0.1929142894188462,0.024208334305265,0.1848135822920487,-0.6248010947403472,-0.6025276515686949,-1.5202858484915265,1.784493998671277,1.9066364106039837,0.215815493296433,-0.740266723766605,-0.7968760161823676,1.027459497642524,0.3798590534182716,-0.6644025511175822,-0.6855285325210403,9.927371486281118,-1.3080955916062706,0.0802363264624161,-1.145121456096174
0.74,-1.5149934160791123,1.7629893324445276,1.8915913557052533,0.0837326147339476,0.1990726455741888,0.0240658274013516,0.1936698745824809,-0.6366182694722891,-0.6169242556326199,-1.516146870356321,1.770488664207866,1.891469794761747,0.224682079832602,-0.7802667243626514,-0.8354212402529166,1.0311907441790715,0.4428146145216097,-0.5908587365970941,-0.7198302031962478,9.760750673061011,-1.299351688279449,0.0826318760725217,-1.1506598541468778
0.76,-1.511005170391092,1.750125628412234,1.879081968552168,0.0811138316163635,0.2048701835630124,0.0238660140944591,0.2047765370422173,-0.6490483481245427,-0.6333085430841399,-1.5117862275577114,1.7554833297295536,1.8753395483177464,0.2335486663687711,-0.8202667249586978,-0.8739664643234657,1.16866342630135,0.5553331229868188,-0.6215039326126826,-0.8192143725759993,9.643177559209107,-1.2913604443748716,0.08475553928275,-1.1550767314979995
0.78,-1.5067782436177837,1.7370159712819375,1.866232619137296,0.0784709794136253,0.2095368920034292,0.0235650943356349,0.2173297959349098,-0.6611534692914595,-0.6507901269647812,-1.5072039200956977,1.73947799523634,1.8582456712719828,0.2424152529049402,-0.8602667255547443,-0.9125116883940146,1.2346295418754156,0.6276629446346257,-0.6052560583458377,-0.874079194032068,9.59801550501652,-1.2844221809810386,0.0868911410195888,-1.15770179764935
0.8,-1.5025212583710763,1.724342747846215,1.853692470641336,0.0758590704372221,0.212724442290309,0.0231704077057265,0.2300709423195295,-0.6721343116521,-0.6683287513454069,-1.4959117538210382,1.7039582978173646,1.833693112789057,0.261662378438467,-0.7611534707815756,-0.6773697882595991,1.2150298919247058,0.6370573192309866,-0.5490421180320282,-0.876931219031285,9.59801550501652,-1.2792267368112311,0.0890109183748314,-1.1585039673221953
0.8200000000000001,-1.4976714497953103,1.7107337043257902,1.8405709001181505,0.0724187150323149,0.2145796916104021,0.0225929753604773,0.2546545017741733,-0.687897396911373,-0.640552740236907,-1.4959117538210382,1.7039582978173646,1.833693112789057,0.261662378438467,-0.7611534707815756,-0.6773697882595991,2.015150766971683,1.2291779727321883,-0.7881542629636473,1.388800555424996,9.550413184187164,-1.2745000490178169,0.0921907814652728,-1.148085486948311
0.84,-1.4923143524832008,1.6968307443723432,1.8280519117281675,0.068387114813712,0.2146761908011439,0.0218536643071748,0.2795920810008899,-0.7013791312611799,-0.6132555480828443,-1.4959117538210382,1.7039582978173646,1.833693112789057,0.261662378438467,-0.7611534707815756,-0.6773697882595991,1.9677250305005485,1.2468789613358315,-0.6740867174903464,1.364859607703134,12.724397765122376,-1.2769668197018282,0.0957203875142677,-1.1533171430380782
0.86,-1.4864673422946304,1.682683257282906,1.8160055463445064,0.0644536351452495,0.2126079944001971,0.0209899902823023,0.3036850538097479,-0.7126670570529275,-0.5926873443089471,-1.4932951300366537,1.6963467631095488,1.826919414906461,0.2705288949391785,-0.7811534710795988,-0.6826857205185627,1.68147228191021,1.2046486404428984,-0.5643962895873822,1.0284101886948616,12.287691589381213,-1.2807415016841457,0.098958697320227,-1.154965035734809
0.88,-1.480476506289071,1.6690495403257832,1.80489189550772,0.0611131259900624,0.2081219882944862,0.0200594530315378,0.3254253310048651,-0.7219553756106717,-0.5781357014142768,-1.4880618824678842,1.6811236936939171,1.813372019141269,0.2882619279406013,-0.8211534716756452,-0.6933175850364899,1.3880407280449965,1.0870138597558587,-0.4644159278872073,0.7275821447335129,11.856929813002353,-1.2882124661236936,0.1020036310149081,-1.1519299926476632
0.9,-1.4737582664805602,1.6545190767422118,1.7934540880491023,0.0581701416917412,0.2009012590689115,0.0190011393525452,0.3447309107445746,-0.7306662722628479,-0.5665181762252198,-1.4828286348991149,1.665900624278286,1.799824623376077,0.3059949609420242,-0.8611534722716917,-0.7039494495544171,1.2078410709707956,0.9652789869854768,-0.4355448326088085,0.5808762594528505,11.512232508822308,-1.2989142769502082,0.1044739430783556,-1.1440586113778637
0.92,-1.4666989269409074,1.6398225442069485,1.782208488528264,0.0558790042193522,0.1920817699725658,0.0179323240613741,0.3598138956312686,-0.7386892979024827,-0.5585373010032781,-1.4767087356802744,1.648677554832852,1.785745634384989,0.3237279939434471,-0.9011534728677382,-0.7145813140723443,0.9428145931394482,0.7541492443347009,-0.4011512819817431,0.3990437610970843,11.239329666226697,-1.3101708481964571,0.1061565190287543,-1.133952596060504
0.94,-1.4597493653250069,1.6257170847434488,1.7716625677573945,0.0543022261373435,0.1830497325376061,0.0169539334236939,0.3706707733726376,-0.745797912548602,-0.5519060687098639,-1.470588836461434,1.6314544853874182,1.7716666453939005,0.34146102694487,-0.9411534734637846,-0.7252131785902715,0.72865876479885,0.5428438870684504,-0.3554307323059613,0.3315616146707112,10.996743874876302,-1.3222218452835763,0.1072726712081809,-1.1213945001629824
0.96,-1.4522446913885307,1.6107196541830393,1.7606901002511754,0.0531150355874229,0.1735183506521162,0.0159834831185791,0.3789239768465784,-0.7535500490284051,-0.5456955405837132,-1.464025611417558,1.6132314159270833,1.757321859789864,0.3591940599462929,-0.9811534740598312,-0.7358450431081985,0.6457198448039821,0.4126601736970381,-0.3876068239901553,0.3105264063075375,10.912635716907973,-1.333806864607687,0.1078755054530619,-1.1086346921431331
0.98,-1.4446071824479243,1.5955658490856215,1.7498308771918696,0.0521554715580476,0.164434546911331,0.0150772566137832,0.384173081302778,-0.7613989560413361,-0.5405603424936465,-1.4570190605486464,1.594008346451847,1.742711277572879,0.3769270929477157,-1.0211534746558777,-0.7464769076261257,0.5374213856787735,0.2624552228099791,-0.392445350646553,0.2567599045033342,10.83954394362263,-1.34447802148177,0.1082496718735383,-1.0963252903187228
1.0,-1.4368943034174246,1.5802544868714692,1.7390602567338251,0.0512389211315003,0.1561763369782026,0.0142399177539613,0.3867159724127733,-0.7692697295544256,-0.5367226766313649,-1.4253985283827857,1.557495901283555,1.7228028600671872,0.4059545798690478,-0.8613989575314522,-0.5792393350332907,0.4559140548452266,0.1271445554997669,-0.3935386756544756,0.1918832931140812,10.75326564453917,-1.3534355970782288,0.1085733265863568,-1.0853858040401374
1.02,-1.4295140219381584,1.565521128709394,1.729041459101136,0.0491786832697907,0.1492230803629514,0.0134316803081665,0.3899048884074614,-0.7805117255086049,-0.5180240647877318,-1.4253985283827857,1.557495901283555,1.7228028600671872,0.4059545798690478,-0.8613989575314522,-0.5792393350332907,1.1024855363380248,0.1594457997344062,-0.5620997977089648,0.9349305921816542,10.66364016166608,-1.3607974166958805,0.1100671312467269,-1.0729128984213214
1.04,-1.4217051848432358,1.5498284010421035,1.7188541688278294,0.0461227889128827,0.1429547177200109,0.0126090929015496,0.3905989463881668,-0.7880870912364213,-0.5019608463829073,-1.4253985283827857,1.557495901283555,1.7228028600671872,0.4059545798690478,-0.8613989575314522,-0.5792393350332907,0.8886715758814502,0.0347028990352688,-0.3787682863908181,0.8031609202412249,11.687976134469864,-1.3693862067323497,0.1125789483063196,-1.066846068206848
1.06,-1.4143004009609963,1.5347990770533078,1.7094265161754174,0.0435729737798471,0.1383294085748153,0.0119483014460926,0.3886627365831213,-0.7936242081239767,-0.491426569171785,-1.421338982584095,1.5488819117082404,1.7170104667168542,0.4103108795823018,-0.8813989578294754,-0.5869751335412196,0.6028672494761507,-0.0968104902522748,-0.2768558443777713,0.5267138605561134,11.348199297125577,-1.3758136688149885,0.1146481915589128,-1.062187504077857
1.08,-1.4065708240406152,1.5188767062361697,1.699675741455317,0.0415966638161577,0.1353499129670937,0.0114126534167934,0.384286281618123,-0.798449280450845,-0.4843601535245784,-1.413219890986714,1.5316539325576115,1.7054256800161884,0.4190234790088098,-0.921398958425522,-0.6024467305570773,0.4805437314107185,-0.2188227482499166,-0.241253616343412,0.3533207823603307,11.035760445551205,-1.3800258654164623,0.1161621652212163,-1.058918583958214
1.1,-1.3989439146796367,1.5028665321111565,1.6900286048838538,0.0405225407545544,0.1346987346993427,0.0110576839877076,0.378941739084957,-0.8024727439612372,-0.4807091147133203,-1.405100799389333,1.5144259534069824,1.693840893315523,0.4277360784353177,-0.9613989590215684,-0.617918327572935,0.3810593061112388,-0.2672271266583009,-0.2011731755196144,0.1825519405629028,10.801874192648029,-1.3805807319356849,0.1167617937889725,-1.0592170543393775
1.12,-1.391789659401884,1.4875895157863512,1.680908262430333,0.040579054558548,0.1358014381605529,0.0108799828538409,0.3746069948195811,-0.8055937050136001,-0.4795193100705451,-1.396546077820627,1.495197974226551,1.6814825267640638,0.4364486778618257,-1.0013989596176147,-0.6333899245887926,0.2736148790935162,-0.2167372132687917,-0.1560480526181407,0.0594902321387619,10.606762786052968,-1.3789788071742584,0.1163470225474805,-1.061621485808399
1.14,-1.3843354537098445,1.4714483100853442,1.6713213300953498,0.0420778151034675,0.1381663679497705,0.0108565105363849,0.3712149220888872,-0.8085157139836691,-0.4792902264062582,-1.3879913562519202,1.4759699950461196,1.6691241602126052,0.4451612772883336,-1.0413989602136613,-0.6488615216046504,0.2241471233181707,-0.1696036365346986,-0.14610044850345,0.0114541832143461,10.468109080171416,-1.3758953414754302,0.1145417715181871,-1.0654217155129062
1.16,-1.3769340475167429,1.4552350776310117,1.6617315589642114,0.0448992292068367,0.1412119371092559,0.0109704042460642,0.3692402944656708,-0.8129638038714978,-0.4797400666522655,-1.3792188196975512,1.455742015850787,1.65637900373575,0.4538738767148416,-1.0813989608097077,-0.664333118620508,0.2443717155661707,-0.0987313811608187,-0.2224044943914371,-0.0224920123003652,10.412179558310529,-1.3719354768357823,0.11147068242926,-1.070169806714594
1.18,-1.3695574487631228,1.438906039792999,1.652127034294791,0.0479995217198618,0.1444455600195832,0.0111302015055529,0.368614603008541,-0.8197356290412839,-0.4807002515591124,-1.3702284681575194,1.434514036640553,1.6432470573334983,0.4625864761413495,-1.121398961405754,-0.6798047156363658,0.3434059586881499,-0.0312845728564881,-0.3385912584893069,-0.048009245342348,10.382379517809568,-1.3678241436440306,0.1082937194657392,-1.0744360995886748
1.2,-1.3625499327970938,1.4232544665989084,1.64298077554337,0.0505536886541445,0.1473639715116769,0.0112631399010922,0.3690952354220054,-0.8273502024889241,-0.4820176919909704,-1.3511267186126958,1.3979192583409348,1.628092021716835,0.4024235719697799,-0.9197356305314,-0.4828075693513641,0.3871317140130512,0.0240316206732177,-0.380728672382008,-0.065872021592897,10.36632563682997,-1.3636229195385132,0.1053422438727097,-1.0782984552768844
1.22,-1.3551048836023063,1.4065393233407886,1.6335934573911337,0.0505935807718356,0.1498249568718274,0.0112008077131374,0.3756076085765046,-0.8431891169817506,-0.4551983763886963,-1.3511267186126958,1.3979192583409348,1.628092021716835,0.4024235719697799,-0.9197356305314,-0.4828075693513641,1.5910357521037146,0.3256186577249631,-0.7919457246413242,1.3409657801137036,12.329321417129904,-1.3574385409841416,0.1049054540529937,-1.0765131551811349
1.24,-1.347520033340302,1.3895348489184698,1.6247681586324834,0.0470089086079712,0.1513502478009526,0.010849275980382,0.3824476358516502,-0.8557838400282631,-0.428995790185449,-1.3511267186126958,1.3979192583409348,1.628092021716835,0.4024235719697799,-0.9197356305314,-0.4828075693513641,1.4933088641350265,0.3420013637572772,-0.6297361523256273,1.3101293101623668,12.329321417129904,-1.3582818971896442,0.1080000448582246,-1.0830251239095992
1.26,-1.3401942053987952,1.373198293905607,1.616820708739848,0.0423776444822271,0.1519652647003738,0.0104037782755194,0.3882655855671803,-0.8630457537424376,-0.4088624142660071,-1.347102482892998,1.3887219020356207,1.6232639460233214,0.4091853657620277,-0.9397356308294234,-0.4832290329098145,1.1089823664041218,0.2908974857765062,-0.3630956857087253,1.0066687959720932,12.03914638988772,-1.360226907074554,0.1126345476093672,-1.088353131256128
1.28,-1.3323729420786472,1.3558865177301422,1.6088287841221365,0.0378476750084704,0.1518755733521955,0.0099463757170591,0.3934533861009233,-0.8677943754980949,-0.3915676241968393,-1.3390540114536025,1.3703271894249929,1.613607794636294,0.4227089533465232,-0.9797356314254698,-0.4840719600267151,0.9335047489070296,0.2593900266871507,-0.2374310877828633,0.8647395034583893,11.715191704840436,-1.3625988337730832,0.1169911802594074,-1.0917754378018645
1.3,-1.3244585431270317,1.338497579035911,1.601144070143924,0.0342414509043486,0.1512225947046774,0.0095536174913568,0.3976325593592203,-0.8710035296003065,-0.377917294755868,-1.331005540014207,1.3519324768143648,1.6039516432492669,0.4362325409310187,-1.0197356320215163,-0.4849148871436158,0.7316003913026138,0.2089586629148515,-0.1604577051105782,0.6825164720485666,11.457001206306812,-1.3649594495991402,0.1204552939158649,-1.0935512472174111
1.32,-1.316471431113228,1.3210553449055702,1.5936986106037203,0.0317244555491918,0.1501995963765046,0.0092454176656028,0.4008035833008601,-0.8733440332868216,-0.3673017985405261,-1.3222808891955866,1.3315377641739343,1.5942533455063943,0.4497561285155143,-1.0597356326175629,-0.4857578142605165,0.5661760111550599,0.1585511970819852,-0.1170251843257585,0.5307748107670957,11.23431911138232,-1.3672845330074794,0.1227633759391439,-1.0941604409101795
1.34,-1.3088319714141154,1.3044474840652451,1.5868118364356822,0.0303474963177932,0.1490576968963757,0.00903573389743,0.4031477807844324,-0.874945740628764,-0.3581515594323865,-1.313556238376966,1.311143051533504,1.5845550477635222,0.4632797161000098,-1.0997356332136092,-0.4866007413774172,0.4790292370705191,0.117209874178617,-0.0800853670971157,0.4575119554069778,11.062675996684447,-1.3696231917381378,0.124160342169341,-1.0939791349493238
1.36,-1.30074712451566,1.2869288133884311,1.579744554579915,0.0298497845954378,0.1477807318480191,0.0088948258481386,0.4051616738492749,-0.876885504970626,-0.3490808734267762,-1.3044934978687337,1.2897483388781723,1.5748356768427274,0.4768033036845054,-1.1397356338096556,-0.4874436684943179,0.4745940254337267,0.1006946532421254,-0.0969882170931024,0.453534300280517,11.008110498275528,-1.371857657104641,0.1245963600204911,-1.0937274564135986
1.38,-1.2926268377100936,1.2693696702166108,1.5728522688736948,0.0301594030932548,0.1464649320355998,0.0088222325216705,0.4067167122453021,-0.8789741142548498,-0.3406255372911299,-1.2950926676708885,1.26735362620794,1.56509523274401,0.490326891269001,-1.179735634405702,-0.4882865956112185,0.4423605495577957,0.0777519198013582,-0.1044304642111915,0.4227668067823126,10.974099675366231,-1.3740482895980008,0.1242496025177229,-1.0934099516777191
1.4,-1.284480385266147,1.2517658109333882,1.5661224479989069,0.0311738941673063,0.1451467483097746,0.0088090961864803,0.4078082126227855,-0.8813592626490576,-0.3327746856719876,-1.2722910020978284,1.2254209645038685,1.5558209920091384,0.4422665093630122,-0.978974115744966,-0.3433407244383896,0.4138724957104189,0.05457501887417,-0.119257419710389,0.392542580957117,10.936399069157233,-1.376120097504995,0.1232885690293535,-1.0930286596993133
1.42,-1.2767094134214505,1.234939795034856,1.5599842855403427,0.0310648380389755,0.1439842982945768,0.0087337054333351,0.4101106565961749,-0.8890429241837239,-0.3137224211199419,-1.2722910020978284,1.2254209645038685,1.5558209920091384,0.4422665093630122,-0.978974115744966,-0.3433407244383896,1.0335964969356315,0.1151221986694733,-0.3841830767333132,0.9526132276022836,10.90177524653518,-1.376950585209249,0.1232428699928884,-1.090637820032904
1.44,-1.2684887505088922,1.2171026531146143,1.553902997830865,0.0293422518960031,0.1429660871002752,0.0085635366838551,0.4117927421370768,-0.894185868891538,-0.2955778617495398,-1.2722910020978284,1.2254209645038685,1.5558209920091384,0.4422665093630122,-0.978974115744966,-0.3433407244383896,0.9467105243692344,0.0841042770450911,-0.2571472353907034,0.9072279685201023,11.710671044032097,-1.380066673322655,0.1250319222014615,-1.092581381693834
1.46,-1.2602431091187976,1.199183829614007,1.5481487968769938,0.027172503872191,0.1422097485405307,0.0083876268700244,0.4126959205258749,-0.897440477159338,-0.2807390367518467,-1.2678683370041983,1.2156312233464186,1.5523875847647546,0.4493764687865542,-0.9989741160429892,-0.3438837618678416,0.7609187431831773,0.0451589194399082,-0.1627304133899998,0.7419412498846562,11.520699271908596,-1.3827641487276114,0.1271796781267921,-1.094168809691151
1.48,-1.2523989563997673,1.1821188040566002,1.5429318143115658,0.0254363377797284,0.1417457570885209,0.0082662283073937,0.4129777462848865,-0.8988873267805427,-0.2691612472306978,-1.259023006816938,1.1960517410315197,1.5455207702759868,0.4635963876336382,-1.0389741166390356,-0.3449698367267454,0.583562356952643,0.0140912879505794,-0.0723424810602391,0.5788894760574481,11.320510452992494,-1.38491126307572,0.1291306627315641,-1.0957681486663544
1.5,-1.2441404432459326,1.164137913616334,1.537658219788267,0.0245138682381206,0.1415390309021717,0.0082236708472252,0.4128646623747404,-0.8992263962584546,-0.2588984043970564,-1.2501776766296775,1.17647225871662,1.538653955787219,0.4778163064807223,-1.0789741172350822,-0.3460559115856493,0.5134532576330787,-0.0056541955073069,-0.0169534738955923,0.5131421416820658,11.157813914784128,-1.386420184569764,0.1301750894973711,-1.0974928090958025
1.52,-1.2358871336055708,1.1461597458868262,1.5325721882358587,0.0250325273357684,0.1416215049413947,0.0083011817602047,0.412490990222437,-0.8987285483909709,-0.2502893720702709,-1.2406213505000634,1.1548927763719186,1.531732837555506,0.4920362253278064,-1.1189741178311283,-0.3471419864445532,0.4315753728498761,-0.0186836076151691,0.0248923933741818,0.430451616339278,11.03833269165898,-1.3873250063945617,0.129793930287114,-1.099548589200594
1.54,-1.2276418510330942,1.1281958428498615,1.527649746725921,0.0274183968302359,0.1419698331294867,0.0085248674850416,0.4121011231298933,-0.8979970170327809,-0.2423901098425285,-1.2310650243704488,1.1333132940272168,1.5248117193237931,0.5062561441748905,-1.1589741184271751,-0.3482280613034571,0.3971318364866434,-0.0194933546271841,0.036576567909502,0.3949631113871199,10.942815994762896,-1.3876745495950813,0.1277080692424132,-1.1018745977534103
1.56,-1.2198128117874023,1.111117778564937,1.5231170395769464,0.0308906327615485,0.1424454726670515,0.0088314493555024,0.4120481178064125,-0.9000230636344139,-0.2351437416806615,-1.2211532002696577,1.110733811667614,1.5178634492206076,0.5204760630219745,-1.1989741190232217,-0.349314136162361,0.3762230918405483,-0.0026502661740396,-0.1013023300816484,0.362318408093347,10.909837034978407,-1.3876239642176484,0.1242051325507513,-1.1047337131659674
1.58,-1.2115695785422738,1.093073429372668,1.5184937547360111,0.0345558135432059,0.1429634747480413,0.0091604670899872,0.4122933940241717,-0.9043374759524316,-0.2275684835844199,-1.2108858781976888,1.08715432929311,1.5108880272459493,0.5346959818690585,-1.2389741196192678,-0.3504002110212649,0.4360586236320118,0.012263810887958,-0.2157206159008939,0.3787629048120841,10.900122435718004,-1.3874241944721428,0.1206562037731805,-1.1069679386638454
1.6,-1.2033187536638448,1.0749275718628912,1.5140206292094855,0.0377008498769311,0.1434007312216054,0.0094549557720249,0.4127794609625528,-0.9099657972406092,-0.2201268866897697,-1.1909549088410651,1.0478565555750463,1.50711533055679,0.4544331141958617,-1.0043374774425478,-0.2258608320484394,0.4671499382800036,0.0243033469190551,-0.2814160644088681,0.3720798447325077,10.9043344019301,-1.3872467315860857,0.1176184367640416,-1.1087684413427643
1.62,-1.1954494322254443,1.057500992295899,1.5100119528249394,0.0377107372682372,0.1435657393306162,0.0095226787195322,0.4154804569119717,-0.922938007297718,-0.2021664830394066,-1.1909549088410651,1.0478565555750463,1.50711533055679,0.4544331141958617,-1.0043374774425478,-0.2258608320484394,1.1159633866849257,0.1350497974709458,-0.6486105028554512,0.8980201825181569,10.9009611759966,-1.3841874209259972,0.1175367658144257,-1.107008598207344
1.64,-1.1871159685672386,1.0389418908225865,1.5061548053273768,0.0341538940227528,0.1434637630963785,0.0093463638268066,0.4176669189443686,-0.9316839416594008,-0.184611225475608,-1.1909549088410651,1.0478565555750463,1.50711533055679,0.4544331141958617,-1.0043374774425478,-0.2258608320484394,0.986735846375923,0.1093231016198459,-0.4372967180841347,0.8777628781899305,11.676189212585996,-1.3871161505601035,0.1213756581310934,-1.1086699663403088
1.66,-1.1787480994834334,1.0202645494328626,1.5026153536200169,0.0296538326111909,0.1432696886092674,0.0091178927949087,0.4190034328984051,-0.9355454716416854,-0.1702026078886357,-1.1864105776991063,1.037813180800621,1.5048567222363058,0.4628610582301997,-1.024337477740571,-0.2255193017412434,0.7488423467610236,0.066825697701825,-0.1930764991142308,0.7204308793486116,11.514810084192504,-1.3894919662890848,0.1259274925794046,-1.110582534963431
1.68,-1.1707809739058588,1.0024780075209652,1.4994933082627937,0.0259821167437928,0.143127593413258,0.0089602723099989,0.4195867537613325,-0.9367604548195976,-0.1591603499160627,-1.1773219154151893,1.0177264312517702,1.500339505595337,0.4797169462988757,-1.0643374783366175,-0.2248362411268512,0.5562101861809732,0.0291660431463697,-0.0607491588956121,0.5521128986286524,11.142069383147827,-1.3912064399717037,0.1301050911995404,-1.1123900350322535
1.7,-1.1623878573677886,0.9837432502877896,1.4964130614698887,0.0232367500669382,0.1431366891716826,0.0088916375085717,0.4196980526212298,-0.9368828751400196,-0.1495443677757428,-1.168233253131272,0.9976396817029192,1.4958222889543682,0.4965728343675517,-1.104337478932664,-0.224153180512459,0.4808702701717436,0.005564942994865,-0.0061210160210989,0.4807991070159959,11.142069383147827,-1.3922380309848466,0.1331326621173986,-1.1141067007469632
1.72,-1.1539961618662713,0.965013514039071,1.4935068720308355,0.0217792373982857,0.1433839855784025,0.0089312303750824,0.4194871918040169,-0.9362660013221532,-0.1416303431175918,-1.158301796443921,0.975552932124266,1.4913392253441191,0.5134287224362277,-1.1443374795287102,-0.2234701198980669,0.3970415024944715,-0.0105430408606443,0.0308436908933285,0.3957012329075499,11.018495946845178,-1.3928261108528222,0.134879501859214,-1.1159907419651525
1.74,-1.1456097694808138,0.946304876697792,1.490749655321383,0.0218971332578724,0.1438982212959882,0.0090967224573506,0.4192173658821836,-0.9349046555752184,-0.1344932450044048,-1.14837033975657,0.9534661825456126,1.4868561617338698,0.5302846105049037,-1.1843374801247568,-0.2227870592836747,0.3635389860387997,-0.0134912960916666,0.0680672873467291,0.3568549056593498,10.921213166774578,-1.3929413547976142,0.1350731371385474,-1.1180161804045152
1.76,-1.1376443988325995,0.928549950672321,1.4882592725635804,0.0234292989347985,0.1445510544151835,0.0093638039684586,0.4192845096601624,-0.9342359956110692,-0.128015385336095,-1.138017485867502,0.9303794329520582,1.4823901746389805,0.5471404985735797,-1.2243374807208032,-0.2221039986692826,0.325631234362168,0.0033571888989392,0.033432998207461,0.3238929834154885,10.885048007217849,-1.3926209957366646,0.1337592732044972,-1.1206736735454066
1.78,-1.1292548286571953,0.9098639981341448,1.4857701656021118,0.0262414930162573,0.1452744516824694,0.0097351228037719,0.4196943056607309,-0.934699662609994,-0.1212466619186557,-1.1272432347767172,0.9062926833436026,1.477941264059451,0.5639963866422557,-1.2643374813168495,-0.2214209380548904,0.3398475266563123,0.0204898000284281,-0.0231833499462374,0.3384361708719655,10.870489342988549,-1.3921091984220746,0.1311821978018592,-1.1235775200765177
1.8,-1.12085341480245,0.8911426656822583,1.4834161258902134,0.0294199271954917,0.1459289381602894,0.0101342972639898,0.420438423171513,-0.9374870268575168,-0.1144982904537647,-1.1082701133741588,0.863129015003645,1.479707832506179,0.4807336640381876,-1.0346996641001105,-0.1278569078281975,0.3669592203037545,0.0372058755391035,-0.1393682123761397,0.3374185732445495,10.8716251613223,-1.39168154567711,0.1282234522603285,-1.125996797316794
1.82,-1.112443945027386,0.87228283302061,1.48126098110403,0.0301548680558217,0.1470767011979305,0.010382155960866,0.4206558880936835,-0.9472555956582296,-0.1013367808599712,-1.1082701133741588,0.863129015003645,1.479707832506179,0.4807336640381876,-1.0346996641001105,-0.1278569078281975,0.8195998447324018,0.0108732461085225,-0.4884284400356375,0.6580754796896737,11.306467364658602,-1.3897567368863173,0.127623077247211,-1.12623467306562
1.84,-1.1044478791459391,0.8542244150696052,1.479447245775798,0.0283108609460916,0.1490198529045186,0.0104712944344506,0.4211752017017283,-0.9530297150990048,-0.0902678363449409,-1.1082701133741588,0.863129015003645,1.479707832506179,0.4807336640381876,-1.0346996641001105,-0.1278569078281975,0.6247633044134718,0.0259656804022428,-0.2887059720387552,0.5534472257515133,11.306467364658602,-1.3888018605174992,0.1299121111101599,-1.130648821647464
1.86,-1.096013231623696,0.8351259692150521,1.4777453802649188,0.0252886092547463,0.1516987356057069,0.0105114709210121,0.4223838583380598,-0.9562273156474288,-0.0805977949239519,-1.103462776733777,0.8527820183626439,1.478429263427897,0.4929415357136789,-1.0546996643981337,-0.1291789570101059,0.5128235593639258,0.0604328318165758,-0.1598800274212053,0.4835020710494526,11.179182897515602,-1.3871694233032004,0.1333974352503856,-1.1359190766348692
1.88,-1.0875468898658662,0.8159957076248517,1.476214010136008,0.0226160270791093,0.1547424179026081,0.0105876859102463,0.4243185574326329,-0.9568581422047576,-0.0730387884772084,-1.0938481034530132,0.8320880250806417,1.475872125271333,0.5173572790646617,-1.09469966499418,-0.1318230553739226,0.3914063783137784,0.0967349547286555,-0.0315413278664467,0.3779503223371755,11.05127541992988,-1.3846273463837966,0.1363827270763365,-1.141651271886413
1.9,-1.0794602844697136,0.7978230654654417,1.474884054821922,0.0209986422208661,0.1577397824051642,0.010729455934831,0.4268955131442156,-0.956287967776152,-0.0673517609432452,-1.0842334301722494,0.8113940317986396,1.473314987114769,0.5417730224156443,-1.1346996655902264,-0.1344671537377394,0.313480788049882,0.1288477855791336,0.0285087214302925,0.2843513766981595,10.934899264942032,-1.3815816768910434,0.138559911750583,-1.1478860029051228
1.92,-1.0708873057753765,0.778713753235507,1.4735904854010833,0.0206044853516079,0.1608309204016464,0.0109731500234803,0.4303482458901471,-0.9548194268934724,-0.0623599025480887,-1.0733979697239364,0.788700038486835,1.4706256440400145,0.5661887657666269,-1.1746996661862728,-0.1371112521015561,0.3122363927228148,0.172636637296572,0.0734270441339723,0.2495929197578235,10.85027095948044,-1.3784822410085205,0.1393537052638848,-1.1539658353113478
1.94,-1.062236569493325,0.7596401041713972,1.4723914577062256,0.0219755085622116,0.1637165878161939,0.0113425657125012,0.4346191738555925,-0.9528136919131353,-0.0578167763835956,-1.0625625092756237,0.7660060451750305,1.4679363009652595,0.5906045091176096,-1.214699666782319,-0.1397553504653728,0.3275049382981673,0.2135463982722713,0.1002867490168646,0.2271563082246568,10.799220662987864,-1.3754729255151683,0.1382975670943535,-1.1598660843820985
1.96,-1.0534887236409596,0.7405941717848626,1.4712819875329837,0.0250358066191719,0.1661687127202506,0.0118283308370221,0.4399546544589034,-0.9522764709743696,-0.0533720449579681,-1.0511166552435365,0.7423120518483248,1.4651808554314092,0.6150202524685923,-1.2546996673783657,-0.1423994488291896,0.3482513354292973,0.2667740301655452,0.0268610469382812,0.2222365712813739,10.789470479325246,-1.372876885066076,0.135608903478646,-1.1649119155126892
1.98,-1.045071308016797,0.7224816952011877,1.470311572410003,0.028454207099623,0.1678971886417167,0.0123164966337942,0.4457858894433719,-0.95439934693006,-0.0490051276530991,-1.0390604076276742,0.717618058506718,1.4623593074384635,0.6394359958195749,-1.294699667974412,-0.1450435471930063,0.3794070061125055,0.2915617492234262,-0.1061437977845192,0.2183458652434477,10.789470479325246,-1.3708250147912957,0.1321573597717606,-1.1690515011712213
2.0,-1.036086979672448,0.7033550915114262,1.46938123463219,0.0317506621610936,0.1690098949602814,0.0127921137396706,0.4523081071012915,-0.9581314553959924,-0.0442494002018689,-1.0227820135446284,0.6747617278546847,1.4678613160273482,0.513623820659135,-1.036424092573199,-0.0487683362837103,0.4446484576863728,0.3261108828959802,-0.1866054232966263,0.23778637256151,10.809574411608992,-1.3696676629288065,0.1290054895344614,-1.171951940909375
2.02,-1.0269292838225592,0.6840128988063101,1.4686347860266835,0.0303292773739815,0.1686977225342733,0.012895151137449,0.4631700397004423,-0.9745962244135152,-0.030080808377157,-1.0227820135446284,0.6747617278546847,1.4678613160273482,0.513623820659135,-1.036424092573199,-0.0487683362837103,1.2143096731107808,0.5430966299575402,-0.8232384508761348,0.7084295912355972,10.827076637632672,-1.3647631179338808,0.1304954988244834,-1.1689209506353333
2.04,-1.017561136030144,0.6644360142339781,1.4681810349693392,0.0234539012220145,0.1663558101508449,0.0125767854833928,0.4728914865995093,-0.9812659604983156,-0.0160982250699615,-1.0227820135446284,0.6747617278546847,1.4678613160273482,0.513623820659135,-1.036424092573199,-0.0487683362837103,0.91447327078889,0.4860723449533505,-0.3334868042400296,0.6991291653597737,11.3803880628584,-1.370272775538141,0.1379154913055867,-1.1692665422433972
2.06,-1.008503165090711,0.6457885228824268,1.467978801311744,0.0163398801309736,0.1627435619817539,0.0122407798908862,0.4799464443583441,-0.9813384619563305,-0.0058678095573711,-1.017645775338037,0.6643974869289527,1.467373632664511,0.5271914069022876,-1.0528290417018265,-0.0487209780098326,0.6213676186457713,0.3527478879417373,-0.0036250729007314,0.5115207756295188,11.164723347889776,-1.3774736285034768,0.1464585918257194,-1.1668680739422206
2.08,-0.9988510359209346,0.6261951875665998,1.4679492418347766,0.0099869168444324,0.1581235706302644,0.0120022400830374,0.4846692507330037,-0.9781933478053644,0.0022619330054478,-1.0073732989248545,0.6436690050774887,1.4663982659388368,0.5543265793885929,-1.085638939959082,-0.048626261462077,0.4957049455392925,0.236140318732983,0.1572557075483038,0.4064871281409541,11.164723347889776,-1.3850223740357277,0.1537586493040362,-1.162097675743537
2.1,-0.9891378310741302,0.6066855237310914,1.468053900490546,0.0054091440268774,0.1535651792358091,0.0119319599958019,0.4862818130770928,-0.973406408599606,0.0078194128407743,-0.9971008225116716,0.6229405232260248,1.4654228992131626,0.5814617518748981,-1.1184488382163376,-0.0485315449143215,0.375502085191478,0.0806281172044509,0.2393469602879117,0.2778739917663222,10.988293618400348,-1.391971050523079,0.1591451377828764,-1.156401150124139
2.12,-0.9799087667261808,0.5882462571537835,1.4682398662339524,0.0026684083677108,0.1502284644377067,0.0120108175934184,0.4850455506658897,-0.9682453559123304,0.011487393031384,-0.9854715874741736,0.6005715464616981,1.4644522683148762,0.6085969243612034,-1.1512587364735931,-0.048436828366566,0.3225635141677249,-0.0618131205601529,0.2580526343637757,0.1833990095304867,10.838223495153215,-1.3969902717408311,0.1625389403499909,-1.1517732204191145
2.14,-0.970242363603192,0.568944266747027,1.4685046862933426,0.0013435862701836,0.1487463332705516,0.0122243661331711,0.481711055841567,-0.9624379865718384,0.0147694549550594,-0.9738423524366756,0.5782025696973713,1.4634816374165898,0.6357320968475086,-1.184068634730849,-0.0483421118188105,0.3728817669890933,-0.1667247412161371,0.2903684670246098,0.1641030961837669,10.738489366773138,-1.3992631306240106,0.164469444105479,-1.1504965808208956
2.16,-0.9606391966265794,0.5497566819536194,1.468830979971342,0.0015620772246734,0.1495231681658743,0.0125568698857989,0.4790594299378225,-0.9568017763163842,0.0176761039706994,-0.96153473808702,0.5550133454766132,1.4625133744319971,0.6628672693338138,-1.2168785329881042,-0.0482473952710549,0.3436807911318876,-0.1325812951872229,0.2818105127727066,0.1453324507820009,10.703526104993216,-1.398380539196381,0.1648137742871587,-1.153556731923841
2.18,-0.9515501338339372,0.5316299096826274,1.4691951147566984,0.0030648885229816,0.1516568026689934,0.0129708912885355,0.4779996000904461,-0.9517052544970492,0.0204913112206765,-0.9485487444252068,0.5310038737994237,1.4615474793610983,0.690002441820119,-1.2496884312453598,-0.0481526787232994,0.2959018664214213,-0.0529914923688201,0.2548260909667532,0.1407603624988582,10.682987701241473,-1.3957031716303332,0.1637526972776483,-1.1589969682325112
2.2,-0.9419869798050984,0.5126455760474521,1.4696390893379343,0.005875877425208,0.1546996742319615,0.013502517969424,0.4785364085277117,-0.9473096830923746,0.0237599984914782,-0.9276501538294148,0.4840446469577749,1.4702196803177323,0.5721168168563266,-0.9589917896073736,0.0320454946590968,0.275197782268555,0.0268404218632806,0.2197785702337251,0.163434363540082,10.716580480353514,-1.392074991284381,0.1613455484576096,-1.1655764180236603
2.22,-0.9323917655055114,0.4934503256026459,1.4702349267497907,0.0003429480547647,0.1584575320604544,0.0134594445826823,0.4811595566630161,-0.9683613006312802,0.0361739222859532,-0.9276501538294148,0.4840446469577749,1.4702196803177323,0.5721168168563266,-0.9589917896073736,0.0320454946590968,1.2289802796619056,0.1311574067652199,-1.0525808769452805,0.6206961897237508,10.716580480353514,-1.38524491423055,0.167401703593196,-1.1649418292317772
2.24,-0.922730798235226,0.4740472150754699,1.4710861444567591,-0.0142498692204112,0.1629128002209179,0.01275762704959,0.4849636452889586,-0.9694825587440038,0.0481671895091268,-0.9276501538294148,0.4840446469577749,1.4702196803177323,0.5721168168563266,-0.9589917896073736,0.0320454946590968,0.6315987031252969,0.1902044312971251,-0.0560629056361783,0.5996633611586779,11.223086284368948,-1.382532305421708,0.1829086665081087,-1.174002821495245
2.26,-0.9134742348009312,0.4557156274424868,1.4720840261053236,-0.0289858794711337,0.1674114093863369,0.0119856075084935,0.4893688235179571,-0.9600547391515408,0.0562355854753904,-0.9219289856608516,0.4744547290617011,1.4705401352643233,0.5909402602095027,-0.9604490966294388,0.0343563313467809,0.658385128488048,0.220258911449922,0.4713909796231486,0.4034197983131805,11.223086284368948,-1.3768746421194278,0.2003205362431181,-1.1822272402827605
2.28,-0.9036305768405636,0.436678111207428,1.4732725268073488,-0.0426439296755127,0.1721752498474622,0.0112608592857653,0.4948974527996426,-0.944391559584839,0.0620529524416973,-0.910486649323725,0.4552748932695536,1.4711810451575054,0.628587146915855,-0.9633637106735684,0.038978004722149,0.8799754176875274,0.2764314640842785,0.7831589783350912,0.2908683483153449,11.029570078944744,-1.3709948781444707,0.2158902027862382,-1.1900527279901827
2.3000000000000003,-0.8936654808741266,0.4179932730410874,1.4745544350580988,-0.0534756546535825,0.1767728583704959,0.0107106617765415,0.5014520945192404,-0.925284912482973,0.0657646455366028,-0.8990443129865985,0.4360950574774062,1.4718219550506872,0.6662340336222072,-0.9662783247176984,0.0435996780975171,1.0268933211126507,0.3277320859798899,0.9553323550933024,0.1855846547452782,10.812465787026667,-1.36521984908163,0.2285598313917415,-1.1977913393298645
2.32,-0.8835577659743261,0.3997143125292278,1.4758975017962563,-0.0612742863532671,0.1810159578203425,0.010376355795338,0.5090826666011667,-0.9042810818274332,0.0683679851104586,-0.8857196323141544,0.4167694909830522,1.4726939486126376,0.7038809203285594,-0.9691929387618282,0.0482213514728853,1.1249043397561245,0.381528604096315,1.050191532776984,0.1301669786927875,10.812465787026667,-1.3602047900594456,0.2376345130110914,-1.2049261538927476
2.34,-0.8738031798062237,0.3827464364442106,1.4772226683027938,-0.0662062809865223,0.1845966111962162,0.0102578204963395,0.5173848681793299,-0.8834663797694254,0.0710089418215013,-0.8723949516417102,0.3974439244886982,1.473565942174588,0.7415278070349117,-0.972107552805958,0.0528430248482534,1.1282209725467045,0.4151100789081596,1.040735102900392,0.1320478355521369,10.782903656217968,-1.3559259925713802,0.244453499511427,-1.2119826398391862
2.36,-0.8633510649804453,0.365310378377635,1.478677587457111,-0.0693146913887738,0.1877005542626885,0.0103307496769542,0.5274293048470478,-0.8616006249801768,0.074389774273683,-0.8581290988016073,0.378045492643241,1.4745534775709226,0.7791746937412639,-0.975022166850088,0.0574646982236215,1.2149402953901385,0.5022218333858908,1.093287739462434,0.1690416226090833,10.81878135480656,-1.3525838180140224,0.2489009626308166,-1.217783256554055
2.38,-0.8526855621965966,0.3483172088349782,1.4802077860931926,-0.0705382950701351,0.1898573416294334,0.0106154385247265,0.5385486362092491,-0.8392089865452902,0.078478868841093,-0.8429220737938455,0.3585741954466805,1.4756565548016414,0.8168215804476161,-0.9779367808942178,0.0620863715989896,1.2666350067426149,0.5559665681100667,1.119581921744328,0.2044547283705011,10.873447419666263,-1.3503763903969217,0.2513269523039813,-1.2227944736436245
2.4,-0.8417912200207299,0.3317772367965212,1.4818270502048967,-0.0697697057432462,0.190958835251155,0.0111303602754156,0.5502241270884665,-0.8162506968320278,0.0832682822273273,-0.8257581303861342,0.3063567595077137,1.4841317295352472,0.6189812449328895,-0.8046038932449476,0.0741326224756352,1.3099032735406635,0.5837745439608688,1.1479144856631207,0.2394706693117115,10.98162092297025,-1.3495033325447927,0.2516303464291491,-1.226761001129124
2.42,-0.831174401227401,0.3163746678460853,1.4834096511914667,-0.0705712182270364,0.1892259477610067,0.0117216832353793,0.5668481402077894,-0.8055704310624464,0.0827652324101364,-0.8257581303861342,0.3063567595077137,1.4841317295352472,0.6189812449328895,-0.8046038932449476,0.0741326224756352,0.988280006145637,0.8312006559661467,0.5340132884790683,-0.0251524908595437,10.6416826333043,-1.349889591815835,0.2541218437136733,-1.2328383312595752
2.44,-0.8196789651489095,0.3004293551805562,1.4850594746778714,-0.0749276560637194,0.1826405326327443,0.0124736496200478,0.5810219156610555,-0.7887609568341486,0.0823672181256354,-0.8257581303861342,0.3063567595077137,1.4841317295352472,0.6189812449328895,-0.8046038932449476,0.0741326224756352,1.099559854898865,0.7086887726633073,0.8404737114148908,-0.019900714225049,10.6416826333043,-1.3599670234703851,0.2598108623731615,-1.2198870909421773
2.46,-0.8079625915486949,0.284876660601922,1.4867012614482942,-0.079683364407751,0.173612639100355,0.0134462711846666,0.5894830447252313,-0.7674106524907398,0.0818899939103498,-0.8195683179368053,0.2983107205752642,1.4848730557600036,0.6350677666776177,-0.7976828745848791,0.0732633732025437,1.1485359632467702,0.4230564532087866,1.0675152171704394,-0.0238612107642817,10.661377402620928,-1.3720102410793655,0.2658948952829016,-1.206490837002918
2.48,-0.7967262213575641,0.2705199783315304,1.4882481435207962,-0.0833788366776122,0.1646517872845092,0.014520886573447,0.592694881537982,-0.7451619044936217,0.0810081259251577,-0.8071886930381476,0.2822186427103653,1.4863557082095162,0.6672408101670738,-0.7838408372647421,0.0715248746563606,1.1248337369299437,0.1605918406375361,1.1124373998559034,-0.0440933992596037,10.581892106520172,-1.3847789143956468,0.2714206065956902,-1.19250539476466
2.5,-0.7848747402360895,0.2558714365793048,1.489855219554619,-0.0861287830553948,0.1562307573191827,0.0156986196831876,0.5921389261581682,-0.7210834344658563,0.0797498222117246,-0.7948090681394897,0.2661265648454663,1.4878383606590289,0.69941385365653,-0.7699987999446051,0.0697863761101775,1.2058867416735093,-0.0277977689906894,1.203923501388271,-0.062915185671656,10.581892106520172,-1.3957719086266147,0.2756571370697125,-1.1804093110313665
2.52,-0.7730727503410586,0.2417111238156336,1.4914338047754387,-0.0876350032609344,0.1499577285393313,0.016811997641029,0.5880695874759436,-0.6964684279461735,0.078200137151048,-0.7808207910663592,0.2507265888465742,1.4892340881812325,0.7315868971459861,-0.7561567626244681,0.0680478775639944,1.249859579174759,-0.2034669341112294,1.2307503259841424,-0.0774842530338291,10.549520139905326,-1.404032161392753,0.2784234529781975,-1.17182747039881
2.54,-0.761965375907966,0.2287188598254651,1.4929032493630294,-0.0878198285558085,0.1469956350220121,0.0177103392761643,0.5813800103821779,-0.6725920451720445,0.0765678627979948,-0.7668325139932285,0.2353266128476821,1.490629815703436,0.7637599406354424,-0.742314725304331,0.0663093790178113,1.242473757905768,-0.334478854688286,1.1938191387064478,-0.0816137176526614,10.53034776700406,-1.4087895071156415,0.2799470224360416,-1.1678027976032632
2.56,-0.7504101298972571,0.215536631891338,1.4944179284747063,-0.0864084795000247,0.1474380800335203,0.0184637139654103,0.5749082949553741,-0.6470582939091424,0.0749865527384188,-0.7520399108328615,0.2202726877817934,1.491982080761985,0.7959329841248985,-0.728472687984194,0.0645708804716281,1.3194279969231013,-0.3235857713401902,1.276687563145107,-0.0790655029787958,10.533148951391013,-1.407702403078635,0.2797531009686745,-1.170840128845359
2.58,-0.7389604396599625,0.2028649721852923,1.4959079990278523,-0.0830703660664793,0.1505310505471507,0.0191320401664147,0.5707547092895628,-0.6220084018879027,0.0741204393074864,-0.7364429815852581,0.2055648136489082,1.4932908833568794,0.8281060276143547,-0.714630650664057,0.062832381925445,1.2703341259627716,-0.2076792832905627,1.252494601061982,-0.0433056715466215,10.533148951391013,-1.4037968591835426,0.2775857512785764,-1.1789665005528207
2.6,-0.7275639230843236,0.1906653418338082,1.497393274938824,-0.0786734776012789,0.155151093457174,0.019764206166649,0.5693745229703668,-0.5995350919222242,0.0744402564384228,-0.7104227041954844,0.1717645520908972,1.499614020993227,0.622454146490586,-0.5646631643049808,0.0638098220319503,1.1258961520566653,-0.0690093159598004,1.1236654982839267,0.0159908565468193,10.636802392934442,-1.39853935044249,0.2745014441423449,-1.189715810591501
2.62,-0.716657245653329,0.1794048430967997,1.498801322484108,-0.0765337298894611,0.1575308389784906,0.0203939126652349,0.5783213940343885,-0.585700306194583,0.0736755580726875,-0.7104227041954844,0.1717645520908972,1.499614020993227,0.622454146490586,-0.5646631643049808,0.0638098220319503,0.8246704820055876,0.447343553201085,0.6917392863820593,-0.0382349182867634,10.636802392934442,-1.3917563277809306,0.2736963285055177,-1.202552310677785
2.64,-0.7050002522109642,0.1678648657234003,1.5002700816020775,-0.077246569994296,0.1553333514531096,0.0212184587582823,0.5865361140673947,-0.5687770672315632,0.0732946537737441,-0.7104227041954844,0.1717645520908972,1.499614020993227,0.622454146490586,-0.5646631643049808,0.0638098220319503,0.9407745881786708,0.4107360016503081,0.8461619481509919,-0.0190452149471713,10.585828601016146,-1.3952395869438188,0.2756625198406218,-1.1990850437544365
