t,x,y,z,roll,pitch,yaw,v_x,v_y,v_z,ref_x,ref_y,ref_z,ref_v_x,ref_v_y,ref_v_z,a_com,a_x,a_y,a_z,thrust,wind_x,wind_y,wind_z
0.0,-0.328827880910288,0.8178971835429283,2.0073369986945027,0.022352117398819,0.1500191617246525,0.0288030011016225,0.000935005357236,0.0049112461127556,-0.0028739944501742,-0.3288011347624357,0.8180971146939723,2.0072529004025,-0.0288819108981917,-0.0937931914579801,-0.1028218566607589,0.2883332165123822,0.0467502678618013,0.2455623056377846,-0.1436997225087139,10.66005550650334,-1.4131733400078343,0.1689843715898259,-1.280976808213952
0.02,-0.3288404582362851,0.8182006299371123,2.0070588013118047,0.030947920980473,0.1497682882365176,0.0293846907517476,-0.0021957902659009,0.022137795129433,-0.0264800005581092,-0.3288011347624357,0.8180971146939723,2.0072529004025,-0.0288819108981917,-0.0937931914579801,-0.1028218566607589,1.4695232191307008,-0.156539781156847,0.8613274508338659,-1.180300305396749,10.66005550650334,-1.4079844814987592,0.1584442494956284,-1.277625549235876
0.04,-0.3289236682115524,0.8186540250087536,2.006222358604004,0.0455374245133267,0.149009688822483,0.0303350681319595,-0.0059974339677068,0.0216478347653739,-0.0560082457216441,-0.3288011347624357,0.8180971146939723,2.0072529004025,-0.0288819108981917,-0.0937931914579801,-0.1028218566607589,1.488799699784741,-0.190082185090299,-0.0244980182029544,-1.4764122581767465,9.185245607426168,-1.406146068758927,0.141197391865167,-1.27194946437486
0.06,-0.3290887534192221,0.8190240189245787,2.004793630179502,0.0604435243401997,0.148047760987974,0.0312518883699999,-0.0103437029833665,0.0150320856517064,-0.0853781114375613,-0.3290899538714176,0.8171591827793925,2.006224681835892,-0.0348387406099866,-0.1137931917560033,-0.1228218569587821,1.520893818501544,-0.2173134507829826,-0.3307874556833729,-1.4684932857958597,8.999780324487801,-1.405915918386501,0.1238148336867896,-1.2659928773659188
0.08,-0.3293460048079767,0.8192249214817526,2.0027868630080143,0.0747636739396934,0.1472702496306679,0.0320904886718054,-0.0151340425118385,0.0050791364054635,-0.1138393982567046,-0.3296675920893814,0.8152833189502329,2.004168244702677,-0.0467524000335763,-0.1537931923520498,-0.1628218575548286,1.5264774800974497,-0.2395169764236016,-0.4976474623121447,-1.4230643409571606,9.030670785376516,-1.4054410672160171,0.1081004374930498,-1.2586389693541136
0.1,-0.3296797808839731,0.8192049674759362,2.0003608260174937,0.0877193919321856,0.1468983740207466,0.0328276383890769,-0.0197040315754152,-0.0069356266807368,-0.1401204403983151,-0.3302452303073453,0.8134074551210733,2.002111807569462,-0.058666059457166,-0.1937931929480962,-0.202821858150875,1.4628162120613806,-0.2284994531788336,-0.60073815431002,-1.314052107080526,9.08055400774856,-1.4044509572045498,0.0925616949823402,-1.2500258605210195
0.12,-0.3301232405178041,0.8189116634744329,1.997270669408847,0.1006865636013966,0.1469131318436465,0.0335539863258582,-0.0243517537257626,-0.0220437105197601,-0.167516598017744,-0.3314185514964886,0.8095315912621114,1.9980553704064443,-0.0705797188807557,-0.2337931935441426,-0.2428218587469215,1.5814589551916745,-0.2323861075173697,-0.7554041919511642,-1.3698078809714436,9.124297621248845,-1.4040102007341144,0.0779689142883379,-1.2434430157550231
0.14,-0.330658084311219,0.8182914782909548,1.993629203666164,0.1129975022895295,0.1473104244415517,0.0342384362428818,-0.0288470358423154,-0.0394795641386119,-0.1952953252240163,-0.3325918726856319,0.8056557274031495,1.9939989332434271,-0.0824933783043454,-0.2737931941401892,-0.282821859342968,1.6551995634408596,-0.2247641058276401,-0.87179268094259,-1.3889363603136196,9.141039746709794,-1.4028816794339252,0.0641465947075533,-1.238191756629477
0.16,-0.3312805602208295,0.8172991473189593,1.9894292393643749,0.1246856898151785,0.1480574861930854,0.0348883787992856,-0.0330919211652774,-0.0591297340007169,-0.2233325659809428,-0.334063035360365,0.8007798635292864,1.9889424960655084,-0.0944070377279351,-0.3137931947362356,-0.3228218599390144,1.724989200166583,-0.2122442661481002,-0.9825084931052538,-1.401862037846323,9.124932147959951,-1.3989053029365828,0.0515908537464596,-1.2327804189318898
0.18,-0.3319465608623964,0.8159713727050157,1.984918812377961,0.1352112377816158,0.1490416894166156,0.0354741165595755,-0.0367321607589354,-0.079836922979457,-0.2500655854073516,-0.3358320395206878,0.7949039996405222,1.9828860588726889,-0.1063206971515248,-0.353793195332282,-0.3628218605350608,1.7005097378089586,-0.1820119796828976,-1.0353594489370013,-1.3366509713204398,9.120767311705094,-1.3944983217325255,0.0391311941733042,-1.2275739723460823
0.2,-0.3327172631987324,0.8141076866001432,1.9796164460517192,0.145010092382648,0.1502971247569066,0.0360057373653394,-0.0400868959651542,-0.1052840801182759,-0.2787434611016037,-0.3337831689003431,0.8119795265560429,1.9724155331075932,-0.0719761450707544,-0.1798369244695731,-0.3500655868974677,1.92433924314722,-0.1677367603109439,-1.2723578569409484,-1.433893784712606,9.125290175747068,-1.3904813489407528,0.0282815590848382,-1.2222317205528392
0.22,-0.3335160748496995,0.8115685419795706,1.9738802758703773,0.1489835774845837,0.1515332641602089,0.0360996842164725,-0.0394923863178939,-0.1455323483414209,-0.2923056109020669,-0.3337831689003431,0.8119795265560429,1.9724155331075932,-0.0719761450707544,-0.1798369244695731,-0.3500655868974677,2.1237987451104643,0.0297254823630157,-2.0124134111572496,-0.678107490023161,10.156113406307668,-1.386191035030084,0.0245072927591485,-1.211636705567422
0.24,-0.3342564117055278,0.8084722871247212,1.968200200843489,0.1467326780587842,0.1523578786461299,0.0356922938595949,-0.0385336833414773,-0.1776325948162946,-0.3048772725473914,-0.3337831689003431,0.8119795265560429,1.9724155331075932,-0.0719761450707544,-0.1798369244695731,-0.3500655868974677,1.7243778672822485,0.047935148820831,-1.605012323743682,-0.6285830822662236,10.156113406307668,-1.3841010221995036,0.0270471272106991,-1.20598856509618
0.26,-0.335019983810577,0.8046189079371399,1.9619424622817216,0.1415557062087245,0.1527338278638031,0.034978441954238,-0.0379394466777001,-0.2054262173920465,-0.320272253696475,-0.3345029303510507,0.8101811573113471,1.968914877238619,-0.0790249419331182,-0.1998369247675963,-0.370065587195491,1.5889021506031764,0.0297118331888588,-1.389681128787594,-0.7697490574541777,9.994735117304115,-1.382905097233697,0.0326991654282785,-1.2000186146986895
0.28,-0.3357778811267611,0.800255210898091,1.9553497967630604,0.1357675010629274,0.1526031781593515,0.0341411565618613,-0.0379425436315702,-0.2293833121957441,-0.3381617217237929,-0.3359424532524658,0.8065844188219556,1.9619135655006692,-0.0931225356578459,-0.2398369253636428,-0.4100655877915374,1.4949711262470142,-0.0001548476935019,-1.1978547401848796,-0.8944734013658945,9.807560885516978,-1.3822584631311918,0.0386011537278301,-1.1937377241843994
0.3,-0.3365040798258044,0.7956901164465799,1.948735182841588,0.1305404999107398,0.1520883553957424,0.0333084300776215,-0.0385367611750324,-0.2499576955803095,-0.3571936937029288,-0.3373819761538809,0.8029876803325642,1.95491225376272,-0.1072201293825735,-0.2798369259596892,-0.4500655883875838,1.4016724863164896,-0.0297108771731138,-1.0287191692282749,-0.9515985989567988,9.646235962083663,-1.3811190961675843,0.0443738204814299,-1.1862796476920812
0.32,-0.3372870249262566,0.7904803249303851,1.9413622668651649,0.1256804722661851,0.1512207620158216,0.032433889161006,-0.039772896832652,-0.2699665755187354,-0.379182327915606,-0.3395263787415323,0.7973909418133704,1.9459109419949685,-0.1213177231073011,-0.3198369265557356,-0.4900655889836303,1.4877695909425062,-0.0618067828809763,-1.0004439969212895,-1.099431710633858,9.508599823224358,-1.3800951207295136,0.0493451664352737,-1.17825834862775
0.34,-0.3381001279274765,0.7848820237736808,1.933537260398481,0.1215988966742493,0.1501001552038536,0.0315828156396342,-0.04150565145633,-0.2889787955818501,-0.4022000259038273,-0.3416707813291838,0.7917942032941766,1.9369096302272168,-0.1354153168320288,-0.3598369271517821,-0.5300655895796769,1.4952268816062244,-0.0866377311838993,-0.950611003155738,-1.150884899411067,9.380626294115244,-1.378793100809002,0.0534061012691246,-1.1694499024558047
0.36,-0.3389542145941907,0.7789014579641312,1.9252451173623448,0.1179360684913094,0.1488762188913679,0.0307496588427117,-0.0438462264192556,-0.3080330307593826,-0.4258263270398914,-0.3441676237599534,0.7851974647600817,1.926908318444564,-0.1495129105567564,-0.3998369277478286,-0.5700655901757232,1.5221237422839275,-0.1170287481462813,-0.952711758876626,-1.1813150568032005,9.320924501139416,-1.37744455649217,0.0567950969102244,-1.1606823075889994
0.38,-0.3398151287950322,0.7728708956774636,1.916924793534852,0.1145637911815251,0.1478180328851871,0.0299798025417055,-0.0466782017111561,-0.3256947267347929,-0.4487812182910627,-0.3470169060338413,0.7776007262110856,1.91590700664701,-0.163610504281484,-0.439836928343875,-0.6100655907717697,1.455062387953573,-0.1415987645950248,-0.8830847987705115,-1.1477445625585696,9.280484241547128,-1.3757913021450383,0.0601823066544479,-1.1515507944162915
0.4,-0.3407854699738721,0.766168575398673,1.9076882231802796,0.1110887899295826,0.1470179158054847,0.0292128263713512,-0.0501979858106817,-0.3435040627449915,-0.4736845917435258,-0.34214903888059,0.7565861593407239,1.894485732620299,-0.0653877607047341,-0.425694728224909,-0.5487812197811789,1.5408920618786668,-0.1759892049762824,-0.8904668005099342,-1.2451686726231537,9.239573596441003,-1.37350966398851,0.0633769339684768,-1.1434706289047665
0.42,-0.3418473926032795,0.7591060836685312,1.8981728183954816,0.1081466844476285,0.1482609776647304,0.0287091466235051,-0.0553637857702121,-0.3620896573941217,-0.4755080434309611,-0.34214903888059,0.7565861593407239,1.894485732620299,-0.0653877607047341,-0.425694728224909,-0.5487812197811789,0.9688069902463424,-0.2582899979765178,-0.9292797324565087,-0.0911725843717625,9.183570374420016,-1.37114769527384,0.0667586291819675,-1.1306730045634057
0.44,-0.3429934080880086,0.7516833931234405,1.888617387643957,0.1061918520293048,0.1526121320938543,0.0286045557845,-0.058533740675793,-0.3794943865102409,-0.4801276803592348,-0.34214903888059,0.7565861593407239,1.894485732620299,-0.0653877607047341,-0.425694728224909,-0.5487812197811789,0.9142131248483216,-0.1584977452790445,-0.8702364558059589,-0.2309818464136859,10.58515789636931,-1.3647769649529926,0.0679848231402057,-1.1360100451292046
0.46,-0.3441160062030572,0.7443098955478245,1.879404370198264,0.1050032446393688,0.1583137438538755,0.0287093624008585,-0.0592094294177861,-0.3958179667343521,-0.4894419758260426,-0.3428029164876374,0.7523292120584748,1.8889979204224876,-0.0691296725034496,-0.4456947285229322,-0.5687812200792021,0.9403083625226978,-0.0337844370996546,-0.8161790112055589,-0.4657147733403921,10.252287826894644,-1.355867809398443,0.0686292753143246,-1.142989716865081
0.48,-0.3452877478929273,0.736220277858642,1.8694747163863916,0.1043038058575966,0.1648708540177678,0.0289074795558334,-0.0577242253699173,-0.4122814327343249,-0.5032200011841249,-0.3441106717017321,0.7438153174939767,1.878022296026864,-0.0766134961008808,-0.4856947291189787,-0.6087812206752485,1.0759711038917623,0.074260202393437,-0.8231732999986391,-0.6889012679041129,9.969312623323276,-1.346133075852056,0.0687746800316844,-1.149557601863771
0.5,-0.3464089881856644,0.7278066237958349,1.859234294539643,0.1042012211211953,0.1712142679974662,0.0291180816284466,-0.0543418798428817,-0.4282703678346786,-0.5202669841538228,-0.3454184269158267,0.7353014229294785,1.86704667163124,-0.084097319698312,-0.5256947297150252,-0.648781221271295,1.1807687488208176,0.1691172763517826,-0.7994467550176881,-0.8523491484848933,9.751103192131268,-1.3367285466731504,0.0683403046530635,-1.1552786305861205
0.52,-0.3474460203907046,0.7190772421706954,1.848623199268456,0.1047216706652584,0.1768020375921841,0.0292890596984031,-0.049486488739091,-0.4439242702655992,-0.5399890641865407,-0.347100373309793,0.724787528335178,1.8540710472058144,-0.0915811432957432,-0.5656947303110716,-0.6887812218673415,1.2821660626694198,0.2427695551895318,-0.7826951215460287,-0.9861040016358956,9.589092946856908,-1.3286747518584274,0.0673116283979609,-1.1597960366515478
0.54,-0.3483288957309506,0.710494629286582,1.8381671212030533,0.1058146794282631,0.1811415858272383,0.0293892838109758,-0.0437021863019823,-0.4587902667953245,-0.5596652978175124,-0.3487823197037592,0.7142736337408775,1.8410954227803884,-0.0990649668931744,-0.6056947309071181,-0.728781222463388,1.266501260763612,0.2892151218554368,-0.7432998264862628,-0.9838116815485852,9.465347215211295,-1.32136357200499,0.0656100803605652,-1.1622013251742267
0.56,-0.3491316168975704,0.7011439008070307,1.826748243158256,0.1072970149840107,0.1845888884056461,0.0293965330103541,-0.0368825903182686,-0.4754957099337731,-0.5812110119231305,-0.3506513616876612,0.7027597391316759,1.827119798340061,-0.1065487904906056,-0.6456947315031645,-0.7687812230594343,1.4051659298407229,0.3409797991856828,-0.8352721569224342,-1.077285705280906,9.424611250068663,-1.3155899544351992,0.0635398062531426,-1.1628976835631926
0.58,-0.3497922977857851,0.6914467826766256,1.8148918620718864,0.1085464020898326,0.1868931279072047,0.0292598393486356,-0.0295649455378847,-0.4933289259831668,-0.6033493285701531,-0.352707499261499,0.690245844507573,1.812144173884833,-0.1140326140880367,-0.685694732099211,-0.8087812236554808,1.4677164097332216,0.3658822390191978,-0.8916608024696848,-1.1069158323511297,9.389264177187217,-1.3112366263714157,0.0617823377932344,-1.161802152413923
0.6,-0.350303895964632,0.681381582505255,1.8025863469062715,0.1089822069776934,0.1881001878541938,0.0289400883416462,-0.0220577806807539,-0.5121271821039997,-0.6260531357504917,-0.3512705450626793,0.6667803363774673,1.7847243956433787,-0.0328317978869276,-0.5933289274732829,-0.7033493300602692,1.5208507634368358,0.375358242856541,-0.93991280604164,-1.13519035901693,9.367144878485306,-1.307856135932386,0.0607411565165151,-1.158838147079909
0.62,-0.3506440423814233,0.6714173247650485,1.7907198687256325,0.1075734839660237,0.1896271356575878,0.0285443308258897,-0.0138114985722879,-0.5353107103539743,-0.621887114272294,-0.3512705450626793,0.6667803363774673,1.7847243956433787,-0.0328317978869276,-0.5933289274732829,-0.7033493300602692,1.247831003868895,0.4123141054233006,-1.1591764124987305,0.2083010739098834,9.342412529766989,-1.3062394298003726,0.0624625361380452,-1.147577412665815
0.64,-0.350820564976191,0.6604827151510093,1.778293281660085,0.1041199636195895,0.1924814487114422,0.0281173740290724,-0.0041439353591426,-0.5564039203182227,-0.621303920294165,-0.3512705450626793,0.6667803363774673,1.7847243956433787,-0.0328317978869276,-0.5933289274732829,-0.7033493300602692,1.160522942785014,0.4833781606572621,-1.054660498212423,0.0291596989064502,10.962163678214893,-1.3019103604851356,0.065371329767813,-1.1500682223824992
0.66,-0.3507933476572846,0.6491610680029395,1.7658141487068362,0.1000076488456551,0.1956725831111206,0.0276697244245699,0.0064578179895125,-0.5744853857306103,-0.6265926182826818,-0.3515988630415486,0.6608470471027345,1.777690902342776,-0.0334851683567362,-0.6133289277713061,-0.7233493303582924,1.0808641125724696,0.5300876674327595,-0.9040732706193766,-0.2644348994258361,10.591221818073793,-1.297596020524266,0.0688014774925082,-1.1529847689646329
0.68,-0.3505646201561773,0.6380913885032973,1.7538171610758049,0.0960892741934132,0.1983603015032449,0.0272003878873188,0.0170838626078408,-0.5897656259330185,-0.6359619246533507,-0.3522554989992871,0.6489804685532687,1.7636239157415703,-0.0347919092963533,-0.6533289283673526,-0.7633493309543389,1.0418522768865244,0.5313022309164143,-0.7640120101204129,-0.4684653185334453,10.264455403505965,-1.2932265276984698,0.0724510552635045,-1.1550446026599248
0.7000000000000001,-0.3501039235000815,0.6261424815671719,1.7409597360637794,0.0922661032009758,0.2004695720243187,0.0266521794949083,0.0283858217830527,-0.6042893425940652,-0.6494416362077955,-0.3529121349570256,0.6371138900038031,1.7495569291403652,-0.0360986502359705,-0.693328928963399,-0.8033493315503853,1.1405867464155846,0.5650979587605965,-0.7261858330523341,-0.6739855777222414,10.00783591533309,-1.2895945283566057,0.0757980907185722,-1.1555425815988551
0.72,-0.3494178751724512,0.6139146821918657,1.7278000275965004,0.0888769811695062,0.20168056852576,0.0260495187828624,0.0395824290445152,-0.6177592449025106,-0.6659611482599114,-0.3536341079617451,0.6232473114245352,1.7334899425093575,-0.0374053911755876,-0.7333289295594455,-0.8433493321464318,1.203844426002066,0.5598303630731234,-0.6734951154222679,-0.8259756026057941,9.7978118873325,-1.286821676623117,0.0786854326021263,-1.1543738728051915
0.74,-0.3485086340451921,0.601426766226565,1.7142923976495623,0.0859654071885474,0.2019240222107432,0.0253964908321188,0.0506828050744018,-0.6304268944113869,-0.6839480010835912,-0.3543560809664645,0.6093807328452672,1.7174229558783498,-0.0387121321152048,-0.773328930155492,-0.8833493327424783,1.232086204964303,0.5550188014943301,-0.6333824754438167,-0.8993426411839922,9.633766621585892,-1.284997059526554,0.0809394155021737,-1.1518273948970903
0.76,-0.3474397959185082,0.5893257738537453,1.70111756659621,0.0833664121823477,0.2012232084131215,0.0247129155920598,0.0612053355960019,-0.6426108679169341,-0.7019461986957491,-0.3551107224946743,0.594514154251098,1.7003559692324408,-0.040018873054822,-0.8133289307515383,-0.9233493333385246,1.2073814395709526,0.526126526080006,-0.6091986752773615,-0.8999098806078965,9.56209558500177,-1.2839305561711274,0.0830662120694356,-1.1480554295996812
0.78,-0.3461009407195916,0.576342857457109,1.6868696564505967,0.0805929083760572,0.1993701398121379,0.0239072471586433,0.0720564057891167,-0.6549264697068771,-0.7219206072468581,-0.3558980325463746,0.5786475756420277,1.682288982571631,-0.0413256139944391,-0.8533289313475848,-0.963349333934571,1.292668527456832,0.5425535096557386,-0.6157800894971477,-0.9987204275554497,9.509232655524102,-1.2843465917260124,0.0852133066992077,-1.142981281400775
0.8,-0.3445486357940837,0.5631187208491879,1.6722124080375005,0.0777241228664227,0.1962004663054944,0.0230034691324616,0.0825340486803276,-0.6667412587027478,-0.7428086675882708,-0.3424981204301358,0.5435965339717651,1.6507736260882535,0.0735060943596906,-0.7549264711969932,-0.8185930825848403,1.3092758536679616,0.5238821445605467,-0.590739449793537,-1.044403017070633,9.442744976820904,-1.286173381510665,0.0873312517006401,-1.136386894284515
0.8200000000000001,-0.3427813538657748,0.5496385589039593,1.6574575745549176,0.0747144918966227,0.1932160656306245,0.0221226096442454,0.0935437926482532,-0.6804897820034743,-0.7315921428707652,-0.3424981204301358,0.5435965339717651,1.6507736260882535,0.0735060943596906,-0.7549264711969932,-0.8185930825848403,1.0440866605894217,0.5504871983962822,-0.6874261650363256,0.560826235875278,11.30041777997667,-1.290215010864934,0.0903900646013648,-1.1155285495318883
0.84,-0.3409167431905843,0.5365984190438927,1.6436173841596282,0.0721345087674905,0.1922394873333163,0.0214607205704924,0.1023215730278687,-0.6915693920759035,-0.7259361657771614,-0.3424981204301358,0.5435965339717651,1.6507736260882535,0.0735060943596906,-0.7549264711969932,-0.8185930825848403,0.7612444821363373,0.4388890189807724,-0.5539805036214596,0.282798854680194,11.30041777997667,-1.2926959181494455,0.0924960814615397,-1.1163395793430453
0.86,-0.3387713856962458,0.5226534810430563,1.629100743116885,0.0699247266641858,0.192566669115002,0.0209085495431363,0.1118281332725689,-0.7023638315306935,-0.7263111096814275,-0.3417630594865388,0.5360472692597952,1.6425876952624052,0.0737960320738054,-0.7749264714950164,-0.8379275776524368,0.7194358792842249,0.475328012235008,-0.5397219727394986,-0.0187471952133089,10.446179703888449,-1.292569467396883,0.0940689990629065,-1.1182363419812
0.88,-0.3364323781936889,0.5084997427312538,1.61451852769392,0.0681503072455785,0.1933890640572702,0.0204299588994592,0.1216127311700659,-0.712488160217959,-0.7320989842995839,-0.340292937599345,0.5209487398358553,1.6262158336107084,0.0743759075020349,-0.8149264720910628,-0.8765965677876296,0.7611502479454866,0.4892298948748534,-0.5062164343632769,-0.2893937309078165,10.147726405171852,-1.290997387710749,0.0951987797118821,-1.1197495214750257
0.9,-0.3338968900913648,0.4941519468771557,1.5997709947102472,0.0668268490515978,0.1941124818040513,0.0199838358152906,0.1314258369221702,-0.7218300408828974,-0.7423366366287122,-0.3388228157121512,0.5058502104119155,1.6098439719590116,0.0749557829302645,-0.8549264726871093,-0.9152655579228224,0.8490837768913594,0.4906552876052156,-0.4670940332469175,-0.5118826164564161,10.147726405171852,-1.2893790245847792,0.0958635167732876,-1.1205762206848595
0.92,-0.3313075506564275,0.4803557588014913,1.585539972752449,0.0661355735306091,0.1944198972252293,0.0195812303550072,0.1405939846732008,-0.7299981291175289,-0.7551386321293316,-0.3373237000535459,0.4887516809581733,1.591538660800555,0.0755356583584941,-0.8949264732831558,-0.9539345480580153,0.8869381142325181,0.4584073875515293,-0.4084044117315777,-0.6400997750309723,9.918393820330492,-1.2879709371170618,0.0959803327692367,-1.120421591398941
0.94,-0.3283955443739243,0.4656721969758612,1.570282273619382,0.0662514086883271,0.1942238908862647,0.0191888443152715,0.1500617850124328,-0.7379999031734794,-0.7700069073761986,-0.3358245843949406,0.471653151504431,1.5732333496420987,0.0761155337867237,-0.9349264738792022,-0.992603538193208,0.9679013897637508,0.4733900169615987,-0.4000887027975242,-0.7434137623433479,9.741665279138942,-1.286993512307547,0.0952391557009696,-1.1188202284996205
0.96,-0.3252938807435054,0.4508200002888994,1.5547156100149049,0.0671007522010996,0.1933830320539762,0.0188100827887124,0.1595703057057978,-0.74681515206558,-0.7858924595563882,-0.3343109718506296,0.4535546220357877,1.5539613137302624,0.0766954092149532,-0.9749264744752486,-1.031272528328401,1.0252698996792975,0.4754260346682512,-0.4407624446050306,-0.7942776090094805,9.664041133626595,-1.2862332892086017,0.0938158512084994,-1.116342116549975
0.98,-0.322001845375098,0.4357835592792791,1.5388220917815016,0.068259000889116,0.191686035574607,0.0183982373772765,0.1690842453723975,-0.7563531768140386,-0.8026405072086202,-0.3327828624206128,0.4344560925522432,1.5337225530650462,0.0772752846431828,-1.014926475071295,-1.069941518463594,1.0746930541360895,0.4756969833299859,-0.4769012374229275,-0.8374023826116017,9.566928909164744,-1.2862342681068193,0.0919990615431825,-1.112517361105977
1.0,-0.3186995435916267,0.4213150996029759,1.52340473744004,0.0693296194380219,0.1890606559504908,0.017936609036381,0.177963662897551,-0.7661085386962718,-0.8193724997738433,-0.3135476331064781,0.3979659004385772,1.4986900664210707,0.2053613793438503,-0.8563531783041547,-0.833768395917927,1.0653294282075527,0.4439708762576752,-0.4877680941116624,-0.8365996282611532,9.517038978803612,-1.2873287499119503,0.0901980590491396,-1.1071469026016263
1.02,-0.3150309109068414,0.4058008018033711,1.5072832656320774,0.0686475898666723,0.1873628722498367,0.0174020480069759,0.1886280492060113,-0.784543902702027,-0.7894841389765879,-0.3135476331064781,0.3979659004385772,1.4986900664210707,0.2053613793438503,-0.8563531783041547,-0.833768395917927,1.8350108259269773,0.5332193154230114,-0.9217682002877592,1.4944180398627716,9.517038978803612,-1.2882531841855998,0.0911888383312257,-1.0765870768531258
1.04,-0.3111342415505866,0.3899290747936655,1.4918014829094888,0.0650598214018085,0.1887847067453724,0.0168887306607592,0.2007687487842439,-0.800973903871886,-0.7607629764560919,-0.3135476331064781,0.3979659004385772,1.4986900664210707,0.2053613793438503,-0.8563531783041547,-0.833768395917927,1.7622760150010606,0.6070349789116288,-0.8215000584929522,1.436058126024797,12.757111112961866,-1.2884087142561529,0.0940999871703151,-1.0844100632737494
1.06,-0.3069791979848853,0.3737783868928501,1.476812540421692,0.0602031573112161,0.1916240292067686,0.0163848370733176,0.2142878263411961,-0.812963785327757,-0.7395383871595689,-0.3114940193130396,0.3894023686555357,1.4903523824618914,0.2126168061381408,-0.8763531786021779,-0.8399939736597883,1.3937412834909575,0.6759538778476112,-0.5994940727935494,1.0612294648261522,12.234304979861008,-1.287213036901961,0.0981591531811035,-1.0927266794059547
1.08,-0.3027707381854543,0.3582424516413133,1.462909230797384,0.0556010275282927,0.1945419311565291,0.0159220619228251,0.2280759023694899,-0.8217517844920523,-0.7250237086782594,-0.3073867917261626,0.3722753050894525,1.473677014543533,0.2271276597267219,-0.9163531791982245,-0.852445129143511,1.0931786922656506,0.6894038014146925,-0.4393999582147645,0.7257339240654748,11.38311698563848,-1.285729914540713,0.1025739566256551,-1.0995986800942308
1.1,-0.2980514787334822,0.3417285945693226,1.4485266500899514,0.0512600821640362,0.197159464888053,0.015448111080695,0.2431147827811959,-0.829177153126976,-0.7141970847172467,-0.3032795641392856,0.3551482415233695,1.4570016466251745,0.241638513315303,-0.9563531797942708,-0.8648962846272337,0.9981480473798388,0.7519440205852962,-0.3712684317461856,0.5413311980506319,11.38311698563848,-1.2844395472603527,0.1065404110497142,-1.1047358398786111
1.12,-0.2930285341156102,0.3250797159883274,1.4343189104742284,0.0476163796511126,0.198908435742776,0.0149858024354441,0.2583635544864666,-0.8353914600123237,-0.7072675509615152,-0.2984467938729795,0.3360211779274841,1.4397037209326295,0.256149366903884,-0.9963531803903172,-0.8773474401109563,0.8932540045482116,0.7624385852635348,-0.3107153442673815,0.3464766877865788,11.106863689933562,-1.2835816511778777,0.1098214314636948,-1.10826746881414
1.14,-0.28769732210299,0.3083167470168187,1.4202329961956843,0.0447413271811096,0.1995400519592213,0.014535900857355,0.2738591782338245,-0.8407563365128579,-0.7016459691497244,-0.2936140236066735,0.3168941143315986,1.4224057952400848,0.2706602204924652,-1.0363531809863638,-0.889798595594679,0.8667445374104223,0.7747811873678956,-0.2682438250267094,0.2810790905895366,10.883172133319022,-1.2835156983499825,0.1122287137533449,-1.1092571499038792
1.16,-0.2823430734756807,0.2922897422705344,1.4069481087138946,0.0424408864551185,0.1989526384731914,0.0140997274021493,0.2888632341425005,-0.8460060527716129,-0.6970267390131206,-0.2884184820006529,0.2967670507208121,1.4047965906604472,0.2851710740810462,-1.07635318158241,-0.9022497510784018,0.8276752103981099,0.750202795433802,-0.2624858129377516,0.2309615068301906,10.828261446185024,-1.2844534302275918,0.1142897245272024,-1.1086395154911284
1.18,-0.2763989594567606,0.2753146835015507,1.3930511919652542,0.0402268067424615,0.1967983846035825,0.0136083318997476,0.3046698898578457,-0.8511844346185682,-0.6929251663747543,-0.2828601690549178,0.2756399870951244,1.3868761071937163,0.2996819276696273,-1.1163531821784565,-0.9147009065621244,0.8565758891717148,0.7903327857672587,-0.2589190923477646,0.2050786319183151,10.786602820801818,-1.287194062108649,0.116146340083097,-1.1060018737529862
1.2,-0.2701406900341546,0.258239902683249,1.379226301449993,0.0381449783456886,0.1926999618207046,0.0130707286594807,0.3202284084105476,-0.8559844678509447,-0.6897817997000365,-0.2611654649638683,0.2327554617706223,1.3584049336465165,0.3714223161841206,-0.9511844361086844,-0.6657633204373831,0.8291389700140972,0.7779259276350953,-0.2400016616188272,0.1571683337358909,10.736460456443638,-1.2921034756980376,0.1178755714670319,-1.1007963264570553
1.22,-0.2635640638603255,0.2410319478014284,1.3658289289958987,0.0352622051495651,0.188129840031174,0.0124863900603158,0.3364296140483723,-0.8638683382950447,-0.6500741994259702,-0.2611654649638683,0.2327554617706223,1.3584049336465165,0.3714223161841206,-0.9511844361086844,-0.6657633204373831,2.1802109971419417,0.8100602818912339,-0.3941935222049997,1.985380013703314,10.671987919496132,-1.297108942880944,0.1202614498130188,-1.085164228667463
1.24,-0.2570340161227656,0.2245683085536311,1.3538263292767352,0.032021633861438,0.1850775965629611,0.0119722330776935,0.3500194591985174,-0.8686528663311804,-0.6154347019689409,-0.2611654649638683,0.2327554617706223,1.3584049336465165,0.3714223161841206,-0.9511844361086844,-0.6657633204373831,1.8758134127686008,0.6794922575072582,-0.2392264018067857,1.731974872851466,12.778816449345868,-1.3050676065825717,0.1235880074594696,-1.0890262445676029
1.26,-0.2498980638843934,0.207164888516459,1.3418591170178849,0.0290373894658616,0.1831667356425149,0.0115306733402043,0.3628294468736508,-0.8715273571261669,-0.5833151305070481,-0.257451241802027,0.2232436174095355,1.3517473004421428,0.3847728014493755,-0.9711844364067076,-0.6603309512499088,1.7349534233396369,0.640499383756668,-0.1437245397493236,1.6059785730946408,12.778816449345868,-1.3108357068112246,0.1265210567823655,-1.0936334107484318
1.28,-0.2425097552335416,0.1897165473868513,1.3304901640139033,0.026918861071599,0.1822497073291444,0.0112012727098024,0.3753869750448291,-0.8733290327671396,-0.5553640989978882,-0.2500227954783446,0.2042199286873618,1.338432034033395,0.4114737719798855,-1.011184437002754,-0.6494662128749603,1.5347619614383687,0.6278764085589139,-0.0900837820486333,1.3975515754579948,12.456847485137589,-1.3147697992870842,0.128606065702313,-1.0986367512655657
1.3,-0.2348705715643552,0.1722425338187306,1.3196423332399747,0.0258847489392032,0.1817355398305049,0.0109766457492066,0.387895535407625,-0.8741836616423544,-0.5308107100099214,-0.2425943491546622,0.1851962399651881,1.3251167676246474,0.4381747425103954,-1.0511844375988004,-0.6386014745000118,1.3784623531842184,0.6254280181397981,-0.0427314437607406,1.2276694493983389,12.17890711799646,-1.317182177968945,0.1295623732326612,-1.102721260860464
1.32,-0.2273823490219517,0.1556344089094138,1.3097691535149076,0.0262317169787737,0.1812683074849595,0.0108702091920915,0.3996748177323545,-0.8742165523311152,-0.5097002636940062,-0.2338308543044543,0.1641725512132121,1.3123447381346471,0.4648757130409054,-1.0911844381948468,-0.6277367361250633,1.2087219671415634,0.5889641162364734,-0.0016445344380389,1.0555223157957594,11.974255201531378,-1.319616976353528,0.1292038313914908,-1.1066161471363487
1.34,-0.2192580631299499,0.1381543210461124,1.299807372240342,0.028364821464982,0.1805978083235803,0.0108869632797709,0.4120890743659396,-0.87399922775135,-0.4875877268807534,-0.2250673594542464,0.1431488624612361,1.299572708644647,0.4915766835714154,-1.1311844387908934,-0.6168719977501148,1.2679957433435465,0.6207128316792571,0.0108662289882599,1.105626840662638,11.833702527797868,-1.3222911076974342,0.127036848717555,-1.1102247546383086
1.36,-0.210882165452052,0.1206546580055382,1.2902863465934973,0.0319306183180795,0.179510995150234,0.0109961080275114,0.4247668428641386,-0.8764049343921388,-0.4656291409231652,-0.2156363403407757,0.1211251736943589,1.2870722976140203,0.5182776541019253,-1.1711844393869395,-0.6060072593751663,1.2734723552086378,0.633888424909948,-0.1202853320394437,1.097929297879413,11.833702527797868,-1.3246784392472448,0.1235729123291508,-1.113322309194316
1.38,-0.2022516487633048,0.1030766612691736,1.281203306806524,0.0355698940976862,0.1777343428870442,0.0110873287730666,0.4375436731652341,-0.8812840847380677,-0.4437691122269293,-0.2055377969640423,0.0981014849125806,1.2748435050427676,0.5449786246324352,-1.211184439982986,-0.5951425210002178,1.2892966641171322,0.6388415150547749,-0.2439575172964447,1.0930014348117938,11.829485539995405,-1.3279720860322666,0.1198066956516206,-1.1155660124504287
1.4,-0.193816574175511,0.0862726983969464,1.2729770067692556,0.0385563726763485,0.1751307849485642,0.0111048157829535,0.4496039482230514,-0.8872112345490594,-0.4232380110118636,-0.1803744651050431,0.0590124570322702,1.2590148511951775,0.5015911215023122,-0.9332792839117566,-0.3478801622962614,1.2268938997071208,0.603013752890863,-0.2963574905495814,1.026555060753284,11.830184648682009,-1.3323738171393955,0.1165166812388841,-1.116265046999815
1.42,-0.1846072819084295,0.068216197691263,1.2649649478202587,0.0336017006631475,0.1698385358380856,0.0104732040980175,0.4706391550519082,-0.9147019970953536,-0.3776015915308521,-0.1803744651050431,0.0590124570322702,1.2590148511951775,0.5015911215023122,-0.9332792839117566,-0.3478801622962614,2.8639591192771774,1.0517603414428394,-1.3745381273147117,2.2818209740505746,13.814989646846698,-1.333347255402324,0.1210213665300138,-1.1079784784572404
1.44,-0.1750063860243362,0.049800666802657,1.2579106111691185,0.0204689148942628,0.1609717707869612,0.0092662615747445,0.4876352552379476,-0.924014082371958,-0.33011823494622,-0.1803744651050431,0.0590124570322702,1.2590148511951775,0.5015911215023122,-0.9332792839117566,-0.3478801622962614,2.5642988838452365,0.849805009301971,-0.465604263830216,2.374167829231608,13.814989646846698,-1.349251813585266,0.1337644910392606,-1.101527544829856
1.46,-0.1656305479101615,0.0322441224428688,1.252051407757785,0.0071561907175365,0.1508279975581605,0.0082023354402236,0.4979945096756918,-0.9233881236135651,-0.2889739891967871,-0.17535855389002,0.0496796641931527,1.255536049572215,0.5144006111697278,-0.9436783237464944,-0.3287023723101279,2.121647317040969,0.5179627218872107,0.0312979379196332,2.057212287471644,13.59797771598096,-1.3669150556211964,0.1481526804801964,-1.0929699502951182
1.48,-0.1556081791615547,0.0138404325432544,1.246692247474756,-0.0054083549476274,0.1397712246636873,0.0073782304320001,0.5032593830102046,-0.917064641810894,-0.2492675538424469,-0.1653267314599737,0.0310140785149175,1.2485784463262897,0.540019590504559,-0.96447640341597,-0.2903467923378607,2.027502356278272,0.2632436667256377,0.3161740901335697,1.9853217677170103,13.220455175832283,-1.3845514952138376,0.1611550467990223,-1.0836131693937254
1.5,-0.1455358500065858,-0.0043950995932616,1.2420869775446193,-0.0156225852835106,0.1295071719000589,0.0068877533595418,0.5034219011010781,-0.9070764964634952,-0.2134051789703233,-0.1552949090299275,0.0123484928366824,1.2416208430803644,0.5656385698393903,-0.9852744830854456,-0.2519912123655936,1.8613834848569928,0.0081259045436765,0.4994072673699279,1.7931187436061813,12.931679609011551,-1.4006093262953467,0.1718816769243896,-1.0751120607113187
1.52,-0.1355069822546814,-0.0224027707420788,1.2381642319942494,-0.0231865637573351,0.1209768456374367,0.0066830465437855,0.4994086146436257,-0.8947924107408107,-0.1806482028567759,-0.1439821376331397,-0.0073569968250264,1.2365810188330526,0.5912575491742216,-1.006072562754921,-0.2136356323933264,1.7606992320775192,-0.2006643228726207,0.614204286134229,1.637848805677368,12.471933905034348,-1.4129766578024343,0.1796324573437839,-1.0686350834597145
1.54,-0.1260863908289028,-0.0392699322693183,1.235035205237991,-0.0280677603545096,0.1151690748034736,0.0066729811863659,0.4923623154203147,-0.8818913145700209,-0.1503552988923724,-0.1326693662363519,-0.0270624864867354,1.2315411945857406,0.6168765285090528,-1.0268706424243963,-0.1752800524210592,1.6835592102365855,-0.3523149611655479,0.6450548085394914,1.5146451982201756,12.471933905034348,-1.423309874822328,0.1854779484572191,-1.0645992943925642
1.56,-0.1163397314267205,-0.0567623282499085,1.2323632320188849,-0.0312451284498056,0.1122974641364819,0.0067542058372617,0.4827472661211069,-0.8683560464843262,-0.1184388505309189,-0.1207161203561933,-0.0472879281401811,1.2274602598377355,0.642495507843884,-1.047668722093872,-0.1369244724487921,1.79882762597417,-0.4807524649603906,0.6767634042847359,1.5958224180726726,12.44187861430146,-1.4290840010540988,0.1894115273761032,-1.066385272939805
1.58,-0.1067815829132087,-0.073981180863533,1.230329488951132,-0.0327726570243917,0.1127364712135314,0.0068738117767389,0.4738810196322456,-0.8544322981896049,-0.0865470675267528,-0.1081223999926639,-0.0680333217853638,1.224338214589037,0.6681144871787152,-1.0684668017633476,-0.0985688924765249,1.7955270233004146,-0.4433123244430625,0.6961874147360658,1.5945891502083065,12.45055221585335,-1.4307083258804902,0.1918686158411612,-1.0747303938264667
1.6,-0.0973810955851696,-0.0909137763098527,1.2289366530439534,-0.0325009461248561,0.1155498049165822,0.0070595145210737,0.4669396673993836,-0.8398387175267998,-0.0543546326101821,-0.0830875319315964,-0.1167027957730133,1.2260021355747943,0.5345594234568134,-0.8465736418428069,0.0134529339633632,1.8010468020293755,-0.3470676116431009,0.7296790331402514,1.6096217458285356,12.45055221585335,-1.430279820722227,0.1926509576045531,-1.086207144068642
1.62,-0.0885331053155258,-0.1069246243953174,1.228140843698684,-0.0366117429320523,0.1185468776969239,0.006935712645375,0.4646447007476829,-0.8427938675443241,-0.0311290068616186,-0.0830875319315964,-0.1167027957730133,1.2260021355747943,0.5345594234568134,-0.8465736418428069,0.0134529339633632,1.1762540913540178,-0.1147483325850379,-0.1477575008762111,1.1612812874281735,12.478137889653226,-1.4295401338714655,0.1978710081907951,-1.0999473697555864
1.64,-0.0792644050098712,-0.1236808762388236,1.2277865579738014,-0.0455239579484031,0.1208783105056753,0.0065253056907755,0.4623474202545549,-0.8320707990305051,-0.0054323304118636,-0.0830875319315964,-0.1167027957730133,1.2260021355747943,0.5345594234568134,-0.8465736418428069,0.0134529339633632,1.39694387555438,-0.114864024656397,0.5361534256909495,1.284833822487751,11.902688791466971,-1.429013724366209,0.2076368496387366,-1.1059611351911316
1.66,-0.0700412147142899,-0.1401423692438873,1.227955243417651,-0.0542782097453395,0.1227505990019675,0.0061601511636742,0.4601078738986799,-0.8147726283348108,0.0209790727142536,-0.0777419376970282,-0.1251685321914414,1.226136664914428,0.546695104221727,-0.8450019105734473,0.0334529342613864,1.5825647635940288,-0.1119773177937516,0.8649085347847141,1.3205701563058665,12.053476919399143,-1.429149781584795,0.2176165239975653,-1.1139210523872336
1.68,-0.0608618183395226,-0.1562172647467855,1.2286571007652458,-0.0613149795089714,0.1244093800310842,0.0059442728369467,0.4579912789310091,-0.794046337941514,0.0478765967238408,-0.067050749227892,-0.1421000050282975,1.2264057235936952,0.5709664657515541,-0.8418584480347282,0.0734529348574329,1.7011289527625104,-0.1058297483835374,1.0363145196648382,1.3448762004793555,12.121073195660756,-1.4282299227847948,0.2256368564195157,-1.1221148495666735
1.7,-0.0521782174383672,-0.1710857634371548,1.2298286215539536,-0.0660164395956438,0.1259355884697484,0.0058991471105716,0.4562309760457707,-0.7726246801830582,0.0741023514606144,-0.0563595607587557,-0.1590314778651536,1.2266747822729624,0.5952378272813812,-0.838714985496009,0.1134529354534794,1.6954175731081682,-0.0880151442619242,1.0710828879227918,1.311287736838683,12.184322039710423,-1.4275103679214678,0.2321088797958181,-1.1306995578303427
1.72,-0.0430694591162353,-0.1862919464391748,1.231611768798197,-0.0690016064926081,0.1275721848003053,0.0060067179563678,0.454803017872199,-0.7494986859469112,0.1028968298734349,-0.0444548042131281,-0.1758057775750738,1.228943840982032,0.6195091888112083,-0.8355715229572898,0.1534529360495258,1.8479533686095564,-0.0713979086785804,1.1562997118073517,1.4397239206410262,12.257917901865769,-1.4269249228015188,0.236565172428086,-1.139142028061204
1.74,-0.0339842639072183,-0.201025774805986,1.23397974786892,-0.0699756829417649,0.1292667225767244,0.0062710503123834,0.4538522921405758,-0.7254764343107005,0.1324566437029484,-0.0325500476675004,-0.192580077284994,1.2312128996911016,0.6437805503410354,-0.8324280604185706,0.1934529366455723,1.9050951726394727,-0.0475362865811623,1.2011125818105317,1.4779906914756724,12.362080885927751,-1.4265886151093556,0.2390253100937514,-1.1483324052230948
1.76,-0.02536361406167,-0.2145715249571648,1.2367830792111068,-0.0687805012210475,0.1308330305242601,0.0066917001484491,0.4536604804285345,-0.7019640091358319,0.1611559055993275,-0.0200385070836271,-0.2092757904314462,1.2344819584150724,0.6680519118708625,-0.8292845978798514,0.2334529372416187,1.8550731540384264,-0.009590585602065,1.1756212587434312,1.4349630948189556,12.490211239831297,-1.426252915455115,0.2393947331366085,-1.15890627736758
1.78,-0.0162859972066447,-0.2283539513913322,1.2403342671954418,-0.0651192226708741,0.1322836863910806,0.0073340268645898,0.4541485265157847,-0.6782093104815412,0.1925379001506657,-0.0069201824615082,-0.2258929170144304,1.2387510171539444,0.6923232734006897,-0.8261411353411323,0.2734529378376651,1.9680913845396384,0.0244023043625085,1.1877349327145348,1.5690997275669096,12.490211239831297,-1.4263925188216504,0.23719004556792,-1.1699585612746093
1.8,-0.0071918549360089,-0.2416977463901486,1.2445260304662622,-0.0600913440449632,0.1334134579956277,0.0081084558320859,0.4552486519901479,-0.6577325748647143,0.2251157690479147,0.0064214291191445,-0.2622644169154092,1.2499611622029752,0.5048645355067878,-0.5962654855942655,0.2925379016407818,1.924723694109828,0.0550062737181639,1.023836780841347,1.6288934448624477,12.582581415520508,-1.4272375893388651,0.2335015421598094,-1.1808772558141922
1.82,0.0019719429462351,-0.2549070810941232,1.2492179228043234,-0.0624495632883501,0.1321165170538697,0.0085300885777785,0.4610110825124935,-0.6610814398042546,0.241420804318828,0.0064214291191445,-0.2622644169154092,1.2499611622029752,0.5048645355067878,-0.5962654855942655,0.2925379016407818,0.8807307719925966,0.288121526117277,-0.167443246977017,0.8152517635456671,12.66161024297071,-1.4299367425185536,0.2376455296685784,-1.19172355078644
1.84,0.0107690196903434,-0.2673614706312643,1.2539626925720326,-0.0724670979877124,0.1268457764117526,0.0087016175859589,0.4640654274277229,-0.6484959433107583,0.2572850341279394,0.0064214291191445,-0.2622644169154092,1.2499611622029752,0.5048645355067878,-0.5962654855942655,0.2925379016407818,1.0239598774919043,0.1527172457614717,0.6292748246748137,0.7932114904555712,11.437889378502405,-1.4374143764918186,0.2498098332019039,-1.1811697112756114
1.86,0.0200380559939357,-0.2800995829001338,1.2593024835815965,-0.0840475923621826,0.1191384218023349,0.0090860217224151,0.4622565831682245,-0.6257598995676883,0.2759525195198606,0.0114700744742123,-0.2682270717713519,1.252886541219383,0.5150077373049884,-0.5798767206168104,0.3125379019388051,1.473664321936568,-0.0904422129749199,1.1368021871535017,0.93337426959606,11.58727512256428,-1.448526552109217,0.2636259257761408,-1.1702020463652745
1.88,0.0292200323107319,-0.2923207585023269,1.2650307210855936,-0.0941464454273325,0.1112029147749596,0.0097265962995194,0.4557852549908822,-0.5977005803603502,0.2960074074380532,0.0215673651843481,-0.2801523814832372,1.2587372992521986,0.5352941409013896,-0.5470991906619,0.3525379025348515,1.7545669067959644,-0.323566408867118,1.4029659603669031,1.0027443959096298,11.73763222789421,-1.4600347394649635,0.2760661898070129,-1.160502404748044
1.9,0.0382272438770525,-0.3039441010683482,1.2711743525352823,-0.1017907822698039,0.1046551491363059,0.0105153201768453,0.4451864681441331,-0.5666493033417725,0.317378291659933,0.0316646558944838,-0.2920776911951225,1.2645880572850143,0.5555805444977908,-0.5143216607069898,0.392537903130898,1.957824544955611,-0.5299393423374515,1.5525638509288842,1.0685442110939858,11.851945521531889,-1.4711971514125657,0.2860741922048974,-1.157052284478863
1.92,0.0465529977064764,-0.3143964262329951,1.277420328651116,-0.1067808957707339,0.101017789440225,0.0112244200345345,0.4317130639673524,-0.5357263830098689,0.3390546880239012,0.0427762667844397,-0.3023641244092623,1.2724388153476325,0.575866948094192,-0.4815441307520795,0.4325379037269444,2.004760447841593,-0.6736702088390362,1.5461460165951846,1.0838198181984116,12.117239801214964,-1.479730278065627,0.2943829396730709,-1.159321093451778
1.94,0.055026740098507,-0.3247624972516534,1.2844522091675643,-0.1100235546598142,0.1008569810274853,0.011754724534623,0.4168236805753437,-0.5028579614530071,0.3630609094368016,0.0538878776743955,-0.3126505576234021,1.2802895734102502,0.5961533516905932,-0.4487666007971692,0.4725379043229909,2.166982660266919,-0.7444691696004369,1.643421077843088,1.2003110706450186,12.117239801214964,-1.4812672600701766,0.3006845133431083,-1.16974247111985
1.96,0.0632224163290294,-0.3344551775822359,1.2919752344692534,-0.1111453461280829,0.1038500705408469,0.0121053351150922,0.403932996482062,-0.4685739991257833,0.3880534353890061,0.0655066486542613,-0.3221175525886691,1.2891403314877692,0.6164397552869945,-0.4159890708422589,0.5125379049190373,2.2170848893980724,-0.6445342046640823,1.71419811636119,1.249626297610229,12.203408034673885,-1.4789705782025528,0.3048083279593807,-1.185927204302648
1.98,0.0707968237818185,-0.3430182707145742,1.2995972088225964,-0.1098483096354062,0.1086128355259213,0.0124065308340183,0.3943365654683136,-0.43495323197364,0.4130207239968532,0.0776325797240372,-0.3307651093050634,1.2989910895801895,0.6367261588833957,-0.3832115408873487,0.5525379055150837,2.148146277914869,-0.4798215506874231,1.6810383576071646,1.248364430392354,12.282516126187147,-1.4736622817894536,0.3064388182271054,-1.2064027813027682
2.0,0.0786056818921717,-0.3513496077813863,1.308150735266335,-0.1058317669901934,0.1146294528570304,0.0128259911640418,0.3873596809929345,-0.4007632871506115,0.4411592110668808,0.0905136520552341,-0.3647659323132562,1.320248245022439,0.4198026555365347,-0.3349532304835239,0.5130207254869694,2.241318640094837,-0.3488442237689515,1.709497241151425,1.4069243535013791,12.391956494519944,-1.4673436097606292,0.3048583512832112,-1.2279736993488746
2.02,0.0863758960020183,-0.3590622654402532,1.317059196443702,-0.1005052309411735,0.1178485943565253,0.0136608515826511,0.3899609584023633,-0.3726337924452245,0.4471592155390765,0.0905136520552341,-0.3647659323132562,1.320248245022439,0.4198026555365347,-0.3349532304835239,0.5130207254869694,1.4439833536155855,0.1300638704714363,1.4064747352693474,0.3000002236097865,12.530213666770578,-1.4539544983455828,0.2992342905748597,-1.2321723795435118
2.04,0.0941997473195472,-0.3662478882756407,1.3261005212577204,-0.0953121735386835,0.1150720980463581,0.0150955009037081,0.391536269655557,-0.3472633551818433,0.4568140272229622,0.0905136520552341,-0.3647659323132562,1.320248245022439,0.4198026555365347,-0.3349532304835239,0.5130207254869694,1.3595551488730555,0.0787655626596856,1.268521863169059,0.4827405841942855,10.939815158327292,-1.4605398793544566,0.2958255331865027,-1.234857626367586
2.06,0.1016168489411096,-0.3726176590107935,1.3349195273516123,-0.0911626034259244,0.1089219692543783,0.0167200198036286,0.3886721627964401,-0.3243387617640667,0.4710060326504318,0.0947116786105995,-0.3681154646180915,1.3253784522773089,0.4248958735501789,-0.3149532301855006,0.5330207257849926,1.3556853520674836,-0.1432053429558433,1.1462296708888349,0.7096002713734756,11.302636575846009,-1.472139795365924,0.2931705378221981,-1.2318564708019712
2.08,0.1093148429688804,-0.3788586878793124,1.3445330073602848,-0.0877739923426238,0.10102267063197,0.0184644899211971,0.3809167915576005,-0.300825980465497,0.489739811380616,0.1031077317213302,-0.374814529227762,1.3356388667870482,0.4350823095774673,-0.2749532295894542,0.5730207263810391,1.5523781215912649,-0.3877685619419785,1.1756390649284825,0.9366889365092111,11.607471490681746,-1.4859400844412047,0.291933109107548,-1.228361872879017
2.1,0.1168102843136185,-0.3846315195299576,1.35455092586305,-0.0852934147209547,0.0934951959720004,0.0200906706153921,0.3688312714324614,-0.2775147035008641,0.511197463561138,0.1115037848320609,-0.3815135938374324,1.3458992812967876,0.4452687456047557,-0.2349532289934077,0.6130207269770855,1.6955133938701503,-0.6042760062569569,1.165563848231646,1.0728826090261017,12.031968848699762,-1.4983501238158854,0.2916599867486457,-1.2251159552600617
2.12,0.1236687352029022,-0.3896854715287462,1.364486933157583,-0.0836323044667822,0.0881069787316171,0.0214244213347107,0.3536576370229356,-0.2555507549152768,0.5335911089172097,0.120409159744156,-0.3862126584173005,1.3581596958363291,0.4554551816320442,-0.1949532283973613,0.653020727573132,1.7422181056040165,-0.7586817204762897,1.0981974292793657,1.1196822678035845,12.19196519540401,-1.50981487609123,0.2922349897706837,-1.224365713312185
2.14,0.1305449597864317,-0.3945579189723003,1.3754148124426289,-0.0825707649067726,0.0857176085825616,0.0225018496420567,0.3348577076922989,-0.2328145915159345,0.5580403783491695,0.1293145346562511,-0.3909117229971687,1.370420110375871,0.4656416176593326,-0.1549532278013148,0.6930207281691785,1.915813955421487,-0.9399964665318368,1.1368081699671129,1.2224634715979898,12.27102251839824,-1.5151248399291355,0.2932585464009559,-1.2271211013236203
2.16,0.1370477603745384,-0.3989684607626769,1.3868373883090614,-0.0819891891714436,0.0870841742146222,0.0232372677941383,0.3167746936927348,-0.2093994624452385,0.5830119411854972,0.1384745704690284,-0.3946107875621357,1.383680524930314,0.475828053686621,-0.1149532272052684,0.7330207287652248,1.935744440257057,-0.904150699978204,1.1707564535348003,1.248578141816381,12.27102251839824,-1.5138999261768828,0.2945985588855854,-1.2351040117366792
2.18,0.1432123673379755,-0.4029019152893791,1.3987683677631149,-0.0813828051151665,0.0912962554896073,0.023744801176542,0.3010181002510581,-0.1852383752773594,0.6088248785773296,0.147889267182488,-0.3973098521122015,1.397940939499658,0.4860144897139095,-0.0749532266092219,0.7730207293612713,1.93541733665817,-0.787829672083834,1.208054358393955,1.2906468695916218,12.301208114003202,-1.5097131315978216,0.2959469578113315,-1.2476180737607911
2.2,0.1488058355798541,-0.4061852477664212,1.4105903955739387,-0.080423350532257,0.0969000701648966,0.0241283201972767,0.2888434237132991,-0.1617306946790856,0.6342918986338296,0.1582632723505284,-0.4121638340532471,1.4292096116919812,0.3100118031917009,-0.0852383737872433,0.7066465240160007,1.8367109914652415,-0.60873382688795,1.1753840299136895,1.2733510028250017,12.35706255491732,-1.5030839962362887,0.2969346860295985,-1.2638305322334211
2.22,0.1545151594618059,-0.409130321664673,1.4233295492550149,-0.0773022905422539,0.1014722038778291,0.0247933027287714,0.2826097316856862,-0.1350884741698596,0.6371564075560424,0.1582632723505284,-0.4121638340532471,1.4292096116919812,0.3100118031917009,-0.0852383737872433,0.7066465240160007,1.3755655576187429,-0.3116846013806462,1.332111025461301,0.1432254461106397,12.430086951341764,-1.4943562335523968,0.2944994279535285,-1.2726357988580048
2.24,0.1601042083584458,-0.4116036149095205,1.436135027108283,-0.0727004747013829,0.1026024680785259,0.0258332669213621,0.2763632408792748,-0.1136963920607218,0.6433735710112745,0.1582632723505284,-0.4121638340532471,1.4292096116919812,0.3100118031917009,-0.0852383737872433,0.7066465240160007,1.1568199360615146,-0.3123245403205688,1.069604105456888,0.3108581727616022,10.760626313215653,-1.49543914012857,0.2914459405418375,-1.2810883969026017
2.26,0.1652894383519867,-0.41358395762927,1.4484655534184456,-0.0687835404515365,0.10138640352972,0.0269488121318463,0.2695879336140642,-0.0956369347704512,0.654228669858614,0.1613633903824454,-0.4130162177911195,1.4362760769321412,0.3118105437798295,-0.0652383734892201,0.7262108531037349,1.1066638572107563,-0.3387653632605292,0.9029728645135288,0.5427549423669797,11.118368908813864,-1.4994381162542507,0.2886915149766462,-1.286138996274654
2.28,0.1705923431266046,-0.415308863991103,1.4617075182454606,-0.065691523001928,0.0985634260661642,0.0281421721869808,0.2608781582247371,-0.077597986416396,0.6695424986246326,0.1675636264462794,-0.4147209852668643,1.4504090074124614,0.3154080249560866,-0.0252383728931736,0.7653395112792034,1.260731133636089,-0.4354887694663578,0.9019474177027592,0.765691438300925,11.687879731979592,-1.5057064658531494,0.2871717001118731,-1.2885756864960494
2.3000000000000003,0.1756981159205337,-0.416676516388815,1.475288479003397,-0.0637155826226384,0.0952004792010058,0.0292781904832655,0.2499448989454334,-0.059901345673842,0.6878812498723753,0.1737638625101134,-0.4164257527426092,1.4645419378927813,0.3190055061323438,0.0147616277028728,0.8044681694546718,1.3865578326976566,-0.5466629639651804,0.8848320371277026,0.916937562387138,11.687879731979592,-1.5127180001626976,0.286969534220153,-1.2899404787316362
2.32,0.1803210979277378,-0.4176512971485596,1.4885547074209762,-0.0628847121287232,0.0926741034429393,0.0302322875892173,0.2371527239608811,-0.0434431620452643,0.7076109439893212,0.1801439726327603,-0.4161305201885518,1.4806313012818748,0.3226029873086009,0.0547616282989192,0.8435968276301402,1.4350717570348537,-0.6396087492276187,0.8229091814288846,0.986484705847296,11.886514280623487,-1.5194237342359975,0.2880473860333375,-1.292186471521405
2.34,0.1849059786778356,-0.4183413004818886,1.5029347179346209,-0.063200734592805,0.0918016346129502,0.0310363930745584,0.2221913379291483,-0.0263101288798141,0.7293738445050575,0.1865240827554072,-0.4158352876344943,1.496720664670968,0.326200468484858,0.0947616288949657,0.8827254858056087,1.5740137676468875,-0.7480693015866388,0.8566516582725118,1.088145025786813,12.053538363908046,-1.5225799301220662,0.2904293138335996,-1.296669294177963
2.36,0.1891952053313242,-0.4186752991905818,1.5177554155310702,-0.0644649382033244,0.0928981202293785,0.0316472024745049,0.2076918340699742,-0.0079027354999706,0.7516113571801394,0.1929941299074605,-0.4145400550655357,1.5137882445144484,0.3297979496611152,0.1347616294910121,0.9218541439810772,1.615220351203621,-0.7249751929587058,0.9203696689921752,1.1118756337540947,12.128069700916967,-1.5227510883066402,0.2939290247630347,-1.3042844513509606
2.38,0.1932060371223326,-0.4186235517144121,1.53302784835121,-0.065978590841474,0.0955666243374952,0.0321348488169248,0.1943709915436594,0.0120757216453232,0.7745001286484562,0.1995541140889202,-0.4122448224816759,1.5318340408123152,0.3333954308373723,0.1747616300870585,0.9609828021565456,1.6586737584935554,-0.6660421263157398,0.998922857264695,1.1444385734158402,12.166894865469658,-1.5208536607309964,0.2975640769441355,-1.3140003122748043
2.4,0.1967852313768813,-0.4181887198770458,1.547967613358603,-0.0670253579361303,0.0990477753603315,0.0325572253839558,0.1832348195695075,0.0325479180580463,0.7969463541599385,0.2029245866995155,-0.4180197656321459,1.5717528547836326,0.185130276710519,0.1120757231354394,0.8287430152513348,1.617836666594713,-0.5568085987075949,1.023609820636152,1.1223112755741171,12.28788949783575,-1.517286229364306,0.3009129301732034,-1.3258120319881832
2.42,0.2003542563583489,-0.4172700284306793,1.5638221596186652,-0.0654749317736358,0.1016767335700641,0.0332509161693054,0.1740832278209611,0.0575723570836697,0.7856308124135724,0.2029245866995155,-0.4180197656321459,1.5717528547836326,0.185130276710519,0.1120757231354394,0.8287430152513348,1.4474250110912152,-0.4575795874273175,1.251221951281171,-0.5657770873183088,12.28788949783575,-1.5107101371378138,0.2997109494083167,-1.32717884703188
2.44,0.2037391131712296,-0.4159029174893986,1.5794322876149738,-0.0609955739752212,0.1017581938629965,0.0343076168119352,0.1647095203083568,0.0772984880945655,0.776172935327872,0.2029245866995155,-0.4180197656321459,1.5717528547836326,0.185130276710519,0.1120757231354394,0.8287430152513348,1.1899979791569972,-0.4686853756302164,0.9863065505447896,-0.4728938542850169,9.955901417657516,-1.5129197564956096,0.2963711225320024,-1.3329041851353267
2.46,0.2069269170815263,-0.4141905717849993,1.594910486774364,-0.0565257084131141,0.1001553102417962,0.0354482581354292,0.1543930747415655,0.0931313745782423,0.7720920099810292,0.2047758894666207,-0.4168990084007915,1.580040284936146,0.1832821337438909,0.1320757234334626,0.8395915925719105,0.9666479390451136,-0.5158222783395657,0.7916443241838378,-0.2040462673421395,10.267658870121522,-1.516938503058855,0.292616108959154,-1.3354080669046478
2.48,0.2097494651657184,-0.4122887137994521,1.6095789060046306,-0.0533080492667291,0.0979528302215619,0.0364777477945965,0.1431196497392162,0.1066104813123692,0.7721222345438017,0.2084784950008311,-0.4146574939380827,1.5966151452411728,0.1795858478106348,0.172075724029509,0.8612887472130619,0.8786030718671758,-0.5636712501174659,0.6739553367063458,0.0015112281386231,10.561711550370092,-1.5220530404776662,0.2901308539317085,-1.3362449761168604
2.5,0.2124711694861426,-0.4100155139604397,1.6250512581146648,-0.051234043608311,0.0959186832995786,0.0374358717616038,0.1295136045911905,0.120237130482064,0.77522658239412,0.2121811005350415,-0.4124159794753739,1.6131900055461994,0.1758895618773786,0.2120757246255555,0.8829859018542133,0.9752525413192132,-0.6803022574012829,0.6813324584847416,0.1552173925159161,10.799063262809796,-1.5268825032360274,0.2892798683984329,-1.337216922449438
2.52,0.2149041150880592,-0.4074726435525715,1.6406131239031276,-0.0505598486292785,0.095157375358875,0.0382177870673866,0.1145845744623291,0.1335143625430881,0.7808882273715685,0.2156988917725891,-0.4081744649828628,1.6308497235832835,0.1721932759441225,0.2520757252216019,0.9046830564953648,1.038285913948327,-0.7464515064430709,0.6638616030512037,0.2830822488724238,10.99635331805166,-1.5294285115814732,0.2900705017849485,-1.3399295975644985
2.54,0.2170387453973496,-0.4046664186557931,1.6562986789781888,-0.0514481367119439,0.0959851348903836,0.0388012496824803,0.0998425920992962,0.1466700196212881,0.7873523779889815,0.2192166830101366,-0.4039329504903517,1.648509441620368,0.1684969900108663,0.2920757258176484,0.9263802111365164,1.039450095429994,-0.7370991181516455,0.6577828539100022,0.3232075308706506,11.153010505277052,-1.529318605894241,0.2926875164141149,-1.344428724751924
2.56,0.2188864367079242,-0.4015799710963531,1.672117702726418,-0.0535297290819409,0.098153087448077,0.0392236446983927,0.0858770805259759,0.1613675625008718,0.7942099255957273,0.2226420670993528,-0.3986914359829394,1.6667115885234811,0.1648007040776102,0.3320757264136948,0.9480773657776675,1.0701392892756187,-0.6982755786660161,0.7348771439791846,0.342877380337292,11.222666010523426,-1.5273582399817875,0.2965374336828696,-1.350486205005884
2.58,0.2203940458212099,-0.3983542408406845,1.6872782242493751,-0.0558476584022477,0.1011153758333179,0.0395424461486324,0.0736801609018258,0.1774812822073215,0.8012733588773606,0.2259750440402376,-0.392449921460626,1.685456164292623,0.161104418144354,0.3720757270097413,0.9697745204188192,1.0704075168132046,-0.6098459812075012,0.8056859853224824,0.353171664081664,11.222666010523426,-1.5238638465555738,0.3010259867050101,-1.357796226702616
2.6,0.2217450227676776,-0.3946092582181675,1.7033891749291017,-0.0577607071128097,0.104772439265518,0.0398724102885035,0.0622173730220649,0.1960301843875778,0.8094829247739621,0.2240780538663012,-0.3894801767303184,1.7273418921932433,0.0611476892226748,0.2774812836974376,0.7963543216544984,1.1649616412995674,-0.5731393939880463,0.9274451090128144,0.4104782948300745,11.269772108144023,-1.5195882644494587,0.3049002249603763,-1.3664388192094568
2.62,0.2228555329139962,-0.3904466561611472,1.719358147061312,-0.0569624174840848,0.1083130314457612,0.0403878126864967,0.049321296017332,0.2186501489127209,0.7854311144418218,0.2240780538663012,-0.3894801767303184,1.7273418921932433,0.0611476892226748,0.2774812836974376,0.7963543216544984,1.7723298066979434,-0.6448038502366447,1.1309982262571583,-1.202590516607016,11.333096756393388,-1.5097761684483113,0.3039941186914859,-1.3661958241760976
2.64,0.2237124914973824,-0.3858790405899624,1.734818635380754,-0.0530620027381962,0.1113293157329765,0.0411449364609383,0.0370809811969825,0.2365073878084991,0.7620222332294101,0.2240780538663012,-0.3894801767303184,1.7273418921932433,0.0611476892226748,0.2774812836974376,0.7963543216544984,1.5942725672692857,-0.6120157410174728,0.8928619447889071,-1.1704440606205846,9.316816926431784,-1.5060056375776292,0.3005254830145059,-1.3728068553852777
