t,x,y,z,roll,pitch,yaw,v_x,v_y,v_z,ref_x,ref_y,ref_z,ref_v_x,ref_v_y,ref_v_z,a_com,a_x,a_y,a_z,thrust,wind_x,wind_y,wind_z
0.0,-2.3064473259542013,1.8685952005991344,2.666468349281616,0.0239110817045661,0.1475035212586567,0.0297156017042649,0.0049910267736818,0.0030461549448511,-0.1486419644849626,-2.3062847815364056,1.86876303958865,2.661822505714757,0.0399235040562964,-0.0951700940600886,-0.2495675378885448,7.437846296837636,0.249551338684094,0.1523077472425599,-7.43209822424813,10.66802581279535,-1.4093349936483042,0.1675368704041983,-1.2378152464203451
0.02,-2.3064535725049584,1.86886651754696,2.663309940060546,0.032263364736178,0.1497029414588648,0.0303269625536392,-0.0053257146518678,0.0202953796054433,-0.1683902438642447,-2.3062847815364056,1.86876303958865,2.661822505714757,0.0399235040562964,-0.0951700940600886,-0.2495675378885448,1.4088696208977385,-0.515837071277488,0.8624612330296085,-0.9874139689641056,9.358791429069242,-1.4049745151178428,0.1579251000750271,-1.2404813914373665
0.04,-2.306641818410118,1.869280475306318,2.6596682276016748,0.0467873148096281,0.155259118864225,0.0315089142360528,-0.0125108037126471,0.0195423750024931,-0.1949189492125412,-2.3062847815364056,1.86876303958865,2.661822505714757,0.0399235040562964,-0.0951700940600886,-0.2495675378885448,1.3747406375387026,-0.3592544530389638,-0.0376502301475093,-1.326435267414823,9.358791429069242,-1.395360935396286,0.1420342965859638,-1.246927051748525
0.06,-2.3069191333662515,1.86959282332908,2.655708779895483,0.0609758008488519,0.1620390339086349,0.0327962761490395,-0.016031099429301,0.013088012780366,-0.2205559209160571,-2.3058855464958428,1.8678113386480493,2.659326830335872,0.0468719013648844,-0.1151700943581118,-0.269567538186568,1.333515646471752,-0.1760147858326937,-0.3227181111063578,-1.281848585175796,9.109552741993411,-1.3843823533251096,0.1248904206523327,-1.2531944633892735
0.08,-2.307253470690646,1.8697541861090563,2.651017755148775,0.0753899102967698,0.1697944095659979,0.0342385187528531,-0.0169385676367837,0.0030750909384158,-0.247214262437884,-2.3050870764147167,1.8659079367668476,2.6543354795781005,0.0607686959820605,-0.1551700949541583,-0.3095675387826144,1.4245606998781732,-0.045373410374138,-0.5006460920975098,-1.3329170760913458,9.125652339975204,-1.3732105294782726,0.1083496695880157,-1.260763753279086
0.1,-2.3075794577034414,1.8696859964844696,2.645801649269453,0.0891321715813537,0.1776445295788921,0.0357278948842482,-0.0153846139601202,-0.0096818376318396,-0.2731200245056678,-2.3042886063335906,1.864004534885645,2.6493441288203297,0.0746654905992365,-0.1951700955502047,-0.3495675393786609,1.4459101864296795,0.0776976838331782,-0.6378464285127737,-1.2952881033891916,9.165658132055796,-1.36207472873109,0.0933024501619387,-1.267139289099217
0.12,-2.3078395771720324,1.8693605930905,2.640372981343862,0.1015649632160174,0.1849222379002354,0.0371563971558857,-0.0118973287039758,-0.0241723317749537,-0.2970734089616594,-2.3027952965216056,1.8601011329746413,2.6423527780327563,0.0885622852164126,-0.2351700961462512,-0.3895675399747073,1.410585167462323,0.1743642628072166,-0.7245247071557067,-1.197669222799577,9.22656313141033,-1.3499579190339723,0.0781492773962844,-1.2730042350974011
0.14,-2.3080243628132537,1.8686970217192844,2.6341617253374703,0.1140196488464602,0.1922579587082929,0.038648973326513,-0.0065802683512002,-0.0416839957923023,-0.322857117541476,-2.301301986709621,1.8561977310636373,2.6353614272451837,0.1024590798335887,-0.2751700967422977,-0.4295675405707538,1.58092467845599,0.2658530176387804,-0.8755832008674288,-1.2891854289908329,9.286274701511502,-1.3385143366456425,0.063746322453549,-1.2780933377390344
0.16,-2.3080855193669403,1.8676594935473525,2.627433344722142,0.1258520695670154,0.199200962670338,0.0401092578692847,0.0003719860752724,-0.0614423135380759,-0.3487231259008214,-2.299461257032207,1.851294329137732,2.627370076442709,0.1163558744507647,-0.3151700973383441,-0.4695675411668003,1.6641629654266767,0.3476127213236391,-0.9879158872886796,-1.2933004179672662,9.275527306201184,-1.3280783956762847,0.0507679445791035,-1.2814990006491975
0.18,-2.307990926981657,1.8662037962224187,2.620190006155744,0.1370887534319336,0.2057281046479995,0.0415195394279108,0.0088940462470308,-0.0833737393475753,-0.3743703184765374,-2.2972731074893638,1.8453909271969255,2.618378725625333,0.1302526690679408,-0.3551700979343905,-0.5095675417628467,1.7402524490892906,0.4261030085879194,-1.0965712904749698,-1.2823596287858008,9.298550466807685,-1.3177887215763715,0.0378293790098311,-1.2839283844073732
0.2,-2.307729190076911,1.8643948552808505,2.612836185796033,0.1472353175670857,0.2115439184654053,0.0428001195535735,0.0183552721048586,-0.1061383547174766,-0.3984784396186986,-2.3075462246693053,1.86203510925504,2.601471490231917,0.0448865978420034,-0.1833737408376914,-0.4743703199666535,1.7240533726348883,0.4730612928913864,-1.1382307684950632,-1.2054060571080605,9.370718070700605,-1.3082491909333274,0.0255920718510807,-1.2854570010176596
0.22,-2.3072013356105736,1.8618561216002092,2.6047239917782665,0.1532182482481277,0.216964118303035,0.0437248273141393,0.0341705548565122,-0.144717074221188,-0.4104422582884572,-2.3075462246693053,1.86203510925504,2.601471490231917,0.0448865978420034,-0.1833737408376914,-0.4743703199666535,2.1688555301262378,0.7907641375826836,-1.9289359751855728,-0.5981909334879298,9.370718070700605,-1.300113115007966,0.0192437068128491,-1.282778958165585
0.24,-2.3063413430031163,1.858610866373932,2.5963964777533426,0.154072681188352,0.2213184530674784,0.0441022318328111,0.0510176026100408,-0.1774600507441293,-0.4218252228276181,-2.3075462246693053,1.86203510925504,2.601471490231917,0.0448865978420034,-0.1833737408376914,-0.4743703199666535,1.9271075549196468,0.8423523876764267,-1.6371488261470657,-0.5691482269580467,10.343223698242582,-1.2945581116166676,0.0184804340373854,-1.282878155633622
0.26,-2.305137955967413,1.8547297457256828,2.5878159705703787,0.1519555900429423,0.2244715822655267,0.0440492600714047,0.0683999230192931,-0.2086367304299293,-0.4355652827900613,-2.307097358690885,1.860201371846663,2.5967277870322505,0.052085108160998,-0.2033737411357147,-0.4943703202646767,1.9124066426968496,0.8691160204626149,-1.558833984289998,-0.6870029981221576,10.223258578223067,-1.2907345887119894,0.0208667313654353,-1.281745951945379
0.28,-2.303671731623963,1.8504905300973675,2.579394184681846,0.1479237131225504,0.2262714919569679,0.0436408687001046,0.0849698995530281,-0.2354448562702287,-0.4501265863685861,-2.306199626734045,1.8565338970299088,2.587240380632917,0.066482128798987,-0.2433737417317611,-0.5343703208607232,1.7358508686691805,0.8284988266867493,-1.3404062920149715,-0.7280651789262432,10.089156568486032,-1.2870119596825904,0.0258302103382169,-1.2771156295646922
0.3,-2.3017930017385937,1.845515310810792,2.570217409770157,0.1430759039980318,0.2269913322680823,0.042966412762577,0.1019299260615975,-0.2604929421932767,-0.4668207869881755,-2.3053018947772053,1.8528664222131557,2.5777529742335843,0.0808791494369761,-0.2833737423278076,-0.5743703214567697,1.7275310720120696,0.848001325428472,-1.2524042961523985,-0.8347100309794658,9.973723790948496,-1.284719344888601,0.0313023921993079,-1.2718939525226345
0.32,-2.299580097657238,1.8400591374864608,2.560692317538105,0.1383071416441985,0.2266317608717825,0.0421230016673439,0.1184510384765086,-0.2837758332891438,-0.4848840122997358,-2.3036843117884658,1.8471989473665995,2.566265567804449,0.0952761700749651,-0.323373742923854,-0.6143703220528162,1.6891716030826534,0.8260556207455527,-1.164144554793353,-0.9031612655780176,9.861026108506849,-1.283577397309878,0.0365310637497781,-1.2653461763810168
0.34,-2.2970400000573776,1.8341511921746323,2.5507987085728594,0.1338539159361889,0.2251828176669079,0.0411387471671444,0.1346667473211906,-0.3058096095217314,-0.5035703406115662,-2.3020667287997263,1.8415314725200431,2.5547781613753133,0.1096731907129542,-0.3633737435199005,-0.6543703226488626,1.6565139406150169,0.8107854422341,-1.101688811629381,-0.9343164155915212,9.766986530019494,-1.283696186618252,0.0410747544594278,-1.2575050024559082
0.36,-2.2943275777708627,1.8281318071768036,2.541047778616683,0.1297274337580236,0.222659777752474,0.0400524240203557,0.1499459905855641,-0.3265287437230468,-0.52184449905051,-2.300089220295037,1.8348639976585857,2.5422907549312765,0.1240702113509432,-0.4033737441159469,-0.694370323244909,1.5785140666427735,0.7639621632186774,-1.0359567100657718,-0.9137079219471878,9.719270042712196,-1.2851922973933614,0.0455940762702769,-1.2476462796751009
0.38,-2.291165002195011,1.8213791078859396,2.5304034296700832,0.1253120024112973,0.2186297231272863,0.0387287438662426,0.1653802853550776,-0.3474825510182154,-0.5416026025464294,-2.297751786274398,1.8271965227822276,2.528803348472339,0.1384672319889322,-0.4433737447119933,-0.7343703238409555,1.6337549915384786,0.7717147384756762,-1.04769036475843,-0.9879051747959722,9.68080063096386,-1.2884833958118551,0.0500925367565201,-1.2358105031036075
0.4,-2.2877083006921115,1.8142151297145963,2.5193588791636223,0.1207704707177013,0.213244114684493,0.0372395606031776,0.1791881439561647,-0.3676541667626373,-0.5617570332693455,-2.282895987927257,1.8040049803350289,2.5033232995427617,0.1967616502668723,-0.4474825525083316,-0.6416026040365456,1.5841023630537914,0.690392930054351,-1.0085807872210943,-1.0077215361458003,9.627966195474071,-1.2938560164254218,0.0544739076010803,-1.2226356986326272
0.42,-2.283965047070476,1.806653250851192,2.5081422562338127,0.1168628607262971,0.2075476440437648,0.0357778254274617,0.1945000801669751,-0.3878538208007228,-0.5577226488071485,-2.282895987927257,1.8040049803350289,2.5033232995427617,0.1967616502668723,-0.4474825525083316,-0.6416026040365456,1.2833137494111548,0.7655968105405239,-1.0099827019042718,0.2017192231098474,9.58091818666253,-1.2999086113816112,0.059012029062173,-1.1998585138906612
0.44,-2.28014631447996,1.7991016705914498,2.4975592331442646,0.1141906030342107,0.2027604114672379,0.0345499943448176,0.2065782267110914,-0.4062510008661479,-0.5566132639908501,-2.282895987927257,1.8040049803350289,2.5033232995427617,0.1967616502668723,-0.4474825525083316,-0.6416026040365456,1.1017810501313952,0.6039073272058118,-0.919859003271256,0.0554692408149204,11.071170032853844,-1.307210144862218,0.0613320795073854,-1.1926106064716164
0.46,-2.275902658211157,1.7907740704379589,2.486391077789333,0.1120299208656473,0.1986232791375516,0.0334141082759955,0.2169954641008501,-0.4255353988772225,-0.5604633696199308,-2.2809283714245887,1.7995301548099454,2.496907273502396,0.2030379232492312,-0.4674825528063548,-0.6616026043345687,1.1126883602779405,0.5208618694879347,-0.9642199005537312,-0.1925052814540362,10.701107956866508,-1.3124516400229047,0.0629135318011391,-1.1855211224926216
0.48,-2.271472841929524,1.782064874904458,2.475095667913455,0.1101462199617374,0.1955668780737521,0.0324226740607279,0.2254045501909127,-0.4443864238035443,-0.5688309784609643,-2.276993138419251,1.7905805037597786,2.4840752214216653,0.2155904692139491,-0.5074825534024012,-0.7016026049306152,1.113654734825198,0.4204543045031331,-0.9425512463160896,-0.4183804420516746,10.13139747630703,-1.3156253419690012,0.0641718941488017,-1.179007851257659
0.5,-2.267123768635304,1.7734474309762334,2.4641777724932754,0.1084786810282234,0.1938304114154533,0.0316195966821252,0.2319506046593153,-0.4617327288902234,-0.5799722011221996,-2.2730579054139137,1.781630852709612,2.4712431693409345,0.228143015178667,-0.5474825539984477,-0.7416026055266617,1.081517419705602,0.3273027234201267,-0.8673152543339557,-0.5570611330617647,10.13139747630703,-1.3168598702633594,0.0653557983096456,-1.1731992762331438
0.52,-2.2624195288673405,1.7640289460026843,2.452428905077009,0.106902711938897,0.1933087908471093,0.0309283846774492,0.2382605283821686,-0.4791642888577518,-0.594457467700473,-2.2684950451103405,1.7706812016296432,2.456411117230401,0.2406955611433848,-0.5874825545944942,-0.7816026061227082,1.176326238903787,0.315496186142665,-0.8715779983764216,-0.7242633289136713,9.762487478898038,-1.315573686244423,0.0662752918187499,-1.1693027871978483
0.54,-2.257584062395801,1.7542676555644343,2.440373551585589,0.1055955733683027,0.1937420222117325,0.0303559928785681,0.2450575055780423,-0.4960660099276844,-0.6103956398703715,-2.263932184806767,1.7597315505496742,2.441579065119868,0.2532481071081027,-0.6274825551905406,-0.8216026067187546,1.210260722163159,0.3398488597936858,-0.8450860534966298,-0.7969086084949228,9.762487478898038,-1.3131507315726314,0.0669757087040451,-1.1658404531256006
0.56,-2.25260458801322,1.744162082398698,2.427986853698492,0.1042490126829911,0.1946555025536227,0.0298282950397715,0.2526065183361272,-0.5134936676300889,-0.6274498236916393,-2.2590555108540755,1.747781899454804,2.4257470129944334,0.2658006530728206,-0.667482555786587,-0.861602607314801,1.2762797816539837,0.3774506379042461,-0.8713828851202199,-0.8527091910633888,9.687547831144002,-1.3102922671392967,0.067668040681115,-1.1632064035176586
0.58,-2.247728278636681,1.734237083244223,2.415894486642762,0.1025231897770503,0.1955996635661885,0.0293006580011591,0.2603255204404465,-0.5301494884378211,-0.6445444307978476,-2.2538650232522666,1.7348322483450327,2.408914960854098,0.2783531990375384,-0.7074825563826335,-0.9016026079108476,1.2542178363240966,0.3859501052159625,-0.8327910403866101,-0.854730355310418,9.634398252032042,-1.3071659512402831,0.0688918105003836,-1.16019180195527
0.6,-2.2424338383309577,1.7234562834142932,2.40280481724282,0.1002201216462826,0.1964392004086187,0.0286932452839005,0.2687130356083996,-0.5468620835978384,-0.6635447225785306,-2.2347120026146583,1.7077296088223322,2.3836672651028694,0.3090749486828915,-0.6301494899279372,-0.7445444322879637,1.332921917655313,0.4193757583976554,-0.8356297580008665,-0.9500145890341484,9.583459971626326,-1.30403836934201,0.070611894380737,-1.1570062308858744
0.62,-2.236951637546043,1.7123130596455345,2.389613987536452,0.0973308039359022,0.1982392656335646,0.0281393076787597,0.2795611793754973,-0.5664348708825299,-0.6531137539480029,-2.2347120026146583,1.7077296088223322,2.3836672651028694,0.3090749486828915,-0.6301494899279372,-0.7445444322879637,1.234485046339622,0.5424071883548875,-0.9786393642345736,0.5215484315263863,9.519155311730174,-1.302445113180938,0.0738197755107205,-1.1439520225357789
0.64,-2.231237494106283,1.7008030788255188,2.376634904301828,0.0942969945809305,0.2018202199996734,0.0277450119979654,0.2914888450699733,-0.5835040901255241,-0.6458302182125506,-2.2347120026146583,1.7077296088223322,2.3836672651028694,0.3090749486828915,-0.6301494899279372,-0.7445444322879637,1.1030382442306723,0.5963832847238004,-0.8534609621497102,0.3641767867726131,11.40951766195576,-1.2988850375845515,0.07606144708284,-1.149821842632639
0.66,-2.225578720367375,1.689564915773588,2.364371460837416,0.091628124254298,0.2059922352385634,0.0274510778467988,0.303731646384712,-0.5985608908596954,-0.6454053358940138,-2.231621253127829,1.7014281139230527,2.37622182077999,0.3188248343313805,-0.6501494902259604,-0.7645444325859869,0.9705333036085304,0.6121400657369325,-0.7528400367085686,0.0212441159268383,10.961836988155484,-1.29351928218612,0.0782254083985593,-1.156240085404015
0.68,-2.2193605179954803,1.6774387267003452,2.351421575089029,0.0890637458829338,0.2104477964586424,0.0271564371415822,0.3175308598120137,-0.6132305088011644,-0.6498262932222083,-2.2254397541541717,1.688825124124494,2.3613309321342304,0.3383246056283585,-0.6901494908220068,-0.8045444331820334,1.0309714417220854,0.6899606713650835,-0.7334808970734463,-0.2210478664097237,10.587028861828912,-1.2876908729813328,0.0801849927481423,-1.1615885096937677
0.7000000000000001,-2.2128580200547403,1.665028278543823,2.338339054071532,0.0867745893019672,0.2144600487937663,0.0268344334885535,0.3320655869414476,-0.6270555266715377,-0.6583643135306191,-2.2192582551805136,1.6762221343259354,2.346440043488472,0.3578243769253365,-0.7301494914180533,-0.8445444337780799,1.0900541301124465,0.7267363564716967,-0.691250893518669,-0.4269010154205388,10.305784357908124,-1.2821146764269993,0.0818851731281024,-1.1654966368105697
0.72,-2.206059900529061,1.6523500045076196,2.325047775926722,0.0847649830783156,0.2176970821026204,0.0264599231463188,0.347006878190176,-0.6401090618110339,-0.6703187427600175,-2.212101767642007,1.6616191444975743,2.3295491548129097,0.3773241482223144,-0.7701494920140998,-0.8845444343741263,1.1581724202575412,0.7470645624364225,-0.6526767569748071,-0.5977214614699189,10.087808955621767,-1.2774763939969347,0.083237283220144,-1.1676504973327215
0.74,-2.199320708475384,1.6400693374074258,2.3121859211197724,0.0831383698538059,0.21993731507343,0.0260511050297996,0.3615925797437909,-0.6519817497947257,-0.682952061117525,-2.2049452801035,1.6470161546692133,2.312658266137348,0.3968239195192924,-0.8101494926101462,-0.9245444349701728,1.1328108210237042,0.7292850776807414,-0.5936343991845894,-0.6316659178753792,9.849950275246556,-1.2735676105667164,0.0843673583637095,-1.168049609200043
0.76,-2.191923936437367,1.626895165480637,2.2983759567209963,0.0815002724817896,0.221338225048477,0.0255465209038938,0.3772582600188879,-0.6647298160636748,-0.6974093250023842,-2.197301298282569,1.6314131648259511,2.294767377446885,0.4163236908162704,-0.8501494932061926,-0.9645444355662192,1.241913051621907,0.7832840137548536,-0.6374033134474544,-0.7228631942429564,9.787667403213163,-1.2707066069416908,0.0853857248619709,-1.167168035208795
0.78,-2.1842115294171567,1.613466244548469,2.284264210792725,0.0796322921410909,0.2216279604786835,0.0249377340005392,0.3930837143572976,-0.6773465475540236,-0.7129978166967867,-2.189169822179213,1.6148101749677877,2.2758764887415213,0.4358234621132484,-0.8901494938022391,-1.0045444361622655,1.2773292369462814,0.7912727169204853,-0.6308365745174405,-0.7794245847201287,9.787667403213163,-1.269025311615035,0.086556424362439,-1.1648141031049477
0.8,-2.176591806724208,1.6004791167142425,2.2705587330616304,0.0775879655871277,0.2207581635315539,0.0242547142685627,0.4081215048451477,-0.6889245685549331,-0.7288667153543276,-2.164557343699292,1.5795989171707678,2.2486143199578854,0.4513420392188241,-0.7773465490441397,-0.8129978181869029,1.236939426222317,0.7518895243925044,-0.5789010500454772,-0.793444932877041,9.662724632519712,-1.2684311568813642,0.0880475223627658,-1.1607345703576324
0.8200000000000001,-2.168226707563988,1.5865448017026598,2.256109571708711,0.0749046010570392,0.2194729874275833,0.0234794638508088,0.4277201548471748,-0.7037033709069496,-0.7135831658799896,-2.164557343699292,1.5795989171707678,2.2486143199578854,0.4513420392188241,-0.7773465490441397,-0.8129978181869029,1.4457757134117115,0.979932500101352,-0.7389401176008226,0.7641774737168983,9.662724632519712,-1.269929607663394,0.0905574520377695,-1.1467215560247128
0.84,-2.15947696717764,1.572339227732929,2.241969185562095,0.0721003632361735,0.2189523539824416,0.0227660088755713,0.4462456173705941,-0.7160692345529233,-0.7017652304291371,-2.164557343699292,1.5795989171707678,2.2486143199578854,0.4513420392188241,-0.7773465490441397,-0.8129978181869029,1.2607249340537627,0.9262731261709678,-0.6182931822986848,0.5908967725426262,11.754826295165913,-1.2721439776335188,0.0927532868575513,-1.1492335274238583
0.86,-2.150365132106083,1.5578998959818404,2.227981241134074,0.0696198125917654,0.2186797833437026,0.0221047218423372,0.4639887396389812,-0.7272605796536897,-0.6975757880230192,-2.160043923307104,1.5718254516803265,2.2404843417760163,0.4629937041911294,-0.7973465493421629,-0.832997818484926,1.069598079501782,0.8871561134193517,-0.5595672550383235,0.2094721203058924,11.244475760751811,-1.2727991445981162,0.0945170160315396,-1.1504622333580952
0.88,-2.1413878074254424,1.5439844494624817,2.214715405671188,0.0675782782734119,0.2182157759837963,0.0214944928273683,0.4800444135295345,-0.7370061194325308,-0.6990106419902989,-2.1510170825227277,1.5562785206994436,2.2242243854122785,0.48629703413574,-0.8373465499382093,-0.8729978190809725,0.9418320120491056,0.8027836945276645,-0.4872769889420536,-0.0717426983639857,10.806643851436093,-1.2734517214961705,0.0960597043040067,-1.150462070955066
0.9,-2.13161864140811,1.52914540973555,2.2006774186414555,0.0658353065321487,0.2173309530311778,0.0208648131945614,0.4959402549061498,-0.7464134000858778,-0.7048957492556422,-2.141990241738351,1.540731589718561,2.2079644290485403,0.5096003640803506,-0.8773465505342558,-0.912997819677019,0.9692899332577788,0.7947920688307658,-0.4703640326673475,-0.2942553632671651,10.473084081708294,-1.2742212210428157,0.0971806487519062,-1.1489748634329928
0.92,-2.121541016253299,1.5141256698964625,2.1864811903878154,0.0646162373039584,0.2159341960370161,0.0202493895051809,0.5109565606038537,-0.755103026719866,-0.7145676949557666,-2.131798234456744,1.523184658707876,2.189704472655,0.5329036940249612,-0.9173465511303024,-0.9529978202730656,0.9931585742860584,0.7508152848851979,-0.43448133169941,-0.4835972850062153,10.2075357823378,-1.2751636159397195,0.0977514897076836,-1.146110549651566
0.94,-2.111169436751248,1.4989396918043747,2.172068936244467,0.0641214737237041,0.213887216308297,0.0196529509895005,0.5253809849838612,-0.7631510731491773,-0.7261393310686794,-2.121606227175137,1.5056377276971908,2.1714445162614595,0.5562070239695718,-0.9573465517263487,-0.992997820869112,1.0083871185618332,0.7212212190003731,-0.402402321465567,-0.5785818056456449,9.99291006303156,-1.2765005831459204,0.0976034080895506,-1.141871465913591
0.96,-2.101051307932232,1.4843575775668774,2.1581499364797945,0.0641710587809851,0.2111403421824156,0.0190786363039098,0.5388786330750421,-0.7713748147127159,-0.7384088186434978,-2.1108316366449147,1.4870907966716045,2.1521845598530183,0.5795103539141824,-0.9973465523223952,-1.0329978214651585,1.000445843918918,0.6748824045590462,-0.4111870781769278,-0.6134743787409191,9.895630963125768,-1.2785384780406608,0.0968565934081091,-1.1360918260586006
0.98,-2.090129795823347,1.4688359813678291,2.143232954984227,0.0644668541803072,0.2071354594729495,0.0184255740168047,0.5524402434840897,-0.7803348658591397,-0.7526771513407162,-2.0994744628660773,1.467543865631117,2.1319246034296757,0.602813683858793,-1.0373465529184416,-1.0729978220612046,1.0814170233908726,0.6780805204523788,-0.4480025573211921,-0.7134166348609194,9.818118886323646,-1.2824341045202543,0.095892367932819,-1.1287424907221946
1.0,-2.078948469452229,1.453130092291525,2.128016545490961,0.0647600409171892,0.2018612380046014,0.0176956295716329,0.5647121945291214,-0.7897714855693332,-0.7682531361775659,-2.0625077836491426,1.4298192380748724,2.1055990974171914,0.5876804242745141,-0.8803348673492558,-0.8526771528308323,1.0980230845071466,0.6135975522515824,-0.4718309855096747,-0.7787992418424816,9.730204553475232,-1.2876351701422597,0.0949960864150599,-1.119980673632879
1.02,-2.067453244997105,1.4371792121942235,2.112812488909962,0.0637786659826093,0.1949903355142709,0.0167824461366884,0.5841546703447634,-0.8046480066604563,-0.7495639344594544,-2.0625077836491426,1.4298192380748724,2.1055990974171914,0.5876804242745141,-0.8803348673492558,-0.8526771528308323,1.5399732193099336,0.9721237907821034,-0.743826054556157,0.9344600859055752,9.645754942310305,-1.2892179153926884,0.0951396464611951,-1.0983552280124091
1.04,-2.0562005084407247,1.421767214026627,2.098712519526713,0.0612122567226653,0.1869281289861208,0.0157298312296218,0.5989369372542253,-0.8166813037482125,-0.735691859133808,-2.0625077836491426,1.4298192380748724,2.1055990974171914,0.5876804242745141,-0.8803348673492558,-0.8526771528308323,1.1787176587558803,0.7391133454730914,-0.6016648543878067,0.6936037662823191,11.915458580333508,-1.3018278070132392,0.0972278448743578,-1.0909072018318404
1.06,-2.044101257779709,1.4053269171015808,2.084078208514839,0.0579325435421801,0.1775900559114162,0.0145749976228101,0.6097796742158341,-0.8265540413589808,-0.7287717947311286,-2.056630979406397,1.4210158894013798,2.0970723258888837,0.594728460432599,-0.900334867647279,-0.8726771531288555,0.8107453115605243,0.5421368480804434,-0.4936368805384172,0.3460032201339669,11.340312391327643,-1.3147387823288923,0.0999137376526637,-1.0811199802468137
1.08,-2.0318346587511678,1.388710146333514,2.069497977531221,0.0548310045215853,0.168009921994774,0.0134703105044868,0.6160579488011771,-0.8346447802953139,-0.7295059638436198,-2.044877370920907,1.4034091920543947,2.0800187828322665,0.6088245327487687,-0.9403348682433256,-0.912677153724902,0.5133609660623698,0.3139137292671512,-0.4045369468166526,-0.0367084556245567,10.365297895105869,-1.3261902834683466,0.1022811603192823,-1.0701079270273612
1.1,-2.020103851705401,1.372786235458466,2.055576144666769,0.0522940635768747,0.1592175849111414,0.0125113767619468,0.6182839444947664,-0.8412275352673497,-0.7358659559229647,-2.033123762435417,1.3858024947074097,2.0629652397756497,0.6229206050649384,-0.980334868839372,-0.9526771543209483,0.4710021738247892,0.1112997846794638,-0.3291377486017932,-0.317999603967245,10.009345257391033,-1.3366875728144534,0.1043342292139724,-1.0572758955888162
1.12,-2.0077443544925138,1.3558981840338988,2.04074365275004,0.0501779173169836,0.1507591958661002,0.0116227816326876,0.617355893780082,-0.8473089177558666,-0.7472419887982369,-2.020665350334118,1.3661957973306222,2.043911696689231,0.6370166773811081,-1.0203348694354184,-0.9926771549169948,0.6466425115161007,-0.046402535734219,-0.3040691244258431,-0.5688016437636112,10.009345257391033,-1.345279136636664,0.105820159805942,-1.0443216156117547
1.14,-1.9954311764393848,1.3388950018238996,2.025653433139902,0.0487096160046749,0.1434860600365685,0.010871843318915,0.6139096914604114,-0.8527538105418659,-0.7612875632190439,-2.008206938232819,1.3465890999538348,2.024858153602812,0.651112749697278,-1.060334870031465,-1.0326771555130414,0.772659900424435,-0.1723101159835316,-0.2722446392999678,-0.7022787210403503,9.723182602856468,-1.3515131456810083,0.1066723382206156,-1.0317116698189026
1.16,-1.9832077214219743,1.3217795436984832,2.010259755133738,0.0477339149117355,0.1376367178911477,0.0102496162700337,0.6085527041111537,-0.8584897794636321,-0.7773438588753676,-1.995396124323616,1.3259824025621465,2.004804610501492,0.6652088220134477,-1.1003348706275111,-1.0726771561090878,0.8935928646968578,-0.2678493674628857,-0.2867984460883099,-0.8028147828161858,9.57668454857594,-1.3557511777156503,0.1070609003538621,-1.0214609057346886
1.18,-1.9717121684061456,1.305412868627246,1.9953229026350427,0.0470157248725426,0.1336623954497698,0.0097676580701546,0.6017335955983949,-0.86398518802653,-0.7941337382709064,-1.982232908606509,1.3043757051555565,1.9837510673852703,0.6793048943296174,-1.1403348712235577,-1.112677156705134,0.9468365834433736,-0.3409554256379399,-0.2747704281448937,-0.8394939697769388,9.468342020551065,-1.3580314642590052,0.1072594850452749,-1.013182455799153
1.2,-1.9597677349113647,1.288073501308785,1.9792397649734303,0.0463951407841855,0.1315860937689925,0.0093862867409062,0.5930211812084717,-0.8696302052364987,-0.8133599322480809,-1.941625488626226,1.2622136092259195,1.9556162157214971,0.6624586884862733,-0.963985189516646,-0.8356426624869384,1.092495902338454,-0.4356207194961603,-0.2822508604984342,-0.9613096988587256,9.375792219340838,-1.3576750309326504,0.1073305112773133,-1.0082571818562094
1.22,-1.947970227643617,1.2705627813388407,1.963245649118119,0.0446810047494523,0.1330137717465253,0.0091064275715765,0.5879491864270597,-0.8808804056611672,-0.7825855719853863,-1.941625488626226,1.2622136092259195,1.9556162157214971,0.6624586884862733,-0.963985189516646,-0.8356426624869384,1.657824923081446,-0.2535997390705979,-0.5625100212334255,1.5387180131347322,9.283915004241408,-1.3505475120627146,0.1084394139372804,-0.9932627195255676
1.24,-1.936826290219978,1.2537410484492268,1.9486512816517392,0.0416637335755285,0.1377372776967788,0.0089026738251887,0.5857708802294397,-0.8889069918770466,-0.7555012608912116,-1.941625488626226,1.2622136092259195,1.9556162157214971,0.6624586884862733,-0.963985189516646,-0.8356426624869384,1.4166254018066722,-0.1089153098810025,-0.4013293107939686,1.354215554708732,12.647280626742033,-1.3484937035907754,0.1109576385890712,-1.0060766157580636
1.26,-1.9251119989371728,1.2359018480974733,1.933772700638468,0.0383992212160064,0.1446776056051786,0.0087629271652164,0.5861125690758753,-0.8945591860325426,-0.7341268300694057,-1.9350009017413636,1.2525737573307534,1.947259789096628,0.674603707063849,-0.9839851898146692,-0.8439444473301448,1.1055884666042874,0.0170844423217797,-0.2826097077748002,1.068721541090295,11.582334727502712,-1.3435498008115625,0.1137589233317413,-1.020831797091309
1.28,-1.913367676321312,1.2179667576298618,1.9192542726998083,0.0356444192019351,0.1525375486662101,0.0086895427567238,0.5885801686646982,-0.898728090890688,-0.7190577828685109,-1.9217517279716376,1.2332940535404204,1.9305469358468887,0.6988937442190004,-1.0239851904107158,-0.8605480170165576,0.7914306649824484,0.123379979441146,-0.208445242907268,0.7534523600447429,11.582334727502712,-1.3374811172064938,0.1160583818157516,-1.0345434964465
1.3,-1.9015541018892133,1.1999592596883522,1.9049802365657984,0.0336018174743768,0.1606581065810378,0.0086729586974163,0.5929198652461558,-0.9019934316642904,-0.7091185288671895,-1.9085025542019125,1.2140143497500877,1.9138340825971505,0.7231837813741517,-1.063985191006762,-0.8771515867029704,0.5663130470191559,0.2169848290728804,-0.163267038680126,0.496962700066067,11.212566447189602,-1.3301482030202,0.1178761352896427,-1.0481659393642433
1.32,-1.8902304513091488,1.18279885042712,1.8915682412061343,0.0323995675710672,0.1681218079545728,0.0087028324444839,0.5989799234824638,-0.9043352732764708,-0.7031939385969278,-1.894038878574429,1.1927346459299522,1.896291050863091,0.7474738185293031,-1.1039851916028085,-0.8937551563893833,0.4396285302231372,0.3030029118153976,-0.1170920806090103,0.2962295135130854,10.942785416069457,-1.322515940040755,0.1189736121026978,-1.0607116963459648
1.34,-1.878164619714456,1.1646949483718791,1.8775621252877883,0.0321912418657991,0.1752813071732826,0.0087944449764082,0.6074314059476364,-0.9060349183140156,-0.6977752641414817,-1.8795752029469464,1.171454942109817,1.878748019129032,0.7717638556844545,-1.143985192198855,-0.910358726075796,0.5091129097923074,0.4225741232586344,-0.0849822518772414,0.2709337227723041,10.74596454346738,-1.3152560995762792,0.1190486215643903,-1.0713818918822644
1.36,-1.865905180639396,1.1465520569690395,1.8636585209041625,0.0330954499321338,0.1812785995033858,0.0089419937730459,0.6180918946005198,-0.9082467494474268,-0.6928783766356266,-1.8645042763905848,1.1491752382747806,1.860789898152812,0.7960538928396058,-1.1839851927949014,-0.9269622957622088,0.5969039339080945,0.5330244326441691,-0.1105915566705695,0.2448443752927576,10.725850823067049,-1.3092678093444865,0.1181202012730114,-1.0800367490531806
1.38,-1.8540456537538643,1.129269598814567,1.850535703492247,0.0347408889437665,0.1855636479270292,0.009107321921216,0.6296746009468989,-0.910902055430078,-0.6887249023458386,-1.848826098905344,1.125895534424843,1.842416687934432,0.8203439299947571,-1.2239851933909478,-0.9435658654486216,0.6294066349425503,0.5791353173189517,-0.1327652991325589,0.2076737144893981,10.71897637330676,-1.3046528451235628,0.1163394391619351,-1.0872171784657896
1.4,-1.841316140287067,1.1110154561959784,1.8368009583838671,0.0371006484588818,0.1884576849099039,0.0092854635028682,0.6425986187773683,-0.914552482938068,-0.6849984395322146,-1.8225619237065196,1.0837244960430628,1.816099458374955,0.6970450380325274,-1.010902056920194,-0.7031296378737713,0.6968543301413594,0.646200891523474,-0.1825213753994969,0.1863231406811993,10.706138296825884,-1.301868487029194,0.1139179564384705,-1.0921429838362668
1.42,-1.828237410377112,1.0926069218405383,1.82341157067062,0.0378049734311658,0.1887106490049244,0.0092618026627309,0.6648475059051634,-0.9256479364799944,-0.6526537947543694,-1.8225619237065196,1.0837244960430628,1.816099458374955,0.6970450380325274,-1.010902056920194,-0.7031296378737713,2.039790499984865,1.1124443563897524,-0.5547726770963157,1.6172322388922633,10.67931941146344,-1.29590729963357,0.1127710818941649,-1.0887474672478086
1.44,-1.814707259298442,1.0739962089393422,1.810682361966172,0.0357725337038282,0.1850637208667307,0.0089153736447134,0.6866385939289815,-0.9346134395493472,-0.621991252867603,-1.8225619237065196,1.0837244960430628,1.816099458374955,0.6970450380325274,-1.010902056920194,-0.7031296378737713,1.9335351286607545,1.0895544011909064,-0.4482751534676421,1.5331270943383155,12.782305123659173,-1.3036174025193878,0.1147287172878097,-1.0912128737153537
1.46,-1.8014858210056008,1.05617668865822,1.7991046558308303,0.032466793131214,0.178394505573903,0.008407191365179,0.7034359980025006,-0.9403191237198824,-0.5981510936936614,-1.8155914733261944,1.0736154754738607,1.8090681619962168,0.7105191254496531,-1.0309020572182173,-0.7060105849793578,1.4858169511264203,0.839870203675952,-0.2852842085267593,1.192007958697083,12.416586050248045,-1.3167542272745023,0.1183417157053559,-1.0876653211548446
1.48,-1.787277624787694,1.0373366699348667,1.787360260109381,0.0290114507572165,0.1693155159255151,0.0078564110627136,0.7159843051047952,-0.9434091985609088,-0.5777150024645993,-1.801650572565544,1.0533974343354569,1.795005569238742,0.7374673002839045,-1.0709020578142638,-0.7117724791905309,1.2089689805565622,0.6274153551147299,-0.1545037420513151,1.0218045614531046,12.00304335088913,-1.3308914882638798,0.1218991688808661,-1.0797430366437777
1.5,-1.7728728106299432,1.018452488831074,1.7759695500071817,0.0262996464722224,0.1593508843552948,0.0073830403718808,0.7235074976337265,-0.9450668177513992,-0.5623106862915049,-1.787709671804893,1.033179393197053,1.7809429764812663,0.7644154751181559,-1.1109020584103102,-0.7175343734017039,0.8611606760191542,0.376159626446565,-0.0828809595245338,0.7702158086547173,11.649204348837884,-1.343622296612528,0.1245253126029936,-1.069733680028332
1.52,-1.759092612835754,1.0004902328794862,1.7653954339605298,0.0245873144503386,0.1499878130157294,0.0070355538156232,0.7264575965771973,-0.9458296998332968,-0.5514914310291609,-1.77242136230253,1.0109613520288467,1.7665922890132324,0.7913636499524073,-1.1509020590063566,-0.7232962676128769,0.5620083568749401,0.1475049471735434,-0.0381441040948782,0.5409627631172031,11.321713910629114,-1.356260701073739,0.1264013462071772,-1.0584418099750763
1.54,-1.74456354539034,0.9815741764594856,1.7544675669036935,0.0238894142682881,0.1409869248041261,0.0067961247708444,0.7260879180871985,-0.9458486168707854,-0.5419315542067653,-1.757133052800167,0.9887433108606406,1.7522416015451985,0.8183118247866588,-1.1909020596024031,-0.72905816182405,0.4783520275373854,-0.0184839244999401,-0.0009458518744231,0.4779938411197781,10.933133716267548,-1.3672677623626783,0.1271746802574758,-1.0475171508335706
1.56,-1.730070949877629,0.9626549758847928,1.743711901446351,0.0243834629944458,0.1333271506788426,0.0066859511433505,0.7231334618052239,-0.9461734499740462,-0.5340940003252074,-1.7411710389269477,0.9655252696775332,1.737746866721885,0.8452599996209101,-1.2309020601984495,-0.734820056035223,0.4191109021291305,-0.147722814098733,-0.0162416551630406,0.3918776940778967,10.82740845787066,-1.3758987454005944,0.1268598037408728,-1.038865236359828
1.58,-1.7163787671200323,0.9446716254146336,1.7336271512153587,0.0257712015954055,0.1274999195842283,0.0066838706203831,0.7182155608768191,-0.9468709507180748,-0.527839561788778,-1.7245353206828715,0.9413072284795246,1.7231080845432922,0.8722081744551615,-1.270902060794496,-0.7405819502463962,0.3993440190972476,-0.2458950464202358,-0.0348750372014261,0.3127219268214687,10.82740845787066,-1.383268284086352,0.1256421051097422,-1.031230474222187
1.6,-1.702088309339547,0.9257213722694672,1.7231315175936444,0.0280718132651026,0.1233174233185267,0.0067887530015585,0.7109627782703253,-0.9482681425788692,-0.5220895887195941,-1.680467989076191,0.8973280778787299,1.70723517312592,0.7794056258733001,-1.0468709522081907,-0.5450237485155865,0.4680202744787631,-0.3626391303246934,-0.0698595930397283,0.287498653459195,10.750069719171734,-1.3883846475424724,0.1236410174122013,-1.0260467405510387
1.62,-1.687933801206337,0.9066691659716396,1.7129131517899971,0.0290945202909552,0.121524215893928,0.006872101448482,0.7050613294872384,-0.956428885011688,-0.4991584598868125,-1.680467989076191,0.8973280778787299,1.70723517312592,0.7794056258733001,-1.0468709522081907,-0.5450237485155865,1.2522594423080131,-0.2950724391543424,-0.4080371216409306,1.1465564416390794,10.700099104588844,-1.3883016548888427,0.1226739542170443,-1.0219975031948754
1.64,-1.673895449259983,0.8874778953593965,1.7031542450708836,0.0279583145005072,0.1219598764602687,0.0068804820493089,0.6992555888291433,-0.962157609981649,-0.4781822255836684,-1.680467989076191,0.8973280778787299,1.70723517312592,0.7794056258733001,-1.0468709522081907,-0.5450237485155865,1.1253080910476383,-0.2902870329047569,-0.2864362484980565,1.0488117151572025,11.60929159576881,-1.3895199162352545,0.1238461413647253,-1.0268170685302804
1.66,-1.6606625089612563,0.8691577803001101,1.694227511437748,0.0259457367838076,0.1240166823369264,0.0068799542062286,0.6942106222838017,-0.9659850395089792,-0.4625183264210716,-1.6726739328174582,0.886859368356648,1.701784935640764,0.7916436388725963,-1.066870952506214,-0.5484605858609483,0.844776066786777,-0.2522483272670794,-0.1913714763665031,0.7831949581298403,11.60929159576881,-1.3886522404952817,0.1260196594346811,-1.033670373245279
1.68,-1.6468264482659245,0.8498148882003437,1.6851199676006277,0.0235821655279428,0.1274096098784315,0.0069020121886348,0.6898573095010297,-0.9680165570777044,-0.4492122754776024,-1.6570858202999923,0.8659219493124842,1.6908844606704525,0.8161196648711887,-1.1068709531022605,-0.5553342605516717,0.7073354711996329,-0.2176656391385978,-0.1015758784362608,0.6653025471734603,11.339936016145655,-1.3861974266449295,0.1284693203087236,-1.0414805467335193
1.7,-1.6330660116309368,0.8304503839226495,1.676245839462558,0.0218080146266245,0.1316364512085086,0.0069908689003997,0.6866235596100511,-0.9685442604643252,-0.4388792368138483,-1.6414977077825263,0.8449845302683204,1.6799839857001406,0.840595690869781,-1.1468709536983068,-0.5622079352423951,0.5420039143038884,-0.1616874945489343,-0.0263851693310501,0.516651933187709,11.14090907409809,-1.3826254510973883,0.1303986771603569,-1.0500919648675449
1.72,-1.6193564404620038,0.8110861426733903,1.6675560779087326,0.021026078424271,0.1363042030189478,0.0071653513464008,0.6846798888189194,-0.9680450857515293,-0.4306355076258907,-1.624685793965131,0.8220471111943543,1.6687398269952929,0.8650717168683734,-1.1868709542943532,-0.5690816099331185,0.4242231207235678,-0.0971835395565834,0.0249587356398073,0.4121864593978785,10.97928350548409,-1.3786016375501209,0.1313854195241588,-1.0584751328270965
1.74,-1.606354450570913,0.7927072912079896,1.659445791788099,0.0216176016218438,0.1408427390565618,0.0074357089421363,0.6841770400159166,-0.9668171135099536,-0.4235112273784622,-1.607873880147735,0.7991096921203882,1.657495668290445,0.8895477428669658,-1.2268709548903998,-0.5759552846238419,0.3623401088365103,-0.0251424401501387,0.0613986120787835,0.3562140123714252,10.866177116771723,-1.3739876667834958,0.1311036240112992,-1.0671786468651316
1.76,-1.5926614346094603,0.7733789068837721,1.6510510885929317,0.023703713739464,0.145384853883476,0.0078314320805521,0.6852631445596444,-0.9662120887841936,-0.4163612628230789,-1.5904500656803746,0.7751722730315208,1.646079667718329,0.914023768865558,-1.266870955486446,-0.5828289593145654,0.362862477882199,0.0543052271863908,0.0302512362879925,0.3574982277691624,10.836231867797324,-1.369409963197134,0.1293615999158208,-1.0756838044632626
1.78,-1.5789304393060677,0.7540464814370972,1.6427967626956923,0.0268546914041034,0.1493142812542933,0.008303738807706,0.6878058956373944,-0.9674150121901492,-0.4094524568182368,-1.5724143505630492,0.7502348539277524,1.6344918252789449,0.9384997948641504,-1.3068709560824925,-0.5897026340052888,0.3729752276510357,0.1271375538874963,-0.0601461702977812,0.3454403002421058,10.828219567217277,-1.3653686744153992,0.1265642574303315,-1.0832668585380554
1.8,-1.5651367323146284,0.7346655138781181,1.6346785359952305,0.0300692817212806,0.1524008287013146,0.0087729193308,0.6914139972569562,-0.9706304482037946,-0.4027265014745955,-1.5445401445241975,0.7056757308275897,1.6223241398547807,0.7649038107503666,-1.0532116589639644,-0.3963605359432239,0.4141132132025888,0.180405080978091,-0.1607718006822689,0.3362977671820644,10.82753250732003,-1.3622902698134165,0.123817156895011,-1.0889687678099542
1.82,-1.5519021488077451,0.7160635944739614,1.6273025483501562,0.0291120129587221,0.1537835785846188,0.0089018992544322,0.701255177573519,-0.985567648845491,-0.3739759571975144,-1.5445401445241975,0.7056757308275897,1.6223241398547807,0.7649038107503666,-1.0532116589639644,-0.3963605359432239,1.6930465064948736,0.492059015828139,-0.7468600320848173,1.4375272138540562,10.830163801255368,-1.355305821350358,0.1245239935170921,-1.0874167090267812
1.84,-1.5377782636595678,0.6962607331379629,1.6201275807771711,0.0232312287312366,0.1532402000162763,0.0086540160444531,0.7104274995738729,-0.9928556276815712,-0.3452181372144279,-1.5445401445241975,0.7056757308275897,1.6223241398547807,0.7649038107503666,-1.0532116589639644,-0.3963605359432239,1.552625467211052,0.4586161000176947,-0.3643989418040061,1.4378909991543232,12.466911052199066,-1.3598161669424749,0.1308429474683848,-1.091239735129983
1.86,-1.5234910127422594,0.676389037515997,1.613475901743561,0.0165004030625889,0.1511384406777005,0.0083402296869953,0.7176880304563173,-0.9938726821641796,-0.321365134407565,-1.536891106416694,0.6951436142379501,1.6183605344953484,0.7803233937729611,-1.0703709883187271,-0.3937421517682213,1.2477133599306116,0.3630265441222247,-0.0508527241304179,1.192650140343146,12.21503242934068,-1.3653844527644052,0.1377048093272661,-1.093169689155696
1.88,-1.5098042965784642,0.6575271851078056,1.6075572846957524,0.0109029948398522,0.1481158684720658,0.0081166426758791,0.7225310769884581,-0.991766978118628,-0.3028272645882979,-1.521593030201687,0.6740793810586708,1.610433323776484,0.81116255981815,-1.1046896470282537,-0.3885053834182162,0.9637708579792514,0.2421523266070369,0.1052852022775663,0.9268934909633542,11.604041513543052,-1.3716582424879504,0.1441256321643811,-1.0922959855971066
1.9,-1.4953215201073815,0.6377336400648596,1.6016751211966591,0.0063807849639487,0.1443930605936434,0.0080086673892672,0.7253018832519577,-0.9879304868295256,-0.2865014287208876,-1.5062949539866797,0.6530151478793915,1.6025061130576197,0.8420017258633389,-1.1390083057377796,-0.3832686150682111,0.8498955075931844,0.1385403131749785,0.191824564455123,0.8162917933705188,11.604041513543052,-1.3780340098784671,0.1491563622163972,-1.089907653417752
1.92,-1.4808097197719494,0.6180266421413703,1.5960889694353146,0.003361656529084,0.1407920347759916,0.0080381099769748,0.725568412332093,-0.983243466642164,-0.2730404207130967,-1.4894549194694129,0.630234981764636,1.5948407407562553,0.8728408919085278,-1.1733269644473057,-0.3780318467182059,0.7128077099981167,0.0133264540067679,0.2343510093680834,0.6730504003895438,11.39447857839059,-1.3839999562342404,0.1527098068910911,-1.0872729305488125
1.94,-1.466317960548254,0.5984209410067044,1.5907563397945006,0.0018734602501675,0.138116862893017,0.0081993669738206,0.7235271946606326,-0.9779141689386488,-0.2608838276169622,-1.472614884952146,0.6074548156498804,1.587175368454891,0.9036800579537168,-1.2076456231568318,-0.3727950783682008,0.6714736392814623,-0.1020608835730185,0.2664648851757545,0.6078296548067214,11.219518668680394,-1.3885542613100716,0.1546869520555122,-1.0856020004936062
1.96,-1.4526007406440036,0.5798911002685566,1.585909210442629,0.0017328622338854,0.1369802832264262,0.008456178006124,0.7206360759099807,-0.9730131950634052,-0.2499577029704336,-1.4550038712837494,0.5838166830673867,1.579640915362277,0.9345192239989056,-1.2419642818663577,-0.3675583100181956,0.6159511188959594,-0.1445559375325977,0.2450486937621843,0.5463062323264336,11.156252595061233,-1.391226723577084,0.1554666200510858,-1.0867815088455648
1.98,-1.438216021834713,0.5604852640159835,1.581028575435984,0.0028548569940679,0.1370984619896676,0.0088253907994954,0.7181081814441793,-0.9679437701736064,-0.2386988678403994,-1.4366218784642233,0.5593205840171548,1.572237381478413,0.9653583900440944,-1.2762829405758838,-0.3623215416681904,0.6301799100828921,-0.1263947232900686,0.2534712444899389,0.56294175650171,11.115638473836952,-1.3921325322510651,0.1549620366578434,-1.0901368804658826
2.0,-1.4238736540367765,0.5411764257511389,1.5763716827613177,0.0052778498102779,0.1381255642774083,0.0092944485400536,0.7163615917604915,-0.963370559941084,-0.2275670996161526,-1.402310612762504,0.5120880755073032,1.569093632043964,0.8028705684218519,-1.0020368893776508,-0.2302457641267081,0.6080318477521617,-0.0873294841843896,0.2286605116261275,0.5565884112123373,11.098782215112806,-1.3917380048044934,0.1531592681684832,-1.0950684928967884
2.02,-1.4095353273334592,0.5217284790887807,1.5720060214284852,0.0017433061826907,0.1393821438233386,0.009356960362226,0.7176313812353122,-0.979013982600429,-0.2091507224503453,-1.402310612762504,0.5120880755073032,1.569093632043964,0.8028705684218519,-1.0020368893776508,-0.2302457641267081,1.209847083025937,0.0634894737410352,-0.7821711329672576,0.9208188582903648,11.098782215112806,-1.3885150113069882,0.1565754277559318,-1.0968819523535176
2.04,-1.3958936064365066,0.5030985529142222,1.568198051079698,-0.0084209154655906,0.1405059629679846,0.0089530287983449,0.7183083135047771,-0.98009402248757,-0.1926500567568628,-1.402310612762504,0.5120880755073032,1.569093632043964,0.8028705684218519,-1.0020368893776508,-0.2302457641267081,0.8274912262122921,0.0338466134732429,-0.0540019943570446,0.825033284674126,11.6368591868586,-1.3896997916638478,0.1678063165612584,-1.0993137711231271
2.06,-1.3815260922420562,0.483568772599583,1.564496838347902,-0.0199801092090469,0.1418806107305592,0.0084796833341469,0.7184462962315974,-0.9726277186302452,-0.1785144452483794,-1.3942819070782857,0.5020677066135266,1.5667911744026968,0.8198230458173864,-1.0088555132184596,-0.2285551433839699,0.7993438641185237,0.0068991363410153,0.3733151928662415,0.7067805754241707,11.476281977237704,-1.389612279865775,0.1801111570439822,-1.1033926649649457
2.08,-1.3671606820424989,0.4642450120483377,1.5610399144519391,-0.030099875931467,0.1436059083166597,0.0081116197793748,0.7182040472448948,-0.9604546711014724,-0.1678939063734473,-1.3782244957098484,0.4820269688259736,1.5621862591201627,0.8537280006084554,-1.0224927609000771,-0.2251739018984934,0.807832929359867,-0.0121124493351276,0.6086523764386287,0.5310269437466028,11.267741448348715,-1.3888872692391525,0.191114112160688,-1.1083272528376482
2.1,-1.3528001292967786,0.4451942935858389,1.557769474134809,-0.0380580005940623,0.1457334090691313,0.0078915951676336,0.7179924465966934,-0.9457241762692296,-0.1596899651046292,-1.362167084341411,0.4619862310384206,1.5575813438376285,0.8876329553995245,-1.0361300085816951,-0.2217926604130169,0.8431146202908456,-0.0105800324100735,0.7365247416121434,0.4101970634409077,11.08174403425619,-1.38761589565455,0.1996469822486583,-1.113620595096298
2.12,-1.3391583460357808,0.4273833404172016,1.5547999905073395,-0.0435309270537212,0.1481100614902215,0.0078222196588158,0.7181138646588202,-0.9303571127816862,-0.1532989942983778,-1.3444144252334207,0.4412636308667867,1.553145490629368,0.9215379101905936,-1.049767256263313,-0.2184114189275404,0.832174696837088,0.0060709031063421,0.7683531743771732,0.3195485403125697,10.957657553170066,-1.3856878547132063,0.2065120901005597,-1.1198420921719772
2.14,-1.3247894390140929,0.4089547300096782,1.5518013912257924,-0.0473158947303201,0.1509223108353506,0.0078817706508769,0.7188874349736487,-0.9136693666430792,-0.1469078212632724,-1.3266617661254303,0.4205410306951528,1.5487096374211078,0.9554428649816624,-1.0634045039449307,-0.2150301774420639,0.8943242909918572,0.0386785157414248,0.8343873069303509,0.3195586517552681,10.887926537579006,-1.3832624708659758,0.2113632778765281,-1.1266434236596514
2.16,-1.3103918904327307,0.390862374716788,1.5489299190443022,-0.0493448951692968,0.153812262170999,0.0080703596300353,0.7209044959879206,-0.8968174768288091,-0.1405623007310362,-1.308061483147663,0.3994774993314784,1.5443583152499842,0.9893478197727316,-1.0770417516265482,-0.2116489359565874,0.9059806237892556,0.1008530507135951,0.8425944907135052,0.317276026611811,10.884316229648904,-1.380912817324398,0.2143747991843712,-1.1336950500859142
2.18,-1.296665928433166,0.3739898745157046,1.5463211439228075,-0.0498088012072587,0.1563134509295078,0.0083750419163713,0.7238543040185614,-0.8803296137192224,-0.1343673661694213,-1.288613576300119,0.3780730367757637,1.5400915241159978,1.0232527745638005,-1.090678999308166,-0.2082676944711109,0.8929280647969283,0.147490401532041,0.824393155479336,0.3097467280807467,10.894960217307016,-1.3788132476256827,0.2160171063828591,-1.1409572545128157
2.2,-1.2821487479108349,0.3565706427187086,1.543705140001473,-0.0485416480975268,0.1584880883262219,0.0088544172396491,0.7277312338527872,-0.8626489976572471,-0.1275409971200254,-1.2604732132322378,0.3299733938297435,1.539602775614337,0.8205611637859984,-0.8596728939154122,-0.1312976128764733,0.9672565374152756,0.1938464917112858,0.884030803098762,0.341318452469791,10.919295357975898,-1.3775518015237993,0.2157544757615936,-1.1468960989250807
2.22,-1.2675253177221506,0.3393145709671679,1.541261906923432,-0.051399191463443,0.1595815094091162,0.0091125394319303,0.7343343355926264,-0.8618260251071139,-0.1170533927925142,-1.2604732132322378,0.3299733938297435,1.539602775614337,0.8205611637859984,-0.8596728939154122,-0.1312976128764733,0.6210235119046905,0.3301550869919623,0.0411486275066597,0.524380216375564,10.949812799939536,-1.3763843669451177,0.2198791150650964,-1.1521124226732538
2.24,-1.2527833775949988,0.3221919109501311,1.5390199645848952,-0.0598140301173548,0.1595042793384383,0.0090650261684189,0.7394243460777716,-0.8495174560636427,-0.1077190506230015,-1.2604732132322378,0.3299733938297435,1.539602775614337,0.8205611637859984,-0.8596728939154122,-0.1312976128764733,0.8132327809033647,0.2545005242572618,0.6154284521735609,0.4667171084756311,11.16556612802924,-1.3777545679013694,0.2290453102243637,-1.1502497284331017
2.26,-1.2386986956224144,0.3062291929705603,1.537042068319275,-0.068197794699097,0.1590594475207943,0.0090448677491277,0.7429000667790792,-0.8314427955330012,-0.1009530147319106,-1.252267601594378,0.3213766648905894,1.538289799485572,0.8399025357394858,-0.8555415499546503,-0.1306836622178837,0.980501439788539,0.1737860350653763,0.9037330265320777,0.3383017945545442,11.083825840505597,-1.380098615453752,0.2394636963427325,-1.149780997519958
2.28,-1.2238132386161715,0.2898337446888424,1.5350826451789046,-0.0757627393846437,0.1586827703275543,0.0091381392974903,0.7454538633027314,-0.8092322786956154,-0.0954062381286832,-1.2358563783186578,0.3041832070122812,1.5356638472280424,0.8785852796464606,-0.8472788620331262,-0.1294557609007045,1.151733113132254,0.1276898261826142,1.1105258418692865,0.2773388301613742,10.96854935337342,-1.3825164979388,0.2487110179881823,-1.1504401012881036
2.3000000000000003,-1.2088853776605883,0.2739063854776189,1.533219986030829,-0.0814233492082666,0.1587538950656335,0.0093592788160346,0.7472903383462132,-0.7851005883806983,-0.0911147214266354,-1.219445155042938,0.2869897491339729,1.533037894970513,0.9172680235534354,-0.8390161741116021,-0.1282278595835252,1.2289510096463885,0.0918237521740861,1.2065845157458566,0.214575835102386,10.889418143582589,-1.3841800275767355,0.2556563593013605,-1.1516149046212334
2.32,-1.1946724407010962,0.2592314240066082,1.531524841142422,-0.0850264224252524,0.1593842569950712,0.0096684633485284,0.7488175583640343,-0.7613033370211113,-0.0875152219392697,-1.201099794571869,0.2702094256517409,1.5304733377788424,0.9559507674604102,-0.830753486190078,-0.126999958266346,1.205817119025253,0.0763610008910564,1.1898625679793495,0.1799749743682847,10.816216787627129,-1.3851534514918902,0.2610589077107788,-1.1539001265614277
2.34,-1.179678346530978,0.2442731024318664,1.529815685005362,-0.087187501226208,0.1606837494786132,0.0100712270494176,0.750612830825579,-0.7360749534063852,-0.083568857379025,-1.1827544341008005,0.2534291021695088,1.527908780587172,0.994633511367385,-0.822490798268554,-0.1257720569491668,1.2799102861776268,0.0897636230772325,1.2614191807363062,0.1973182280122366,10.83510988607486,-1.3853354455093494,0.2647416928298416,-1.157554135645276
2.36,-1.1646386639043056,0.2298268975345226,1.528188254899049,-0.0876666813269674,0.1624435130859788,0.0105668973306506,0.7533565484073772,-0.7100002798895321,-0.0793514653759131,-1.1634420050320575,0.2368553458853149,1.525374920928431,1.0333162552743598,-0.81422811034703,-0.1245441556319876,1.3277829081659605,0.1371858790899127,1.3037336758426554,0.210869600155597,10.864200036764489,-1.3845254478472817,0.2666592413597916,-1.1622389961893351
2.38,-1.1495334751854636,0.2159128434785961,1.526650304067109,-0.0859302341074648,0.1642955441044398,0.0112240576506924,0.7570724736527926,-0.683098181921414,-0.0746367340195051,-1.14316250736564,0.2204881567991591,1.5228717588026195,1.0719989991813346,-0.805965422425506,-0.1233162543148084,1.3781869133746274,0.1857962622707709,1.3451048984059022,0.2357365678203979,10.904889058771005,-1.3831173515181148,0.2662910091525871,-1.1672353581038355
2.4,-1.1351060942219138,0.2031866703166117,1.525283468459803,-0.0820803253653215,0.1658885560863102,0.0120292435849237,0.761432030533616,-0.6586322412496756,-0.069424845100398,-1.111679851502824,0.1817579343825254,1.5229184673661338,0.8325712333993441,-0.6376300489784991,-0.0674736345405749,1.269598140412225,0.2179778440411672,1.223297033586923,0.2605944459553553,10.904889058771005,-1.3822295035133136,0.2637937636411174,-1.1755361200318075
2.42,-1.1197315597912498,0.1901874937700005,1.5239802588432263,-0.0792238206807065,0.1644839973499574,0.013051653336428,0.7759160717519289,-0.6417433146023346,-0.0611047746341098,-1.111679851502824,0.1817579343825254,1.5229184673661338,0.8325712333993441,-0.6376300489784991,-0.0674736345405749,1.18769405348879,0.7242020609156463,0.8444463323670492,0.4160035233144097,10.950990946716956,-1.3798856748605892,0.2627997570959128,-1.1846885190774157
2.44,-1.1040889854337044,0.1775511241731951,1.5228514033654643,-0.0787672624385133,0.1575236907574934,0.0143527808937495,0.7867372684394728,-0.622535227220527,-0.0521331220595777,-1.111679851502824,0.1817579343825254,1.5229184673661338,0.8325712333993441,-0.6376300489784991,-0.0674736345405749,1.190104479169554,0.5410598343771944,0.9604043690903784,0.4485826287266039,11.163436841880866,-1.3908676126967277,0.2637305350374024,-1.1761553652821397
2.46,-1.0890898288638142,0.1659168061856556,1.5219382467963485,-0.0793681496184683,0.1482370175016114,0.0157390831426643,0.7911471036743098,-0.6030865144453683,-0.044386943020011,-1.1033541391688304,0.1753816338927404,1.522243731020728,0.8476709853486545,-0.628536422389916,-0.0660410146447888,1.0696989823334109,0.2204917617418533,0.9724356387579348,0.3873089519783344,11.153116118601249,-1.4047140699290663,0.2659095270482453,-1.163101299910282
2.48,-1.0732704616683355,0.1540779582647889,1.5211252763707137,-0.0805110960344544,0.1377780895691572,0.0172372763145537,0.7901810666302626,-0.5818297810934424,-0.0373535370545608,-1.0867027145008437,0.1626290329131704,1.5208942583299163,0.8778704892472751,-0.6103491692127501,-0.0631757748532167,1.1205475668620473,-0.0483018522023648,1.0628366675962952,0.3516702982725116,11.06597863085699,-1.4186184858316877,0.2685860492314648,-1.1484697095244711
2.5,-1.0575254043474107,0.1426751855062748,1.5204355657916355,-0.0816491217126471,0.1283100796029347,0.018678489286846,0.7843092323230401,-0.5596154177522995,-0.0319462207197406,-1.0700512898328567,0.1498764319336004,1.5195447856391051,0.9080699931458956,-0.5921619160355841,-0.0603105350616446,1.1802493875539632,-0.2935917153611245,1.110718167057145,0.270365816741009,10.97268120775243,-1.4302323552273588,0.2711181553857543,-1.1360115395401378
2.52,-1.0427140919524218,0.132262634336353,1.5198683285798622,-0.0822491060065545,0.1213104447320077,0.019933687569004,0.7750738812101348,-0.5376958056368157,-0.0280206180808979,-1.0518898899699387,0.1380331936128887,1.5183385749378722,0.9382694970445162,-0.5739746628584181,-0.0574452952700726,1.205374901794036,-0.4617675556452649,1.0959806057741883,0.1962801319421357,10.872301295993566,-1.440001493508532,0.2732516428538614,-1.1258343636038275
2.54,-1.027344735704716,0.1217560909106785,1.5193460812864676,-0.0819955030592348,0.1170670563385216,0.0210665653584993,0.7622170460689276,-0.5142217577854267,-0.0244265389715662,-1.033728490107021,0.126189955292177,1.5171323642366392,0.9684690009431368,-0.5557874096812521,-0.0545800554785005,1.3502282557234702,-0.6428417570603584,1.1737023925694534,0.1797039554665856,10.786647095072112,-1.446414146845076,0.2744285763399815,-1.1201840579548918
2.56,-1.012245718248601,0.1117261485306328,1.5188933273603284,-0.0804007064737409,0.1167572038467548,0.0219712385822313,0.7487946274455136,-0.4901125024326463,-0.0210365840661484,-1.0148121026466377,0.1148013983008945,1.5159977845301955,0.9986685048417574,-0.5376001565040861,-0.0517148156869284,1.390062327405236,-0.6711209311706989,1.2054627676390175,0.1694977452708889,10.786647095072112,-1.4462731628929733,0.2744136684341398,-1.123789475060045
2.58,-0.99739419807335,0.1021767836170861,1.5185131938619656,-0.0771381209853416,0.1196091395569898,0.022740194113815,0.7374644429465816,-0.4666400900580565,-0.0171203353746671,-0.9951407275887886,0.1038675226390411,1.5149348358185413,1.028868008740378,-0.5194129033269201,-0.0488495758953563,1.3178241795438452,-0.5665092249465986,1.17362061872949,0.1958124345740634,10.794609466764996,-1.4432462097183971,0.2728380489692883,-1.1322594120677043
2.6,-0.9834687244927612,0.0935166463648559,1.5182346186672742,-0.0732247519731936,0.1242246550712736,0.023389786555964,0.7292479677445608,-0.4463912521261373,-0.0124033211753168,-0.9605209759260208,0.0788447791141833,1.5176571770932323,0.7987696752926395,-0.4235434433915297,0.0027556436763267,1.117783661196818,-0.4108237601010422,1.0124418965959583,0.2358507099675176,10.794609466764996,-1.437493845393783,0.2701378765498842,-1.1437361545228006
2.62,-0.9688820210363758,0.0848126427849238,1.518077578220374,-0.0685948057113079,0.1281251140373856,0.0241905067258641,0.7298698496537633,-0.4253861078566346,-0.0033282496253043,-0.9605209759260208,0.0788447791141833,1.5176571770932323,0.7987696752926395,-0.4235434433915297,0.0027556436763267,1.1445083513560117,0.0310940954601268,1.0502572134751365,0.4537535775006228,10.849393949181833,-1.4298724879039189,0.2669229583247047,-1.157136769527553
2.64,-0.954280765051171,0.0765047533744406,1.5181219889935935,-0.0638590480943212,0.1290675253741409,0.025205082945556,0.7299952970124929,-0.4065465894055305,0.007297922769097,-0.9605209759260208,0.0788447791141833,1.5176571770932323,0.7987696752926395,-0.4235434433915297,0.0027556436763267,1.081502117733526,0.0062723679364773,0.941975922555202,0.5313086197200707,11.134227618103068,-1.4300444630328235,0.263591653852553,-1.1614148390278207
