t,x,y,z,roll,pitch,yaw,v_x,v_y,v_z,ref_x,ref_y,ref_z,ref_v_x,ref_v_y,ref_v_z,a_com,a_x,a_y,a_z,thrust,wind_x,wind_y,wind_z
0.0,-0.7922501987864327,1.0172545683366725,1.7434589296483096,0.0106791416436658,0.1362203730408269,0.0256770788389633,0.0017793800964527,-0.0009152679706853,-0.0023295284496935,-0.7921909131101144,1.0171266298908477,1.7433866938094622,0.007318068160069,-0.1033324579672087,-0.1023293131153328,0.1535465058520228,0.0889690048226357,-0.045763398534266,-0.1164764224846773,10.541493913083286,-1.2855933165316753,0.1655271627357732,-1.1614164371516955
0.02,-0.792308960160668,1.0174994590204391,1.7431808708740306,0.0185801137324775,0.1377864055055317,0.026258404012058,-0.0074837748725555,0.0212539034469045,-0.0266275528364459,-0.7921909131101144,1.0171266298908477,1.7433866938094622,0.007318068160069,-0.1033324579672087,-0.1023293131153328,1.7085609371789756,-0.4631577484504118,1.1084585708794936,-1.21490121933762,10.541493913083286,-1.3094956236476532,0.1593607019608839,-1.176725071498398
0.04,-0.7925516158984324,1.0179652060332611,1.7423351610615772,0.0335773352549834,0.1423109090022566,0.0274135169329976,-0.0158726985240177,0.0234247582398654,-0.0567455161998624,-0.7921909131101144,1.0171266298908477,1.7433866938094622,0.007318068160069,-0.1033324579672087,-0.1023293131153328,1.5669862537066814,-0.4194461825731128,0.1085427396480454,-1.5058981681708228,9.081867693894765,-1.302556985924752,0.143066484346233,-1.1604544861948236
0.06,-0.7929285743791524,1.0183925897562822,1.7408901246950204,0.0491086647980211,0.1488764547357353,0.0287388964295184,-0.0210206631870116,0.0188541506267352,-0.0861884985302302,-0.7921177324285137,1.0160933053111756,1.7423634006783089,0.008405639188689,-0.1233324582652319,-0.1223293134133561,1.5118541618084318,-0.2573982331496943,-0.2285303806565126,-1.4721491165183918,8.86608367792769,-1.2906253482955043,0.1272953740445951,-1.1484616942006367
0.08,-0.793350223864546,1.0186795098863195,1.7389842267243818,0.0633610455542377,0.1560412797500748,0.0300888797769597,-0.0228495059852632,0.0113041117945043,-0.1129721918667103,-0.7919713710653122,1.0140266561518314,1.7403168144160022,0.0105807812459291,-0.1633324588612784,-0.1623293140094025,1.394376187665579,-0.0914421399125805,-0.3775019416115444,-1.339184666824003,8.914009451088077,-1.2781307213530708,0.1117808113257375,-1.1383622133527689
0.1,-0.7938011771445908,1.018797959655754,1.7364359530484292,0.0776829529210209,0.1637523856875239,0.031561410770872,-0.021910404689177,0.0006346847231394,-0.1404221433588162,-0.7918250097021109,1.0119600069924872,1.7382702281536957,0.0127559233031691,-0.2033324594573249,-0.202329314605449,1.4732773179161247,0.0469550648043111,-0.5334713535682417,-1.3724975746052963,9.017305508352363,-1.26700273492007,0.0975139099449637,-1.128807152833469
0.12,-0.7942041468703137,1.0186754122441624,1.7333488078120856,0.0913014902454174,0.171002720369487,0.0330300694777876,-0.0183153085240495,-0.0126399286219536,-0.1669406313127193,-0.7915698912360475,1.0078933578033409,1.7342236418615866,0.0149310653604091,-0.2433324600533713,-0.2423293152014954,1.4936283668131305,0.1797548082563742,-0.6637306672546552,-1.3259243976951565,9.070669361800356,-1.2583296624548692,0.0849863316993686,-1.1210694923378406
0.14,-0.7945015599146088,1.0182904111744102,1.7299226719481182,0.103603929675133,0.1770804472487437,0.0343665732284914,-0.0131276267692045,-0.0274572411845348,-0.1923952701474411,-0.7913147727699841,1.003826708614194,1.7301770555694775,0.0171062074176491,-0.2833324606494178,-0.2823293157975419,1.495328920148428,0.2593840877422532,-0.740865628129064,-1.272731941736087,9.070669361800356,-1.2524374651307528,0.0727711269097519,-1.114727820501229
0.16,-0.79469333583551,1.01755818455138,1.725789708518407,0.1159055916576635,0.182397925494515,0.0356585373578032,-0.0062790816477349,-0.0452430803405383,-0.2195843910003317,-0.7910052757524897,0.9987600594101466,1.7251304692624674,0.0192813494748891,-0.3233324612454643,-0.3223293163935883,1.6601859365121745,0.3424272560734797,-0.8892919578001741,-1.35945604264453,9.052544638247127,-1.248681260295476,0.0614978601411192,-1.107222791796074
0.18,-0.7947348471434716,1.0164471688468597,1.7211137273247543,0.1275629144197896,0.1864576015791065,0.0367816783815879,0.0017326663535345,-0.0652139645904015,-0.246657172125936,-0.7906414001835643,0.9926934101911976,1.719083882940556,0.0214564915321291,-0.3633324618415107,-0.3623293169896348,1.7291325871894243,0.4005874000634721,-0.9985442124931604,-1.353639056280216,9.069634939955904,-1.2467952039719823,0.051086713032776,-1.098352568660268
0.2,-0.7946083390413763,1.0149144716924203,1.715899374181594,0.1385991783176184,0.1892592583893464,0.0377019982029173,0.0104390064329468,-0.0872903260243242,-0.2734237179096977,-0.7946482138257949,1.0131864706173397,1.7087808687184578,0.0100203597273934,-0.1652139660805177,-0.3466571736160521,1.788584681342893,0.4353170039706143,-1.103818071696134,-1.3383272891880875,9.069634939955904,-1.2465298799598694,0.0419450473354572,-1.0885913689816475
0.22,-0.7942772753798886,1.012871799816634,1.7105791990693038,0.1439972007629994,0.1904645800969989,0.03799786198412,0.0237502384483597,-0.1237843897225188,-0.2848733288011986,-0.7946482138257949,1.0131864706173397,1.7087808687184578,0.0100203597273934,-0.1652139660805177,-0.3466571736160521,2.024906894490962,0.6655616007706467,-1.8247031849097293,-0.5724805445750408,9.092381968802329,-1.2354740344202129,0.0369289877339815,-1.0708492034654549
0.24,-0.7936615665573844,1.0100643015290314,1.7047515156994637,0.1444216233229486,0.190000195654674,0.0376605195058872,0.0369870784521542,-0.1546502898172628,-0.2973762117250667,-0.7946482138257949,1.0131864706173397,1.7087808687184578,0.0100203597273934,-0.1652139660805177,-0.3466571736160521,1.791814585380363,0.6618420001897253,-1.5432950047371974,-0.6251441461934043,10.051125627825968,-1.238256598765487,0.0369133641888542,-1.064252967911011
0.26,-0.7927901681409413,1.00666359653733,1.6986460683380458,0.1418939148361644,0.1878432716074267,0.0368491384703331,0.0493559358432477,-0.1834979779154006,-0.3124308055031168,-0.794548010228521,1.0115343309565346,1.7053142969822972,0.0116778984021652,-0.1852139663785409,-0.3666571739140754,1.7405592029508474,0.6184428695546741,-1.4423844049068906,-0.7527296889025065,9.893033861297226,-1.242215431192456,0.0394217615914233,-1.0559850939252098
0.28,-0.7917446767217755,1.002929949721287,1.6925495756860736,0.1377871593449601,0.1842326064441525,0.0357319996930197,0.0599386907497711,-0.2076545122510338,-0.3284462413363402,-0.794347603033973,1.008230051634924,1.6983811535099762,0.0149929757517088,-0.2252139669745873,-0.4066571745101218,1.54274676911691,0.5291377453261705,-1.2078267167816583,-0.8007717916611701,9.734079835718148,-1.2479548095075423,0.0436480981161756,-1.0454155384369623
0.3,-0.7904482594407344,0.9985377882407196,1.685787748121752,0.133185459364842,0.1790289780208217,0.0343536744409163,0.0687999432971904,-0.2302030297505035,-0.3469257593172155,-0.7941471958394252,1.0049257723133138,1.6914480100376552,0.0183080531012523,-0.2652139675706338,-0.4466571751061682,1.523523894576757,0.4430626273709631,-1.127425874973487,-0.9239758990437664,9.459732556227207,-1.2559251563945817,0.0481759394719765,-1.0323855756823606
0.32,-0.7890058662201971,0.993712146130073,1.6786403172865392,0.1289303849302953,0.1731688863819167,0.0329308418643063,0.0747759426366762,-0.2512183025020853,-0.3669271894265311,-0.7937810347774001,0.9996214929619012,1.6825148665355318,0.0216231304507959,-0.3052139681666802,-0.4866571757022147,1.481056602013195,0.2987999669742939,-1.05076363757909,-1.0000715054657798,9.459732556227207,-1.26360534551535,0.0522233763587002,-1.0182812770374408
0.34,-0.7874707307876705,0.988477930005621,1.6710827920327094,0.1252308502994186,0.1673813343224672,0.0315756801981149,0.0783373195154543,-0.2712242686979373,-0.3877835018974937,-0.7934148737153751,0.9943172136104884,1.6735817230334085,0.0249382078003395,-0.3452139687627267,-0.5266571762982613,1.4559428719808143,0.1780688439389048,-1.0002983097925993,-1.0428156235481294,9.34673625150117,-1.2692845071028005,0.0554994863239744,-1.0038411776079268
0.36,-0.785964667954852,0.9831330493350368,1.6635104061914974,0.1219841663772547,0.1624075827781338,0.0303880452787098,0.079945990775891,-0.2902800900086637,-0.4082208419774618,-0.7929658357196114,0.9880129342441746,1.663648579516384,0.0282532851498831,-0.3852139693587731,-0.5666571768943076,1.399461520187996,0.0804335630218304,-0.9527910655363208,-1.0218670039984028,9.281557277077807,-1.273081689390701,0.0584887958919768,-0.9893982270550556
0.38,-0.7843644733261755,0.9771216222308234,1.6551125998335028,0.1186341757250086,0.1581432756845527,0.0292749878668393,0.0798622248583507,-0.3097442007771271,-0.4304899162369931,-0.7924339207901092,0.9807086548629596,1.6527154359844582,0.0315683624994266,-0.4252139699548196,-0.6066571774903541,1.4788257952785335,-0.0041882958770139,-0.9732055384231691,-1.113453712976567,9.22979279134688,-1.2755204622282623,0.0613515177673294,-0.9761395476765516
0.4,-0.782783891475596,0.9707264721874068,1.6462624613845434,0.1152825184718219,0.1553859663064002,0.0283517158689306,0.0781169111541543,-0.3286584132207363,-0.4534057312383442,-0.780371362083258,0.9616344121919672,1.633588104021653,0.0993108870350789,-0.4097442022672432,-0.5182223058062756,1.4882272419427325,-0.0872656852098197,-0.9457106221804624,-1.1457907500675573,9.167704307549684,-1.2759703950925696,0.0641728750303519,-0.964450870304618
0.42,-0.781244739780813,0.9639361556667247,1.6372055040119575,0.1120736410757011,0.1557596747605879,0.0278036742322695,0.0764825971884166,-0.3495027796781557,-0.4498612207655363,-0.780371362083258,0.9616344121919672,1.633588104021653,0.0993108870350789,-0.4097442022672432,-0.5182223058062756,1.0603326714310444,-0.0817156982868848,-1.0422183228709665,0.1772255236403952,9.118483069811193,-1.265265843137151,0.066590804243237,-0.950289517251218
0.44,-0.7797123647416591,0.9567436608019382,1.6282265393666358,0.1093836185405281,0.1597273820437406,0.0276894416512739,0.0772227711674535,-0.3687335431049021,-0.4486582409597023,-0.780371362083258,0.9616344121919672,1.633588104021653,0.0993108870350789,-0.4097442022672432,-0.5182223058062756,0.9641282071228612,0.0370086989518465,-0.9615381713373228,0.0601489902917029,10.741968701726364,-1.259792984110891,0.0682043248310969,-0.9563802918730732
0.46,-0.7782191470113097,0.949561303630482,1.6196625845015458,0.1072931329997473,0.1654112931456671,0.0278107838949997,0.0802285008382007,-0.3863511226660391,-0.4528704818398286,-0.7793782532129072,0.9575369701692946,1.6284058809635904,0.1032006194704246,-0.4297442025652664,-0.5357687837201321,0.918091081645512,0.1502864835373596,-0.880878978056851,-0.2106120440063169,10.387506686030974,-1.2526160282698555,0.0694643220750111,-0.9651010444791096
0.48,-0.7765627048452748,0.9416478496632528,1.6105206329348856,0.105417888178032,0.1722920742360736,0.0280422477548758,0.0855012820244693,-0.4040566744775923,-0.4612948550727918,-0.7773920354722056,0.9493420861239498,1.6180414348474648,0.1109800843411159,-0.4697442031613129,-0.5708617395478451,1.015207922986873,0.2636390593134273,-0.88527759057766,-0.4212186616481567,10.091162456798884,-1.2453978875768752,0.0706580657868971,-0.9733255415463398
0.5,-0.7747771534227184,0.933387290094834,1.6011714374293449,0.1038181354782206,0.1792432775686614,0.0282849316683573,0.0929492986937122,-0.4211261836191307,-0.473206787383763,-0.775405817731504,0.9411472020786048,1.6076769887313394,0.1187595492118072,-0.5097442037573594,-0.6059546953755581,1.10536784151198,0.3724008334621449,-0.853475457076916,-0.5955966155485631,9.87195377576245,-1.2388611996516958,0.071689084900001,-0.9801072252137096
0.52,-0.7729252356141633,0.925229809840618,1.5920446306508682,0.1025252234258086,0.1853019254627792,0.028461619935425,0.101677035045721,-0.4367036230217319,-0.4869176849021847,-0.7730306267472679,0.9309523180034578,1.5955578948238285,0.1265390140824985,-0.5497442043534059,-0.6410476512032711,1.1256317236695923,0.4363868176004412,-0.7788719701300628,-0.6855448759210819,9.707055612670048,-1.233010697764538,0.0726695880710867,-0.9855023922664424
0.54,-0.7707820560962302,0.9163310158517538,1.582145146923127,0.1015540400764689,0.1907376879532057,0.028566767059974,0.1122350764745452,-0.452363549174454,-0.5023506271809152,-0.7706554357630317,0.9207574339283106,1.5834388009163172,0.1343184789531898,-0.5897442049494523,-0.6761406070309842,1.219509361690289,0.5279020714412087,-0.7829963076361024,-0.7716471139365244,9.583296229322514,-1.228414785643042,0.0733907299296051,-0.9883700141373408
0.56,-0.7684130791525031,0.9071128909226748,1.5719288777702547,0.1008030046012056,0.1949331165527826,0.0285519036182156,0.1240744755271216,-0.4685703333822773,-0.5184835152085325,-0.7680857581570283,0.9095625498382622,1.5704423831131131,0.1420979438238811,-0.6297442055454987,-0.7112335628586972,1.2875376697370264,0.5919699526288242,-0.8103392103911672,-0.8066444013808682,9.53826007295902,-1.2253437803149887,0.0739184150371744,-0.989002257482327
0.58,-0.7659358090715969,0.8980516431185916,1.5619188813443257,0.0998906660517398,0.1976372091835032,0.0283868290303953,0.1360024291169057,-0.4843081590931837,-0.5343646590009913,-0.7653215939292576,0.8973676657333127,1.5565686414142164,0.1498774086945724,-0.6697442061415452,-0.7463265186864102,1.2670496863813774,0.5963976794892016,-0.7868912855453186,-0.7940571896229376,9.489107276376672,-1.2238273708829126,0.074660144376289,-0.9877582066643672
0.6,-0.7630823205600761,0.8881911244526065,1.5510489811678372,0.0984838344275728,0.1991626152149142,0.0280428391451978,0.1486280884190695,-0.5008144013201571,-0.5517950411770641,-0.7591356876157516,0.8738362351639325,1.5352006483942762,0.1598922818046222,-0.5843081605832998,-0.6014333699241862,1.356172489097342,0.6312829651081888,-0.8253121113486694,-0.8715191088036423,9.489107276376672,-1.2239201307797956,0.0757961036022543,-0.984707777352654
0.62,-0.7599125553155651,0.8779517688847535,1.540104225335815,0.0956965877485042,0.1992732378957383,0.0274587457613014,0.1679248731326631,-0.5217752696461494,-0.5402719234901869,-0.7591356876157516,0.8738362351639325,1.5352006483942762,0.1598922818046222,-0.5843081605832998,-0.6014333699241862,1.5366409327555932,0.9648392356796832,-1.0480434162996155,0.5761558843438597,9.446254038159168,-1.2170137388619204,0.0778251558164153,-0.9732949578065938
0.64,-0.756353286023716,0.867329283670652,1.5294103463475648,0.0919941407886852,0.1977679761177729,0.0266597868702282,0.186859905049934,-0.5392456711405821,-0.5300733535095099,-0.7591356876157516,0.8738362351639325,1.5352006483942762,0.1598922818046222,-0.5843081605832998,-0.6014333699241862,1.3854251980308336,0.9467515958635444,-0.8735200747216343,0.5099284990338515,10.976703035312312,-1.222126724940181,0.0804994191107811,-0.9738897519908004
0.66,-0.7526312372973805,0.8569339422174326,1.519384831226992,0.08850327292854,0.1945500162730731,0.0257501305625002,0.2038430553731989,-0.5540774095564501,-0.5256937608876541,-0.7575367647977054,0.8679931535580995,1.5291863146950344,0.1646702523421654,-0.604308160881323,-0.6148471121088251,1.1484649438193175,0.8491575161632459,-0.7415869207934023,0.2189796310927916,10.976703035312312,-1.227872124047258,0.0831396313209255,-0.972667055038022
0.68,-0.7483822707327006,0.8457025136053696,1.5088805933499088,0.0851218063794474,0.1890474054048324,0.0246468803022207,0.2197216667696501,-0.5682714599578788,-0.5250846669064725,-0.7543389191616129,0.8563069903464335,1.517157647296551,0.1742261934172521,-0.6443081614773695,-0.6416745964781031,1.0653313594320262,0.7939305698225568,-0.7097025200714313,0.0304546990590792,10.650226914144696,-1.236341728730341,0.0856588892790817,-0.9664089440427412
0.7000000000000001,-0.7438533599421517,0.8341981104355473,1.498348072864033,0.0821705699678876,0.1819447925659081,0.0234646282413429,0.2320111023414184,-0.5815092031372581,-0.5281182770225304,-0.7511410735255205,0.8446208271347675,1.505128979898067,0.1837821344923386,-0.6843081620734159,-0.668502080847381,0.9157931828367368,0.6144717785884143,-0.6618871589689657,-0.151680505802898,10.169822342551925,-1.245436018664771,0.0876968551049994,-0.9575720775047412
0.72,-0.7393571552419009,0.8230309515401067,1.4882589149977128,0.0797786892521408,0.1745063722810786,0.0223401742612094,0.2404190100393364,-0.5933801852958273,-0.5336987784138881,-0.7474654308356737,0.8309346638932992,1.4917589382811194,0.1933380755674252,-0.7243081626694624,-0.695329565216659,0.779030046026344,0.4203953848959038,-0.5935491079284594,-0.2790250695678842,9.986429583123936,-1.254781209006412,0.0894269647095621,-0.9464382056360404
0.74,-0.7344825961606906,0.8110386783379384,1.4775115527974214,0.0777379265589502,0.1666357317130291,0.0212126780814074,0.2463599741788876,-0.6052861898432708,-0.5407743948804942,-0.743789788145827,0.8172485006518309,1.4783888966641718,0.2028940166425119,-0.7643081632655089,-0.722157049585937,0.7535123548650102,0.2970482069775598,-0.5953002273721753,-0.3537808233303019,9.89772319883923,-1.263040639639381,0.0906929292669742,-0.9343178825709296
0.76,-0.729515351107188,0.7988032570558645,1.4666111868089653,0.0759116680805171,0.1592170699653024,0.0201584559590136,0.249896272708408,-0.6175765560298788,-0.5489237737062103,-0.739875246929103,0.8025623373954615,1.4643481679379922,0.2124499577175984,-0.8043081638615552,-0.7489845339552149,0.7582395458162227,0.1768149264760196,-0.614518309330403,-0.4074689412858046,9.824303433803834,-1.2699703668357238,0.0917289613619581,-0.9224517306451324
0.78,-0.7245002621152583,0.7863227145816213,1.4555352915864956,0.073971566979881,0.1525673730548723,0.0191772973271657,0.2513558355083594,-0.6297105970089566,-0.558217125237533,-0.735721807185502,0.7868761741241908,1.4496367521025808,0.222005898792685,-0.8443081644576017,-0.7758120183244929,0.7676777591113326,0.072978139997569,-0.6067020489538888,-0.4646675765661356,9.824303433803834,-1.2752739792368624,0.0927668011460042,-0.9119380571515828
0.8,-0.719726582170588,0.7742453378221751,1.4448306578586454,0.0719662120381813,0.1471724632038771,0.0183234076092199,0.2509884795230036,-0.6408455746676716,-0.568090148759143,-0.7119324703398403,0.7548371847311734,1.427624435324619,0.2997870196511874,-0.7297105984990727,-0.5623662008350576,0.7443105389189425,-0.0183677992677905,-0.5567488829357481,-0.4936511760805007,9.750057515086157,-1.2797179368678946,0.0939957845379337,-0.9017959603654276
0.8200000000000001,-0.7149713023160712,0.7619123055981784,1.4342725857210152,0.0690283882668909,0.1444540920916433,0.0176161623711978,0.2496400366237101,-0.6563699771184939,-0.5407926281552997,-0.7119324703398403,0.7548371847311734,1.427624435324619,0.2997870196511874,-0.7297105984990727,-0.5623662008350576,1.5716074580067705,-0.0674221449646766,-0.7762201225411158,1.3648760301921636,9.677243176649426,-1.2745102021104904,0.0958946436670757,-0.8832081320634605
0.84,-0.709984842376747,0.7486412415927597,1.4237586712067405,0.0651083699032444,0.1462207374515616,0.0171483361843082,0.2496008097743352,-0.669670530087829,-0.5125533451285509,-0.7119324703398403,0.7548371847311734,1.427624435324619,0.2997870196511874,-0.7297105984990727,-0.5623662008350576,1.560739691541021,-0.0019613424687439,-0.6650276484667539,1.4119641513374417,12.3545144642394,-1.2694722744927274,0.097839445633787,-0.8947393079825837
0.86,-0.704971209688137,0.7351313960685539,1.413743508258954,0.0613232460253342,0.1509925311823558,0.0168867599108782,0.2521935664631456,-0.6806335340127297,-0.4903923748925883,-0.7089346001433284,0.7475400787461827,1.4220007733162685,0.309473256479753,-0.7497105987970959,-0.5631960159545626,1.2429988375939645,0.1296378344405227,-0.5481501962450397,1.1080485117981265,11.562535312846194,-1.2632175243218748,0.1001085708668843,-0.9088211828745448
0.88,-0.700133363899387,0.7221096264424022,1.4045955230304532,0.0582014927858112,0.1569412777209103,0.0167517394697967,0.2571905727757039,-0.68960723877397,-0.4736902797048554,-0.7029388597503047,0.7329458667762012,1.4107534492995673,0.3288457301368842,-0.7897105993931424,-0.5648556461935724,0.9803793052815652,0.2498503156279113,-0.4486852380620132,0.8351047593866484,11.562535312846194,-1.2562719114500902,0.1022033418830054,-0.9226190755285584
0.9,-0.6949122137016468,0.7082295072732926,1.3952751790059363,0.0555616820426153,0.1636333810913451,0.0166720442438027,0.2648759057659028,-0.698010061310622,-0.4593946180070454,-0.6969431193572809,0.7183516548062198,1.3995061252828662,0.3482182037940154,-0.8297105999891888,-0.5665152764325823,0.9138349319364788,0.3842666495099484,-0.4201411268326016,0.7147830848904996,11.099982009755877,-1.2497645388320446,0.1039332715873246,-0.9354503603545272
0.92,-0.6895137838429185,0.6941883137452559,1.386210286902327,0.0536029005298723,0.1699801874047235,0.0166161139196055,0.2747148658880104,-0.7057826592092773,-0.4479442174851301,-0.6899787552814006,0.701757442806436,1.3881758197542144,0.3675906774511466,-0.8697106005852353,-0.5681749066715921,0.8490142614981212,0.4919480061053777,-0.3886298949327627,0.572520026095763,11.099982009755877,-1.2441913341416606,0.1051368162862085,-0.946584230560662
0.94,-0.68418245910147,0.6807113402514138,1.3778021067559756,0.0524067647197172,0.175132609707601,0.0165622795301425,0.2859904750483216,-0.712561240177656,-0.4377134132924445,-0.6830143912055203,0.6851632308066522,1.376845514225563,0.3869631511082778,-0.9097106011812818,-0.5698345369106019,0.8333034805970027,0.5637804580155586,-0.3389290484189344,0.5115402096342786,10.952575909981531,-1.2390565100376827,0.1058620492108195,-0.9562016019687384
0.96,-0.6783226758248221,0.6663826208941971,1.369158337783719,0.051735183088074,0.1792598370845193,0.0164826758703567,0.2993908560068212,-0.7199510512289579,-0.4272171938690958,-0.6755657152882117,0.6675690187919673,1.365473717940936,0.406335624765409,-0.9497106017773282,-0.5714941671496119,0.9278336857836444,0.6700190479249801,-0.3694905525650938,0.5248109711674359,10.945420002752144,-1.235735531239636,0.1061249663090416,-0.9638852827841544
0.98,-0.6721822326138629,0.6519036366133386,1.3607200482470074,0.051417637056527,0.1817647419763562,0.016350054111271,0.3138265010162086,-0.7275455480621645,-0.4171337869926291,-0.6676327275294749,0.6489748067623812,1.3540604309003337,0.4257080984225402,-0.9897106023733748,-0.5731537973886217,0.9588265265716936,0.7217822504693716,-0.3797248416603338,0.5041703438233375,10.948615659493043,-1.2345278241050273,0.1061239126941075,-0.9695773008958132
1.0,-0.6657491994990985,0.6372704631765271,1.352478030031873,0.0512649199797664,0.1825650681229419,0.0161482207822381,0.3285651821565178,-0.7353451999712685,-0.4075601827899097,-0.6564909075630525,0.6155263592102304,1.339863358897376,0.3669860769255847,-0.8275455495522807,-0.3915402193530398,0.9614015668403354,0.7369340570154592,-0.3899825954551961,0.4786802101359705,10.938023278292349,-1.235433202156749,0.1060097819957948,-0.9738290510581016
1.02,-0.6593030920060734,0.623163722360045,1.3449946395557555,0.0494891881127766,0.1808634103322451,0.0157251417411221,0.3490249209113615,-0.748399283564206,-0.38059639624165,-0.6564909075630525,0.6155263592102304,1.339863358897376,0.3669860769255847,-0.8275455495522807,-0.3915402193530398,1.8138741641773024,1.0229869377421843,-0.6527041796468791,1.3481893274129824,10.916290350086456,-1.2300751210569374,0.1067478347178607,-0.9728717032069388
1.04,-0.6521054542344105,0.6080944241586376,1.3376721117874584,0.0457999662473849,0.1754577450369007,0.0149993359673226,0.3690800472925669,-0.7575139477383321,-0.3531744268054555,-0.6564909075630525,0.6155263592102304,1.339863358897376,0.3669860769255847,-0.8275455495522807,-0.3915402193530398,1.75872795290574,1.0027563190602715,-0.4557332087063048,1.3710984718097257,12.041290619657048,-1.2389323670043149,0.1097633561712141,-0.9752021491907132
1.06,-0.6445536958234708,0.5928777605393746,1.330865843019032,0.0421736922912324,0.1672792660853184,0.0141940591479304,0.3845426986511813,-0.7637825601339232,-0.3287590362043572,-0.6528210467937967,0.6072509037147076,1.3359479567038457,0.37761799210746,-0.8475455498503038,-0.3864215058251219,1.4785976350992294,0.7731325679307177,-0.3134306197795533,1.220769530054913,12.041290619657048,-1.2510934424483895,0.1127006715237927,-0.9741688061366464
1.08,-0.637140071829822,0.5783214397096436,1.3248267319755798,0.0394124839324825,0.1582314084589157,0.0134668251707945,0.3947112242738927,-0.7683482860207512,-0.3081242053452568,-0.645481325255285,0.5906999927236619,1.3281171523167847,0.3988818224712104,-0.8875455504463503,-0.3761840787692862,1.1726476567975066,0.5084262811355739,-0.228286294341401,1.0317415429550196,11.819026957654389,-1.2641177596862272,0.1151482248252127,-0.97018007288011
1.1,-0.6291733750653842,0.5629134192903248,1.3188726688934944,0.0374312128857775,0.148493250403218,0.0127971359124441,0.4010844357664988,-0.7723737126532185,-0.2884535583835705,-0.6381416037167733,0.5741490817326164,1.320286347929724,0.4201456528349609,-0.9275455510423968,-0.3659466517134505,1.053276122621893,0.3186605746303028,-0.2012713316233649,0.9835323480843178,11.622737643006984,-1.2758052014748993,0.1167026818340682,-0.9648025042480044
1.12,-0.621121156912097,0.5474316438440652,1.3132899069928516,0.0365390267416393,0.1394384521258834,0.0122573449498598,0.4035951799987087,-0.7757032664516686,-0.2708934408944108,-0.6297386906600742,0.5555981707117684,1.3129674148954549,0.4414094831987113,-0.9675455516384432,-0.3557092246576147,0.9024238074893652,0.1255372116104935,-0.1664776899225062,0.878005874457985,11.33154975265279,-1.2854834535084343,0.1172553172953934,-0.9600486434554067
1.14,-0.6134560756371882,0.5326691873644295,1.3083002145229286,0.0370005043802803,0.1321075977116125,0.0118947713408888,0.4030923916073778,-0.7782748714791687,-0.2552128739838883,-0.6213357776033749,0.5370472596909205,1.305648481861186,0.4626733135624618,-1.0075455522344898,-0.345471797601779,0.7948995647553407,-0.0251394195665416,-0.1285802513750045,0.7840283455261221,11.273092965985596,-1.292286168577239,0.1166043945306822,-0.9560361286393612
1.16,-0.6054205662556105,0.5170680276204428,1.3033649568194634,0.0388017637262793,0.1261475651748593,0.0116695880172571,0.4003259563371278,-0.7818085748338349,-0.2391607332547741,-0.6124012687875819,0.5174963486551714,1.298585484503313,0.4839371439262123,-1.0475455528305362,-0.3352343705459433,0.8333838333723385,-0.1383217635125,-0.1766851677333092,0.8026070364557103,11.25009313188275,-1.2973681080645978,0.1147844963902709,-0.9534530718845596
1.18,-0.5974652193371965,0.5013814455141636,1.298745685488838,0.0415095506524061,0.1225818855061306,0.0115946302103477,0.3953129229720358,-0.7869264549288554,-0.2235850904635963,-0.6029351642126952,0.4969454376045211,1.2917784228218356,0.5052009742899628,-1.0875455534265823,-0.3249969434901076,0.8572103717071176,-0.2506516682546006,-0.2558940047510227,0.7787821395588909,11.23353914514064,-1.2999854876143275,0.1123338278431029,-0.9532083348382302
1.2,-0.5900093746999535,0.4863625738936316,1.2946425974602045,0.0440780539652016,0.1218084690447607,0.011629382660461,0.3901111361960118,-0.7936903448712063,-0.209119063053512,-0.5776995731885948,0.4620351227677208,1.287566430965658,0.4638850567515616,-0.8869264564189715,-0.1792505186550197,0.8397540441176294,-0.2600893388012004,-0.3381944971175443,0.7233013705042174,11.23353914514064,-1.2970178026794523,0.1095244177830449,-0.9576454377875468
1.22,-0.5822544667344032,0.470341391436363,1.2907013969276795,0.0444110687089153,0.1235993149112884,0.0116208473617332,0.3859775213637637,-0.807888179977981,-0.1848361723321206,-0.5776995731885948,0.4620351227677208,1.287566430965658,0.4638850567515616,-0.8869264564189715,-0.1792505186550197,1.4215520348263553,-0.2066807416124055,-0.7098917553387374,1.2141445360695668,11.212163430283,-1.2852624534304933,0.1083822595189096,-0.963820185125122
1.24,-0.5745580439656013,0.4540596535149897,1.2872683712612585,0.0411260480585513,0.1277488069966935,0.0114695131525191,0.3842118594197319,-0.818997859394537,-0.1598171873666656,-0.5776995731885948,0.4620351227677208,1.287566430965658,0.4638850567515616,-0.8869264564189715,-0.1792505186550197,1.3715795160515771,-0.0882830972015885,-0.555483970827797,1.2509492482727491,11.92852041099286,-1.276403837450763,0.1106984603077181,-0.9783636608362728
1.26,-0.5668709053569329,0.4376098508589727,1.2843190038449095,0.0366493038363657,0.133251693364178,0.0112853836834594,0.3848892542178908,-0.8252730006567089,-0.1364060228150813,-0.5730607226210792,0.4531658582035311,1.285773925779108,0.4775994835074667,-0.9069264567169948,-0.1703836042933044,1.212351936561887,0.0338697399079407,-0.3137570631085995,1.1705582275792146,11.852166181534812,-1.268594933351142,0.1141401191147388,-0.9929990940848126
1.28,-0.5595320556585038,0.4218969193739462,1.2819365750950509,0.0328765980328395,0.1389653786002448,0.0111525204098768,0.3877744202425018,-0.8286021269157958,-0.1155902685878016,-0.563783021486048,0.4354273290751517,1.282188915406007,0.5050283370192771,-0.9469264573130411,-0.1526497755698738,1.0638407877697518,0.1442583012305542,-0.1664563129543439,1.0407877113639872,11.667921535331516,-1.2611143404466594,0.1175488025024562,-1.0082030563965347
1.3,-0.551725134506899,0.4053031591046676,1.279846074695717,0.0299610487134617,0.1448788705298734,0.011076244997153,0.3929345949808608,-0.8308095068598721,-0.0946309636024106,-0.5545053203510167,0.4176887999467722,1.278603905032907,0.5324571905310873,-0.9869264579090876,-0.1349159468464431,1.0848875460370802,0.2580087369179501,-0.1103689972038135,1.047965249269548,11.667921535331516,-1.2545319575644074,0.1201298847551621,-1.022819125385378
1.32,-0.5437941769013009,0.3886731734969703,1.2781656262652448,0.0282785644524285,0.1502198303155919,0.011068286843685,0.4000079394847054,-0.8322680205860484,-0.0745238034599102,-0.543856176540395,0.3979502707885905,1.275905586095978,0.5598860440428977,-1.026926458505134,-0.1171821181230125,1.068243129811361,0.3536672251922279,-0.0729256863088168,1.0053580071250192,11.627766518757198,-1.2488692155876004,0.121661846811951,-1.0361792222418915
1.34,-0.5357035181263362,0.372022377011721,1.2768851028329486,0.0280528785355229,0.1546196322770188,0.0111412822430876,0.4087037314004673,-0.8329953666881273,-0.0545678334044495,-0.5332070327297732,0.3782117416304087,1.2732072671590493,0.5873148975547079,-1.0669264591011804,-0.0994482893995818,1.089020856376135,0.4347895957880959,-0.0363673051039459,0.9977985027730354,11.597189890496338,-1.244418830233104,0.1218863029621001,-1.0477165434238973
1.36,-0.5278421016432993,0.3561845680925155,1.2760382558199346,0.0291360696246867,0.1576682800709816,0.0112789310113432,0.4183029393273603,-0.8342235175905209,-0.0355923801398207,-0.5218721675813562,0.3574732124573259,1.2709522939402065,0.6147437510665182,-1.1069264596972268,-0.0817144606761512,1.065036353911088,0.4799603963446502,-0.0614075451196793,0.9487726632314428,11.612804602571488,-1.2413132033503005,0.1208511927317247,-1.058931214048512
1.38,-0.5193622344254304,0.3394801298754495,1.275538928665597,0.0314003036978769,0.1595306280250422,0.0114730535795343,0.4291092167809048,-0.8362695160454504,-0.015333145953014,-0.509851581095144,0.3357346832693418,1.269140666439449,0.6421726045783285,-1.1469264602932732,-0.0639806319527206,1.152603912795322,0.5403138726772255,-0.1022999227464738,1.0129617093403338,11.634982916210902,-1.2399646546163157,0.1186997954734674,-1.0686107053877514
1.4,-0.5106619536855741,0.32271416425092,1.2754464576762692,0.034264944084988,0.1599816307405858,0.0116714334364467,0.4402011150237789,-0.8403827548349115,0.0050585667276308,-0.4979067735863851,0.297666654073177,1.274772271367946,0.5145301456763783,-0.9362695175355664,0.0518154947988246,1.1787396722976768,0.5545949121437022,-0.2056619394730563,1.019585634032245,11.672106591115153,-1.2402852770260888,0.1160786063010396,-1.0767289164391405
1.42,-0.502166331792229,0.3066244813323854,1.2757711931674962,0.0345796567848923,0.1585781949090798,0.0116328706979828,0.4533572710398613,-0.8519536413682142,0.0281409862707193,-0.4979067735863851,0.297666654073177,1.274772271367946,0.5145301456763783,-0.9362695175355664,0.0518154947988246,1.4489374971416291,0.6578078008041222,-0.5785443266651313,1.154120977154424,11.694096347239793,-1.2375423259295986,0.1153145519872994,-1.083006534113282
1.44,-0.4929626558420224,0.2894934072323249,1.2765991318363032,0.0317095291632405,0.1546661537188194,0.011300808708893,0.4661037307127512,-0.8602143629484912,0.053480622999971,-0.4979067735863851,0.297666654073177,1.274772271367946,0.5145301456763783,-0.9362695175355664,0.0518154947988246,1.4771670054448036,0.6373229836444949,-0.413036079013851,1.2669818364625878,12.00335203467148,-1.2419957180600885,0.1181300902938213,-1.08674544647076
1.46,-0.4835298174423257,0.2722445616371951,1.2779319518978705,0.0277747413973649,0.1488512139505815,0.0108684624115622,0.4761161324206126,-0.8641065531004014,0.0785236847085602,-0.4927614721296213,0.2883039588978213,1.2752904263159344,0.531614331455473,-0.9562695178335898,0.0652452229491923,1.362490616369905,0.5006200853930692,-0.1946095075955112,1.2521530854294585,12.045474272062163,-1.2507117286407012,0.1221925250625739,-1.088653460770661
1.48,-0.4739391129699006,0.2549504418693963,1.2797567880954668,0.0245168164728861,0.1423664762065933,0.0105048449768397,0.4822461024204072,-0.8654028188449089,0.1027006527482089,-0.4824708692160938,0.26957856854711,1.2763267362119108,0.5657827030136624,-0.9962695184296364,0.0921046792499278,1.248782027285947,0.3064984999897296,-0.0648132872253737,1.2088484019824346,11.938902742888786,-1.2591066889898588,0.1254634493368663,-1.0910227223568307
1.5,-0.4647482909082228,0.2385089596333278,1.2819300676203778,0.0225547821237304,0.1366746128617751,0.0102801033664375,0.4847902700061162,-0.8655524894091428,0.1248417713154227,-0.4721802663025662,0.2508531781963987,1.277363046107887,0.5999510745718518,-1.0362695190256828,0.1189641355506633,1.1143656507060304,0.1272083792854511,-0.0074835282116936,1.1070559283606896,11.938902742888786,-1.266816647241584,0.127753525897259,-1.093609864539396
1.52,-0.4550530724697366,0.2212057226382825,1.2846684548724652,0.0219062888457532,0.1322250654044793,0.0101966056116162,0.4844071223934701,-0.8649246607742795,0.1478021926113531,-0.4601812448111291,0.230127787815885,1.2797423288189005,0.6341194461300412,-1.0762695196217291,0.1458235918513988,1.148609939203083,-0.0191573806323036,0.0313914317431607,1.1480210647965192,11.887373289010611,-1.272211118853325,0.1285878252563611,-1.0976184527802548
1.54,-0.4453929166386166,0.2039210757061117,1.287864087157102,0.0231061028880312,0.1304476013762172,0.0103092742211761,0.4817728520371927,-0.863775767593167,0.1705769711302151,-0.4481822233196921,0.2094023974353713,1.282121611529914,0.6682878176882306,-1.1162695202177757,0.1726830481521342,1.147769437250778,-0.1317135178138723,0.0574446590556276,1.1387389259431002,11.882498683389713,-1.272635468234371,0.1275582279801745,-1.104930420140358
1.56,-0.4362568171297453,0.1875109931355401,1.291322610112402,0.0259025405826434,0.1312758609897661,0.0105939643507874,0.4803555544202859,-0.86398353104408,0.192298490804926,-0.4353289925393003,0.1876770070399565,1.2851723806484454,0.70245618924642,-1.156269520813822,0.1995425044528697,1.0884350177723965,-0.0708648808453421,-0.01038817254565,1.086075983735546,11.882498683389713,-1.268012560427629,0.1245506028049747,-1.1164372993544558
1.58,-0.4266462530127461,0.1702013553282535,1.2954153301408595,0.0295139253298698,0.1338515343414868,0.0109923025944124,0.4810193112534456,-0.8671203218052239,0.2158353655655806,-0.4216215524699538,0.1649516166296405,1.2888946361744955,0.7366245608046094,-1.1962695214098684,0.2264019607536052,1.1877126156098354,0.0331878416579889,-0.1568395380571963,1.176843738032729,11.892649831326707,-1.2612046602492244,0.1207440171724589,-1.1298604057945645
1.6,-0.4169972736386231,0.1528053966725411,1.2999869101305928,0.0327636498767046,0.1372763517173752,0.0114023192404388,0.4840077632305872,-0.8722032792114395,0.2401005047326795,-0.4025952874500739,0.1268453392379923,1.3062070984191387,0.5739894068283015,-0.9339301325032564,0.2869022443015998,1.2485634545466218,0.1494225988570768,-0.254147870310778,1.2132569583549426,11.957154357499348,-1.254083718747215,0.1174203088115484,-1.1436714448968963
1.62,-0.4077390085041407,0.136013233656233,1.3047143100992358,0.0299046393824926,0.139869069346044,0.0113642677353269,0.4903381920500027,-0.8930710082828561,0.2560447250781795,-0.4025952874500739,0.1268453392379923,1.3062070984191387,0.5739894068283015,-0.9339301325032564,0.2869022443015998,1.3506985304478492,0.3165214409707739,-1.0433864535708326,0.7972110172750027,12.022105864492914,-1.2494685875431015,0.1203051430364017,-1.154393758694883
1.64,-0.3978651363674347,0.1180570998143258,1.3100278292730032,0.0201116663411355,0.1410179509181125,0.0108106189830109,0.4966068268358464,-0.9003393422306463,0.2746338439810665,-0.4025952874500739,0.1268453392379923,1.3062070984191387,0.5739894068283015,-0.9339301325032564,0.2869022443015998,1.0460399156348648,0.3134317392921887,-0.363416697389507,0.9294559451443474,11.692463749452145,-1.2465262604702354,0.1307662564188348,-1.1612182623827134
1.66,-0.3878752318638558,0.100058919587267,1.3157186504189256,0.0098293935526698,0.141259913612768,0.0102229007807045,0.5019985536711231,-0.8990845064056925,0.2934752847199292,-0.3968553933817909,0.1175060379129598,1.3090761208621546,0.5925834259432726,-0.9472920946428628,0.3011156200488036,0.981892586195028,0.2695863417638333,0.062741791247689,0.942072036943134,11.692463749452145,-1.2467957874746307,0.1415453118630517,-1.1685027753006136
1.68,-0.3777876844929003,0.0821397077935574,1.3217819672778823,0.0013978900533434,0.1411469733052331,0.0097860524717117,0.5064757358423225,-0.8934292041444764,0.311878105147414,-0.3853756052452248,0.0988274352628946,1.3148141657481869,0.629771464173215,-0.9740160189220756,0.3295423715432112,0.9882957598134232,0.2238591085599706,0.2827651130608066,0.9201410213742434,11.692192082227848,-1.2480302496037508,0.1512378883833104,-1.1763605765243077
1.7,-0.36812820114993,0.0652429263754229,1.3278811265925845,-0.0043516750100158,0.1410944415290032,0.0095511714267329,0.510120687032013,-0.8860600401427762,0.3291917148355669,-0.3738958171086588,0.0801488326128295,1.320552210634219,0.6669595024031573,-1.000739943201289,0.3579691230376189,0.9583205722680702,0.1822475594845218,0.3684582000850089,0.8656804844076438,11.678475971119951,-1.249018242680678,0.1584741962239756,-1.1847079815576134
1.72,-0.3578884800297839,0.0476134515316917,1.3346605087488188,-0.0081550539832075,0.1413572847190949,0.0094784645214049,0.5137052281740145,-0.877700783915058,0.3478398019083207,-0.3605566270605956,0.0601340337488037,1.327711593094971,0.7041475406330996,-1.0274638674805017,0.3863958745320265,1.0373972857015212,0.1792270571000787,0.4179628113859079,0.9324043536376893,11.685418456510888,-1.2491132188473468,0.1632758847565641,-1.1939051805169616
1.74,-0.3475768967730607,0.0301545382686132,1.3418156112815345,-0.0099054553432708,0.1420713630240999,0.0095604810011654,0.5173409385137635,-0.8689287898441374,0.3667253994744369,-0.3472174370125325,0.0401192348847779,1.334870975555723,0.7413355788630419,-1.0541877917597149,0.4148226260264342,1.0569201307148528,0.1817855169874482,0.4385997035460331,0.944279878305812,11.733198592406552,-1.2486963015491586,0.1658546730265041,-1.2043537222522347
1.76,-0.3377068429555864,0.0137301542485188,1.3489668802575194,-0.0098079993410595,0.1430527302507968,0.0097695369208371,0.521474411266907,-0.8606452770479047,0.3850667308477651,-0.3329485460087208,0.0194363379137718,1.342741026803836,0.7785236170929842,-1.0809117160389274,0.4432493775208418,1.0272616728377453,0.2066736376571731,0.4141756398116314,0.917066568666408,11.80683953890366,-1.247486888417141,0.1665782076810303,-1.216989864745199
1.78,-0.3272247513865974,-0.0033929446955536,1.3568788633406696,-0.0079949452415649,0.1441456096781586,0.0101184551932018,0.5265538913088977,-0.8522694939859982,0.4051819005413458,-0.3177499540491605,-0.0019146571642145,1.3513217468393086,0.8157116553229266,-1.1076356403181404,0.4716761290152495,1.1186765743487397,0.2539740020995384,0.418789153095328,1.0057584846790368,11.80683953890366,-1.2470570098373297,0.1654461511477575,-1.2316699597352454
1.8,-0.3166337235793828,-0.0203622802912978,1.3652016240292062,-0.0046919564470173,0.1450866030535998,0.0105809160911174,0.5323061140346215,-0.8455543718215315,0.4260993437563495,-0.3008970568211525,-0.0460064193948535,1.377137958367737,0.6170634028392971,-0.8540260688281457,0.4619619780583784,1.135473868725024,0.2876111362861866,0.335756108223334,1.0458721607501855,11.882409691616886,-1.2479716653189452,0.1626459766845694,-1.2465077338948598
1.82,-0.3058974633102144,-0.0374633081813359,1.3737938524527982,-0.0086067712059563,0.1442286493925275,0.0105607449256962,0.5409494799634911,-0.8615898130341051,0.4313212020815429,-0.3008970568211525,-0.0460064193948535,1.377137958367737,0.6170634028392971,-0.8540260688281457,0.4619619780583784,0.9475111527452316,0.4321682964434803,-0.8017720606286804,0.261092916259667,11.95102757847144,-1.2549368879481555,0.1674561466658405,-1.248855641165669
1.84,-0.2955506002271918,-0.0538428338565464,1.3820467858783665,-0.0198536844532092,0.1404446954945907,0.0100938109062331,0.5475027648342574,-0.86061215623131,0.4372511784531958,-0.3008970568211525,-0.0460064193948535,1.377137958367737,0.6170634028392971,-0.8540260688281457,0.4619619780583784,0.4445952518578795,0.327664243538317,0.0488828401397523,0.2964988185826467,10.898132073664785,-1.2603945502217997,0.1814837837214906,-1.2449395835206871
1.86,-0.2845627307763654,-0.0709473720133839,1.3908658858762175,-0.0323108228184141,0.1347130083077322,0.009693385775964,0.5505745269985212,-0.8498068352772455,0.444370836854595,-0.2947264227927595,-0.054546680083135,1.381757578148321,0.635165305145377,-0.8543773837965752,0.473317993561785,0.664981615284893,0.1535881082131873,0.5402660477032251,0.355982920069961,11.027567210342568,-1.271713546843778,0.1968003963944714,-1.241181418652417
1.88,-0.2735596717901787,-0.0877718645527655,1.3998289368740229,-0.0426838547027932,0.1289776585047758,0.0095457811943787,0.5494654352175878,-0.8337721584618971,0.451572399822148,-0.2823851547359736,-0.0716272014596979,1.3909968177094885,0.6713691097575366,-0.8550800137334342,0.496030024568598,0.8806296814309017,-0.0554545890466662,0.8017338407674213,0.3600781483776488,11.074381876236655,-1.2824555848955568,0.2094680598321914,-1.241001913856054
1.9,-0.262618768758853,-0.1042476137357499,1.4089382511456214,-0.0502733351388949,0.124804409521011,0.0096068895822186,0.5448632785207592,-0.8161649342232067,0.4586352166600504,-0.2700438866791876,-0.0887077228362608,1.400236057270656,0.7075729143696964,-0.8557826436702932,0.5187420555754111,0.9760604148046508,-0.2301078348414309,0.8803612119345217,0.353140841895122,11.14016062769224,-1.2918542127113226,0.2198800157151085,-1.243391242441367
1.92,-0.2523430913264251,-0.119549172231576,1.4177374913443286,-0.0550531889364672,0.1236476481895736,0.0097374971532355,0.5376122052895277,-0.796895235335504,0.466857052032691,-0.2558924283917937,-0.1058233757096667,1.410610898382164,0.743776718981856,-0.8564852736071522,0.5414540865822242,1.1084876353868556,-0.3625536615615765,0.9634849443851344,0.4110917686320298,11.14016062769224,-1.2946187776457736,0.2271484582866313,-1.2493243284177118
1.94,-0.2416606738407348,-0.1352779281176493,1.427167577698377,-0.0579708221379222,0.1255615447773095,0.0098722312432011,0.5313671761092785,-0.7773546385662556,0.4757686247818238,-0.2417409701043998,-0.1229390285830726,1.4209857394936725,0.7799805235940158,-0.8571879035440112,0.5641661175890372,1.1183150723561852,-0.3122514590124581,0.9770298384624176,0.4455786374566367,11.210186754592542,-1.2920542638549355,0.2317597672155685,-1.258344968579978
1.96,-0.2310755125601271,-0.1506142515065998,1.436785847175612,-0.0590446230282789,0.1297545269044697,0.0100168566814528,0.5277924511951254,-0.7574656808751643,0.48564229333148,-0.2266844167017019,-0.1400722472048999,1.431928381380351,0.8161843282061756,-0.8578905334808703,0.5868781485958502,1.1245428258612025,-0.1787362457076557,0.9944478845545668,0.4936834274828133,11.257976148507623,-1.286611358829712,0.2342240031212952,-1.2705172806298888
1.98,-0.2210563268673734,-0.1648088780287998,1.4461198073991346,-0.0582061563417366,0.1348084950754702,0.0102346856767322,0.5272449092307386,-0.7379965499837389,0.4963602024618692,-0.2107227681836999,-0.1572230315751487,1.4434388240421998,0.8523881328183353,-0.8585931634177293,0.6095901796026633,1.1115534580008963,-0.0273770982193388,0.9734565445712716,0.5358954565194585,11.32850183777191,-1.2798202590055323,0.2346850453277527,-1.2862818686460022
2.0,-0.2104912433348666,-0.1793550159317385,1.4561805579886131,-0.0552946269234284,0.1403144289081798,0.0106165897660552,0.5294827111187713,-0.7180135510420936,0.5092149708679307,-0.1946940814058365,-0.2017087055279868,1.470937817522228,0.615580296639472,-0.6596200183827867,0.5490392047468728,1.1932865066334155,0.1118900944016343,0.9991499470822618,0.6427384203030712,11.42952718090055,-1.2735798295710556,0.2327017775488324,-1.3027319876975818
2.02,-0.1998160284952553,-0.1937718422660123,1.4663673757204227,-0.058602355998769,0.1434465580802312,0.0107176525955022,0.5377510362866673,-0.7217474475943171,0.5078977713761579,-0.1946940814058365,-0.2017087055279868,1.470937817522228,0.615580296639472,-0.6596200183827867,0.5490392047468728,0.4583726623771725,0.4134162583947998,-0.1866948276111724,-0.065859974588639,11.550438520425814,-1.271283405056687,0.236943451682786,-1.299683823618265
2.04,-0.1889841920445588,-0.2081019943154287,1.4765155903433584,-0.0696847875800335,0.1424262141371446,0.0105469059800542,0.5447445895242259,-0.7098146278759561,0.5071658765643576,-0.1946940814058365,-0.2017087055279868,1.470937817522228,0.615580296639472,-0.6596200183827867,0.5490392047468728,0.6925273339966656,0.3496776618779285,0.596640985918051,-0.0365947405900124,10.549115550948043,-1.2750498972901012,0.2510311395102624,-1.3024410391751908
2.06,-0.1785867812122934,-0.2213890123546705,1.486161602972163,-0.0810056517255948,0.1387796572859311,0.0105797634643961,0.5490646783269011,-0.6894322562125693,0.5082202787215869,-0.1885382784394418,-0.2083049057118146,1.4764282095696968,0.6332473741212187,-0.6439447120625963,0.5595750052038736,1.043091565727334,0.2160044401337602,1.0191185831693372,0.0527201078614647,10.845659892473122,-1.2848535236960652,0.2676272500998122,-1.3044271630415416
2.08,-0.1675925275238151,-0.2349030886504301,1.4963507414202626,-0.0913407227878797,0.1336454849782038,0.0109209329127544,0.5498647099555086,-0.6632492313750368,0.5107186468378269,-0.1762266725066523,-0.2214973060794704,1.4874089936646344,0.668581529084712,-0.6125940994222154,0.580646606117875,1.315705783499737,0.0400015814303766,1.3091512418766271,0.1249184058119967,10.96052658544977,-1.2966183511229088,0.2826849317487981,-1.3061549680420537
2.1,-0.156621677541641,-0.2478608042495043,1.5066036911621437,-0.0992860433622579,0.12884573923656,0.0114846184847244,0.5469613962921216,-0.634215736249655,0.5145348329456305,-0.1639150665738629,-0.2346897064471261,1.4983897777595718,0.7039156840482054,-0.5812434867818346,0.6017182070318765,1.471339819546262,-0.1451656831693515,1.451674756269089,0.1908093053901827,11.06927216373515,-1.3066407884269726,0.2947307934862654,-1.3069975069707074
2.12,-0.1457477029594173,-0.2602199253194029,1.516950266482071,-0.1047342201973448,0.1260674810200969,0.0120822196082341,0.5405328097249437,-0.6037684362967184,0.5199618267401287,-0.1498367528928988,-0.2463145761827628,1.5104241419002091,0.7392498390116987,-0.5498928741414537,0.622789807945878,1.5794121226909994,-0.3214293283588965,1.52236499764683,0.271349689724909,11.06927216373515,-1.3140339121417148,0.3035631318201071,-1.3113692277002456
2.14,-0.135551939228873,-0.2713930913371141,1.5268908971543946,-0.1079799051353558,0.1263857968785331,0.0125067943858936,0.5334968587678258,-0.5743550334012091,0.5261653486179979,-0.1357584392119347,-0.2579394459183995,1.5224585060408469,0.7745839939751921,-0.5185422615010729,0.6438614088598794,1.543645489947194,-0.3517975478558921,1.4706701447754655,0.3101760938934605,11.272007450101228,-1.3151810131151571,0.310084290050561,-1.3189361391233323
2.16,-0.1249412082541568,-0.2825461456702891,1.5374950804968366,-0.1096264221839102,0.1293057469639315,0.0128169025136382,0.5282745320211729,-0.5427709883361842,0.5339912204216902,-0.1207967716568832,-0.2687805503380266,1.5350196602043344,0.8099181489386854,-0.487191648860692,0.6649330097738809,1.6477779498510678,-0.2611163373326453,1.579202253251244,0.3912935901846159,11.368382475742692,-1.3126005521610526,0.314576059015826,-1.3317613013649727
2.18,-0.1144062910810422,-0.2930547796319787,1.5482733108528817,-0.1091805934759432,0.1338491718908011,0.0131123028449213,0.5257588761587916,-0.5100666347489256,0.5434320620909284,-0.1049517502277445,-0.2788378894416443,1.548107604390672,0.8452523039021788,-0.4558410362203111,0.6860046106878823,1.7066288109911274,-0.1257827931190669,1.6352176793629325,0.4720420834619099,11.368382475742692,-1.3079621223789983,0.3165129371954386,-1.3468306564893102
2.2,-0.1038907686277402,-0.3029048125485254,1.5592586402422812,-0.1062874487986259,0.1390139333819869,0.0135344040385448,0.5260966974213463,-0.4771072894115976,0.5546344205800016,-0.0881183472731026,-0.318558111369425,1.575444913957428,0.607426828398305,-0.4100666332588094,0.562151975528891,1.7406359498674489,0.0168910631277385,1.6479672668663958,0.5601179244536569,11.486007477564272,-1.303019876676386,0.3158747457239877,-1.3659794168391506
2.22,-0.0938607138633858,-0.31172129429347,1.5696499623121984,-0.1023402523264131,0.1422545545489712,0.0142209832002706,0.5293216519988118,-0.4527131743231972,0.5386249664615729,-0.0881183472731026,-0.318558111369425,1.575444913957428,0.607426828398305,-0.4100666332588094,0.562151975528891,1.4678009096458824,0.1612477288732705,1.2197057544200196,-0.8004727059214345,11.616936214189993,-1.3079179700863717,0.3135456127198524,-1.380221422780073
2.24,-0.0832498130634373,-0.3205327349613235,1.5802794369486768,-0.0987340628279847,0.1427884348433873,0.0152176007385392,0.5314146898651474,-0.429485017432957,0.5254738016086883,-0.0881183472731026,-0.318558111369425,1.575444913957428,0.607426828398305,-0.4100666332588094,0.562151975528891,1.3387318785097295,0.1046518933167817,1.1614078445120106,-0.6575582426442295,9.861380199833548,-1.313608744606254,0.3113520169876604,-1.3878335643527355
2.26,-0.0726104576670371,-0.3288818045897722,1.5906971067939863,-0.0961777555360953,0.1416399789048563,0.0163152768045965,0.5322673103801956,-0.4063806673105801,0.5171104204417968,-0.0820440789891196,-0.3226587777020131,1.581066433712717,0.6237604188462077,-0.3900666329607862,0.5658959582164834,1.22931291873019,0.0426310257524098,1.1552175061188468,-0.4181690583445752,10.174875743055964,-1.3192850511055774,0.3103716318835369,-1.3929866635660344
2.28,-0.0619721049852685,-0.3367688916328611,1.6009904345723602,-0.0946244324882707,0.1399043857818024,0.0174052490915638,0.5314000045099821,-0.3833134026920705,0.5125935453644568,-0.0698955424211535,-0.3308601103671893,1.5923094732232947,0.656427599742013,-0.3500666323647398,0.5733839235916685,1.1760666189858724,-0.043365293510672,1.1533632309254775,-0.2258437538669999,10.44114816687761,-1.3253578701880988,0.3107325028091463,-1.3975588034494757
2.3000000000000003,-0.0519003890665052,-0.3438342969845135,1.610711428608275,-0.0940820635743303,0.1387536923607318,0.0183352949268145,0.5287816636574967,-0.3614589979495158,0.5108646023574105,-0.0577470058531874,-0.3390614430323655,1.6035525127338726,0.6890947806378184,-0.3100666317686933,0.5808718889668535,1.1039247703000503,-0.1309170426242734,1.0927202371277367,-0.0864471503523145,10.650048045955373,-1.330669129309429,0.3123651398259952,-1.4028867395591158
2.32,-0.0413604143438715,-0.3508219666199362,1.6209291240402737,-0.0945723675792333,0.1388517534839785,0.0191264537562683,0.5255185114050769,-0.3383602393285515,0.5110564332388664,-0.043965110240431,-0.3452627756677394,1.6151699505132096,0.7217619615336237,-0.2700666311726469,0.5883598543420385,1.1664450389314576,-0.1631576126209899,1.1549379310482135,0.0095915440727956,10.94331140162558,-1.332274323390445,0.3152076480832217,-1.4091152988718365
2.34,-0.0308823885299356,-0.3573411131962325,1.6311588092654508,-0.0960926762723678,0.1403417385615135,0.0197241908034474,0.5226147743533305,-0.314623989328893,0.5118903510944609,-0.0301832146276746,-0.3514641083031132,1.6267873882925468,0.7544291424294292,-0.2300666305766003,0.5958478197172236,1.1963869272750485,-0.1451868525873201,1.1868124999829257,0.041695892779725,10.984497741365884,-1.332460600276138,0.3195048770076365,-1.417359834794251
2.36,-0.0204501759651235,-0.363363326804043,1.6414096157716551,-0.0980149797347898,0.1429207024080666,0.0201976783085801,0.5209322492409212,-0.2888763014193168,0.5131234905032488,-0.0155846394925231,-0.3566654409235859,1.6385920252062631,0.7870963233252345,-0.1900666299805539,0.6033357850924085,1.2916026442411843,-0.0841262556204647,1.2873843954788078,0.0616569704393943,11.02796435469645,-1.3310097112100638,0.3244322696830726,-1.4275206217704663
2.38,-0.0100358660581608,-0.3688495056601304,1.65169138392471,-0.0994406747058763,0.1460685235119875,0.0206572597511541,0.5207130551923045,-0.2612261880511967,0.5149771313704234,-0.0001693848349765,-0.3608667735291574,1.6505838612543595,0.8197635042210398,-0.1500666293845075,0.6108237504675935,1.3856521928006535,-0.0109597024308349,1.382505668406006,0.0926820433587327,11.02796435469645,-1.3291384610577086,0.3285979404597585,-1.43818943897991
2.4,-0.0001322653392753,-0.3735341555557827,1.6615010772443215,-0.0996277210999509,0.1491690819354363,0.0211719202191367,0.5218524193251198,-0.2335215296120046,0.5175245583109667,0.0159997867014543,-0.3819108150626903,1.6774402404932311,0.5715330444861182,-0.1612261865610806,0.4980290181524736,1.3922424662005273,0.0569682066407672,1.385232921959606,0.1273713470271609,11.090978768511375,-1.3270798425172508,0.3313813010789386,-1.4496534804785293
2.42,0.0103893230810018,-0.3778654599451238,1.6716772054530555,-0.0966463915900109,0.1493002162137205,0.0222547704914715,0.530234134192128,-0.2018812200551801,0.4990169172782326,0.0159997867014543,-0.3819108150626903,1.6774402404932311,0.5715330444861182,-0.1612261865610806,0.4980290181524736,1.8800898313378824,0.4190857433504058,1.5820154778412223,-0.9253820516367028,11.166333893929732,-1.3339744510825595,0.3297280307539217,-1.4541007079649058
2.44,0.0210547864964808,-0.381633194821744,1.6814784702413874,-0.0910284901366165,0.1436605464611056,0.0240631873867571,0.5351009859647822,-0.1768556880013274,0.4824086612881339,0.0159997867014543,-0.3819108150626903,1.6774402404932311,0.5715330444861182,-0.1612261865610806,0.4980290181524736,1.5213461701631603,0.2433425886327112,1.251276602692636,-0.8304127995049343,10.059620213703056,-1.3527981865595984,0.3254088118555088,-1.45314524401292
2.46,0.0312194347671781,-0.3847888571265203,1.6905161241436533,-0.0859208891167997,0.1356805574801763,0.0259599066409573,0.5342572552351051,-0.1564198030585855,0.469748603030646,0.0217151171463155,-0.3835230769283011,1.682420530674756,0.581697042344881,-0.1412261862630574,0.4946393955088836,1.2027201981551785,-0.0421865364838514,1.0217942471370935,-0.6330029128743947,10.059620213703056,-1.372391935433967,0.3208271119660802,-1.447889806495309
2.48,0.0418471148549742,-0.3877102033434113,1.6997874240685558,-0.0816321552989709,0.1268960702037913,0.0278624445673236,0.528281087379189,-0.1365962850741477,0.4580947767035874,0.0331457780360379,-0.3867476006595227,1.6923811110378053,0.6020250380624064,-0.1012261856670109,0.4878601502217036,1.1879584542216337,-0.2988083927958074,0.9911758992218924,-0.5826913163529318,10.261123653994218,-1.3903500070930723,0.3173957694812679,-1.4401273959353609
2.5,0.0523084539731163,-0.3902431125411598,1.7088373860720938,-0.0786106705525464,0.1195177729267846,0.0295227122179745,0.5180227878340199,-0.1174753233192737,0.4474964916848928,0.0445764389257603,-0.3899721243907443,1.702341691400855,0.6223530337799319,-0.0612261850709645,0.4810809049345237,1.2074430973417067,-0.5129149772584551,0.9560480877436972,-0.5299142509347265,10.3149684341779,-1.4048246594020053,0.3154505510935024,-1.4331923375223157
2.52,0.0625228931679452,-0.3923980905467871,1.717684238957909,-0.0767617636726434,0.1151132063569459,0.0308455138743307,0.5039339080095142,-0.0987481263516896,0.4376886814089988,0.0570234996013589,-0.3911966480921636,1.7119633094995454,0.6426810294974574,-0.021226184474918,0.4743016596473438,1.2702338203850398,-0.7044439912252842,0.936359848379209,-0.4903905137947001,10.3149684341779,-1.4141260995108609,0.314888492030332,-1.429294781553632
2.54,0.07194399253291,-0.3941015711927239,1.7259067285547731,-0.0760269974628055,0.1148350877298705,0.0317226165113717,0.4890285093176678,-0.0813475256131754,0.4282983208298566,0.0694705602769575,-0.3924211717935829,1.7215849275982358,0.6630090252149828,0.0187738161211284,0.4675224143601638,1.2380737942772049,-0.7452699345923186,0.8700300369257057,-0.469518028957111,10.356505088592712,-1.4147091289241414,0.31531054776806,-1.4301167384518854
2.56,0.0815786080786072,-0.3955298678246128,1.734370160492234,-0.0761490548805153,0.1181251686207563,0.0323073666104299,0.4756382016610069,-0.0623538633615992,0.4185367453823855,0.0824258208454943,-0.3926456954801011,1.7310370645647468,0.6833370209325084,0.0587738167171748,0.4607431690729838,1.2603054194159191,-0.6695153828330441,0.949683112578812,-0.4880787723735569,10.36119234695434,-1.409441080751333,0.3168504918125852,-1.435809260452532
2.58,0.090977225678527,-0.3965679804560376,1.742644401667573,-0.0767777122183664,0.1238558414803347,0.0326659501196375,0.4652698868802033,-0.0423999289700916,0.4093912335081708,0.0958892813069692,-0.391870219151718,1.740319720399078,0.7036650166500338,0.0987738173132212,0.4539639237858039,1.2137769940724532,-0.5184157390401817,0.9976967195753816,-0.4572755937107348,10.36119234695434,-1.401533120900366,0.3190146770856539,-1.4448864879648886
2.6,0.1002036151627258,-0.3971946861361143,1.7507451944301256,-0.077438617458818,0.1308313181797828,0.0329196537948174,0.4581809933154689,-0.0213533742814676,0.401118173384361,0.1142407200225372,-0.3986879769045422,1.7631139633429815,0.4931882945737086,0.0576000725200245,0.3808151518895041,1.1849613918241604,-0.3544446782367177,1.052327734431196,-0.4136530061904869,10.46106978400894,-1.3919663263532664,0.3214567402378436,-1.4566802514899846
2.62,0.1089310724443877,-0.3973452632788383,1.758233707244725,-0.0761638299174313,0.1353891815986568,0.0334497864099569,0.4604039829213142,0.0036771098673989,0.3876066619286163,0.1142407200225372,-0.3986879769045422,1.7631139633429815,0.4931882945737086,0.0576000725200245,0.3808151518895041,1.4265585874168334,0.1111494802922635,1.2515242074433344,-0.6755755727872376,10.46106978400894,-1.3851173295658068,0.3216438426178943,-1.4690978710117897
2.64,0.1181584084415192,-0.3970338601599089,1.7658482176115755,-0.0725785404679107,0.1358417624744207,0.0344928008972481,0.4619984689163659,0.0256847803104253,0.3746815602443475,0.1142407200225372,-0.3986879769045422,1.7631139633429815,0.4931882945737086,0.0576000725200245,0.3808151518895041,1.2786107670690452,0.0797242997525843,1.100383522151316,-0.6462550842134374,10.163727982621822,-1.390351209979999,0.3189592076338576,-1.4722103966466922
