t,x,y,z,roll,pitch,yaw,v_x,v_y,v_z,ref_x,ref_y,ref_z,ref_v_x,ref_v_y,ref_v_z,a_com,a_x,a_y,a_z,thrust,wind_x,wind_y,wind_z
0.0,-1.3296493758236227,-1.0178130910017906,2.4020040687285333,0.0107092696571532,0.1362587032090052,0.02568831485198,0.0020936436566019,0.000758977097429,0.0011551239652388,-1.329582404574623,-1.0178917575979678,2.402038546513401,0.1021970580133984,0.0982595466207454,-0.0988483463722528,0.1254362524384447,0.1046821828300969,0.0379488548714538,0.0577561982619416,10.545565063443064,-1.2859601545835997,0.1656083497544469,-1.1645320325957609
0.02,-1.32971305030743,-1.0180419100267954,2.40178697406405,0.0023433854936254,0.138582810374777,0.0251374593529965,-0.0083593045111252,-0.0192917018961978,-0.0239954121835435,-1.329582404574623,-1.0178917575979678,2.402038546513401,0.1021970580133984,0.0982595466207454,-0.0988483463722528,1.691037641563512,-0.5226474083863598,-1.0025339496813472,-1.2575268074391197,9.029134170189993,-1.3002399633949118,0.1754969252874016,-1.1540381652698637
0.04,-1.3299741428714378,-1.0184418898507428,2.4009535154053525,-0.0134519834729479,0.1446022423756111,0.0240388137180492,-0.0167653056158545,-0.0188130691494256,-0.0582747664668464,-1.329582404574623,-1.0178917575979678,2.402038546513401,0.1021970580133984,0.0982595466207454,-0.0988483463722528,1.7649108149983033,-0.4203000552364646,0.0239316373386111,-1.7139677141651453,9.029134170189993,-1.292055129188081,0.1905180745965629,-1.1438122134878337
0.06,-1.3303421128861024,-1.0187318705675927,2.3995307490546,-0.0291070258649828,0.1519714017879928,0.0228452241043475,-0.0212486378203722,-0.0114088996277539,-0.0897380223096011,-1.328560433994489,-1.0169091621317603,2.4010500630496785,0.1221970583114216,0.1182595469187686,-0.118848346670276,1.6316084565455315,-0.2241666102258833,0.3702084760835841,-1.5731627921377365,8.61726473526096,-1.2791210986958257,0.2061126071501183,-1.128443107609502
0.08,-1.3307885435078028,-1.0188444129403151,2.3974095629083094,-0.0450472139041111,0.1603934571850052,0.0215004131872163,-0.022870166216777,0.0001179254111914,-0.1206350336419816,-1.326516492834221,-1.0149439711993455,2.3990730961222333,0.1621970589074681,0.158259547514815,-0.1588483472663225,1.6508500530727006,-0.0810764198202437,0.576341251947273,-1.5448505666190242,8.707761249916075,-1.2687265424764422,0.2209990098444737,-1.1162833833115795
0.1,-1.3312384761975646,-1.0186930564556718,2.3946966274582304,-0.0602516400024422,0.1688985061839173,0.020094143252835,-0.0218051240603053,0.0147718932612435,-0.1490295203863897,-1.324472551673953,-1.0129787802669306,2.397096129194788,0.2021970595035145,0.1982595481108615,-0.1988483478623689,1.598530548678836,0.0532521078235885,0.732698392502601,-1.4197243372204025,8.826912359272683,-1.26101844492438,0.2343950914958663,-1.107285197596422
0.12,-1.3316428345771965,-1.0182079926041796,2.391439654391529,-0.0744055869100807,0.1771665273284093,0.0186765047268119,-0.0185010184483699,0.0330947384040017,-0.1752879257731288,-1.3204286104838827,-1.0090135893047134,2.3931191622375407,0.242197060099561,0.238259548706908,-0.2388483484584154,1.6094623492603437,0.1652052805967665,0.9161422571379126,-1.3129202693369535,8.962197061990992,-1.2561034072852877,0.2478476444120251,-1.102453935831016
0.14,-1.3319498084011676,-1.017369924039613,2.387864458211946,-0.0863185987379003,0.1846695458241845,0.0173869638030518,-0.013827493894866,0.0539840689528063,-0.1997432893845025,-1.3163846692938124,-1.005048398342496,2.3891421952802934,0.2821970606956075,0.2782595493029545,-0.2788483490544619,1.6250159783013878,0.2336762276751965,1.0444665274402267,-1.2227681805686883,9.079827646558442,-1.2542161687364997,0.2600057175085981,-1.1003812430050224
0.16,-1.3321627129101967,-1.0160295557928332,2.383599499505064,-0.0967750735607809,0.192148542088404,0.0161524592429587,-0.0075442355411012,0.0787002828055831,-0.2254470616413539,-1.311340728088841,-1.0000832073653776,2.3841652283081447,0.3221970612916539,0.3182595498990009,-0.3188483496505083,1.8104243086832137,0.3141629176882422,1.2358106926388408,-1.285188612842571,9.12632530087285,-1.2530684591011954,0.2701544804985681,-1.0998874603161088
0.18,-1.3322354604989464,-1.0141726741940311,2.3788245033223623,-0.1048777376603174,0.1991874101243699,0.0150870127197488,0.000110290495249,0.1053998328506755,-0.2507148892996688,-1.3052967868689684,-0.994118016373358,2.378188261321095,0.3621970618877003,0.3582595504950473,-0.3588483502465547,1.8774456423701464,0.3827263018175147,1.3349775022546209,-1.2633913829157433,9.151364887038651,-1.2529004972522586,0.2780396298624288,-1.100120628017005
0.2,-1.3321503491535336,-1.011900491329793,2.373826199921627,-0.110391760665593,0.2054721274690516,0.0142534262883735,0.0085897163465195,0.1319235932749696,-0.2741219990063522,-1.332229945974184,-1.0089026825514975,2.3662887588573787,0.1001102919853652,0.2053998343407916,-0.3507148907897849,1.818861810744055,0.4239712925635253,1.3261880212147046,-1.1703554853341709,9.244370664927374,-1.2537823481079788,0.2835475883437843,-1.1015519290320497
0.22,-1.331857322858213,-1.0088450556283497,2.368168306518309,-0.1107926941561964,0.2116604978531235,0.0138080372917787,0.0205310006287665,0.1709167974686678,-0.289792920927693,-1.332229945974184,-1.0089026825514975,2.3662887588573787,0.1001102919853652,0.2053998343407916,-0.3507148907897849,2.1844003968284067,0.5970642141123467,1.9496602096849116,-0.7835460960670365,9.244370664927374,-1.253074187927489,0.2843330300649865,-1.1073772182614927
0.24,-1.331310998930625,-1.0050831766312036,2.3622150736114937,-0.1052791817311438,0.2174172359166028,0.0138665892433259,0.0336217628816734,0.2020770424926947,-0.3047378931582319,-1.332229945974184,-1.0089026825514975,2.3662887588573787,0.1001102919853652,0.2053998343407916,-0.3507148907897849,1.8477561536165303,0.6545381126453446,1.5580122512013432,-0.7472486115269461,9.87622773678504,-1.2574096508878645,0.2798939017778692,-1.1169447467092573
0.26,-1.3304957992311193,-1.0007695566094603,2.355950625326145,-0.0980660372281312,0.2227791946593066,0.0141393599645302,0.0473544415564938,0.2273532801537083,-0.3209423612412372,-1.3312288430543304,-1.0068486842080897,2.3627816099494807,0.1201102922833884,0.2253998346388148,-0.3707148910878082,1.650802410749881,0.6866339337410231,1.2638118830506777,-0.8102234041502676,9.795812976294656,-1.2597412535120651,0.2741559144592845,-1.1279174524984992
0.28,-1.3294616324213393,-0.99623821100437,2.3496862287223386,-0.0912207305605889,0.2275412082221129,0.0144781252812578,0.0609007704575042,0.2483021509396732,-0.3376733958387939,-1.329226637214623,-1.002740687521274,2.3557673121336853,0.1601102928794348,0.2653998352348613,-0.4107148916838546,1.5019035693129916,0.6773164450505176,1.0474435392982455,-0.8365517298778352,9.704765845242036,-1.261716795741025,0.2679470912228605,-1.1386499255584392
0.3,-1.328090019949668,-0.9910617540960652,2.342734450915313,-0.0846646290714749,0.2322358912474997,0.0148623542694492,0.0756176164339253,0.2682382450756393,-0.3567159126225567,-1.3272244313749155,-0.998632690834458,2.3487530143178894,0.2001102934754813,0.3053998358309078,-0.4507148922799011,1.5625706786828018,0.7358422988210569,0.9968047067983056,-0.9521258391881392,9.62387821482389,-1.2634566534073004,0.262426071116017,-1.1495301803613125
0.32,-1.3264188142223547,-0.985501133345071,2.33538939070073,-0.0789575801448405,0.2366305923203264,0.0152512538661566,0.0908399201536182,0.2868539595826541,-0.376905365447561,-1.323222225505406,-0.9925246941178396,2.339738716472292,0.2401102940715277,0.3453998364269542,-0.4907148928759475,1.5699342044448303,0.7611151859846433,0.9307857253507384,-1.0094726412502142,9.54597063892652,-1.263543496596326,0.2578038777802476,-1.1590058972286557
0.34,-1.3244366499006333,-0.9795796951229484,2.327634220724108,-0.0741047915784183,0.2407438464641554,0.0156352965314966,0.1066904038369531,0.3044644313497008,-0.3976321588329493,-1.3192200196358963,-0.9864166974012216,2.3307244186266933,0.2801102946675742,0.3853998370230007,-0.5307148934719941,1.5739810298207175,0.7925241841667464,0.8805235883523388,-1.036339669269415,9.49454936145321,-1.263129777015847,0.2536272289971027,-1.167518440965882
0.36,-1.3222538989643455,-0.973627138928836,2.3198804487839984,-0.0699545505621562,0.2444044906946041,0.0160123653052889,0.1223445691220514,0.3211559264882951,-0.4175309194051678,-1.3142178137514855,-0.9793087006697024,2.3207101207661944,0.3201102952636206,0.4253998376190471,-0.5707148940680404,1.516261498757197,0.7827082642549159,0.8345747569297124,-0.9949380286109228,9.478580675219746,-1.26281869566887,0.2499573591225784,-1.1754557473591916
0.38,-1.3196291686388122,-0.9670249210067688,2.3113066205660906,-0.0658081003061933,0.2480125094580459,0.0164353311610972,0.1393722781924828,0.3380888840208005,-0.4388298137031928,-1.3082156078521736,-0.9712007039232818,2.309695822890794,0.3601102958596671,0.4653998382150935,-0.6107148946640869,1.6049227592810555,0.8513854535215699,0.8466478766252727,-1.0649447149012503,9.478580675219746,-1.262374668794357,0.2464816857099858,-1.1829087918408034
0.4,-1.3166578531388249,-0.9600902638144506,2.302304785923201,-0.0617881986724028,0.2513836357847748,0.0168875167742304,0.1569736878996216,0.3544102118810167,-0.4603002608966643,-1.312660554729188,-0.9501204768057288,2.289365129880931,0.239372279682599,0.4380888855109167,-0.5388298151933089,1.610260436611791,0.8800704853569402,0.8160663930108059,-1.0735223596735788,9.466183189701042,-1.2618401765839349,0.2430940809196079,-1.1899063310476683
0.42,-1.3132823386553576,-0.9528339628503848,2.2930404081332534,-0.0581085163899886,0.254446416750982,0.0173544651907417,0.1799648813833422,0.3704780411751469,-0.4642206330653621,-1.312660554729188,-0.9501204768057288,2.289365129880931,0.239372279682599,0.4380888855109167,-0.5388298151933089,1.4161033101192535,1.149559674186028,0.8033914647065099,-0.1960186084348864,10.567915029341748,-1.261398142297976,0.2393581505703405,-1.1876892986791947
0.44,-1.3096459133663545,-0.9456579266597585,2.284168451064771,-0.0553723918642455,0.257052954351068,0.017777330121059,0.2016661037386887,0.3843268091960919,-0.4696137908977063,-1.312660554729188,-0.9501204768057288,2.289365129880931,0.239372279682599,0.4380888855109167,-0.5388298151933089,1.3151212670498449,1.0850611177673246,0.6924384010472517,-0.2696578916172087,10.567915029341748,-1.2651340667220092,0.2383044347486403,-1.202829166563063
0.46,-1.3053787283019536,-0.9378201852072988,2.2746836329404343,-0.0532333889485753,0.2595809606223605,0.018195344155562,0.2239092803917494,0.3987915605942592,-0.4787571009712538,-1.310266831932362,-0.9457395879506196,2.283976831728998,0.2593722799806222,0.4580888858089398,-0.558829815491332,1.4031999676908886,1.1121588326530374,0.7232375699083637,-0.4571655036773758,10.352590653324114,-1.267747425840133,0.23781868496165,-1.2159836895069291
0.48,-1.3006711069247436,-0.9296950968777248,2.2649854398166536,-0.0516054064992616,0.2619457370875642,0.0185978106413821,0.2457540983835786,0.4130062590909408,-0.490725073179335,-1.3054793863387102,-0.9369778102404014,2.273200235425132,0.2993722805766686,0.4980888864049863,-0.5988298160873785,1.4339509102660306,1.0922408995914594,0.7107349248340805,-0.5983986104040606,10.161574100977305,-1.2697144016233326,0.2376101187934732,-1.2259201484182034
0.5,-1.2957968536997342,-0.9217175057678044,2.255527695797704,-0.050510298638403,0.2640682870008128,0.0189644127211625,0.266271703302061,0.426062377458084,-0.5042330372777634,-1.300691940745058,-0.928216032530183,2.2624236391212658,0.3393722811727151,0.5380888870010327,-0.638829816683425,1.3909524007781653,1.02588024592412,0.6528059183571605,-0.675398204921418,9.91027888915869,-1.271278739724651,0.2376245504004604,-1.23343490496899
0.52,-1.290245972827823,-0.9130575967073604,2.2452774442651537,-0.0499635545373342,0.2661852937647723,0.0193225948874775,0.2877547071075074,0.4392726209772604,-0.520168428440006,-1.293904495121604,-0.9174542547901624,2.2496470427875974,0.3793722817687615,0.5780888875970792,-0.6788298172794714,1.4916154647180713,1.074150190272316,0.660512175958819,-0.7967695581121315,9.91027888915869,-1.272866337629987,0.2382562093849643,-1.2397827439787268
0.54,-1.2842638895488516,-0.9041357516375432,2.2347004386334355,-0.0501831609870968,0.2681858437237885,0.0196409167333279,0.3094145112886818,0.4523262400926356,-0.536749297748296,-1.2871170494981494,-0.9066924770501416,2.2368704464539286,0.419372282364808,0.6180888881931257,-0.7188298178755179,1.512009685976503,1.082990209058721,0.6526809557687613,-0.8290434654145029,9.79841979705634,-1.2739603548972749,0.2396724502518941,-1.245903248489144
0.56,-1.277846100699223,-0.8949410693168256,2.2237887245305257,-0.0508542932330211,0.2700692581859554,0.0199411907608535,0.3313140292138095,0.4664296866561273,-0.5536081021563517,-1.279329603859794,-0.8949306992952198,2.223093850105359,0.4593722829608544,0.658088888789172,-0.7588298184715643,1.5513827512829734,1.0949758962563838,0.7051723281745859,-0.8429402204027825,9.79841979705634,-1.2748345390000495,0.2416826157653858,-1.2521157312967302
0.58,-1.2713415299016095,-0.8859360515370814,2.213107498637721,-0.0514405202310794,0.2717528918425839,0.020242794262982,0.3523092479911233,0.4806659267571876,-0.5699007593641984,-1.2705421582065373,-0.8821689215253969,2.2083172537418885,0.4993722835569009,0.6980888893852185,-0.7988298190676107,1.507415356342363,1.049760938865693,0.7118120050530169,-0.8146328603923336,9.78971929391446,-1.2757611327771914,0.2437171563711247,-1.2586815608857698
0.6,-1.2640624108946492,-0.8761592314361178,2.201524534050303,-0.0516505684280036,0.2734204390155598,0.0206021795153599,0.374520068867971,0.4962024086968348,-0.5875701204922176,-1.2537260675020534,-0.8619027551992221,2.184612460669511,0.4523092494812394,0.5806659282473038,-0.6636904113541352,1.6177987805632317,1.1105410438423835,0.7768240969823592,-0.88346805640096,9.769459988800008,-1.2768901411601112,0.2453396151226411,-1.265585172057546
0.62,-1.2562664107104191,-0.8660083212477515,2.1898249429278804,-0.0497034287328837,0.2748698898626419,0.0211333837964462,0.404328265351718,0.5177238078482245,-0.580257203392858,-1.2537260675020534,-0.8619027551992221,2.184612460669511,0.4523092494812394,0.5806659282473038,-0.6636904113541352,1.8742851674366456,1.4904098241873498,1.076069957569481,0.3656458549679775,9.769459988800008,-1.277252023855242,0.2433480604183814,-1.2593143781108038
0.64,-1.2483064441222376,-0.8560007760295374,2.1788520285404207,-0.0455333904441529,0.2760046865709031,0.0218199297600507,0.4320388041077777,0.5340983848707239,-0.575303643390159,-1.2537260675020534,-0.8619027551992221,2.184612460669511,0.4523092494812394,0.5806659282473038,-0.6636904113541352,1.6282954949249773,1.3855269378029833,0.8187288511249724,0.2476780001349487,11.44525114231783,-1.2841289724013245,0.2416764486894351,-1.2845976123689469
0.66,-1.239372561780915,-0.8451689416348558,2.1673549721257945,-0.0407518933489085,0.2770702492857796,0.0225792688535816,0.4598351589004582,0.5480915549733519,-0.5748960939321929,-1.249202975007241,-0.8560960959167491,2.1779755565559697,0.4723092497792627,0.600665928545327,-0.6824483417521225,1.5561267990128111,1.389817739634025,0.6996585051314008,0.0203774728983086,11.125743255228372,-1.2894437145415167,0.2387889098509794,-1.3051337426360712
0.68,-1.2298954290363695,-0.8340777139162859,2.15582001427953,-0.0362723615650593,0.2780741342187742,0.0233210558252342,0.486449889672459,0.5602926705349853,-0.578804856038235,-1.2401567900176165,-0.844482777351803,2.164701748328887,0.5123092503753092,0.6406659291413734,-0.7199642025480973,1.4768966925753928,1.330736538600044,0.6100557780816696,-0.1954381053021037,10.591463815869249,-1.2938999850484412,0.2357788600351931,-1.322332604976402
0.7000000000000001,-1.2198953913690511,-0.8227567527935686,2.14416639759967,-0.0323471318065929,0.2790117557993914,0.0240260835320415,0.5122294409202307,0.5712548951689823,-0.586365070691976,-1.2311106050279914,-0.8328694587868569,2.1514279401018044,0.5523092509713556,0.6806659297374199,-0.757480063344072,1.4507864049140171,1.2889775623885824,0.5481112316998493,-0.3780107326870507,10.591463815869249,-1.2968790075002172,0.2330946127175847,-1.3353623255718476
0.72,-1.2099193132674309,-0.8118074775945329,2.1329290072961347,-0.0291920990660742,0.2796754973440196,0.0246615772976061,0.5365516603410513,0.5808396098092312,-0.5961413250640812,-1.2200644200085642,-0.8192561401921085,2.1362783388349227,0.5923092515674021,0.7206659303334664,-0.7949959241400467,1.3955395568002102,1.216110971041029,0.4792357320124452,-0.4888127186052637,10.404887146376495,-1.2987988152270418,0.2305565002811536,-1.3451876017188007
0.74,-1.198921045865989,-0.8000922171441556,2.1208871571482923,-0.0265071008567728,0.2799812456816253,0.0252946194007481,0.5619416516489253,0.5902629079832322,-0.6075752648248792,-1.2090182349891372,-0.8056428215973601,2.121128737568041,0.6323092521634486,0.7606659309295128,-0.8325117849360215,1.4698513407345022,1.2694995653937002,0.4711649087000502,-0.5716969880398992,10.261627782524556,-1.301141807279062,0.2286177919831483,-1.3522312698560837
0.76,-1.1874098739387924,-0.7881843645431292,2.108606932099912,-0.0241892455448896,0.2796207658603511,0.0259154360555455,0.5878517520502616,0.599994089270169,-0.6198969156385923,-1.1969720499548089,-0.7910295029877106,2.105041239781261,0.6723092527594949,0.8006659315255592,-0.8700276457319962,1.514803841114117,1.2955050200668172,0.4865590643468365,-0.6160825406856529,10.167219566536003,-1.303084184270408,0.2268613724658053,-1.356137147233534
0.78,-1.1759895066578752,-0.7766926961016611,2.0967037387639693,-0.0220306126811654,0.2781528473524119,0.0265233345901032,0.6128984258348861,0.6090739593116598,-0.6324341838101554,-1.1839258649055793,-0.7754161843631598,2.08801584547458,0.7123092533555414,0.8406659321216057,-0.9075435065279708,1.4722117721726078,1.252333689231222,0.45399350207454,-0.6268634085781544,10.167219566536003,-1.3063741108374862,0.2252103597241689,-1.3580748687500708
0.8,-1.1634548737752626,-0.7644149245911588,2.083906927475712,-0.0197622123550144,0.2749538526998227,0.0271886707015052,0.6391396177174474,0.6181462563262419,-0.646608658107084,-1.1453445853661308,-0.7462389981360782,2.0650820295734618,0.7128984273250022,0.7090739608017759,-0.6925000307003665,1.5587033442355944,1.3120595941280675,0.453614850729106,-0.708723714846432,10.126425090151317,-1.3122113101569837,0.2234990195305243,-1.358232963815402
0.8200000000000001,-1.1502818020306236,-0.7519191042683727,2.071216944871733,-0.0165090661174045,0.2694008282331416,0.0279501614290028,0.6763029861699293,0.6301730256236913,-0.6216172881906414,-1.1453445853661308,-0.7462389981360782,2.0650820295734618,0.7128984273250022,0.7090739608017759,-0.6925000307003665,2.3185813037121807,1.858168422624096,0.6013384648724696,1.2495684958221287,10.06740660939704,-1.3250267992888467,0.220406143417029,-1.344745595572099
0.84,-1.1371129750831064,-0.7398623151056456,2.059602199363777,-0.0128982917925716,0.2621300047936524,0.0287091207067515,0.7075556527506613,0.63830029629562,-0.6022866025751944,-1.1453445853661308,-0.7462389981360782,2.0650820295734618,0.7128984273250022,0.7090739608017759,-0.6925000307003665,1.881792432326456,1.5626333290366,0.4063635335964377,0.966534280772352,12.675649322125537,-1.3403829842855624,0.2184906578202727,-1.364051200127904
0.86,-1.1226607033682814,-0.7270266170084126,2.047711196144136,-0.0095346253156181,0.2531496403141396,0.0294504555921119,0.7355266191381216,0.6448910526568095,-0.5880640988281922,-1.1382156010928808,-0.7391482585280604,2.058157029266458,0.7328984276230254,0.729073961099799,-0.7045132000784087,1.603194188873013,1.3985483193730108,0.3295378180594721,0.711125187350109,12.166416854067393,-1.3569486903818595,0.2165771221803787,-1.375886952941702
0.88,-1.1077009663682935,-0.7140714168261193,2.0360429533585678,-0.0069400367992972,0.2434662005488768,0.0301023773019548,0.7586113425686415,0.6504081580433506,-0.5796653611679147,-1.1239576325463807,-0.7249667793120249,2.0443070286524505,0.7728984282190718,0.7690739616958455,-0.7285395388344932,1.258850370373661,1.1542361715259963,0.2758552693270577,0.4199368830138772,11.71966957737004,-1.3739099785262705,0.2152119014811273,-1.3817766553190112
0.9,-1.0923296884439373,-0.7010151157576855,2.024485467846608,-0.0052295057296434,0.2336971198042427,0.0306594909718819,0.7770712070271084,0.6551206263340681,-0.5764258155745409,-1.1096996639998806,-0.7107853000959894,2.0304570280384437,0.8128984288151183,0.809073962291892,-0.7525658775905776,0.9662667965778596,0.9229932229233462,0.2356234145358737,0.1619772796686902,11.328875531869016,-1.3888515513129147,0.2145161829812393,-1.3815703901857772
0.92,-1.077424502482794,-0.6885318766598432,2.0135280005545897,-0.0045683642768755,0.2248645341661292,0.0310988104701811,0.7907999935136281,0.6588153492075568,-0.5771109179595371,-1.0934416954235784,-0.6946038208501515,2.015405710486632,0.8528984294111648,0.8490739628879385,-0.776592216346662,0.7116879948092646,0.6864393243259825,0.1847361436744354,-0.0342551192498097,11.008632123936875,-1.4031336315140663,0.2147451696817455,-1.377277462557386
0.94,-1.0614855692767935,-0.6753224748969531,2.0019629955794467,-0.0052044047305351,0.2165173818445138,0.0314567352825268,0.802188401828959,0.662062592682682,-0.5794004599429226,-1.077183726847276,-0.6784223416043137,2.00035439293482,0.8928984300072113,0.8890739634839849,-0.8006185551027465,0.6030805017514801,0.5694204157665472,0.1623621737562586,-0.1144770991692745,10.749647466562235,-1.4159126584132276,0.2165051103744251,-1.3704422710287605
0.96,-1.0453413896456398,-0.6620406492437686,1.9903362799015996,-0.0072012059698775,0.209337501948981,0.0317214317346213,0.8115709795087767,0.6660706616441419,-0.5831269659248428,-1.0599257582560724,-0.6612408623435747,1.9847024169141063,0.9328984306032576,0.9290739640800314,-0.8246448938588309,0.5431027240562276,0.4691288839908825,0.2004034480729943,-0.1863252990960129,10.639166927245242,-1.425602312033772,0.2196130986361122,-1.3636676791600684
0.98,-1.0290278901106622,-0.6486628015736993,1.978623600263833,-0.0100415622377268,0.2032513345175167,0.0319368733325503,0.8192012671687742,0.6717826288450248,-0.5879348234625144,-1.0416677896499678,-0.6430593830679345,1.9684497824244904,0.972898431199304,0.969073964676078,-0.8486712326149153,0.5337680984772746,0.3815143829998757,0.285598360044148,-0.2403928768835772,10.54573179844192,-1.4339582713242596,0.2238934591785585,-1.3574209007374238
1.0,-1.013405508259534,-0.6358295300700733,1.967398388489894,-0.0127052718506187,0.1985625948201036,0.032150141708387,0.8247909693100267,0.678774398702694,-0.5934096874864675,-0.9880678267522236,-0.615073670131448,1.9492268590907076,0.8458561849155565,0.7482302051294334,-0.6054794133992476,0.5246516745692096,0.2794851070626269,0.3495884928834569,-0.273743201197657,10.471495974229583,-1.4408903858391595,0.2281584220030376,-1.3524162959648145
1.02,-0.996647111696848,-0.6220160821402678,1.9558000149245107,-0.010552195025726,0.1902781798864144,0.0327652252639548,0.8504536512748383,0.7006918478771543,-0.5642371744429878,-0.9880678267522236,-0.615073670131448,1.9492268590907076,0.8458561849155565,0.7482302051294334,-0.6054794133992476,2.2304614663865587,1.2831340982405792,1.0958724587230184,1.4586256521739838,10.4085702386501,-1.4473472656474715,0.2251526753466594,-1.3283666336529405
1.04,-0.9794288299585752,-0.6078641456460432,1.9448090716668185,-0.0024606297345086,0.175276216366844,0.0337669905732549,0.8688570329917039,0.7121000690669832,-0.5363566679949621,-0.9880678267522236,-0.615073670131448,1.9492268590907076,0.8458561849155565,0.7482302051294334,-0.6054794133992476,1.7650457565819149,0.9201690858432808,0.5704110594914436,1.3940253224012875,13.001692828517662,-1.4725559500841474,0.2181498913652787,-1.335257739436064
1.06,-0.9628262423997233,-0.5942891961020692,1.9348113441372892,0.0061405426173545,0.1577070777728759,0.0346167180777367,0.8770864594734743,0.716077602253933,-0.5173281878900973,-0.979609264903068,-0.6075913680801537,1.9431720649567148,0.8511871684649129,0.7635197203863151,-0.6089883313865943,1.0554942983898423,0.4114713240885193,0.1988766593474911,0.95142400524324,12.493444798501514,-1.5011566888802623,0.2087256819378979,-1.330040647284236
1.08,-0.9452741714743962,-0.5799641076011538,1.9246089010413616,0.0143843467249613,0.1380811150681899,0.0352429736600837,0.8770078435648687,0.7162339555719807,-0.504202608844777,-0.9626921412047568,-0.592626763977565,1.9310624766887297,0.8618491355636259,0.7940987509000785,-0.6160061673612875,0.6563372839023046,-0.0039307954302791,0.007817665902382,0.6562789522660151,11.892597058374122,-1.530220314990221,0.1998296514584545,-1.316366996082314
1.1,-0.927808370962792,-0.5656656048781605,1.9145894502351013,0.021106846873265,0.1192609722760934,0.0355909253073345,0.8692494743083171,0.7139054947623102,-0.4983328755372914,-0.9457750175064455,-0.5776621598749763,1.918952888420745,0.8725111026623388,0.824677781413842,-0.6230240033359808,0.5001694521964056,-0.38791846282758,-0.1164230404835209,0.2934866653742762,10.978597787953731,-1.5551933226519308,0.192799521781952,-1.299965257056746
1.12,-0.9105636013554522,-0.5514304680233908,1.9046297962978933,0.026191942801783,0.1026632551721537,0.0357339746458768,0.8554984784143,0.7100976810254633,-0.4978855425577761,-0.9283247954531988,-0.5611686042466995,1.9064924083540251,0.8831730697610517,0.8552568119276054,-0.6300418393106741,0.7137741945572781,-0.6875497947008535,-0.1903906868423455,0.0223666489757662,10.978597787953731,-1.5772619969837427,0.1871019612434745,-1.2796817868828092
1.14,-0.8944783723555133,-0.5379870821232379,1.8951518429637944,0.0295405972310948,0.0897877747747137,0.0357576286236785,0.8384267258048398,0.7055702211757627,-0.4997795047779952,-0.910874573399952,-0.5446750486184225,1.8940319282873057,0.8938350368597646,0.8858358424413688,-0.6370596752853674,0.8881578164111397,-0.8535876304730128,-0.2263729924850299,-0.0946981110109573,10.665405157589705,-1.594183097019379,0.1831874413939212,-1.2583213955830932
1.16,-0.8779231053676683,-0.5239260036979007,1.8851242393643577,0.031844542295741,0.0796208533393478,0.0357449784631266,0.8179943768684502,0.7009612475482787,-0.5029071468424163,-0.8931578021692375,-0.5274170172273016,1.8813960023212188,0.9044970039584777,0.9164148729551322,-0.6440775112600607,1.0588976176198046,-1.0216174468194783,-0.2304486813742012,-0.1563821032210532,10.534772276284455,-1.6057268584580753,0.180692299447865,-1.2392750608623475
1.18,-0.8618005492922466,-0.5099595997586334,1.8750253351172248,0.0331639637568388,0.0731540847962022,0.0357509094594991,0.795194708202414,0.695999535673886,-0.5068422701255655,-0.8751744817610551,-0.5093945100733366,1.8685846304557645,0.9151589710571904,0.9469939034688956,-0.651095347234754,1.1831405994841724,-1.139983433301811,-0.248085593719638,-0.1967561641574577,10.46638677755618,-1.6130021742509884,0.1793700763506467,-1.2251042123306766
1.2,-0.8461569864148758,-0.4960997770270136,1.864843491662597,0.0333399888888689,0.0710730994654298,0.0358067882017016,0.7707451921290357,0.6904188920985688,-0.5111047051414519,-0.8220408138821259,-0.4751596229749391,1.8496832216109464,0.7843797378432078,0.7205642880291039,-0.5013076049321568,1.2718989456731298,-1.2224758036689154,-0.2790321787658589,-0.2131217507943206,10.430561370077156,-1.6131969201940797,0.1791476684839105,-1.2162460750304072
1.22,-0.8316674888944419,-0.4828497481490212,1.855293561176086,0.0384417442350505,0.070864351476546,0.0362493534591517,0.7556458801598076,0.7007896757616879,-0.4940784654854382,-0.8220408138821259,-0.4751596229749391,1.8496832216109464,0.7843797378432078,0.7205642880291039,-0.5013076049321568,1.2504351368176851,-0.7549655984614045,0.5185391831559583,0.8513119828006815,10.40964409021035,-1.6057410592342545,0.1731518296502076,-1.2053207768492646
1.24,-0.8167230533528652,-0.4688520786575077,1.8455824824759828,0.0487006228635411,0.0703205787399204,0.0370140629013184,0.7395506005738443,0.6977024651043011,-0.4781499318804287,-0.8220408138821259,-0.4751596229749391,1.8496832216109464,0.7843797378432078,0.7205642880291039,-0.5013076049321568,1.1427019267938254,-0.8047639792981676,-0.1543605328693409,0.7964266802504755,11.714247345589683,-1.6078495505886472,0.1621562593499155,-1.2112802119472297
1.26,-0.8021087670666498,-0.4549984472693256,1.8361444317655131,0.0591346605817791,0.0699054813542972,0.037760967248185,0.7227213876632089,0.687818698485942,-0.4664397842797595,-0.8141970165036938,-0.467953980094648,1.8446701455616248,0.7822167437713665,0.7254772385001474,-0.5002006718934751,1.138023293464532,-0.8414606455317664,-0.4941883309179551,0.585507380033462,11.293278799148538,-1.608036373539638,0.1512859311707754,-1.2141545423866806
1.28,-0.7885417021712199,-0.4420598964610807,1.827364262686039,0.0676666894949945,0.0698928541045576,0.0383659768933214,0.706288568597399,0.6749480406454227,-0.4583430388342248,-0.7985094217468297,-0.4535426943340659,1.8346439934629817,0.7778907556276841,0.7353031394422347,-0.4979868058161115,1.119429165364156,-0.8216409532904978,-0.6435328920259664,0.4048372722767368,11.293278799148538,-1.6068809783017912,0.1413482927785311,-1.2141298052354237
1.3,-0.7745989828550661,-0.4287247414638393,1.81826736176528,0.0747499137506985,0.0704099418252592,0.0388800751565895,0.6889007269017633,0.659522519055182,-0.4518260672369492,-0.7828218269899655,-0.4391314085734839,1.8246178413643384,0.7735647674840016,0.7451290403843218,-0.495772939738748,1.2070156108799557,-0.8693920847817838,-0.7712760795120344,0.32584857986378,11.120395142861526,-1.6045173219523043,0.1335745707744932,-1.2120956276850303
1.32,-0.7610032700876601,-0.4157123569693083,1.8092848011834768,0.0798157300472986,0.071507723403854,0.0392754912208697,0.6716109908111205,0.6428417964705493,-0.4467696461403297,-0.7673505316402854,-0.4242288277657974,1.814702382569564,0.7692387793403191,0.754954941326409,-0.4935590736613845,1.2275472234662592,-0.8644868045321386,-0.8340361292316356,0.2528210548309706,11.006643461860222,-1.601162213844388,0.1280428981899743,-1.2092676705704566
1.34,-0.7477496285854527,-0.4030432492927078,1.8004016597062964,0.0828910787720638,0.0731709505555137,0.039559566450618,0.6547214621082083,0.6254562365676951,-0.44173421547674,-0.7518792362906055,-0.409326246958111,1.8047869237747889,0.7649127911966367,0.7647808422684962,-0.491345207584021,1.237809996435285,-0.8444764351456135,-0.8692779951427088,0.2517715331794873,10.927199547749296,-1.5971248390031705,0.1248543945975649,-1.205913520197268
1.36,-0.7354660805279155,-0.3913319486106395,1.7920596550972432,0.0841682898521625,0.0751917124286149,0.0397364128440922,0.6392226313332625,0.6085243862566776,-0.4365848900498009,-0.7365160906445175,-0.3941780186268724,1.794926811631948,0.7605868030529541,0.7746067432105833,-0.4891313415066575,1.1762406882709326,-0.7749415387472869,-0.8465925155508758,0.2574662713469566,10.952589129372427,-1.5925305459995307,0.1233860148579406,-1.202666797717172
1.38,-0.7228464958991433,-0.3793555542790764,1.7833884947497256,0.0836526358106014,0.077661738065779,0.0398059216908445,0.6236475504979655,0.5902149802927588,-0.4307565697620268,-0.7212610947020216,-0.3787841427720816,1.785122046141041,0.7562608149092717,0.7844326441526706,-0.4869174754292941,1.2367162236690572,-0.7787540417648509,-0.9154702981959416,0.2914160143887012,10.952589129372427,-1.5876883042455834,0.1239887269522164,-1.199646240484125
1.4,-0.7105304665872613,-0.3677512003968606,1.7748386923581534,0.0807756633297208,0.0803622670522198,0.0397123179124545,0.6088198321514705,0.571710720876879,-0.4244550288044305,-0.691664118374245,-0.3498448052644384,1.7618506662616242,0.6336769809991285,0.5996267874647592,-0.4106162850896473,1.226762269485639,-0.7413859173247495,-0.9252129707939872,0.3150770478798165,10.974588340983246,-1.5824756699795348,0.1268701109410564,-1.1966901668428025
1.42,-0.6991148789646648,-0.3569722281708172,1.7669066228133694,0.0788615799809563,0.0836260577955456,0.039718660156273,0.593871874896827,0.5627947414630913,-0.4109073897763708,-0.691664118374245,-0.3498448052644384,1.7618506662616242,0.6336769809991285,0.5996267874647592,-0.4106162850896473,1.1028085035811306,-0.7473978627321742,-0.4457989706893872,0.6773819514029833,10.994494002929969,-1.5756240633028582,0.1290094688518462,-1.195446333466712
1.44,-0.6873872733335992,-0.3458471172775452,1.7588369847118368,0.0787901219946349,0.0880435784517279,0.0399225193047017,0.5798954202986654,0.5501285306315412,-0.3968089889269739,-0.691664118374245,-0.3498448052644384,1.7618506662616242,0.6336769809991285,0.5996267874647592,-0.4106162850896473,1.1774326801074717,-0.6988227299080829,-0.6333105415775031,0.7049200424698449,11.435327753429192,-1.568637053546153,0.128846554069616,-1.199897477416242
1.46,-0.6759209028423823,-0.33499442356283,1.751042976590779,0.0791756875901859,0.0929727712082378,0.0401852293920169,0.5676205959908935,0.5358386102468307,-0.3833152317270804,-0.6853273485642537,-0.3438485373897909,1.7577445034107275,0.6356828670993611,0.6015091488991593,-0.4065882281551715,1.158614064041293,-0.6137412153885913,-0.7144960192355276,0.6746878599946798,11.435327753429192,-1.5608605336637713,0.1281704550438926,-1.2048661218716537
1.48,-0.6646826088561604,-0.3244412635943884,1.7435133855110516,0.0791369497941704,0.0980240729215439,0.0404147649850321,0.5569627506018885,0.5204069721004859,-0.3703090000847235,-0.6726538089442712,-0.3318560016404956,1.7495321777089348,0.6396946392998263,0.6052738717679594,-0.3985321142862196,1.141147652311373,-0.5328922694502525,-0.771581907317237,0.6503115821178435,11.382259927218913,-1.5532836876863914,0.1279082876442652,-1.21008237578914
1.5,-0.6541892686511269,-0.3147091629705057,1.7365983337709057,0.0781390029501796,0.1026545711758528,0.0405379004065266,0.5482164505805466,0.5050432359842815,-0.3582311484461956,-0.6599802693242885,-0.3198634658912005,1.7413198520071418,0.6437064115002915,0.6090385946367596,-0.3904760004172679,1.0705333387078404,-0.4373150010670956,-0.7681868058102226,0.6038925819263963,11.382259927218913,-1.5449886104502426,0.1286342147162325,-1.215441484068569
1.52,-0.6433100670040144,-0.3047800142881514,1.729566760486594,0.0756836428378916,0.1071382412151751,0.0405201389221485,0.5402433410203972,0.4890717046928403,-0.3455399430551449,-0.6471061410942828,-0.3076826939984653,1.7335103319987966,0.6477181837007567,0.6128033175055597,-0.3824198865483161,1.0951335331016292,-0.3986554780074702,-0.7985765645720566,0.6345602695525338,11.371757359017463,-1.5367926305814652,0.1308632394295893,-1.2205940636549308
1.54,-0.632579010855425,-0.2951516742644923,1.7227923214238636,0.0721268114135658,0.1110687419680653,0.0403620446810612,0.5333116472069974,0.4749040224461662,-0.3325123045153671,-0.6342320128642769,-0.2955019221057301,1.7257008119904511,0.651729955901222,0.6165680403743599,-0.3743637726793642,1.0228525862612754,-0.3465846906699876,-0.7083841123337042,0.6513819269888893,11.373531632629238,-1.5296429781143537,0.1342917540140526,-1.225794776370574
1.56,-0.6219767572763489,-0.2857884956593551,1.7162815251317494,0.0680764499024083,0.1143248869886476,0.0401004401543964,0.5272566314530177,0.4623861016377268,-0.3192158252318466,-0.6212575903292594,-0.2832270321412749,1.7180926948288295,0.6557417281016871,0.6203327632431601,-0.3663076588104125,0.9619744259651524,-0.3027507876989854,-0.6258960404219721,0.6648239641760256,11.39229050600261,-1.5240856267770528,0.1380746612079921,-1.230660695835623
1.58,-0.6120109397605946,-0.2771115810598342,1.7103435030344778,0.0640994189429384,0.1167488983619229,0.0397815424866561,0.5220581343613286,0.4517642725363447,-0.3065052101615179,-0.6081828734892304,-0.2708580241050997,1.7106859805139318,0.6597535003021523,0.6240974861119603,-0.3582515449414606,0.8680543775267408,-0.2599248545844534,-0.5310914550691048,0.6355307535164362,11.406591207887686,-1.5195238350739149,0.1422291138939449,-1.235599014717527
1.6,-0.6016239791319767,-0.2681831026323827,1.7043539709907287,0.0599607148970668,0.1186192041842941,0.0393930685186354,0.5168983748175772,0.4417747022533972,-0.2931198706011952,-0.5859080330425281,-0.2545233674330169,1.695018242526402,0.5258416118316074,0.4582478706829323,-0.2882657958421218,0.8740451191620778,-0.2579879771875737,-0.4994785141473723,0.6692669780161337,11.412585699706142,-1.5161254694713344,0.1463562311182296,-1.2401733316874723
1.62,-0.5913071863246999,-0.2593795208359122,1.6986394693962072,0.0579912736985551,0.1188058619941302,0.0390472781929103,0.5148486594317643,0.4379817866127885,-0.2790776555132741,-0.5859080330425281,-0.2545233674330169,1.695018242526402,0.5258416118316074,0.4582478706829323,-0.2882657958421218,0.734457872847468,-0.1024857692906444,-0.189645782030437,0.7021107543960542,11.415175299834118,-1.511708432117471,0.1476933111627615,-1.244868993572131
1.64,-0.5815503000250786,-0.2511186046767946,1.693462132324966,0.0582520731903098,0.1167573399783577,0.0387308041782882,0.5121405044073807,0.4316504505148432,-0.2666141105925647,-0.5859080330425281,-0.2545233674330169,1.695018242526402,0.5258416118316074,0.4582478706829323,-0.2882657958421218,0.7119688764471754,-0.1354077512191798,-0.3165668048972642,0.6231772460354723,11.445547269434428,-1.5151418727354296,0.1469739637368607,-1.2472409182165491
1.66,-0.5713499437159638,-0.2425698293437408,1.6882587213191826,0.0595578020552361,0.1127205091737197,0.0383469493790412,0.5078516897284966,0.4235135608619649,-0.2544177659932603,-0.580649616924212,-0.2499408887261876,1.6921355845679809,0.5265983073256632,0.4595445903122498,-0.2846179129782427,0.7637959906904295,-0.2144407339442045,-0.4068444826439144,0.6098172299652177,11.34276950583626,-1.5202306930654983,0.1449354941509811,-1.2466346887022022
1.68,-0.5612585572330812,-0.2341991799842178,1.683286617899404,0.0612435221594888,0.1073643621158274,0.0378919532456489,0.5012137630764167,0.4140037783199993,-0.2433834904931208,-0.5701327846875799,-0.2407759313125289,1.6863702686511384,0.5281116983137746,0.4621380295708849,-0.2773221472504842,0.8003956366179888,-0.3318963326039925,-0.475489127098283,0.5517137750069762,11.34276950583626,-1.5272656258466912,0.1426561358212592,-1.243008173072124
1.7,-0.551822458039102,-0.226436550033669,1.678757585368807,0.0626649446211718,0.1019588715172337,0.0374085301171369,0.4922714847623977,0.4036933117495525,-0.2338901709244439,-0.5596159524509478,-0.2316109738988703,1.680604952734296,0.5296250893018861,0.4647314688295199,-0.2700263815227258,0.8312538402598502,-0.4471139157009501,-0.515523328522341,0.4746659784338441,11.218222615244484,-1.5340555187104776,0.1403960601383802,-1.236544923606422
1.72,-0.5420982194758039,-0.2184879231002113,1.67417786989318,0.0634733737436806,0.0967786802790716,0.0368673269985179,0.4804353309748176,0.3917870296384818,-0.2245973139921807,-0.54902345066491,-0.2223163445222799,1.6752044251038414,0.5311384802899977,0.4673249080881549,-0.2627306157949674,0.9594416086390584,-0.5918076893790064,-0.5953141055535349,0.4646428466131599,11.218222615244484,-1.5395641949411356,0.1389133695387685,-1.2289871662163836
1.74,-0.5326385823244029,-0.2107886236016778,1.6697768290524169,0.0630521133946759,0.0930571263939419,0.0363242348839513,0.4660370819384008,0.3789610231441546,-0.215944855142643,-0.5384309488788723,-0.2130217151456895,1.6698038974733869,0.5326518712781091,0.46991834734679,-0.255434850067209,1.0567415271131155,-0.7199124518208394,-0.6413003247163596,0.432622942476886,11.180592560697733,-1.542797922161561,0.1387920142655072,-1.2221450445109383
1.76,-0.5239379384178668,-0.2037147649512347,1.6657530589938117,0.0611876424178593,0.0917185258688341,0.0358434549578657,0.4507000996154295,0.3665300127449047,-0.2080167971976935,-0.5278006123181318,-0.2036622497876332,1.664585763986126,0.5341652622662206,0.4725117866054251,-0.2481390843394506,1.0637282889674755,-0.7668491161485658,-0.6215505199624938,0.396402897247472,11.154470265535563,-1.5411837431100148,0.1402052019005919,-1.2168490388400628
1.78,-0.5150876282299871,-0.1965108369647136,1.6616821100040913,0.0577675854132612,0.092657124413906,0.0353793001343369,0.4353778523382138,0.3550378500310933,-0.1994542410739081,-0.5171324409826885,-0.1942379484481111,1.6595500246420596,0.5356786532543321,0.4751052258640601,-0.2408433186116922,1.0489976559051923,-0.7661123638607825,-0.5746081356905713,0.4281278061892712,11.13587186051791,-1.534419751395223,0.1430703691887074,-1.2153885480949689
1.8,-0.5065293225637362,-0.1895099122120517,1.6577862300103856,0.0538086437664177,0.0953165248863903,0.0349722798786061,0.421435545910337,0.3458190730662601,-0.1905435916102234,-0.4933187356130764,-0.1787589444631589,1.6517093979503958,0.4525915042486381,0.3397217389954483,-0.1794192293800728,0.947065772690604,-0.697115321393843,-0.4609388482416598,0.4455324731842361,11.131142270605778,-1.526676110189592,0.1466225838317183,-1.2171250487120804
1.82,-0.4982492005492721,-0.1825707923680856,1.6540945699858378,0.0533085441387238,0.0995191317174772,0.034881765041479,0.4076827298143258,0.3468719072982635,-0.1791685511323486,-0.4933187356130764,-0.1787589444631589,1.6517093979503958,0.4525915042486381,0.3397217389954483,-0.1794192293800728,0.8939238731067516,-0.6876408048005572,0.0526417116001709,0.5687520238937371,11.137768864378812,-1.5176424622720022,0.146403825563774,-1.2270287799561568
1.84,-0.4906164567468097,-0.1760067535857974,1.650794692470295,0.0569048676947611,0.1046877498921452,0.0351463236452421,0.3967192206861943,0.3432473505434611,-0.1688064909755471,-0.4933187356130764,-0.1787589444631589,1.6517093979503958,0.4525915042486381,0.3397217389954483,-0.1794192293800728,0.7757387362452964,-0.5481754564065744,-0.1812278377401166,0.5181030078400775,11.279571877232229,-1.5089657919373718,0.1416566310086787,-1.2361134075035214
1.86,-0.4827824589994476,-0.1692321751317913,1.6475281877668444,0.0620693675118128,0.1107034160101287,0.0355710247583506,0.3874841014959486,0.3341838483290734,-0.1584245252691998,-0.48879282057059,-0.1753617270732044,1.649915205656595,0.4560342346307229,0.3366585167883192,-0.1754122270413058,0.8294873579145547,-0.4617559595122861,-0.4531751107193893,0.5190982853173626,11.249793893244714,-1.498336421898983,0.1351460474750469,-1.2450215231856367
1.88,-0.4751091426989695,-0.1626727964554318,1.6444642609788382,0.0668716286252451,0.1167540079366549,0.0359928321401132,0.3805059774018091,0.3222747120851842,-0.1485134385452729,-0.4797409904856173,-0.1685672922932954,1.6463268210689936,0.4629196953948926,0.3305320723740613,-0.1673982223637717,0.849634306625393,-0.3489062047069752,-0.5954568121944559,0.495554336196348,11.23482899224564,-1.4870685080320656,0.1289371527947694,-1.2540925834929404
1.9,-0.467552577080138,-0.1563698456199048,1.641595138715533,0.0706354952319921,0.1223941916280193,0.0363293775825724,0.3756056527224186,0.3088876943846917,-0.13889936538719,-0.4706891604006445,-0.1617728575133865,1.6427384364813922,0.4698051561590623,0.3244056279598032,-0.1593842176862376,0.8597322658329668,-0.245016233969525,-0.6693508850246277,0.4807036579041454,11.224144889950368,-1.4771118273468895,0.1241217064367536,-1.2619038153870354
1.92,-0.4604477542216454,-0.1506372912681125,1.6390462434941728,0.0731447117378404,0.1270953282676854,0.03653449334099,0.3725572380919411,0.2954861042141892,-0.1298850564846237,-0.4612930572774633,-0.1552847449541904,1.639550752127667,0.476690616923232,0.3182791835455452,-0.1513702130087035,0.8218169136862303,-0.1524207315238779,-0.670079508525126,0.4507154451283121,11.223606387794462,-1.4679010820941445,0.1203143791060448,-1.2692139254905137
1.94,-0.4530180898948455,-0.1448806942935815,1.6365488910071768,0.0747203569359014,0.1311899200533773,0.0366132357016879,0.3706204727981991,0.2810153849719377,-0.120319443868897,-0.451896954154282,-0.1487966323949943,1.6363630677739427,0.4835760776874017,0.3121527391312872,-0.1433562083311694,0.8727166205379333,-0.0968382646870991,-0.7235359621125731,0.478280630786336,11.230295171538272,-1.4602395358596103,0.1177713539256592,-1.2753657071525988
1.96,-0.4456155652680292,-0.1394211463386868,1.6342424935523572,0.075016674884359,0.1343152265839137,0.0365250077623421,0.3697361435232857,0.2657958932910872,-0.1107963371019839,-0.4423287145119965,-0.1424616809461547,1.633375733537156,0.4904615384515714,0.3060262947170292,-0.1353422036536353,0.8987554280558907,-0.0442164637456693,-0.760974584042523,0.4761553383456539,11.248407169262464,-1.4541999607808895,0.1167162216262031,-1.28006024823272
1.98,-0.4382227048789756,-0.1342723527135475,1.6321263586172126,0.0736221191811815,0.1364196059010989,0.0362343599479284,0.3695250698305962,0.2501128820758552,-0.1012791380676564,-0.4325883383506068,-0.1362798906076716,1.630588749417308,0.4973469992157411,0.2998998503027713,-0.1273281989761012,0.917303753317084,-0.0105536846344733,-0.7841505607616012,0.4758599517163765,11.257671546075471,-1.4498091416554266,0.1175373094940459,-1.2828575894027792
2.0,-0.4312006581849941,-0.1296673935613328,1.63029297883853,0.0705936547226926,0.1375317984583516,0.0357677634006911,0.3695663579222388,0.2359230410969087,-0.0921493562963371,-0.4197464513874458,-0.1217667086097548,1.6270624017138298,0.3813741397984622,0.2435789566543192,-0.1194463748875197,0.8436619686020784,0.0020644045821277,-0.7094920489473244,0.4564890885659624,11.265857786149354,-1.4461750823985162,0.120427471402557,-1.2851721200419504
2.02,-0.4238092232784129,-0.1250853322668221,1.6284528634494957,0.0661184939254227,0.1374304555514232,0.0350963947986028,0.3694497704470656,0.2235057406538944,-0.0928119783855591,-0.4197464513874458,-0.1217667086097548,1.6270624017138298,0.3813741397984622,0.2435789566543192,-0.1194463748875197,0.6217757050669014,-0.0058293737586589,-0.6208650221507184,-0.0331311044610982,11.270385225559949,-1.448932837097633,0.1252724089107908,-1.286187826412557
2.04,-0.4164301381788637,-0.1207207961349416,1.6265794444569883,0.0611874567359012,0.1357552419879646,0.0342979180685807,0.3683378148828807,0.2137351673086157,-0.094407581848725,-0.4197464513874458,-0.1217667086097548,1.6270624017138298,0.3813741397984622,0.2435789566543192,-0.1194463748875197,0.4981126857545833,-0.0555977782092459,-0.4885286672639308,-0.079780173158294,10.584949626144407,-1.45060674620861,0.1302848430371579,-1.279327602341357
2.06,-0.4090866148320544,-0.1165318461744079,1.624676536007984,0.0564997599637953,0.1329727304245234,0.0334661127330426,0.3659463759948823,0.2056717741102288,-0.0957801811926008,-0.4159327099894612,-0.1193309190432116,1.6258679379649543,0.3837439537920353,0.242272171570012,-0.1230798222514924,0.4260907144776576,-0.119571944399921,-0.4031696599193474,-0.0686299671937902,10.579123724761304,-1.453715787372917,0.1352342291641613,-1.2709375123273403
2.08,-0.4021700147027333,-0.112690202965213,1.6228438596547716,0.0525102870799616,0.129781758531087,0.0326970146284987,0.3621329367941094,0.1990810323403835,-0.0970474231898805,-0.4083052271934919,-0.1144593399101252,1.623479010467204,0.3884835817791817,0.2396586014013977,-0.1303467169794377,0.3859601595192316,-0.1906719600386408,-0.3295370884922668,-0.0633620998639845,10.576869200152032,-1.4576666368356723,0.1395726404487199,-1.261944048934317
2.1,-0.3949860545388559,-0.1087735123289555,1.6208879817506718,0.0488538440673025,0.1264463836735722,0.0319470267753258,0.356321669790291,0.1929211002026608,-0.0984681980229107,-0.4006777443975227,-0.1095877607770388,1.6210900829694537,0.3932232097663281,0.2370450312327833,-0.137613611707383,0.429343071614035,-0.2905633501909227,-0.3079966068861337,-0.0710387416515107,10.56621876830286,-1.461462482270253,0.1432313790770056,-1.2528771264798972
2.12,-0.3879395610778048,-0.1049730818192302,1.6189017185303427,0.0457468387169385,0.1238698728802169,0.0312900410252994,0.3485580228973123,0.18737550212442,-0.1000707472490062,-0.3928132802021961,-0.1048468601523831,1.618337810735306,0.3979628377534745,0.2344314610641689,-0.1448805064353284,0.4837252193815824,-0.3881823446489324,-0.277279903912038,-0.0801274613047769,10.550368052621709,-1.4640323465582274,0.1460998624907402,-1.244867078303587
2.14,-0.3814050175948361,-0.1014607541916598,1.616979873187378,0.0432428065059151,0.1227924817870035,0.0307714493408823,0.3398007761943541,0.1825780222278655,-0.1021390136215659,-0.3849488160068695,-0.1001059595277275,1.6155855385011584,0.4027024657406209,0.2318178908955545,-0.1521474011632737,0.5098600517842592,-0.4378623351479122,-0.2398739948277273,-0.103413318627981,10.5339126661529,-1.463745691305746,0.1484894884089149,-1.237565770696745
2.16,-0.3747031596988273,-0.0978582537180651,1.6149097739283569,0.0409993925780992,0.1231972168576413,0.0303267972274817,0.3310156355245815,0.1779195143830298,-0.1047775509206516,-0.3769658611118643,-0.0954303981572872,1.612651593898812,0.4074420937277672,0.2292043207269401,-0.159414295891219,0.5143983646133468,-0.4392570334886297,-0.2329253922417826,-0.1319268649542848,10.491337663306696,-1.4605026715409428,0.1503423477610604,-1.231770706582896
2.18,-0.3681678432924342,-0.0943449030932859,1.6127834649418835,0.0390902117784554,0.1247721576740422,0.0299576021552686,0.3231104391449024,0.1736435431964825,-0.1077286547475898,-0.3688644155171804,-0.0908201760410622,1.609535976928267,0.4121817217149136,0.2265907505583257,-0.1666811906191643,0.4729827512363518,-0.3952598189839534,-0.2137985593273661,-0.1475551913469118,10.454020868989574,-1.456055523364303,0.1518379690556193,-1.22754458626551
2.2,-0.3617797215543732,-0.0909131018223774,1.6105957734098586,0.0374769433480021,0.1271277567176799,0.0296420236814691,0.3162540979146027,0.1697347083291014,-0.110886686963866,-0.3520123213351891,-0.0856627259334618,1.607397032204504,0.3355377570547988,0.1691750509642194,-0.0829713607632958,0.4250340355953913,-0.3428170615149883,-0.1954417433690569,-0.1579016108138126,10.429541427500226,-1.4511780840872317,0.1529687129870052,-1.224723667162967
2.22,-0.3557770653122108,-0.0877241691630705,1.6086260210129306,0.0362980052758196,0.128945221182158,0.0293535420469079,0.3157907727609135,0.1661005919911398,-0.0963282437086042,-0.3520123213351891,-0.0856627259334618,1.607397032204504,0.3355377570547988,0.1691750509642194,-0.0829713607632958,0.7506159833306211,-0.0231662576844565,-0.1817058168980784,0.7279221627630901,10.413310933696266,-1.4319894681859802,0.1525520933204244,-1.2195014666330994
2.24,-0.3494679645910643,-0.0844393700118843,1.6068580009301,0.0355440596864443,0.1296693358611321,0.0290441724524606,0.3150370121475676,0.1625651128269452,-0.0813724542409308,-0.3520123213351891,-0.0856627259334618,1.607397032204504,0.3355377570547988,0.1691750509642194,-0.0829713607632958,0.769323414735405,-0.037688030667296,-0.1767739582097305,0.747789473383672,11.489471014101582,-1.4313752351145506,0.1529373193489686,-1.2303630065452495
2.26,-0.3431810316513398,-0.081224112939222,1.6053695741409375,0.0352959306229384,0.1295257957354025,0.0287434276040231,0.3136022179234816,0.1591206407642265,-0.0682263878647222,-0.3486569437646411,-0.0839709754238196,1.6065673185968712,0.3380232206367781,0.1682813525177668,-0.0780199019664371,0.6832680356639019,-0.0717397112042994,-0.1722236031359347,0.6573033188104309,11.489471014101582,-1.431589024927807,0.1527753938115276,-1.238834032869223
2.28,-0.33724251333641,-0.0782341978663115,1.60418500182555,0.035473166457744,0.1288755463692331,0.0284718023120855,0.3115168914930751,0.1557694095939532,-0.05712864997358,-0.3419461886235451,-0.0805874744045352,1.6049078913816053,0.3429941478007366,0.1664939556248616,-0.0681169843727195,0.5889378638244813,-0.1042663215203243,-0.1675615585136666,0.5548868945571113,11.393086988330651,-1.4320612825023795,0.1520845098668057,-1.2456231179647292
2.3000000000000003,-0.3310418290216337,-0.0751580394818546,1.6031550962209578,0.0360109196474615,0.1279218614083445,0.0282034578476599,0.3086068640953018,0.1520089000211358,-0.0464962292126527,-0.3352354334824491,-0.0772039733852508,1.6032484641663394,0.3479650749646952,0.1647065587319563,-0.0582140667790019,0.582361706631796,-0.1455013698886675,-0.1880254786408672,0.5316210380463624,11.254754872657031,-1.4323152398080647,0.1509386618438792,-1.250695817507822
2.32,-0.3249067405622431,-0.0721616017734017,1.6023264196273013,0.0367634383915697,0.1269268716670975,0.0279504423161297,0.3050311016581397,0.1478320580699898,-0.0369054347690319,-0.3282761319831552,-0.0739098422106117,1.6020841828307593,0.3529360021286537,0.1629191618390511,-0.0483111491852843,0.5527554245587747,-0.1787881218581033,-0.2088420975573018,0.4795397221810407,11.254754872657031,-1.4320461662072814,0.1495770981336092,-1.2542530347436236
2.34,-0.3188476772419218,-0.069254294199524,1.6016881671696337,0.0375422951392696,0.1260633892000401,0.027705588240454,0.3010587628623197,0.143135372558598,-0.0274045212832535,-0.3213168304838613,-0.0706157110359725,1.6009199014951792,0.3579069292926123,0.1611317649461459,-0.0384082315915668,0.5659189150530748,-0.1986169397909992,-0.234834275569587,0.4750456742889205,11.200824446041224,-1.4308495347245629,0.1480469713469914,-1.2570604575340347
2.36,-0.3131671620682856,-0.0665846648347797,1.6012572331100308,0.0381074512342869,0.1254460947529549,0.0274700728563805,0.2971026675615862,0.1381620314610325,-0.0184378737016777,-0.3142332558054684,-0.0673662647836561,1.600003193099442,0.3628778564565708,0.1593443680532406,-0.0285053139978492,0.5495124669955173,-0.1978047650366771,-0.2486670548782765,0.4483323790787908,11.203538151529756,-1.4291531105980233,0.1467064236175753,-1.2597625874675216
2.38,-0.3072695612908447,-0.0638804891569302,1.600987464505105,0.0383281663943179,0.1250287800761596,0.0272075072488384,0.2928796398740464,0.1325536318333683,-0.0090151482253088,-0.3070254079479766,-0.0641615034536622,1.599334057643548,0.3678487836205294,0.1575569711603354,-0.0186023964041316,0.5875284347083182,-0.2111513843769896,-0.2804199813832078,0.4711362738184447,11.204687503355672,-1.4269966902843878,0.1457980185989996,-1.2624658753185949
2.4,-0.3014567368439397,-0.0612920822712947,1.6009046701685654,0.0379743242136435,0.1248489211152487,0.0269178208732222,0.2886424293504659,0.1266620785101704,0.0002589915990331,-0.2926255792971424,-0.0572528075652618,1.6005367070938394,0.2898276853196525,0.134997057889202,-0.020303534063579,0.5887996753197787,-0.2118605261790224,-0.2945776661598981,0.4637069912170962,11.208706648320913,-1.4247033534135098,0.1455591510474701,-1.2650943993990922
2.42,-0.2960068787963883,-0.0589550007219502,1.6008917511215992,0.0364569507668773,0.1242662217262507,0.0265504102743425,0.2851254438352436,0.1199569947292201,-0.0020503696142235,-0.2926255792971424,-0.0572528075652618,1.6005367070938394,0.2898276853196525,0.134997057889202,-0.020303534063579,0.395791879771237,-0.1758492757611168,-0.3352541890475117,-0.1154680606628311,10.481286666915366,-1.42846750387437,0.1471727296425945,-1.2667943465774008
2.44,-0.2903498601660697,-0.05661744256996,1.6008216950536505,0.0334423055074034,0.122729981461198,0.0260429624655632,0.2806637121658983,0.1145784533385924,-0.004761699813473,-0.2926255792971424,-0.0572528075652618,1.6005367070938394,0.2898276853196525,0.134997057889202,-0.020303534063579,0.3747901693924767,-0.2230865834672635,-0.2689270695313855,-0.135566509962477,10.481286666915366,-1.4288751129647874,0.1501430952845441,-1.259964648012413
2.46,-0.2847930398876609,-0.0543602921220784,1.6007020501924814,0.0300481600352543,0.1206310079590987,0.0255079833135516,0.2751427961152323,0.1114932565653324,-0.0070400140396281,-0.2897273024439458,-0.0559028369863697,1.6003336717532035,0.2892172944087737,0.1354857431003688,-0.022561211231233,0.3361163075534142,-0.2760458025333007,-0.1542598386630025,-0.1139157113077546,10.491069935208545,-1.430338787436534,0.1535621304922163,-1.2529087416221458
2.48,-0.279359696236137,-0.0521500429070424,1.6005398511380926,0.026911442397016,0.118429946716288,0.0250074470546195,0.2683720651800213,0.1096817362105319,-0.0090494797386672,-0.2839307487375528,-0.0532028958285857,1.599927601071932,0.2879965125870162,0.1364631135227023,-0.0270765655665411,0.3645626002091229,-0.3385365467605511,-0.0905760177400238,-0.1004732849519556,10.504768591613356,-1.4319540385303713,0.156540415392745,-1.2465540857664823
2.5,-0.2743364631688079,-0.0500756607921883,1.6003500541701965,0.0243803964111386,0.1167424936779743,0.0245908558674659,0.2606915827676622,0.1086888889640374,-0.0108207834790865,-0.2781341950311597,-0.0505029546708016,1.5995215303906605,0.2867757307652586,0.1374404839450357,-0.0315919199018491,0.397218682473056,-0.384024120617954,-0.0496423623247262,-0.0885651870209632,10.512018504445225,-1.4330005771967311,0.1591318173939716,-1.2405354964743054
2.52,-0.2692154777009542,-0.0479082133348874,1.6001145622578052,0.022195023300668,0.1158354350893889,0.0242214315776285,0.2519021355414609,0.1080660629767072,-0.0126303290328757,-0.2723986804158546,-0.0477541449919009,1.5988896919926234,0.2855549489435011,0.1384178543673692,-0.0361072742371572,0.4497686901728201,-0.4394723613100643,-0.031141299366507,-0.0904772776894625,10.512234824146615,-1.4318053670363142,0.1610751250581279,-1.2353765881049592
2.54,-0.2642704490409763,-0.0457489766236465,1.5998389876433292,0.0204764966643163,0.1158669526117898,0.0239172207686732,0.2431688119750255,0.1078142628208816,-0.0148302806178001,-0.2666631658005494,-0.0450053353130002,1.5982578535945866,0.2843341671217435,0.1393952247897027,-0.0406226285724653,0.450483437016672,-0.436666178321772,-0.0125900077912792,-0.1099975792462167,10.48364643097193,-1.429394878130473,0.1624206311928885,-1.2316060839116294
2.56,-0.2597309653313625,-0.0436984309090572,1.5995334155094971,0.0192760698431317,0.1166220478149587,0.0236821072572142,0.2352182496546296,0.1080061228634885,-0.0172197174098421,-0.2609581707307882,-0.0422320913735412,1.597513131338167,0.283113385299986,0.1403725952120362,-0.0451379829077734,0.4152037441714978,-0.3975281160197949,0.0095930021303446,-0.1194718396021015,10.48364643097193,-1.425894690853868,0.1633375111656733,-1.2286588606865176
2.58,-0.2551095748215943,-0.0415320786425883,1.5991603706751585,0.0185723936814974,0.1179878945495246,0.0234926957837303,0.2274380093469531,0.1085981557363411,-0.0199671209397371,-0.2552836952065709,-0.0394344131735238,1.5966555252233643,0.2818926034782284,0.1413499656343697,-0.0496533372430814,0.4136147613535176,-0.3890120153838231,0.0296016436426287,-0.1373701764947485,10.461258227699544,-1.4218459122204692,0.1636356431064513,-1.2265986302800955
2.6,-0.2506367561244101,-0.0393509873341104,1.59873060058464,0.0185561203793151,0.1197423242926754,0.0233660477103826,0.2203249804401398,0.1094413275090115,-0.0228769760566398,-0.2437376743542466,-0.0361021708557713,1.5981620146281714,0.2337040905869813,0.099910829051747,-0.0369290084185655,0.3865662157663107,-0.3556514453406642,0.0421585886335194,-0.1454927558451349,10.44372198813744,-1.4175579984662183,0.1631963892391357,-1.225217583503581
2.62,-0.246308905524839,-0.0371023488526115,1.598270001704017,0.0209442577198321,0.1221123366173042,0.023426447830746,0.2130473174566005,0.1145604855781566,-0.0230517610915175,-0.2437376743542466,-0.0361021708557713,1.5981620146281714,0.2337040905869813,0.099910829051747,-0.0369290084185655,0.4449738971200717,-0.3638831491769675,0.2559579034572559,-0.0087392517438866,10.432203290195504,-1.411723433044518,0.1602702915924686,-1.227113121894131
2.64,-0.2423211331055186,-0.0349123936140144,1.5978224931566172,0.0254630496987178,0.1250007178970963,0.0236644716597478,0.2072376193028434,0.1151999231783514,-0.0240629535433198,-0.2437376743542466,-0.0361021708557713,1.5981620146281714,0.2337040905869813,0.099910829051747,-0.0369290084185655,0.2965804412671785,-0.290484907687856,0.0319718800097394,-0.0505596225901152,10.59803378221477,-1.4069800240003043,0.1546617357905744,-1.2292616246682633
