t,x,y,z,roll,pitch,yaw,v_x,v_y,v_z,ref_x,ref_y,ref_z,ref_v_x,ref_v_y,ref_v_z,a_com,a_x,a_y,a_z,thrust,wind_x,wind_y,wind_z
0.0,-0.7792924151500439,2.478706122552848,2.150533883249885,0.0114054699924139,0.1362619047908248,0.0257140096111298,0.0016878068707487,-0.004192707318585,-0.0026359332967977,-0.7792398780926519,2.478501823050585,2.1504536458181502,-0.0540409087494283,-0.1061232797166901,-0.1026638428068763,0.2616086344018033,0.0843903435374371,-0.2096353659292522,-0.1317966648398898,10.542212961883706,-1.2846786833430766,0.1645751829949426,-1.1599248718277204
0.02,-0.7792085976500309,2.4789004043255742,2.1502506023309254,0.0186807599150725,0.133310784228784,0.0261796084116505,0.0068623260216146,0.0192484004345407,-0.0270932475406102,-0.7792398780926519,2.478501823050585,2.1504536458181502,-0.0540409087494283,-0.1061232797166901,-0.1026638428068763,1.7134916115616985,0.2587259575432974,1.17205538765629,-1.2228657121906208,10.54151648381594,-1.299545190009608,0.1580014635936756,-1.1687110378952623
0.04,-0.7790395369193678,2.479333291434384,2.14939181252738,0.0334851115642014,0.1244755120326528,0.0269475015489234,0.008909514898906,0.0219823455297026,-0.0575230839510491,-0.7792398780926519,2.478501823050585,2.1504536458181502,-0.0540409087494283,-0.1061232797166901,-0.1026638428068763,1.5310457064117478,0.1023594438645679,0.1366972547580922,-1.521491820521946,9.09207719169126,-1.3194493991736838,0.1429855024807818,-1.1423256785895497
0.06,-0.778897710969174,2.4797330570688043,2.147929257281793,0.0488465441602193,0.1121706862432011,0.0274297271776869,0.0045913934670744,0.0174847374480097,-0.0870871196851726,-0.7797802871801462,2.4774405902534187,2.1494270073900816,-0.0651961705938249,-0.1261232800147133,-0.1226638431048995,1.5107174289431875,-0.2159060715915794,-0.2248804040846435,-1.478201786706177,8.876499746620993,-1.335997695724581,0.1283068067112849,-1.1099645932369495
0.08,-0.7789048014559733,2.4800021224082114,2.1458912915907207,0.0636161419882458,0.0989205484917748,0.0275794884454021,-0.0053950566645746,0.0093188331490813,-0.1151920324479727,-0.7808611053551348,2.4753181246590845,2.147373730533944,-0.0875066942826181,-0.1661232806107598,-0.162663843700946,1.546202849447456,-0.499322506582455,-0.40829521494642,-1.4052456381400027,8.876499746620993,-1.3494892852214466,0.1137267193130027,-1.075985831271561
0.1,-0.7791416220420269,2.480078185862058,2.14344523099261,0.0769723336471658,0.087075351539365,0.0275012616183153,-0.0191197518726428,-0.0011692395242446,-0.1408591306173731,-0.7819419235301234,2.473195659064751,2.1453204536778063,-0.1098172179714113,-0.2061232812068062,-0.2026638442969924,1.5469056656701607,-0.6862347604034087,-0.5244036336663002,-1.2833549084700226,8.923204019334662,-1.357576022959801,0.1002335310725235,-1.0418065308954374
0.12,-0.7797052412900763,2.4799158068559133,2.140349252832108,0.0903426130295287,0.0764034621995119,0.0273062788300339,-0.0365913236108896,-0.014810554864901,-0.1673517179924839,-0.7841382678895515,2.4690731934406145,2.1412671767918665,-0.1321277416602044,-0.2461232818028527,-0.2426638448930389,1.727135264720028,-0.8735785869123392,-0.6820657670328183,-1.324629368755538,8.96452057394663,-1.3599668736037822,0.0878556522375135,-1.008690387089141
0.14,-0.7806456035734318,2.4794547264420004,2.136720225472917,0.1030478432680453,0.0681972221582756,0.0271191168988442,-0.0564504259756673,-0.0308854904360481,-0.1942072548211175,-0.7863346122489798,2.4649507278164786,2.1372138999059267,-0.1544382653489976,-0.2861232823988992,-0.2826638454890854,1.853380262321624,-0.9929551182388888,-0.8037467785573549,-1.342776841431681,8.98174089740587,-1.359029841244588,0.0765306636824695,-0.980527529139832
0.16,-0.7820064807490938,2.478647718508063,2.1325514304306057,0.1151293542074915,0.0630036874873628,0.0270764097370051,-0.0785948636489345,-0.0492673229394251,-0.2213282541643821,-0.7890887197006279,2.459828262177441,2.1321606230050856,-0.1767487890377908,-0.3261232829949456,-0.3226638460851318,1.977255984581144,-1.1072218836633574,-0.919091625168849,-1.356049967163231,8.954105872354376,-1.357401034716387,0.0666329929040516,-0.9609079641899404
0.18,-0.7837263248348669,2.477519766787873,2.1280870939425625,0.1260669560904763,0.0616005383728013,0.0273366848777006,-0.1009391509975951,-0.0687519760082097,-0.2472321589760388,-0.7924005902444957,2.453705796523503,2.126107346089344,-0.199059312726584,-0.366123283590992,-0.3626638466811782,1.9684582589058,-1.1172143674330297,-0.9742326534392314,-1.295195240582833,8.946375391212769,-1.3479171961416372,0.0567863394579299,-0.9444083070655204
0.2,-0.7859769418053598,2.475912108700959,2.122853984288291,0.1370435008722646,0.0635451892628646,0.0279805189097691,-0.1225325892313371,-0.0912151721839706,-0.2747155001714808,-0.7887732823847466,2.4740821679874623,2.1157254859937606,-0.1476263479377787,-0.1687519774983258,-0.3472321604661549,2.077381645515713,-1.079671911687101,-1.123159808788044,-1.3741670597720994,8.940101860700906,-1.333693779201594,0.0476171639373981,-0.9323305257117326
0.22,-0.7886644271817649,2.4736625685523608,2.117211573011678,0.1426908934913788,0.0694909377922512,0.0288114501647998,-0.1445049707351326,-0.1305553438138744,-0.2870149193420526,-0.7887732823847466,2.4740821679874623,2.1157254859937606,-0.1476263479377787,-0.1687519774983258,-0.3472321604661549,2.3354391261345557,-1.0986190751897738,-1.967008581495193,-0.6149709585285879,9.957534675165334,-1.3072199450583613,0.0422903024963907,-0.9260036214446342
0.24,-0.7917374971309179,2.470701279458086,2.1113453758333445,0.1422987627651206,0.0792670481297447,0.0297668834872406,-0.1610909537333126,-0.1630720710479665,-0.299134795488354,-0.7887732823847466,2.4740821679874623,2.1157254859937606,-0.1476263479377787,-0.1687519774983258,-0.3472321604661549,1.9230989183047424,-0.8292991499090019,-1.6258363617046037,-0.6059938073150695,9.957534675165334,-1.2878461272181934,0.0415630805299356,-0.9345545474447196
0.26,-0.794920338113935,2.4673182969817518,2.105516885302899,0.1388269504099744,0.090198367266602,0.0306614483606124,-0.1727130486887174,-0.1906112264376956,-0.3136620617549724,-0.7902495458641244,2.4723946482124792,2.112253164389099,-0.1569637873258154,-0.188751977796349,-0.3672321607641782,1.661715706666846,-0.5811047477702377,-1.376957769486452,-0.7263633133309244,9.764594213342209,-1.2691965350476266,0.0439300245395324,-0.9449040320802188
0.28,-0.7984728468746318,2.463245774699548,2.0990590689032493,0.1339548006564887,0.1023168404799853,0.031543473983997,-0.1815433890860478,-0.2149272407581426,-0.3314701816699067,-0.79320207282288,2.4690196086625127,2.105308521179776,-0.1756386661018889,-0.2287519783923955,-0.4072321613602246,1.5703284679244582,-0.4415170198665219,-1.2158007160223514,-0.8904059957467153,9.562855140090504,-1.252423729854692,0.0477169658044458,-0.9551510317558248
0.3,-0.8021627173841499,2.458717261379153,2.0922178676987047,0.1291093429675382,0.1141851866946374,0.0323266306404673,-0.1867168154189696,-0.2366202385525305,-0.3518751621001706,-0.7961545997816356,2.465644569112546,2.0983638779704528,-0.1943135448779623,-0.268751978988442,-0.4472321619562711,1.5113848944667752,-0.2586713166460877,-1.084649889719394,-1.0202490215131947,9.390840668041164,-1.2371734472981886,0.0517146073873884,-0.963900400531206
0.32,-0.8059206469464911,2.45377525316026,2.084941617665862,0.1247499661535798,0.1249197969159203,0.0329366491709551,-0.1887031774268767,-0.2565470966313821,-0.3747364552894641,-0.8000408706791948,2.460269529532777,2.089419234731327,-0.2129884236540358,-0.3087519795844884,-0.4872321625523175,1.5195920778353542,-0.0993181003953569,-0.996342903942582,-1.1430646594646736,9.2474753466704,-1.225203468366929,0.0553491388888651,-0.9696850170777248
0.34,-0.8095030286911692,2.4487230573571512,2.077593395463769,0.1211982722303269,0.1335526941881817,0.0333168990181459,-0.1882813683063749,-0.2743657491580333,-0.3976280829352228,-0.803927141576754,2.4548944899530083,2.080474591492202,-0.2316633024301093,-0.3487519801805349,-0.5272321631483641,1.450611006672478,0.0210904560250885,-0.8909326263325607,-1.1445813822879347,9.127689196750907,-1.2151138311096903,0.0587788783538644,-0.9725769574561915
0.36,-0.8132501271408263,2.443039860724824,2.0693778117460955,0.1178630982555404,0.1408101296394582,0.0334879086487926,-0.186431394636487,-0.2929539605764488,-0.4227592697075478,-0.8082802844437151,2.4485194503583383,2.070529948238176,-0.2503381812061827,-0.3887519807765813,-0.5672321637444104,1.5656632419684573,0.0924986834943977,-0.9294105709207716,-1.2565593386162504,9.069173805116408,-1.2083266598917846,0.0619211209993206,-0.9729241896895412
0.38,-0.8169497186988781,2.436988627333597,2.0606517796317068,0.1146525024898879,0.1462431794661867,0.0334246617580006,-0.1836488928437574,-0.3111369535718833,-0.4485951851289917,-0.8131002992800781,2.4411444107487674,2.059585304969248,-0.2690130599822561,-0.4287519813726277,-0.6072321643404569,1.585763283219291,0.1391250896364784,-0.9091496497717289,-1.291795771072196,9.018392448335362,-1.204088648763124,0.0648657921299384,-0.9720883707969872
0.4,-0.8205885294303524,2.430579916433703,2.051402885529648,0.1114521283308515,0.1500063964757016,0.033149856116755,-0.1804270177630849,-0.3287148734659358,-0.4750046306760634,-0.826132163341066,2.4214317796550024,2.038222020375257,-0.2321969691455705,-0.4111369550619995,-0.5485951866191079,1.5943827653208993,0.1610937540336254,-0.8788959947026248,-1.320472277353582,8.983872392202102,-1.201224135097453,0.0675289863591307,-0.9698586047943571
0.42,-0.8239412479319828,2.4241598116163123,2.042334568249229,0.1087291645691274,0.1519644599205791,0.0327176698724916,-0.1728230177286031,-0.3463276714685539,-0.4782354188087435,-0.826132163341066,2.4214317796550024,2.038222020375257,-0.2321969691455705,-0.4111369550619995,-0.5485951866191079,0.9727145803930513,0.3802000017240889,-0.8806399001309029,-0.1615394066340036,8.95062916966981,-1.18855552299565,0.0688745824972185,-0.9675398435928608
0.44,-0.8273152454976805,2.41705639934843,2.0327027612523563,0.1066869808576112,0.152193151309107,0.0321135664798087,-0.1650995537931581,-0.3632508934913113,-0.485089391299473,-0.826132163341066,2.4214317796550024,2.038222020375257,-0.2321969691455705,-0.4111369550619995,-0.5485951866191079,0.9912419958029124,0.3861731967722506,-0.8461611011378684,-0.3426986245364749,9.958818211111064,-1.1912620714785416,0.0704537496680926,-0.9649806123823712
0.46,-0.8305407558308303,2.4096162718596124,2.022879617189941,0.1054406690528109,0.1503468399238786,0.0313395888477791,-0.1579801423914053,-0.379981012198958,-0.4968333110002433,-0.8284541330325217,2.4173204101043826,2.0327360685090663,-0.2419065844059331,-0.4311369553600226,-0.5685951869171311,1.082245975526706,0.3559705700876409,-0.8365059353823368,-0.5871959850385161,9.958818211111064,-1.1955005303723512,0.0713100450795458,-0.9591609467148776
0.48,-0.8336329362717384,2.4018453358370024,2.0127851109968424,0.1047624316036936,0.1462348709981297,0.0303637106285978,-0.1518246495079517,-0.3963143610417757,-0.5119796884079667,-0.8330980724154331,2.4090976710031424,2.021764164776684,-0.2613258149266584,-0.4711369559560691,-0.6085951875131775,1.1555097637370024,0.3077746441726814,-0.8166674421408865,-0.75731887038617,9.512173428036476,-1.2015244648810868,0.0716801682318924,-0.9503223601866938
0.5,-0.8364793058042381,2.394163789304202,2.0028904652460238,0.104651198265513,0.1404779722129773,0.0292768319652703,-0.1484471478454452,-0.4115006828351762,-0.5287540617627633,-0.8377420117983445,2.4008749319019023,2.0107922610443016,-0.2807450454473836,-0.5111369565521156,-0.648595188109224,1.143909402596044,0.1688750831253235,-0.7593160896700257,-0.8387186677398295,9.512173428036476,-1.2089170363338817,0.0714759744493496,-0.938904316158793
0.52,-0.839437927123417,2.3857696054007924,1.992110596915711,0.1052027221280275,0.1333465719953306,0.0280607007551596,-0.1478895955127554,-0.4271717882730423,-0.548417767407851,-0.8433569127072922,2.39065219277086,1.9978203572821167,-0.3001642759681089,-0.551136957148162,-0.6885951887052705,1.2575330313207058,0.0278776166344904,-0.7835552718933048,-0.983185282254384,9.361371618441808,-1.215936901322566,0.0705779303136073,-0.9260560381268236
0.54,-0.8424138276148597,2.377059892368396,1.9809285984767435,0.1064888317819272,0.125865072789033,0.0268463330972108,-0.14995166369078,-0.4430827420136459,-0.5687961910849586,-0.8489718136162399,2.3804294536398176,1.9848484535199329,-0.3195835064888341,-0.5911369577442085,-0.728595189301317,1.2968141016257395,-0.1031034089012325,-0.7955476870301792,-1.018921183855381,9.23073440884491,-1.2219818918355865,0.0690344990812083,-0.9120927692512708
0.56,-0.8454575391801381,2.368015965982867,1.9693338431698029,0.1080794868306632,0.1186811117896147,0.0256676488809202,-0.1544353583684476,-0.4604439130587766,-0.5896207575764705,-0.8550721952882057,2.369206714493874,1.970876549742847,-0.3390027370095594,-0.6311369583402548,-0.7685951898973633,1.374023605674433,-0.2241847338833799,-0.8680585522565343,-1.0412283245755938,9.185796409485192,-1.2267421521707595,0.0673488738830399,-0.898617733103956
0.58,-0.8484513445090274,2.359090346736874,1.9579286409461336,0.1092801382870423,0.1125772182011187,0.024590007320246,-0.1605185617394252,-0.4781038306253008,-0.6098523025538881,-0.8616580577231896,2.356983975333029,1.95590464595086,-0.3584219675302846,-0.6711369589363013,-0.8085951904934098,1.3767656517018203,-0.3041601685488782,-0.8829958783262093,-1.011577248870882,9.157962421897537,-1.2300692632849124,0.0657813257935769,-0.885394042552733
0.6,-0.8517441576987367,2.349325009969461,1.9455006244018769,0.1097614341897959,0.1072189938210527,0.023509841543472,-0.1685627544659883,-0.4974140547069496,-0.6318946134559795,-0.8564772725959986,2.335185155205609,1.9274360258184395,-0.1930105996019645,-0.5781038321154169,-0.7098523040440042,1.5194219794135837,-0.4022096363281546,-0.9655112040824392,-1.1021155451045703,9.127627883460264,-1.232013603284526,0.0648418429828413,-0.8736004727146595
0.62,-0.8552686490277949,2.3391173032640054,1.932870709586356,0.1083655296191092,0.1059353110856067,0.0227468589386277,-0.1832183287684215,-0.5222125989011013,-0.6287025664334337,-0.8564772725959986,2.335185155205609,1.9274360258184395,-0.1930105996019645,-0.5781038321154169,-0.7098523040440042,1.4490883483052184,-0.732778715121661,-1.2399272097075835,0.1596023511272915,9.080555716107028,-1.2228263349233257,0.0652035963559114,-0.8609150331422821
0.64,-0.8590564454471841,2.328434868170305,1.920302348274051,0.1048190473263018,0.110588366240238,0.0224774491666549,-0.1940846941352426,-0.5441888564351861,-0.6283862857968276,-0.8564772725959986,2.335185155205609,1.9274360258184395,-0.1930105996019645,-0.5781038321154169,-0.7098523040440042,1.2259015304366432,-0.5433182683410559,-1.0988128767042415,0.0158140318303023,10.69711953886781,-1.2134974623556956,0.0665918248690308,-0.8691385968739905
0.66,-0.8628132622222262,2.317913289171064,1.9083122165747588,0.1007209935556574,0.1179978596283,0.0224685376330851,-0.2003999213472305,-0.5620128330726909,-0.6337280322064021,-0.8584073785920182,2.329404116884455,1.9203375027779996,-0.1995090071744723,-0.5981038324134401,-0.7298523043420274,0.9824847233132304,-0.3157613605993939,-0.8911988318752395,-0.2670873204787205,10.288177431049917,-1.2027505207062006,0.0689492053768216,-0.8797185641764793
0.68,-0.8668628212590591,2.3064983704470032,1.895531919725456,0.0964011168383284,0.1272799343547386,0.0225791142988232,-0.2038589441625905,-0.5784267083351734,-0.6442518406702449,-0.8622675905840576,2.3178420402421462,1.9061404566971196,-0.212505822319488,-0.6381038330094866,-0.7698523049380739,0.990114494077788,-0.172951140767999,-0.8206937631241251,-0.526190423192141,9.929387622943976,-1.191464300298174,0.0714868988120756,-0.891950936215012
0.7000000000000001,-0.8709536925674958,2.294772203597648,1.88249534459796,0.0923814362650454,0.1371330202864155,0.0227326380978988,-0.2047594133241624,-0.5933032626418776,-0.659061128531028,-0.8661278025760968,2.306279963599838,1.8919434106162396,-0.2255026374645038,-0.6781038336055331,-0.8098523055341204,1.0505209656341956,-0.045023458078594,-0.7438277153352102,-0.7404643930391586,9.42958115142119,-1.1812140411519731,0.074075442540037,-0.9033578116265716
0.72,-0.8750402739320876,2.282762888442152,1.8691223541898243,0.0887812253553878,0.1470248599339458,0.0228877482378181,-0.2035761645016055,-0.6069028743308454,-0.6775084756722007,-0.8706378553253868,2.292717886927728,1.875746364505557,-0.2384994526095195,-0.7181038342015795,-0.8498523061301668,1.1474473107878689,0.0591624411278426,-0.6799805844483919,-0.9223673570586344,9.42958115142119,-1.1721329356148338,0.0763801351614881,-0.9133038845948998
0.74,-0.878873718426104,2.2711115742643093,1.8560588571198875,0.085807423696129,0.1559519837882417,0.0230000061153663,-0.1998693711710643,-0.6189273487719286,-0.6966934233606881,-0.8751479080746769,2.2791558102556166,1.8595493183948744,-0.2514962677545352,-0.758103834797626,-0.8898523067262133,1.1471601023719418,0.1853396665270623,-0.6012237220541561,-0.9592473844243664,9.258626606186226,-1.1629431956215988,0.0785096408670873,-0.9222367744151124
0.76,-0.8828105527184509,2.2586001947244743,1.841899328935966,0.0829300180491539,0.1643422108429771,0.023029348427985,-0.1938894929219204,-0.6314883681028715,-0.7183148863453706,-0.8799828812025924,2.2645937335686046,1.842352272269291,-0.264493082899551,-0.7981038353936724,-0.9298523073222598,1.2855211123362569,0.2989939124571905,-0.6280509665471445,-1.081073149234124,9.182851767073773,-1.1555476759186107,0.0805357039787034,-0.9292609451857956
0.78,-0.8866087241805404,2.2458410252202143,1.827293759869439,0.0800405410771686,0.1713778025447352,0.0229292437615186,-0.1862207298017936,-0.643654926817945,-0.7411522167567894,-0.8851427747091332,2.249031656866692,1.8241552261288063,-0.2774898980445667,-0.8381038359897188,-0.9698523079183062,1.3494246357987798,0.3834381560063424,-0.6083279357536775,-1.1418665205709444,9.12009241841224,-1.15001874350509,0.0826443766593975,-0.9342028435913008
0.8,-0.890241660738161,2.2328451184194456,1.812221645917021,0.0770723368410133,0.176951226646469,0.0226945400002454,-0.1774506539393865,-0.6552008194566986,-0.7649497586515204,-0.8959197606706301,2.213658278879317,1.7902361490315994,-0.2112016678638654,-0.7436549283080611,-0.8411522182469056,1.3933277321663002,0.4385037931203539,-0.5772946319376804,-1.189877094736547,9.025665245014352,-1.1464527337885704,0.0847455860291226,-0.937074258584604
0.8200000000000001,-0.893484560552489,2.220275276559219,1.7977201870954045,0.0742920944767349,0.1812037079722565,0.0223866360124537,-0.1642922446569628,-0.6673075183115535,-0.7603368825425839,-0.8959197606706301,2.213658278879317,1.7902361490315994,-0.2112016678638654,-0.7436549283080611,-0.8411522182469056,0.9233018439306782,0.6579204641211839,-0.6053349427427468,0.2306438054468229,9.025665245014352,-1.1382623796111755,0.0868966026865675,-0.9288346248134752
0.84,-0.8966199686370303,2.206815197892284,1.7825242782714323,0.0718728521165814,0.1847831618822651,0.022028191919457,-0.1499980870727782,-0.6781719534758991,-0.7598897983491464,-0.8959197606706301,2.213658278879317,1.7902361490315994,-0.2112016678638654,-0.7436549283080611,-0.8411522182469056,0.8979960700885526,0.7147078792092337,-0.5432217582172771,0.0223542096718765,10.68971693633648,-1.13885173128484,0.0886146235682499,-0.9342689158475328
0.86,-0.8994684473006497,2.19314291792691,1.7672678707790022,0.0700589984160616,0.1870459452799004,0.0216185030542613,-0.1357012160480913,-0.6885992645160929,-0.7657315929421283,-0.8980317773492688,2.2062217295962365,1.7818246268491305,-0.2161978554762798,-0.7636549286060843,-0.8611522185449287,0.9317401739380874,0.7148435512343426,-0.5213655520096894,-0.2920897296490976,9.985531272111984,-1.1406453515950126,0.0898645971991524,-0.937107956536724
0.88,-0.9020345659619016,2.1792683933546866,1.751845949310165,0.0686942958435924,0.1877608249449634,0.021136283968591,-0.1217852740622845,-0.6983731449295063,-0.7761336890989755,-0.902255810706546,2.191348631030076,1.7650015824841925,-0.2261902307011085,-0.8036549292021308,-0.9011522191409752,0.996726873501892,0.6957970992903413,-0.4886940206706713,-0.5201048078423587,9.985531272111984,-1.1435187414146906,0.0907077310925049,-0.937368332284964
0.9,-0.9042187607777432,2.1659135240848397,1.736968479721571,0.0679221935162576,0.1868505775310821,0.0206117882487988,-0.1089339093396751,-0.7069715779038939,-0.7893653928572978,-0.9064798440638232,2.1764755324639142,1.7481785381192545,-0.2361826059259372,-0.8436549297981772,-0.9411522197370216,1.0175566436279653,0.642568236130469,-0.429921648719378,-0.6615851879161139,9.547070998508389,-1.1475303896089315,0.0911025953940622,-0.9350480934048376
0.92,-0.9062595852975216,2.151686482423253,1.721008520252652,0.067885966227177,0.1839558566107167,0.0199886721087651,-0.0959488928873225,-0.71533997020486,-0.8060336682181296,-0.911203496182342,2.1596024338679505,1.729355493724514,-0.2461749811507659,-0.8836549303942237,-0.981152220333068,1.1363010664819964,0.6492508226176293,-0.4184196150483044,-0.833413768041591,9.547070998508389,-1.153177118060852,0.0908146493932641,-0.9299384586954776
0.94,-0.908047797873589,2.13729532523993,1.704702101363372,0.0688756928262099,0.1788158354833971,0.0192865778860906,-0.083950386596003,-0.7234990262399894,-0.8236985041573442,-0.9159271483008607,2.142729335271987,1.7105324493297736,-0.2561673563755947,-0.9236549309902702,-1.0211522209291146,1.1430012875830289,0.5999253145659738,-0.4079528017564726,-0.883241796960732,9.3866258041744,-1.1610170443042818,0.0898188340267321,-0.9213243125321108
0.96,-0.9095487657559242,2.123461065106097,1.6888814657983326,0.0705418798022081,0.1723145393263138,0.0185528207321762,-0.0749722566602504,-0.7323394824647539,-0.8406911749469183,-0.9209006098000002,2.1248562366611226,1.690709404920132,-0.2661597316004234,-0.9636549315863164,-1.061152221525161,1.057723196266486,0.4489064967876328,-0.442022811238224,-0.8496335394787002,9.332467674035795,-1.1703079053016825,0.0881141522373315,-0.9097988612980203
0.98,-0.9109726198499584,2.108706974292656,1.6718751759799113,0.0726315692177698,0.1645197328013001,0.0177237370245954,-0.0681894676676759,-0.742729219791638,-0.8590389896002353,-0.9261238806797604,2.1059831380353566,1.6698863604955891,-0.2761521068252521,-1.003654932182363,-1.1011522221212071,1.1074691539631172,0.3391394496287239,-0.5194868663442043,-0.9173907326658516,9.301802649752062,-1.1794980512009692,0.0860712632837214,-0.8973910176845719
1.0,-0.9122877013910692,2.0937297846594176,1.6544973697161809,0.0744808093300609,0.1563410957438699,0.0168351761652175,-0.063913033155802,-0.7544002825786434,-0.8778037195770969,-0.9143820932333424,2.0715705133030737,1.6289232264998996,-0.0733165111309656,-0.8427292212817541,-0.9590389910903514,1.1254073593782603,0.213821725593697,-0.5835531393502735,-0.9382364988430814,9.21782152099604,-1.1870830340575798,0.0842420863792743,-0.8850662297019392
1.02,-0.9136057677295014,2.078453240635062,1.6370581877877848,0.074683800977601,0.1518462375652493,0.0161023886576964,-0.0677238208548973,-0.7720945585718849,-0.8651806597905799,-0.9143820932333424,2.0715705133030737,1.6289232264998996,-0.0733165111309656,-0.8427292212817541,-0.9590389910903514,1.1033484764417822,-0.1905393849547687,-0.8847137996620735,0.6311529893258505,9.21782152099604,-1.1875458496966318,0.0837748596300081,-0.8640000434759975
1.04,-0.91490940332463,2.063631978312062,1.6206884189901924,0.0730133931487535,0.153274993511624,0.0157106480943246,-0.0687275594216415,-0.7870029000809398,-0.858690993745628,-0.9143820932333424,2.0715705133030737,1.6289232264998996,-0.0733165111309656,-0.8427292212817541,-0.9590389910903514,0.8145273215736527,-0.0501869283372084,-0.7454170754527423,0.3244833022475968,11.128840735638732,-1.184126293079394,0.0842406756257695,-0.8702491317964277
1.06,-0.9162666270606156,2.0477417963495905,1.6035221250992464,0.0698365859384473,0.158091098941247,0.0154450577994952,-0.0665716045272111,-0.8007786399924384,-0.8585665522104451,-0.915115258344652,2.063143221090256,1.619332836588996,-0.0743419198236236,-0.8627292215797773,-0.9790389913883746,0.6971991059083352,0.107797744721521,-0.6887869955749304,0.0062220767591436,10.610337140878071,-1.179356158970699,0.0861053883972308,-0.8787108400048664
1.08,-0.9175560138836872,2.031607284938262,1.586290832420124,0.0661210408621507,0.1646157357847221,0.0152548755860263,-0.062146623029535,-0.8118222227505606,-0.8645555590110527,-0.9165815885672712,2.046288636664621,1.6001520567671892,-0.0763927372089395,-0.9027292221758236,-1.0190389919844212,0.6659755698372039,0.2212490748838065,-0.5521791379061114,-0.2994503400303827,10.199021971133334,-1.173929867477026,0.0884301839849761,-0.8872678426505083
1.1,-0.9186813812259768,2.0160929805165613,1.569765523054388,0.0626986510375184,0.1715093150213338,0.0151167608598469,-0.056303964948327,-0.8206862577364958,-0.8746620804446262,-0.9180479187898906,2.029434052238986,1.580971276945382,-0.0784435545942554,-0.9427292227718702,-1.0590389925804675,0.7328873466861558,0.2921329040603999,-0.4432017492967621,-0.5053260716786745,9.880754000879278,-1.1681816867267771,0.0909428973110914,-0.895735423712325
1.12,-0.919730570573938,1.999594030540133,1.5521255709526398,0.0594897177647989,0.1789768299793432,0.0150003272406582,-0.0487261756692589,-0.8287525277139253,-0.8889824729653961,-0.9196167898817756,2.0105794677835487,1.5597904970937728,-0.0804943719795713,-0.9827292233679168,-1.099038993176514,0.9049326544772002,0.3788894639534041,-0.4033134988714715,-0.7160196260384943,9.63670178608936,-1.16230675001431,0.0932198975488357,-0.9033090041649864
1.14,-0.920610855586787,1.9829429867350128,1.5341755208491727,0.0568109556299395,0.1863059189502866,0.0149035656664933,-0.0395028019696774,-0.8360347548375463,-0.9053182860266576,-0.9211856609736608,1.9917248833281116,1.538609717242163,-0.0825451893648872,-1.0227292239639632,-1.1390389937725605,1.0061811997033836,0.4611686849790745,-0.3641113561810516,-0.8167906530630764,9.4411657984665,-1.1567008201796782,0.0950318557578796,-0.909303298954808
1.16,-0.9212842639642188,1.966143400993796,1.5158845662395024,0.0543679787676346,0.1930409081257905,0.0147840318507499,-0.0282238283399436,-0.8434593938391959,-0.922966348159642,-0.9228058025001789,1.9718702988577728,1.5164289373756528,-0.0845960067502031,-1.0627292245600095,-1.1790389943686068,1.1110744883835657,0.5639486814866893,-0.371231950082479,-0.8824031066492155,9.360044972482685,-1.151453951327618,0.0967798455617707,-0.9145539561246712
1.18,-0.9216995867202504,1.950049226102913,1.498169799345802,0.0520327797033704,0.1984817868415203,0.0146145603170642,-0.0160596344200271,-0.8501829533070994,-0.9408591804484612,-0.9244772144613296,1.951015714372533,1.4932481574942411,-0.086646824135519,-1.102729225156056,-1.2190389949646532,1.1328363881818715,0.6082096959958243,-0.3361779733951742,-0.8946416144409608,9.30694713291905,-1.1476946020726015,0.0985922475376547,-0.918174255739319
1.2,-0.9218773499773952,1.9329764271751235,1.47914278455026,0.0495442992277005,0.2029868468695261,0.0143702988101996,-0.0023647024672126,-0.856652302580286,-0.9609485403968931,-0.9225025684412516,1.907540078437558,1.451126840323379,-0.0184549744286883,-0.9501829547972156,-1.008814793584753,1.2579606754071908,0.6847465976407232,-0.3234674636593326,-1.0044679974216042,9.255255835638309,-1.14559488923743,0.1004729542718696,-0.9200758491330788
1.22,-0.921677460775527,1.915748067757916,1.4601179182826676,0.0466382716996793,0.2058711856892663,0.0140199971218624,0.0214989532298279,-0.8654648656120881,-0.9405035947217888,-0.9225025684412516,1.907540078437558,1.451126840323379,-0.0184549744286883,-0.9501829547972156,-1.008814793584753,1.631817341244384,1.1931827848520298,-0.4406281515901056,1.0222472837552232,9.19183362524018,-1.138272063413073,0.102252075319838,-0.9099028059326622
1.24,-0.9210439808927472,1.8992400878809352,1.442399736337846,0.0437517495533927,0.2068227321232243,0.0136027868823044,0.0437714366420833,-0.8717639483041841,-0.9256769772833948,-0.9225025684412516,1.907540078437558,1.451126840323379,-0.0184549744286883,-0.9501829547972156,-1.008814793584753,1.3743821746293328,1.1136241706127712,-0.3149541346048001,0.7413308719196932,11.675124095255342,-1.1443416041606136,0.1048260366225772,-0.9134557299963626
1.26,-0.9199279787094476,1.8817496128791964,1.4239902048357331,0.0410902748375799,0.2056686353442548,0.0131108096132776,0.0665260868456271,-0.8769908772124548,-0.9163141378381472,-0.9226871181855384,1.898038248889586,1.4410386923875316,-0.0189340424304205,-0.9701829550952388,-1.022405916212011,1.257733729943701,1.1377325101771911,-0.261346445413535,0.4681419722623814,11.21388510907036,-1.151005779215446,0.1070126655552366,-0.9136386865341294
1.28,-0.9183622402742614,1.8641639520030064,1.4057091945196438,0.0389765705195924,0.2016211212680391,0.0125596404077373,0.0886718286168499,-0.8813892243513278,-0.9124241969371188,-0.9230562176741124,1.8790345897936416,1.4208623965158365,-0.0198921784338849,-1.0101829556912851,-1.0495881614665277,1.1455467868721123,1.1072870885611394,-0.2199173569436496,0.1944970450514227,10.820908500335465,-1.1595758980939532,0.1087074978203572,-0.9088779606847844
1.3,-0.9163794808048236,1.8464987279844276,1.3874577474206913,0.0375091635534536,0.1944213879337219,0.0119557014303588,0.1078675697497421,-0.8850327902411466,-0.9127872016847256,-0.923425317162686,1.8600309306976968,1.4006861006441411,-0.0208503144373494,-1.0501829562873315,-1.0767704067210442,0.9770923990099992,0.9597870566446114,-0.1821782944909367,-0.0181502373803377,10.502372950607423,-1.1711952095362614,0.1098751896155208,-0.8997259188790432
1.32,-0.9141782444334242,1.8296564288613204,1.3700832981579714,0.0369115245931601,0.1854477291484736,0.0113788668705011,0.1224151681404889,-0.8877810617548918,-0.915997050621962,-0.923842323451433,1.8390272715719505,1.3791506925097203,-0.0218084504408139,-1.090182956883378,-1.1039526519755607,0.7574442973770379,0.727379919537336,-0.1374135756872618,-0.1604924468618207,10.250122084024952,-1.1842408678958565,0.1103626862413533,-0.887143783286478
1.34,-0.911601852123154,1.8118772875908848,1.351719321475824,0.0374437851047321,0.1745926450854376,0.0108130817396657,0.1340053421116978,-0.8901088473380571,-0.9202152391047136,-0.92425932974018,1.818023612446204,1.3576152843752995,-0.0227665864442783,-1.1301829574794244,-1.1311348972300774,0.6275823302167233,0.5795086985604485,-0.1163892791582632,-0.2109094241375841,9.968586956812032,-1.1971476704126431,0.10983860743945,-0.8724047034725265
1.36,-0.9088316691361912,1.7940434171394126,1.3332636910476294,0.039146400039741,0.1630023589261242,0.0102968752681642,0.1420220364469467,-0.8932470058784922,-0.9250667760225834,-0.9247002894290136,1.796019953305556,1.3354003201095157,-0.0237247224477428,-1.1701829580754708,-1.158317142484594,0.4940972514474464,0.400834716762441,-0.1569079270217543,-0.2425768458934829,9.908977966947532,-1.2095704636526496,0.1083727692769468,-0.8567956455109076
1.38,-0.9059382001780166,1.7761358050797482,1.314704622812854,0.0416391353405946,0.1512682433885518,0.0098105043724685,0.1465824570171396,-0.897596255509775,-0.9305519555754428,-0.9251652025179338,1.7730162941500072,1.312505799712369,-0.0246828584512072,-1.2101829586715172,-1.185499387739111,0.4177337754460401,0.2280210285096479,-0.2174624815641401,-0.2742589776429771,9.908977966947532,-1.2205887733484988,0.1064092359409032,-0.841830116746229
1.4,-0.9031361636614328,1.7590254272335768,1.2969647533453896,0.0440775196905747,0.1404257493601419,0.0093418418724095,0.1479008011161439,-0.9032721228588416,-0.9364916646702164,-0.8986090773271597,1.7312559923042594,1.2681770250340818,0.1605924710295956,-0.9975962569998912,-0.925021304847992,0.4160337890668119,0.0659172049502151,-0.2837933674533277,-0.2969854547386796,9.849528278523394,-1.2306417195591668,0.1042561567348328,-0.8265103739663919
1.42,-0.9001974301321872,1.740813443319388,1.2785981446622876,0.0445328061553386,0.131900732841683,0.0088164170528083,0.1458929897211259,-0.9171579407963608,-0.8975933244577214,-0.8986090773271597,1.7312559923042594,1.2681770250340818,0.1605924710295956,-0.9975962569998912,-0.925021304847992,2.0675638549261968,-0.1003905697509022,-0.6942908968759709,1.9449170106247529,9.789558380349265,-1.2302331445015169,0.1033918611263393,-0.8015521584731725
1.44,-0.8973137463548108,1.7223364599798805,1.2610438073239971,0.0417142832666644,0.1287690258288862,0.0083216379012528,0.1430962208594605,-0.9293205630862772,-0.860045163528544,-0.8986090773271597,1.7312559923042594,1.2681770250340818,0.1605924710295956,-0.9975962569998912,-0.925021304847992,1.9783930892242825,-0.1398384430832663,-0.608131114495819,1.8774080464588727,12.980815210119545,-1.2311496997841975,0.1048503463599891,-0.8040069793915923
1.46,-0.8944679574838016,1.7036636550351505,1.2441684511580309,0.0372119978460471,0.1294213011394087,0.0078914447791719,0.1420003121310012,-0.9369629003478426,-0.8293617494187637,-0.8970031526168637,1.7212800297342603,1.258926811985602,0.1633944738320867,-1.0175962572979145,-0.9239151747025018,1.5819910209865955,-0.0547954364229649,-0.3821168630782634,1.534170705489013,12.462947882139815,-1.2300189265070929,0.1077471208030518,-0.8105161451763337
1.48,-0.8917672817412357,1.685815925216218,1.2286493748975575,0.0329282774813153,0.1321137224978759,0.0075718088978329,0.1425855521332582,-0.9413674066871052,-0.8057657283060975,-0.8937913031962719,1.7013281045942623,1.2404263858886422,0.1689984794370691,-1.0575962578939608,-0.9217029144115216,1.200535707821966,0.0292620001128451,-0.220225316963124,1.1798010556333116,11.970981028436654,-1.227723915366618,0.1108285392321646,-0.8182949523205464
1.5,-0.8888942583954601,1.666958009851228,1.212753851999471,0.0290354439846331,0.1360646563270537,0.0073204534578646,0.14487721038392,-0.9442538892122854,-0.7852336353933382,-0.8905794537756799,1.6813761794542648,1.2219259597916825,0.1746024850420515,-1.0975962584900072,-0.9194906541205412,1.043012845419673,0.1145829125330941,-0.1443241262590155,1.026604645637963,11.58928560001914,-1.224815591790451,0.113561775691167,-0.826314061779296
1.52,-0.8859590809513068,1.648055342432286,1.1972249965464847,0.0260153061472318,0.1403766452321157,0.0071446219049402,0.1486634881651,-0.946063029089296,-0.7686853725489515,-0.8870874040748389,1.6594242542844646,1.2035361467092716,0.1802064906470339,-1.1375962590860536,-0.9172783938295608,0.8536010334133812,0.1893138890590007,-0.0904569938505295,0.8274131422193354,11.316133601551885,-1.2220753647386462,0.1157472219086976,-0.8340095645339579
1.54,-0.882930602066746,1.6291237213557948,1.182014669961864,0.0238856217910875,0.1444738181101649,0.0070315661609143,0.1540614308699696,-0.9472382389238893,-0.7531904952713704,-0.8835953543739978,1.6374723291146644,1.1851463336268606,0.1858104962520163,-1.1775962596821,-0.9150661335385806,0.8225115887446195,0.269897135243477,-0.0587604917296591,0.7747438638790571,11.097266289420077,-1.219493612771403,0.1172406500529783,-0.8401807735236435
1.56,-0.8799400542178264,1.6111128276802418,1.167845514021073,0.0224181710713431,0.1477815203420383,0.0069574357047754,0.1604594264853688,-0.9486118393734686,-0.7390844803418188,-0.8799632045330322,1.6145204039299632,1.1668118270517245,0.1914145018569986,-1.2175962602781465,-0.9128538732476,0.7774972399990948,0.3198997807699624,-0.0686800224789729,0.7053007464775773,11.052957366182454,-1.2176072490235506,0.1184226201055702,-0.8455973120220778
1.58,-0.8766515473449481,1.592128061188096,1.1532144886768323,0.0212726112475116,0.1503989240089979,0.0068988284570389,0.1680447340623141,-0.9497858773593796,-0.7247882512218048,-0.8761909545519421,1.590568478730361,1.1485326269838625,0.197018507461981,-1.2575962608741929,-0.9106416129566198,0.8113221050870653,0.3792653788472641,-0.0587018992955434,0.7148114560007024,11.026036241002656,-1.2167953749182163,0.1193394904043,-0.8497608576643864
1.6,-0.8732053288559022,1.5731228542460032,1.1388614754423072,0.0205602563163638,0.1519919494495835,0.0068612559721893,0.1761411524848464,-0.9506763454731586,-0.7112634156764555,-0.8682493106418324,1.5446387673201272,1.116975076115742,0.2009204619244338,-1.0497858788494956,-0.6661969450122406,0.7894081663865687,0.4048209211266126,-0.0445234056889565,0.6762417772674667,11.0003263993558,-1.2166546871701516,0.1199264664177651,-0.8534951018408223
1.62,-0.8697424387664399,1.5550045658301568,1.1257199850460389,0.0189075588950752,0.1525973738368398,0.006751598667651,0.1878808737444373,-0.9557999932200748,-0.6727152164667538,-0.8682493106418324,1.5446387673201272,1.116975076115742,0.2009204619244338,-1.0497858788494956,-0.6661969450122406,2.031032055260461,0.586986062979547,-0.2561823873458047,1.9274099604850825,10.95955387646336,-1.210550610318209,0.1207658377397913,-0.8460488567606959
1.64,-0.8658549165553195,1.5358660558008663,1.1126818693128555,0.016055046003149,0.1523620975673731,0.0065587805665321,0.2001227938628738,-0.9576018370881776,-0.633346256433052,-0.8682493106418324,1.5446387673201272,1.116975076115742,0.2009204619244338,-1.0497858788494956,-0.6661969450122406,2.063386938777124,0.6120960059218263,-0.090092193405139,1.9684480016850916,12.829698292377545,-1.2123669813961244,0.1231501741134442,-0.8538430753683887
1.66,-0.8617287512729532,1.5167199687337436,1.100394589199258,0.0135326832848394,0.1511567510009206,0.0063935709715833,0.2117660050945016,-0.9570383745734408,-0.5975030362790883,-0.866240106022588,1.5341409085316322,1.1103131066656196,0.2074956074968577,-1.0697858791475188,-0.6544786837703277,1.884554515525702,0.5821605615813893,0.0281731257368411,1.7921610076981842,12.621475635202842,-1.214950028972278,0.1252649668709665,-0.8609000558559011
1.68,-0.8573763571625418,1.497601059262782,1.0887891556653104,0.0120268694706163,0.1488209159135713,0.0063044148854246,0.2227541698395016,-0.9551540554446412,-0.5648251498570747,-0.8622216967840994,1.5131451909546425,1.096989167765375,0.2206458986417056,-1.1097858797435654,-0.631042161286502,1.726365172879455,0.54940823725,0.0942159564399747,1.6338943211006818,12.38317902847666,-1.2180769445687107,0.1267825853646611,-0.8680826090980377
1.7,-0.8530457995584372,1.479482491704201,1.0783476467770632,0.0119182415461929,0.145410497074489,0.0063130536294415,0.2324012619137149,-0.9524051098176546,-0.5359066710948315,-0.8582032875456107,1.4921494733776524,1.08366522886513,0.2337961897865535,-1.1497858803396117,-0.6076056388026764,1.5304423392199291,0.4823546037106649,0.1374472813493288,1.4459239381121591,12.050454101581636,-1.2226636120624337,0.1272319704998144,-0.8722709480819087
1.72,-0.8483016253527967,1.460472487733515,1.0679370825761696,0.0136601240914675,0.140494033615651,0.0064422024818876,0.2413173660338099,-0.9489642768525288,-0.5067161395966233,-0.8535273637498797,1.46915375577086,1.0715131160890763,0.2469464809314013,-1.189785880935658,-0.5841691163188507,1.535759887907412,0.4458052060047499,0.1720416482562936,1.459526574910408,12.050454101581636,-1.228385729904008,0.1261853977570535,-0.8742070531481596
1.74,-0.8433978217683596,1.4415223064496188,1.058108379768273,0.0174421498690466,0.1343593067888869,0.0066856663245542,0.2482618376658468,-0.946920497052968,-0.4775980062330148,-0.8488514399541486,1.4461580381640675,1.059361003313023,0.2600967720762492,-1.2297858815317046,-0.5607325938350249,1.500223660573773,0.3472235816018423,0.1021889899780359,1.455906668180426,11.967050442477555,-1.2345889725230368,0.123657688057053,-0.874097689044826
1.76,-0.8383830663824929,1.4225721411992884,1.0488641254800837,0.0219227904885932,0.1276106394013658,0.006939761125038,0.2526007366818882,-0.9483599853098986,-0.4482780972905583,-0.8438467588797963,1.4221623205423743,1.0477948035990652,0.2732470632210971,-1.269785882127751,-0.5372960713511993,1.4837075448914991,0.2169449508020698,-0.0719744128465316,1.4659954471228225,11.96613424208772,-1.2401510672015248,0.1203094783028695,-0.8732171088623303
1.78,-0.8335628330809878,1.4045211744786197,1.040625776685005,0.0259100839302636,0.1211799281602853,0.007133558838815,0.254405454905633,-0.9516394635376936,-0.4203829032071213,-0.8385133205268229,1.39716660290578,1.036814516947203,0.2863973543659449,-1.3097858827237974,-0.5138595488673736,1.4072613814305388,0.0902359111872419,-0.163973911389742,1.3947597041718496,11.978923971470069,-1.2450532276936406,0.1170943258088274,-0.8726421988154064
1.8,-0.8284750601241372,1.3854402830311825,1.0325266288884696,0.0295221887246288,0.1148500564339265,0.0072828102808077,0.2540916568521371,-0.9562463040500918,-0.391005432188485,-0.8208425603357061,1.3569392013017347,1.019606631524649,0.2954129401463309,-1.0516394650278096,-0.3203829017170052,1.4869072366626237,-0.0156899026747953,-0.2303420256199173,1.4688735509318178,11.983269978514729,-1.2481923473205014,0.1142299299653173,-0.8736130399694026
1.82,-0.8234160090644532,1.3661579112981947,1.025122986122257,0.0293499871417775,0.1098572491353696,0.007198281252377,0.2516932048116692,-0.9701863766744986,-0.3508058432564175,-0.8208425603357061,1.3569392013017347,1.019606631524649,0.2954129401463309,-1.0516394650278096,-0.3203829017170052,2.130777526673868,-0.1199226020233978,-0.6970036312203387,2.0099794466033742,12.82408468662743,-1.243724255374624,0.1138096096125391,-0.8753751427859292
1.84,-0.81842851099009,1.3466571925358193,1.018528339000779,0.0249489011097205,0.1072781169908668,0.0069123141905561,0.2472200312329838,-0.9782178733409476,-0.3106959604891307,-0.8208425603357061,1.3569392013017347,1.019606631524649,0.2954129401463309,-1.0516394650278096,-0.3203829017170052,2.0574966076361587,-0.2236586789342659,-0.4015748333224433,2.005494138364341,12.82408468662743,-1.240973680152619,0.1169815440884757,-0.8832126357756687
1.86,-0.8137747135181671,1.3280459692470197,1.0129917351417748,0.0199512829312129,0.1072106497244698,0.006667488326372,0.2431660002393638,-0.980445379741237,-0.2741441863616449,-0.8178884309342428,1.3464228066514563,1.016402802507479,0.3036144371944704,-1.0716394653258328,-0.300382901418982,1.8421652639810184,-0.2027015496810003,-0.1113753200144784,1.827588706374289,12.764354586021,-1.236169476375097,0.1210972896669458,-0.8952996703608945
1.88,-0.8089449273061314,1.3084422341685424,1.0079019601422896,0.0154714804761984,0.1089523064026518,0.0065145694224855,0.2402473890271425,-0.9799691065310048,-0.2368413263350089,-0.8119801721313162,1.3253900173509003,1.009995144473139,0.3200174312907496,-1.1116394659218791,-0.2603829008229356,1.8709947178878432,-0.1459305606110642,0.0238136605116123,1.8651430013317984,12.639354266402734,-1.2306240661803347,0.1248020259237702,-0.9100286613947344
1.9,-0.804157414575997,1.2888659148854364,1.003544142540958,0.0123782822075886,0.1118831044673158,0.0064841842374615,0.2388672847830176,-0.9780831835290306,-0.2008514957197703,-0.8060719133283896,1.3043572280503442,1.0035874864387988,0.3364204253870287,-1.1516394665179257,-0.2203829002268891,1.803281246095292,-0.0690052122062467,0.0942961500987105,1.799491530761932,12.56806536366912,-1.2248502299442818,0.1274174072010098,-0.9251658386455488
1.92,-0.7996182908475924,1.2703109859616657,1.0000635274693637,0.0108081096507328,0.1152105759526567,0.006562975142241,0.2391445803723985,-0.9754933468732154,-0.1673685863602283,-0.799343504820649,1.2813244387199856,0.999179828434261,0.3528234194833079,-1.191639467113972,-0.1803828996308426,1.679203208315627,0.0138647794690457,0.1294918327907568,1.6741454679770993,12.497845971489369,-1.2181592200849776,0.1290654099398046,-0.9416192407665768
1.94,-0.7948167016040255,1.250838616101169,0.9970899726060338,0.0107933830316764,0.1188009279607115,0.0067687742690478,0.2411315100450098,-0.9720669503145324,-0.1317560660648897,-0.7926150963129084,1.2582916493896272,0.9947721704297232,0.3692264135795871,-1.2316394677100186,-0.1403828990347961,1.791605205316701,0.0993464836305649,0.1713198279341521,1.7806260147669284,12.469260251811647,-1.2112619648030236,0.1293164784628092,-0.9580645023573842
1.96,-0.7899566050066222,1.2314302076098378,0.9948312214151952,0.0125608712293205,0.1220229661355315,0.0071057100454867,0.2448091737957075,-0.9691588070869628,-0.0959439264423666,-0.7854766129527608,1.2342588600443676,0.9913645124400866,0.3856294076758662,-1.271639468306065,-0.1003828984387497,1.8058874909849336,0.183883187534882,0.1454071613784857,1.790606981126155,12.52470559291487,-1.2056542735649023,0.1281524686473582,-0.9734883313994128
1.98,-0.7852581881549006,1.2130333916686808,0.9933521474517948,0.0155575876730929,0.1244063010940595,0.0075201263048645,0.2495476929320869,-0.9678976529618116,-0.0615728992689143,-0.7779280547402063,1.2092260706842066,0.9889568544653512,0.4020324017721453,-1.3116394689021114,-0.0603828978427033,1.7359518875039543,0.2369259568189702,0.0630577062575576,1.7185513586726155,12.606556440771785,-1.200940458887236,0.125663140612002,-0.9883009177210982
2.0,-0.7802061395697117,1.193665201493357,0.9925076302832856,0.019081912046936,0.1260121653759245,0.0079772816626121,0.255381958643868,-0.9690971968007774,-0.0246735937076205,-0.7727808035082963,1.1646385090205902,0.9902735024883492,0.2824012404157695,-1.0678976544519276,0.0384271022212017,1.8688474474411976,0.2917132855890569,-0.059977191948296,1.844965278064689,12.606556440771785,-1.1969478641735258,0.1227244483668384,-1.0022418728101672
2.02,-0.7749942267992689,1.1741849546253822,0.9922924780411384,0.0199504165178504,0.124958934735946,0.0082035003067699,0.265486035291419,-0.978042355185149,0.0007695750101778,-0.7727808035082963,1.1646385090205902,0.9902735024883492,0.2824012404157695,-1.0678976544519276,0.0384271022212017,1.4400200153326272,0.5052038323775515,-0.4472579192185799,1.2721584358899174,12.685181375222784,-1.200251095279721,0.1224789369144772,-1.01747353300482
2.04,-0.7695879101398779,1.15456857455997,0.9925875549288156,0.0174379665720117,0.1194984274295439,0.0081228941827377,0.2739146071113056,-0.9828970264219462,0.0275687647728487,-0.7727808035082963,1.1646385090205902,0.9902735024883492,0.2824012404157695,-1.0678976544519276,0.0384271022212017,1.42548695861802,0.4214285909943271,-0.2427335618398585,1.3399594881335497,12.03580317972228,-1.20573456791601,0.1249567586029648,-1.0165952174688926
2.06,-0.7643421990329082,1.135883557610706,0.9933795163475746,0.0140730151089406,0.1118230418468751,0.0079692838953611,0.2774292722154879,-0.9836214912675678,0.0544644432544998,-0.7699567911041385,1.153959532476071,0.9906577735105612,0.2889719499125061,-1.0878976547499508,0.058427102519225,1.3567011840263947,0.1757332552091178,-0.0362232422810804,1.3447839240825548,12.03580317972228,-1.2141391587065318,0.1286053944942053,-1.0139534796826644
2.08,-0.758796726343023,1.1162304042347244,0.9947754266862052,0.0111706245605927,0.1028970903317694,0.0078833746195989,0.2765833364165538,-0.9818631345036763,0.0837417132322176,-0.7643087662958231,1.1326015793870323,0.9914263155549852,0.3021133689059791,-1.1278976553459974,0.0984271031152714,1.467111075577797,-0.0422967899467052,0.0879178381945677,1.4638634988858894,12.112387858379408,-1.2223978283961126,0.1316624337241539,-1.0115152361271174
2.1,-0.753312642866513,1.0966260898123887,0.9967612324249716,0.0095648963956129,0.0945007174482179,0.0079272240199877,0.2716662329506361,-0.978885702847366,0.113366635696889,-0.7586607414875077,1.111243626297994,0.9921948575994092,0.3152547878994521,-1.1678976559420438,0.1384271037113179,1.5088729542280312,-0.2458551732958891,0.1488715828155296,1.4812461232335676,12.17601195457155,-1.2289444525015774,0.1334599350683278,-1.0107654889877555
2.12,-0.7479660426218075,1.0770923932717191,0.9993433453249292,0.0097191385664737,0.0877791786329092,0.0081251853095496,0.2631588712568094,-0.974971361667229,0.1433374973475806,-0.7523556457295186,1.087885673179153,0.9949633996736356,0.3283962068929252,-1.20789765653809,0.1784271043073643,1.5699918932505692,-0.4253680846913327,0.1957170590068446,1.4985430825345811,12.204897494346367,-1.2340210965972158,0.1338006260908617,-1.012174066620008
2.14,-0.7430751729946619,1.05861086231939,1.0023527931639655,0.011850061626192,0.0839616163983397,0.0084754152624258,0.2520675347487286,-0.9709725085569936,0.1719223598614133,-0.7460505499715296,1.0645277200603125,0.997731941747862,0.3415376258863983,-1.2478976571341367,0.2184271049034108,1.5460457113774468,-0.5545668254040376,0.19994265551177,1.4292431256916316,12.25110656218294,-1.2360848322247382,0.1321513400953802,-1.0168677576794167
2.16,-0.7381639391288688,1.0392107349381567,1.0061129032316796,0.0157188903455028,0.0833422857578481,0.0089911195935653,0.2400592608825477,-0.9697359270859098,0.2025918764521313,-0.7394169187387037,1.04016976692657,1.0015004838369894,0.3546790448798713,-1.287897657730183,0.2584271054994573,1.6479889432943426,-0.6004136933090487,0.0618290735541871,1.533475829535902,12.33355233104885,-1.2308916770020832,0.1286720223669635,-1.027824128367733
2.18,-0.7334723663907565,1.0197999216353435,1.0104941107758347,0.0197326654901903,0.0854951071347107,0.0095613482041373,0.2300248593899201,-0.971444392946953,0.2340071810099224,-0.732454752031041,1.014811813777927,1.006269025941018,0.3678204638733444,-1.3278976583262294,0.2984271060955037,1.6511582520857633,-0.5017200746313801,-0.0854232930521559,1.5707652278895534,12.33355233104885,-1.2237432565702946,0.1251623412933489,-1.0405562965764972
2.2,-0.728955382337341,1.000335255881538,1.015513471329889,0.02314037934909,0.0894534268789035,0.0101344161827322,0.2224820023538864,-0.9747893838359528,0.2663330939427412,-0.7219711234212605,0.971227701987996,1.0221944698263308,0.2642073967369984,-1.071444394437069,0.3340071825000385,1.6681189280546775,-0.3771428518016845,-0.1672495444499877,1.6162956466409388,12.39140443143424,-1.2158863482916118,0.1220083941492587,-1.0522580816782772
2.22,-0.7247688348651122,0.9816932665363136,1.0207393582582096,0.0229536844948148,0.0932963257506902,0.0104504099180282,0.2185199356562664,-0.9859637525630228,0.2821676501899643,-0.7219711234212605,0.971227701987996,1.0221944698263308,0.2642073967369984,-1.071444394437069,0.3340071825000385,0.989062258545165,-0.1981033348810001,-0.5587184363535058,0.7917278123611565,12.456550483537283,-1.214730754704463,0.1226302054383656,-1.0664594554698272
2.24,-0.720433713449208,0.9619082617926203,1.026583175604849,0.0189008532560526,0.0964063486014324,0.0104921189382204,0.2152297322733054,-0.9912207417650796,0.3016049079498659,-0.7219711234212605,0.971227701987996,1.0221944698263308,0.2642073967369984,-1.071444394437069,0.3340071825000385,1.0201327891463972,-0.1645101691480494,-0.2628494601028375,0.9718628879950786,11.40749388785298,-1.2080635201182774,0.1267218923405387,-1.070150289199584
2.26,-0.7161575286800618,0.9420828947225754,1.0328440198294833,0.014359762893226,0.0987408115539137,0.0104829914604366,0.2125462547641964,-0.9911787935247262,0.3234617834853389,-0.7193290494538904,0.9605132580436252,1.025534541651331,0.2710439042064141,-1.0914443947350922,0.3540071827980617,1.101051564834636,-0.1341738754554469,0.0020974120176708,1.09284377677365,11.6439040179348,-1.2038684619940263,0.1312242210950865,-1.07539775763484
2.28,-0.7121415026415516,0.923277198867324,1.0392110706551536,0.011086505892805,0.100404694822638,0.0105401122093322,0.2103278110961915,-0.9887701065295692,0.3456282825251248,-0.7140449015191505,0.939084370154884,1.032214685301332,0.2847169191452454,-1.1314443953311388,0.3940071833941082,1.1203536774492038,-0.1109221834002471,0.120434349757853,1.108324951989298,11.88436700857801,-1.200762233769175,0.1350284734219089,-1.0816095346332777
2.3000000000000003,-0.7079570184077063,0.903541355864754,1.0463827351647728,0.0091889266611063,0.1017399702410038,0.0107071401297905,0.2082529092564264,-0.9852357777047708,0.3704195378229828,-0.7087607535844105,0.9176554822661426,1.038894828951333,0.2983899340840767,-1.1714443959271852,0.4340071839901546,1.256386721047735,-0.103745091988254,0.1767164412399158,1.2395627648928986,11.88436700857801,-1.1990501012982495,0.1373579228796652,-1.087582739895917
2.32,-0.7038117693087629,0.8838837527633077,1.0540641639216164,0.0091453750773844,0.102787011168505,0.0110046664370587,0.2063898850253066,-0.9809186677656698,0.3965175495550543,-0.702792954902729,0.8942265943475989,1.047574972631136,0.3120629490229081,-1.2114443965232315,0.4740071845862011,1.3259096065337233,-0.0931512115559904,0.2158554969550474,1.3049005866035746,12.09239402876392,-1.198686837682265,0.1379421449631732,-1.09430077992165
2.34,-0.6997024058238677,0.8643180414336206,1.0622767348245914,0.0113887781632927,0.1036531500391096,0.0114621895553772,0.2046487664007072,-0.9762513591036464,0.4234062110355578,-0.6968251562210473,0.8707977064290551,1.0562551163109388,0.3257359639617394,-1.251444397119278,0.5140071851822476,1.367310663697756,-0.0870559312299693,0.2333654331011736,1.344433074025175,12.149642732980285,-1.200252250339486,0.1364905802830996,-1.1015615555912348
2.36,-0.6958281491304816,0.8457896972015506,1.0705842824172114,0.0151138652032342,0.1043439335848691,0.0120060017698541,0.2032576669709191,-0.9747734670007808,0.4497040649315096,-0.690515532165895,0.8463688184956103,1.065935260005643,0.3394089789005707,-1.2914443977153245,0.554007185778294,1.3188029062601585,-0.0695549714894036,0.0738946051432765,1.3148926947975896,12.149642732980285,-1.2016893379375395,0.133180755502571,-1.1095181003983523
2.38,-0.6917755568262928,0.8262817956970208,1.079880669550202,0.0191581915135511,0.1049252075799762,0.0125823805485126,0.2020796879893658,-0.976137193939316,0.4785957650267102,-0.683864082737272,0.8209399305472643,1.0766154037152489,0.3530819938394021,-1.3314443983113708,0.5940071863743405,1.4473922412695204,-0.0588989490776695,-0.0681863469267629,1.4445850047600295,12.211951328949,-1.2032119279223257,0.1296418956228546,-1.1165546321370698
2.4,-0.687744269000587,0.8067265538434066,1.089765203941954,0.0225808688544574,0.1053568333778195,0.0131090202536842,0.2011035235223548,-0.9792240914594376,0.5084388726329118,-0.6816715724268245,0.7774749360000549,1.1038104578015373,0.2613389722770569,-1.0761371954294323,0.5785957665168263,1.500910477811479,-0.0488082233505479,-0.1543448760060739,1.4921553803100784,12.312767092056674,-1.2049575300692197,0.1268294576326653,-1.1229565891074629
2.42,-0.6837658243170045,0.7870123955507085,1.100051170778518,0.0221923188555498,0.1060547641418027,0.0133744212377107,0.1969006132000752,-0.9905200662955516,0.5187019211917127,-0.6816715724268245,0.7774749360000549,1.1038104578015373,0.2613389722770569,-1.0761371954294323,0.5785957665168263,0.7915075305951806,-0.2101455161139784,-0.5647987418057054,0.5131524279400446,11.102825517052224,-1.212766811433429,0.1279211037928418,-1.1315770672345271
2.44,-0.6800622516379052,0.7681392714040961,1.1100335365156293,0.0182238572749033,0.1073261549738604,0.0133910818578812,0.1932801051932247,-0.9949343126590342,0.531620569234098,-0.6816715724268245,0.7774749360000549,1.1038104578015373,0.2613389722770569,-1.0761371954294323,0.5785957665168263,0.706196000463421,-0.1810254003425257,-0.2207123181741266,0.6459324021192647,11.102825517052224,-1.2103508941212229,0.1325028137446048,-1.1318778787352737
2.46,-0.6762303097384708,0.7482452249198936,1.120838353415328,0.013712703416056,0.1092751623690099,0.0133971120859152,0.1902374285100179,-0.9943193900863738,0.5482880664670287,-0.6790581827040539,0.7667135640457606,1.1095964154667055,0.2731908291345951,-1.0961371957274555,0.5985957668148495,0.847704953357373,-0.1521338341603395,0.030746128633019,0.8333748616465353,11.362332134310236,-1.20837113759408,0.1376299558780078,-1.1356372783777993
2.48,-0.6724492748043154,0.7283922404363116,1.132000994027129,0.0104382155718988,0.1117352052271391,0.0134950801820291,0.1881533650150696,-0.9913338900379396,0.5672007297871444,-0.6738314032585129,0.745190820137172,1.121168330797042,0.2968945428496716,-1.136137196323502,0.638595767410896,0.9629970989704856,-0.1042031747474164,0.149275002421706,0.9456331660057882,11.55531880115086,-1.2065166249295878,0.1415807807383139,-1.141797398546279
2.5,-0.6686979790680273,0.7086131853977,1.143564481596017,0.0089638054065139,0.1145321391554246,0.0137208557198956,0.1872055001362522,-0.987183307000502,0.588158084698168,-0.6686046238129717,0.7236680762285833,1.1327402461273786,0.320598256564748,-1.1761371969195484,0.6785957680069424,1.0692713783761416,-0.0473932439408714,0.207529151871888,1.047867745551179,11.699055348855836,-1.2050199506123662,0.1436835403407485,-1.1496850112762884
2.52,-0.6651400913466251,0.689906001346925,1.1549557679297795,0.0094817784596204,0.1173010568740038,0.0140706866385828,0.1874403134292213,-0.9825461594677324,0.6098435930480437,-0.6621926586816768,0.7001453322901924,1.1463121614875174,0.3443019702798245,-1.2161371975155948,0.7185957686029889,1.108850245655106,0.0117406646484546,0.2318573766384835,1.0842754174937852,11.83338931286471,-1.2038544699428777,0.1438650152955558,-1.1598034408481808
2.54,-0.6613789997835942,0.6703081513530179,1.1674048693672323,0.0123334589098918,0.120143793584325,0.0146021298826065,0.188745282837881,-0.9778865844824908,0.6339565522345149,-0.6557806935503818,0.6766225883518013,1.1598840768476562,0.3680056839949009,-1.2561371981116414,0.7585957691990354,1.2296842937610564,0.065248470432988,0.2329787492620805,1.205647959323558,12.070285078926643,-1.2032651898220996,0.1415611694408757,-1.171885489883014
2.56,-0.6575780885304984,0.6507632543927062,1.1803482630647992,0.0165841762518304,0.1226819197774109,0.0152318759893248,0.1913351671362165,-0.977128008940556,0.6592036842285206,-0.64877613557621,0.6520998443985092,1.1744559922226965,0.3917093977099773,-1.2961371987076875,0.7985957697950817,1.2695477654014586,0.1294942149167754,0.0379287770967351,1.2623565997002872,12.070285078926643,-1.2020010087144433,0.1375801406225861,-1.181772561229938
2.58,-0.6537138498380922,0.6312008701180702,1.193810148494192,0.0206211408843189,0.1246727465600107,0.015840160777449,0.1949685892853937,-0.979109603790442,0.6857623789112506,-0.6411789847591611,0.626577100430316,1.1900279076126374,0.4154131114250538,-1.336137199303734,0.8385957703911282,1.3439612512212684,0.181671107458857,-0.0990797424942957,1.3279347341364989,12.160853777904777,-1.2015501470254923,0.13394796927525,-1.1902460896795954
2.6,-0.6499681036935312,0.612563613225218,1.2071034314495122,0.0236505800193085,0.1259287541990941,0.0163477517918682,0.1990781664212267,-0.98239201482653,0.7121795962016269,-0.6439654203738225,0.5822453899285481,1.2280982674397547,0.2478876269254884,-1.079109605280558,0.7718478921453891,1.3467852611052646,0.2054788567916535,-0.1641205518044086,1.3208608645188136,12.267296542343502,-1.2022963024724165,0.1310122616776965,-1.1984421686136937
2.62,-0.645907639521144,0.592794261892981,1.2214012168428154,0.023195055591541,0.124670179729453,0.0165642144283223,0.2066784432194028,-0.9934586990530578,0.7150124852157135,-0.6439654203738225,0.5822453899285481,1.2280982674397547,0.2478876269254884,-1.079109605280558,0.7718478921453891,0.6860411200225253,0.3800138399088007,-0.5533342113263895,0.1416444507043313,12.362325928003884,-1.2042175566642652,0.1318936277640583,-1.1940086417386158
2.64,-0.6417138770970175,0.5728703186468606,1.2357483304714878,0.01873414052922,0.1190896585687508,0.0164198920861787,0.2116251828605773,-0.9976336656359464,0.7199737800117268,-0.6439654203738225,0.5822453899285481,1.2280982674397547,0.2478876269254884,-1.079109605280558,0.7718478921453891,0.4077837205515757,0.2473369820587295,-0.2087483291444314,0.2480647398006685,10.658797504394895,-1.215354913112812,0.137501685553114,-1.1897758095902584
