t,x,y,z,roll,pitch,yaw,v_x,v_y,v_z,ref_x,ref_y,ref_z,ref_v_x,ref_v_y,ref_v_z,a_com,a_x,a_y,a_z,thrust,wind_x,wind_y,wind_z
0.0,-0.4314218868688925,1.6914013026040018,1.7118171248888174,0.0189805604254492,0.1499570836909328,0.0285735004619974,0.0010016274263314,0.0063269553772567,-0.0013737234036315,-0.4313892267489468,1.6915925272951138,1.7117761740694442,-0.0526538398340904,-0.093763336386892,-0.101333317258592,0.3275696026673684,0.0500813713165705,0.3163477688628398,-0.0686861701815777,10.65901238868446,-1.4134303124574663,0.1729607074185441,-1.280991454313121
0.02,-0.4313716952562293,1.691738049764381,1.7115553187710195,0.028062706519588,0.1477642558391559,0.0291483072868534,0.0041200285799621,0.0236648916904472,-0.0260725103417427,-0.4313892267489468,1.6915925272951138,1.7117761740694442,-0.0526538398340904,-0.093763336386892,-0.101333317258592,1.516870575864523,0.1559200576815345,0.8668968156595237,-1.2349393469055614,10.659292092653232,-1.407778813600299,0.1616235380274803,-1.2770638942510606
0.04,-0.4312679212412531,1.6922274962383108,1.710714657391624,0.0427968655815834,0.1407694664645062,0.029884799107914,0.005355831869297,0.0237087734405635,-0.0567163379598847,-0.4313892267489468,1.6915925272951138,1.7117761740694442,-0.0526538398340904,-0.093763336386892,-0.101333317258592,1.5334383802979512,0.0617901644667494,0.0021940875058154,-1.5321913809070955,8.947022640630166,-1.414932010068651,0.1443194530941736,-1.2612699655312256
0.06,-0.4311945561497038,1.6926440381569845,1.7092649415325918,0.0577642606123215,0.130867850062102,0.0303413928005834,0.0014612408148666,0.0175867513819666,-0.0866621666979138,-0.4319157651472877,1.690654893931245,1.7107628408968585,-0.0633925039545261,-0.1137633366849152,-0.1213333175566152,1.5406164775622866,-0.1947295527215218,-0.3061011029298482,-1.4972914369014585,8.978328009726283,-1.4260401924797437,0.1279704284986793,-1.2414612958513689
0.08,-0.4312424818985539,1.6928922798092152,1.707345100405423,0.0714058782907638,0.120692161197411,0.0305042301061629,-0.0065325031162418,0.0085736073949323,-0.1139082121071463,-0.4329688419439695,1.688779627203507,1.7087361745516862,-0.0848698321953976,-0.1537633372809617,-0.1613333181526616,1.489533229747752,-0.3996871965554274,-0.4506571993517148,-1.362302270461626,8.978328009726283,-1.4383105738829298,0.1118399043282478,-1.2170470298449687
0.1,-0.4314949978167534,1.6929395347898064,1.70477242461841,0.0850657127297347,0.1105557770561749,0.030476379144043,-0.0184877040773794,-0.0036783516845246,-0.1418945108416587,-0.4340219187406514,1.6869043604757692,1.7067095082065145,-0.106347160436269,-0.1937633378770081,-0.2013333187487081,1.6403279002711937,-0.5977600480568791,-0.6125979539728489,-1.399314936725618,9.027661086976424,-1.449213144276983,0.096886567214505,-1.1929346735718198
0.12,-0.4320177687336665,1.6927139390797086,1.701647049093769,0.0980360350934496,0.1019122485014715,0.0303538946384608,-0.0332655844590189,-0.0185517431140748,-0.1692285481985238,-0.4361488619493767,1.683029093718229,1.7026828418315405,-0.1278244886771404,-0.2337633384730546,-0.2413333193447545,1.7224641646614551,-0.7388940190819717,-0.7436695714775087,-1.366701867843252,9.053633182077192,-1.4594299576023544,0.0836704110062903,-1.1748880901684664
0.14,-0.4328620450532496,1.6921655719752091,1.6979715753356708,0.1103610943824309,0.0953957383712085,0.0302541712984769,-0.0503982787499612,-0.0358050286587834,-0.196968492439556,-0.4382758051581021,1.679153826960689,1.698656175456566,-0.1493018169180119,-0.2737633390691011,-0.2813333199408011,1.8443898599873876,-0.8566347145471161,-0.8626642772354307,-1.3869972120516132,9.085058788805782,-1.4650574607314863,0.070482030340641,-1.158533831136901
0.16,-0.4340029317872629,1.6913035280841169,1.6939629102777936,0.1215133892552053,0.091794008743582,0.0303112544667813,-0.0688137944137482,-0.0542912607581101,-0.2236242657285884,-0.4409396815728493,1.6742785601882475,1.6936295090666909,-0.1707791451588833,-0.3137633396651475,-0.3213333205368475,1.8650752290656096,-0.9207757831893504,-0.9243116049663346,-1.33278866445162,9.064239652592278,-1.465970273561884,0.0580521818220057,-1.1458597698500357
0.18,-0.4355923205088524,1.689995280768113,1.6891915566791609,0.1327093365100918,0.0913600720018344,0.0306844710110983,-0.0887561562523015,-0.0757918706013572,-0.2521422982947078,-0.4441404911936182,1.668403293400905,1.6876028426619143,-0.1922564733997547,-0.3537633402611939,-0.3613333211328939,2.0452702760109536,-0.9971180919276644,-1.0750304921623564,-1.42590162830597,9.03708389846406,-1.4620298021008242,0.0462052494957645,-1.1391468582421762
0.2,-0.43756313707243,1.6882132992441563,1.6838452789822635,0.1426434132599983,0.0938810819777925,0.0313416225301494,-0.1069260473916962,-0.1010377303692227,-0.2810113595666538,-0.4400301283214675,1.686205687238045,1.6765844417644256,-0.1412497359379895,-0.1757918720914734,-0.352142299784824,2.121863024655193,-0.9084945569697368,-1.2622929883932743,-1.4434530635972969,9.03708389846406,-1.4550406682631634,0.0363084277858662,-1.1360561706309926
0.22,-0.4397560570335134,1.6858868723143516,1.678371637833419,0.1464429215954704,0.0989686391918015,0.0319574297774777,-0.1224950790013631,-0.1398332407538816,-0.2933278120448323,-0.4400301283214675,1.686205687238045,1.6765844417644256,-0.1412497359379895,-0.1757918720914734,-0.352142299784824,2.1789799063530904,-0.7784515804833455,-1.9397755192329416,-0.6158226239089265,9.039343536545402,-1.444767834927995,0.0327169465811227,-1.1290505294523918
0.24,-0.4423461419992721,1.6827340877276094,1.6723634202573967,0.144544409058388,0.1066652164991387,0.0325221513156834,-0.1352906268774111,-0.1728637613437181,-0.3069510019538921,-0.4400301283214675,1.686205687238045,1.6765844417644256,-0.1412497359379895,-0.1757918720914734,-0.352142299784824,1.8975857287499316,-0.6397773938023994,-1.6515260294918288,-0.6811594954529904,10.060989995251475,-1.4328576529241344,0.0344550078528217,-1.1347655993879362
0.26,-0.4451566154119175,1.6789769360590934,1.6660559089288904,0.1397819926725248,0.1153286425444036,0.0329858608409822,-0.1448241130919311,-0.2005509482695275,-0.3231685216636272,-0.4414426256808474,1.6844477685171304,1.6730630187665774,-0.1517484518751271,-0.1957918723894966,-0.3721423000828472,1.6736753155875208,-0.4766743107259968,-1.3843593462904673,-0.8108759854867531,9.874170250788666,-1.4199407262099293,0.0391020485709447,-1.1420641180286637
0.28,-0.4481274115481396,1.67471268277107,1.659394621206324,0.1343166651489856,0.1239048938971244,0.0333340068976109,-0.15159420756273,-0.2242966749523505,-0.3421179230410578,-0.4442676203996072,1.6809319310753008,1.6660201727708808,-0.1727458837494023,-0.235791872985543,-0.4121423006788936,1.5562563472977775,-0.338504723539948,-1.187286334141152,-0.9474700688715336,9.686715300219475,-1.4078045904619174,0.0442071733831679,-1.1488064362929071
0.3,-0.4510533102274848,1.67024735767192,1.652692545043332,0.1293488169830987,0.1313442667752112,0.0335365053248094,-0.1559734813882409,-0.2445512155930125,-0.3624180994963423,-0.447092615118367,1.6774160936334714,1.6589773267751844,-0.1937433156236775,-0.2757918735815895,-0.4521423012749401,1.4504496026394014,-0.2189636912755435,-1.0127270320330992,-1.015008822764224,9.526773439805766,-1.3959946774293346,0.0493975542623789,-1.154259386319534
0.32,-0.4542065282636846,1.6651498864534418,1.6451991518329023,0.1247356045335362,0.1380529318433105,0.0336050334941102,-0.1590461167292269,-0.2641608145432099,-0.3859642928785354,-0.4509674814308406,1.6719002561618397,1.6499344807496856,-0.2147407474979527,-0.3157918741776359,-0.4921423018709865,1.5398057358948671,-0.1536317670493003,-0.98047994750987,-1.1773096691096552,9.39066141053354,-1.385591837290881,0.053952120261592,-1.157523371586496
0.34,-0.4574069155067019,1.6596721453839045,1.637220824024185,0.1208801015620749,0.1434004290642656,0.0335238180996491,-0.1608576014348921,-0.2827552531213914,-0.4106913047725178,-0.4548423477433141,1.666384418690208,1.6408916347241869,-0.235738179372228,-0.3557918747736824,-0.5321423024670331,1.5495642452652338,-0.0905742352832583,-0.929721928909072,-1.2363505946991176,9.213743351075207,-1.3771560146527586,0.0575560290997991,-1.1581052553581552
0.36,-0.4604745307224908,1.6541221207693002,1.629176410956859,0.1175986154693785,0.1472599619435543,0.0333036139134611,-0.1619893801806116,-0.3004553721733036,-0.4348326089926082,-0.4592421498526445,1.6598685812036749,1.6308487886837868,-0.2567356112465032,-0.3957918753697289,-0.5721423030630794,1.4978131617695876,-0.0565889372859756,-0.8850059525956105,-1.207065211004521,9.180227412314707,-1.370129379478152,0.0609157547337738,-1.1566418503843985
0.38,-0.4637241001817714,1.6479222927599384,1.620205895276403,0.1142949780584274,0.150217759669328,0.0329353734582754,-0.1629267406175514,-0.3185102474678163,-0.4609645234341046,-0.4641668877588318,1.6523527437022407,1.6198059426284857,-0.2777330431207784,-0.4357918759657753,-0.6121423036591259,1.5888156901186137,-0.0468680218469921,-0.9027437647256388,-1.3065957220748186,9.180227412314707,-1.364474571435139,0.0640526860860946,-1.153632543176482
0.4,-0.4669908343272616,1.6413664967304962,1.610706624437459,0.1110456553118372,0.1522264943860072,0.0324498907046552,-0.1637411001725426,-0.3360459781026192,-0.4876215840557472,-0.471870437212649,1.6319967803865476,1.5971576691046976,-0.2168865535865208,-0.4185102489579325,-0.5536196308130643,1.595904063036917,-0.0407179777495589,-0.8767865317401424,-1.332853031082129,9.13475041743186,-1.3596319999746471,0.0668837579561023,-1.1495661661354972
0.42,-0.4700748568668221,1.6348040857228636,1.6014125766326133,0.1082481430424782,0.1534654044346795,0.0319267655890328,-0.1608792036653605,-0.3539352748951943,-0.4893729754329121,-0.471870437212649,1.6319967803865476,1.5971576691046976,-0.2168865535865208,-0.4185102489579325,-0.5536196308130643,0.9100614857066874,0.143094825359108,-0.894464839628753,-0.087569568858245,9.103636585980894,-1.3570931975038043,0.0700088943902978,-1.1395182433376216
0.44,-0.4732599287915155,1.627544808917023,1.59157579965316,0.1060391752270581,0.1540609600608512,0.0313457656432624,-0.1578740917321656,-0.3712022856036807,-0.4945321105774596,-0.471870437212649,1.6319967803865476,1.5971576691046976,-0.2168865535865208,-0.4185102489579325,-0.5536196308130643,0.9135056540297388,0.1502555966597415,-0.8633505354243204,-0.2579567572273789,10.524906063722485,-1.3559996617548498,0.071617071343694,-1.1387132628869585
0.46,-0.4763901829051753,1.6199412143885918,1.581585700477215,0.1044812230013981,0.1537653169515736,0.0307121995104047,-0.1553826687934987,-0.3882906394443215,-0.504388811357957,-0.4740393027485142,1.6278116778969682,1.591621472796567,-0.2276785161803146,-0.4385102492559556,-0.5721506522888562,0.994200150269699,0.1245711469333471,-0.8544176920320418,-0.4928350390248665,10.219648659391169,-1.355545352486396,0.0725009482015929,-1.136356816876008
0.48,-0.4793226468326805,1.612406825326827,1.5718737590950251,0.1034151609384168,0.1525332236764894,0.0300377256134006,-0.1534922046233816,-0.4039677006420709,-0.5173890906904502,-0.4783770338202446,1.6194414729178097,1.5805490801803057,-0.2492624413679024,-0.4785102498520021,-0.6092126952404401,1.0226819707261496,0.0945232085058561,-0.783853059887471,-0.6500139666246629,9.960493713917458,-1.3560451339744093,0.0729870737437064,-1.13194012924567
0.5,-0.4823768210636383,1.6041611493861665,1.5613559051838557,0.1028014322503018,0.1501054754086861,0.0292445918237083,-0.1521167450954774,-0.4197877392386648,-0.5338180280208085,-0.482714764891975,1.611071267938651,1.5694766875640445,-0.2708463665554901,-0.5185102504480485,-0.646274738192024,1.1424485676776217,0.0687729763952066,-0.7910019298296933,-0.8214468665179109,9.759591485579222,-1.357603473092091,0.0729445622015523,-1.1252229001580278
0.52,-0.4854119147176777,1.5956033285495028,1.550483912028973,0.1028218528343991,0.1464099298230966,0.0283624202476054,-0.1515851786011188,-0.4352613306072425,-0.5525193227545643,-0.4881316922230848,1.60070106292969,1.556551192800204,-0.2924302917430779,-0.558510251044095,-0.6833367811436079,1.2139326767766505,0.026578324717931,-0.7736795684288839,-0.9350647366877908,9.472714340163291,-1.3601808647109748,0.0723006012294067,-1.116784290862443
0.54,-0.4882955746733098,1.587187110717501,1.5398028018873098,0.1034616347685466,0.1417545121037285,0.0274443756340516,-0.1522093520712929,-0.4499473001271114,-0.570837241081156,-0.4935486195541946,1.590330857920729,1.5436256980363636,-0.3140142169306656,-0.5985102516401415,-0.7203988240951917,1.174322597371643,-0.0312086735087063,-0.7342984759934473,-0.9158959163295844,9.472714340163291,-1.364340141631799,0.071038850417868,-1.1051913116908336
0.56,-0.4913669466191559,1.5780155714235289,1.5281789444580356,0.1045239477268398,0.1361566350647961,0.0264234086680339,-0.1551094185506011,-0.466429778852048,-0.5905799771672549,-0.4995051450149941,1.5789606528968667,1.5297736521987335,-0.3355981421182534,-0.6385102522361878,-0.7574608670467755,1.2940808694472543,-0.1450033239654077,-0.8241239362468289,-0.9871368043049444,9.432626164780231,-1.3684725874273491,0.0692491448408403,-1.0935049425100556
0.58,-0.4945193699684515,1.5685015023829865,1.5161558020065309,0.1054216068340534,0.1305433535777301,0.0253792673431464,-0.1601050065863807,-0.4840357440185072,-0.6107044601237935,-0.5060012686054833,1.5665904478581034,1.5149950552873137,-0.3571820673058411,-0.6785102528322343,-0.7945229099983594,1.3600741924007436,-0.2497794017889784,-0.880298258322959,-1.006224147826934,9.396764852819617,-1.3721043613453825,0.0676846834503199,-1.0824242393451684
0.6,-0.49762442515658,1.5591277527782763,1.50435700080206,0.1056560289666464,0.1256727485739988,0.024387567151167,-0.1665719318835061,-0.5016411125476287,-0.6302315427240619,-0.5025246202977706,1.5442997151820612,1.4856205790003412,-0.185330902974673,-0.5840357455086234,-0.6679881112075013,1.3537698093864454,-0.323346264856271,-0.880268426456074,-0.9763541300134182,9.37150269229005,-1.3745418172389996,0.066607201217743,-1.0714496969014329
0.62,-0.5010852857653111,1.5488264846566346,1.4918412807656825,0.1037701973094402,0.1241000782780439,0.0235721287965399,-0.1790184697753783,-0.5273052864590513,-0.618651561700264,-0.5025246202977706,1.5442997151820612,1.4856205790003412,-0.185330902974673,-0.5840357455086234,-0.6679881112075013,1.5392060360467306,-0.6223268945936125,-1.2832086955711308,0.5789990511898935,9.343249961822949,-1.3781738744085965,0.0686245760259799,-1.0573171017628344
0.64,-0.5047660876951798,1.5380407741862887,1.479578049874844,0.099372897910984,0.1281117962221974,0.0231623127819375,-0.1877763896922932,-0.5492186199556233,-0.6083700318884414,-0.5025246202977706,1.5442997151820612,1.4856205790003412,-0.185330902974673,-0.5840357455086234,-0.6679881112075013,1.2870559442721157,-0.4378959958457426,-1.0956666748285993,0.514076490591131,11.46855357822642,-1.3733129978192489,0.0718510776857622,-1.0618538366857715
0.66,-0.5085793905809769,1.526860225334347,1.4674686152827283,0.094307913299685,0.1350344038653323,0.0229783067916288,-0.1927149821451873,-0.5674897202874133,-0.6033336857736078,-0.5043779293275172,1.538459357726975,1.4789406978882662,-0.1903760822523314,-0.6040357458066465,-0.6794448414242429,0.9792696065672104,-0.2469296226447051,-0.9135550165895012,0.2518173057416806,11.071921053279766,-1.3655326082753994,0.0759829104721463,-1.0710175797566663
0.68,-0.5122663899105312,1.5159252819771232,1.4560070146446515,0.0895454047735373,0.1428859577943659,0.0229001017069264,-0.1948317668430208,-0.582555601195829,-0.6033945924316868,-0.5080845473870107,1.5267786428168026,1.465580935664116,-0.2004664408076484,-0.644035746402693,-0.7023583018577261,0.7606991103986959,-0.1058392348916748,-0.7532940454207881,-0.0030453329039503,10.711951121166749,-1.356127421096004,0.0801863689483646,-1.081664002853885
0.7000000000000001,-0.5161666518607064,1.5041255171658587,1.4439030387121516,0.0849404169517875,0.1516568985778683,0.0228598433154853,-0.194805746309323,-0.5965836516902802,-0.6071886327175529,-0.5117911654465042,1.51509792790663,1.4522211734399662,-0.2105567993629653,-0.6840357469987395,-0.7252717622912092,0.726604465018311,0.0013010266848884,-0.7014025247225553,-0.1897020142933025,10.429635406803754,-1.3459161247580824,0.0840634323288095,-1.09267272190809
0.72,-0.5200458977132117,1.4920600880506618,1.431685532560749,0.0809049488680197,0.1604748631597595,0.0228335637489837,-0.192857016577133,-0.6092965116221677,-0.6143941429732107,-0.5160023014337635,1.5014172129666554,1.437715738194142,-0.2206471579182822,-0.724035747594786,-0.7481852227246922,0.7371121577841858,0.0974364866095006,-0.6356429965943766,-0.3602755127828927,10.047580066317096,-1.3357960435555476,0.0872700617158586,-1.1029124832553143
0.74,-0.5236702737581936,1.4803722825318193,1.4199320665509194,0.0776252178674766,0.1684600467748888,0.0227930343139464,-0.1886118887000514,-0.6204379362201553,-0.6224800909426744,-0.5202134374210228,1.4877364980266805,1.4232103029483176,-0.2307375164735991,-0.7640357481908324,-0.7710986831581754,0.7203037680907503,0.2122563938540808,-0.5570712298993807,-0.4042973984731857,9.994584074162958,-1.3251609567120728,0.0900933757449289,-1.1130033159040074
0.76,-0.5273742897526773,1.4678409526452134,1.4073833647787877,0.0745269591479714,0.1759438794852433,0.0226860648372944,-0.1818908097829536,-0.632035186935485,-0.632015988839121,-0.5246768323721651,1.4730557830718043,1.4081320311916563,-0.2408278750289161,-0.8040357487868788,-0.7940121435916585,0.8224999614825612,0.3360539458548889,-0.5798625357664844,-0.4767948948223299,9.994584074162958,-1.315459306765468,0.0925751871827045,-1.1216532317750671
0.78,-0.5309230666967658,1.4550816847962715,1.394633559078289,0.0715213700710821,0.1820654705150408,0.0224712704856971,-0.1733350590744799,-0.643194146145857,-0.6424866323602892,-0.5293924862871903,1.4573750681020274,1.392480922924158,-0.250918233584233,-0.8440357493829252,-0.8169256040251416,0.8765808813105564,0.4277875354236848,-0.5579479605186011,-0.5235321760584111,9.920677006470214,-1.3076143721516398,0.0948715973404128,-1.127838120097565
0.8,-0.5341236536431083,1.4427594410772722,1.3823196508701925,0.0686717809180516,0.1864355978813431,0.0221570762260141,-0.1640613734963731,-0.6532196086778002,-0.6531815673472552,-0.5395898196504898,1.4229219774889788,1.3625092274602746,-0.1979537741223162,-0.7431941476359731,-0.6628360194397666,0.8673130599103342,0.4636842789053422,-0.5012731265971571,-0.5347467493482971,9.920677006470214,-1.3009035997724974,0.0972894433232933,-1.1319161607550934
0.8200000000000001,-0.5372219489648147,1.4295623589377169,1.369393419065594,0.0653190010606293,0.1887726529859844,0.0216453567291104,-0.1461071495858712,-0.6657465459600089,-0.6374836155056657,-0.5395898196504898,1.4229219774889788,1.3625092274602746,-0.1979537741223162,-0.7431941476359731,-0.6628360194397666,1.346944696267901,0.8977111955250916,-0.6263468641104386,0.7848975920794754,11.68874292991768,-1.2956771775059084,0.1001524279463252,-1.12692147382473
0.84,-0.5399491398096518,1.416137769158656,1.3568024303763482,0.0618898539481048,0.1879530229368814,0.0209307278637427,-0.1277696921709794,-0.6760864823316247,-0.6225213681257872,-0.5395898196504898,1.4229219774889788,1.3625092274602746,-0.1979537741223162,-0.7431941476359731,-0.6628360194397666,1.2913611765001245,0.9168728707445896,-0.5169968185807894,0.7481123689939251,11.68874292991768,-1.2984337961639432,0.1030050721850472,-1.126224213997229
0.86,-0.5422054372348972,1.403206608873144,1.3450822385505643,0.059033035349998,0.1839634512331884,0.0201002273388735,-0.1110281343947557,-0.6846582092490834,-0.6118687776685615,-0.541569357391713,1.415490036012619,1.3558808672658769,-0.2028775171318835,-0.7631941479339963,-0.666905896855662,1.0807774314949137,0.8370778888111851,-0.4285863458729333,0.5326295228612832,11.1890421705084,-1.3049292970630408,0.1055713073968046,-1.1199949905913895
0.88,-0.5442690940331278,1.3894282551075454,1.3329382170259776,0.0566081876805544,0.1766662136249714,0.0191125027703898,-0.0967763395655345,-0.6928191266839461,-0.6031512800987865,-0.5455284328741593,1.4006261530598996,1.3426241468770816,-0.212725003151018,-0.8031941485300428,-0.6750456516874529,0.9296625639336796,0.7125897414610629,-0.4080458717431345,0.4358748784887511,11.1890421705084,-1.3151988898704412,0.1075004997536168,-1.1102666601186426
0.9,-0.5460907337564209,1.375492484173472,1.3209459631183198,0.0548438259429349,0.1672711745783724,0.0180837422515421,-0.0865837403471734,-0.7004234180841721,-0.5965490944220866,-0.5494875083566056,1.38576227010718,1.3293674264882862,-0.2225724891701525,-0.8431941491260893,-0.6831854065192439,0.716420236724417,0.5096299609180551,-0.3802145700113002,0.330109283834995,11.000303704569887,-1.3266636400712248,0.1086793853054038,-1.0981846610643622
0.92,-0.5477518630112318,1.3614116919706534,1.3090659498945714,0.0538720111978159,0.1567446976176436,0.0170756295776619,-0.0804597001469635,-0.7073921074498976,-0.5917157594122944,-0.5539389581400087,1.3688983871246585,1.3157037183579017,-0.232419975189287,-0.8831941497221357,-0.6913251613510348,0.5230383044449156,0.3062020100104929,-0.3484344682862739,0.2416667504896108,10.84303278957941,-1.3395659413226213,0.1091475118756153,-1.0836101121719075
0.94,-0.5492525156768802,1.347910336126436,1.2978672586894242,0.0538830921773098,0.1464687899455925,0.0161842750998765,-0.0780970521565671,-0.7135830953361182,-0.5872977413945062,-0.5583904079234118,1.3520345041421364,1.3020400102275165,-0.2422674612084216,-0.9231941503181822,-0.6994649161828257,0.3982126308247756,0.1181323995198178,-0.3095493943110317,0.2209009008894091,10.71694842019042,-1.3523057999209516,0.1086377645300712,-1.0681620024870202
0.96,-0.5508190694103566,1.3335635221873414,1.2861692039030086,0.0547947847633728,0.1360349524473093,0.0153334017147415,-0.078962076792711,-0.7208195749741088,-0.582726276868532,-0.5630880448572931,1.3341706211447135,1.2881728082263368,-0.2521149472275561,-0.9631941509142286,-0.7076046710146167,0.4301546032661649,-0.0432512318071919,-0.3618239818995283,0.2285732262987116,10.662354915958533,-1.364149141390389,0.1072377086566928,-1.0532648213126308
0.98,-0.5524357747692942,1.3190625919634709,1.274560273059376,0.0562759765597434,0.1265434960775517,0.0145690964657975,-0.0828617091742254,-0.7289365063805553,-0.5783933324033398,-0.5680318689416529,1.3153067381323895,1.2741021123543623,-0.2619624332466906,-1.003194151510275,-0.7157444258464075,0.4996651776598841,-0.1949816190757208,-0.4058465703223268,0.2166472232596084,10.662354915958533,-1.3741339978889844,0.1054230209836366,-1.0403287202404214
1.0,-0.5541578115039204,1.304389042788048,1.263034288694597,0.0579556505515102,0.1183851758683801,0.0138860259560031,-0.0892688779805842,-0.738017601692311,-0.5744276910277655,-0.5565788602280054,1.282615766644443,1.2456406064392092,-0.0822646867004133,-0.8289365078706714,-0.5446738672668118,0.5900093552098049,-0.3203584403179402,-0.4540547655877858,0.1982820687787156,10.63561627445597,-1.3829037736488343,0.1033391638289232,-1.0284909684745396
1.02,-0.555988925785186,1.2901956930045977,1.2524030547735905,0.0574404031026974,0.1148530855234116,0.0133353297185577,-0.1027994551119835,-0.7546727094376372,-0.5448213907721362,-0.5565788602280054,1.282615766644443,1.2456406064392092,-0.0822646867004133,-0.8289365078706714,-0.5446738672668118,1.8282519973622653,-0.6765288565699669,-0.8327553872663096,1.4803150127814635,10.60604757038982,-1.3903166575178092,0.1037298372592933,-1.012744914353248
1.04,-0.558166330757831,1.2749446066156924,1.2418229045584197,0.0537107903653784,0.1174943584727254,0.0129109628558704,-0.1135258237609159,-0.7688653044657574,-0.5149507728528051,-0.5565788602280054,1.282615766644443,1.2456406064392092,-0.0822646867004133,-0.8289365078706714,-0.5446738672668118,1.7383458753278105,-0.5363184324466163,-0.7096297514060101,1.493530895966555,12.541938772070353,-1.38749556695902,0.106545018651122,-1.0208043099686923
1.06,-0.560508440310974,1.2594637026130788,1.2317988460176386,0.0488243888954737,0.1238400850271209,0.0126031156273833,-0.1196473449990396,-0.7782972569018733,-0.4889520954628192,-0.5574015070950096,1.2743264015657365,1.240193867766541,-0.0821452822056509,-0.8489365081686946,-0.5379299742395062,1.4163032647128555,-0.3060760619061853,-0.4715976218057971,1.299933869499295,11.956506666062523,-1.3818429516382793,0.1103864619625374,-1.0323866239682986
1.08,-0.5628117937162757,1.244612242915647,1.2227257319383031,0.0444796800550769,0.1315305713490397,0.0123978336576294,-0.1221571807522111,-0.7846206457088482,-0.4674432746081428,-0.5590468008290178,1.2577476714083229,1.2293003904212048,-0.081906473216126,-0.8889365087647411,-0.524442188184895,1.127956000993208,-0.1254917876585784,-0.3161694403487403,1.0754410427338212,11.956506666062523,-1.3744941961212973,0.1143143614386475,-1.046704412842419
1.1,-0.5652572753547138,1.2288670111585425,1.2135915245137878,0.0407319722809785,0.1403394336298843,0.0122535455882926,-0.1219324439095821,-0.7896811109136466,-0.4472528600931735,-0.560692094563026,1.2411689412509097,1.2184069130758686,-0.0816676642266012,-0.9289365093607876,-0.5109544021302838,1.0408069621977127,0.0112368421314505,-0.2530232602399207,1.009520725748464,11.736797763425784,-1.3664290154405654,0.1175709731627419,-1.0616730682291469
1.12,-0.567667459156738,1.2130310071848835,1.204836824393728,0.0379727034775689,0.1491612207771099,0.0121665545322587,-0.1188388881732549,-0.7938193766036807,-0.4293538482589548,-0.5623254478475581,1.2225902110636937,1.208187825033263,-0.0814288552370764,-0.968936509956834,-0.4974666160756725,0.9314906798467936,0.1546777868163616,-0.2069132845017085,0.8949505917109329,11.468188722577906,-1.3580342916337833,0.1199565062028561,-1.076502527498616
1.14,-0.5699803983162451,1.1971199764658949,1.1964298743684645,0.036237063113564,0.1572001560999488,0.0121178994968253,-0.1125074615180407,-0.7973130285558896,-0.4122780045023843,-0.5639588011320901,1.204011480876478,1.197968736990657,-0.0811900462475515,-1.0089365105528805,-0.4839788300210613,0.9271960518848452,0.3165713327607108,-0.1746825976104427,0.8537921878285254,11.468188722577906,-1.3499702054912233,0.1213057876448441,-1.089679686762443
1.16,-0.5720353189864079,1.1819358518620986,1.1887551974291497,0.0352988502145584,0.1635067699606473,0.0120775424737124,-0.1041302909484109,-0.8008781871832921,-0.3964631785443325,-0.565586184191884,1.184432750674361,1.1880868435994167,-0.0809512372580267,-1.0489365111489268,-0.4704910439664501,0.9124089857003324,0.4188585284814888,-0.1782579313701238,0.7907412979025918,11.452648270536884,-1.343297183082229,0.122051238206246,-1.1013699354702984
1.18,-0.5740090397684705,1.1658801092763595,1.1809994827849073,0.0348953815460729,0.1684180063357289,0.0120244836516947,-0.0936942040540633,-0.8045268656328995,-0.3799547196370042,-0.5672075970269398,1.1638540204573429,1.1785421448595417,-0.0807124282685018,-1.0889365117449732,-0.4570032579118389,0.993420831760073,0.5218043447173804,-0.1824339224803739,0.8254229453664136,11.45291966138575,-1.3389549458512993,0.1222488308034203,-1.1104661003695475
1.2,-0.5757623319023737,1.1497508968531769,1.1735716487279135,0.0350504833009538,0.1714216935569257,0.0119561941599884,-0.0822447771220796,-0.8082339113335717,-0.363663782191969,-0.5786937499711736,1.1256537659947146,1.162001746803057,-0.0932872980453429,-0.9045268671230156,-0.3091720060449517,1.0127020881480338,0.5724713465991855,-0.1853522850336075,0.814546872251759,11.466484018962548,-1.3367857163656645,0.1219024105676173,-1.1167222707945328
1.22,-0.5772195865410982,1.1334877314874277,1.1665621486957114,0.0339163104537068,0.1711259604036759,0.0116958855421699,-0.0639656706300295,-0.8174820964714924,-0.3375611356321988,-0.5786937499711736,1.1256537659947146,1.162001746803057,-0.0932872980453429,-0.9045268671230156,-0.3091720060449517,1.6590681269294296,0.913955324602505,-0.4624092568960347,1.305132327988512,12.23591470933752,-1.3328669013725138,0.1224157682824619,-1.116904471257941
1.24,-0.5782616638641785,1.1178954378675852,1.1604092184304722,0.0310167294969435,0.1662610864578225,0.0111893383867563,-0.0473802707688291,-0.8229921761629827,-0.3113894758223402,-0.5786937499711736,1.1256537659947146,1.162001746803057,-0.0932872980453429,-0.9045268671230156,-0.3091720060449517,1.5735248996802105,0.8292699930600188,-0.2755039845745155,1.3085829904929291,12.23591470933752,-1.3426277696904727,0.1254699365727249,-1.1120757596440438
1.26,-0.5790657833337876,1.1014056173566469,1.1544725755484488,0.0279828383917056,0.1576264055781727,0.0105902870176077,-0.0345145415225795,-0.8257796386235886,-0.2836051985713069,-0.579626622951627,1.1166084973234844,1.1589100267426076,-0.0932059168435988,-0.924526867421039,-0.2950154633265412,1.5372564834546762,0.6432864623124812,-0.1393731230302952,1.3892138625516637,12.195079809735944,-1.356175587904419,0.1285252085626065,-1.1027605333908408
1.28,-0.5796656071996089,1.084875661004553,1.149090012870445,0.0257857440179183,0.1470096218193122,0.0100405170924541,-0.0266308662923025,-0.827274179911785,-0.2560258181741144,-0.581492368912534,1.098517959981024,1.1527265866217085,-0.0930431544401107,-0.9645268680170854,-0.2667023778897203,1.4361478091509725,0.3941837615138504,-0.0747270644098185,1.3789690198596272,12.195079809735944,-1.3707204712805363,0.1306447702225325,-1.0915336254339951
1.3,-0.5801604584344779,1.0683265134339863,1.1442558261087863,0.0247822116628679,0.1358022683958125,0.0095952775589788,-0.0236272500501069,-0.8278038530298865,-0.2287390011472145,-0.5833581148734408,1.0804274226385635,1.1465431465008094,-0.0928803920366225,-1.004526868613132,-0.2383892924528993,1.3728370693584997,0.1501808121097764,-0.026483655905074,1.3643408513449944,12.144148643591508,-1.3869779686673973,0.13179053665556,-1.0795660062909538
1.32,-0.5806179396602209,1.0526022450397667,1.1401669786378192,0.0252959959726044,0.1256229743762959,0.0093028381463173,-0.0248816779750324,-0.8276023152567438,-0.203018516840346,-0.5852157227141732,1.060336885266301,1.1417753606517511,-0.0927176296331343,-1.0445268692091785,-0.2100762070160783,1.287592248998791,-0.0627213962462739,0.0100768886571345,1.2860242153434258,12.103509533967554,-1.4024370776298027,0.1314275546639365,-1.0685198245250291
1.34,-0.5811614537537934,1.0360553329450035,1.136395779099873,0.0277254475384536,0.1161488449992554,0.0091532409560579,-0.0295980115090082,-0.8273612151858107,-0.175431545858929,-0.5870733305549057,1.0402463478940385,1.137007574802693,-0.0925548672296462,-1.0845268698052248,-0.1817631215792573,1.3994131798520493,-0.2358166766987871,0.0120550035466515,1.379348549070848,12.075653028189665,-1.415899358782457,0.1291940568710656,-1.059545612027885
1.36,-0.5818318920406068,1.019481833065187,1.133179038421808,0.0314683122849806,0.1085150911194048,0.0091233403079707,-0.0373716065284413,-0.8303212009564405,-0.1476222356394237,-0.5889268693355509,1.0191558105068743,1.1329476160895555,-0.092392104826158,-1.1245268704012712,-0.1534500361424363,1.4513338952263584,-0.388679750971658,-0.1479992885314862,1.3904655109752626,12.105504996725358,-1.426740083235327,0.1256916416338606,-1.0526472188582905
1.38,-0.5826876923380822,1.0028197505185887,1.1305212426632376,0.0351307657973697,0.1033956337607757,0.009145816467565,-0.0479783525233541,-0.8357385889113959,-0.1195360058653753,-0.590776339056109,0.9970652731048096,1.1295954845123388,-0.0922293424226699,-1.1645268709973176,-0.1251369507056153,1.5253585281629205,-0.5303372997456406,-0.2708693977477694,1.4043114887024226,12.161713419752232,-1.4349480787068731,0.1224750409588057,-1.0481459344394688
1.4,-0.5837194319861548,0.9868753434994206,1.128518423834459,0.0380008130100635,0.1016224056160412,0.0092259002377136,-0.0597798300270215,-0.842191905285357,-0.092697293432693,-0.5850866099642499,0.9610328210730188,1.1245444423699689,-0.0322745756720577,-0.935738590401512,-0.0307783642518919,1.501030186685314,-0.5900738751833692,-0.3226658186980591,1.341935621634116,12.161713419752232,-1.439125128688652,0.1196274681818242,-1.0485111010456956
1.42,-0.5850675991569717,0.9698725601795448,1.1269328397106118,0.0376696203374436,0.1036725196481474,0.0092307607594791,-0.0739786668376319,-0.8569026558186896,-0.0673740269695061,-0.5850866099642499,0.9610328210730188,1.1245444423699689,-0.0322745756720577,-0.935738590401512,-0.0307783642518919,1.6273298470146222,-0.7099418405305209,-0.7355375266666297,1.2661633231593417,12.17118550437408,-1.4379905551526622,0.1199150265019707,-1.0536201440047326
1.44,-0.586666197351526,0.9526266230694974,1.1258616409177695,0.0332165751893989,0.1093921519938232,0.0090880546724823,-0.0846286785035515,-0.8660275541066549,-0.0409905156372093,-0.5850866099642499,0.9610328210730188,1.1245444423699689,-0.0322745756720577,-0.935738590401512,-0.0307783642518919,1.493968027997396,-0.5325005832959778,-0.4562449143982627,1.3191755666148437,12.00969064547553,-1.433757328864527,0.1239271574214352,-1.0659663349116686
1.46,-0.5883441833808634,0.9361355637964288,1.1253358809578884,0.0283238417926147,0.1166952549131217,0.0089535910271446,-0.0911100417483907,-0.8694550934509842,-0.0157130094974152,-0.5854093557209704,0.9516754351690038,1.12423665872745,-0.0291338203017984,-0.9557385906995352,-0.0130268359291952,1.31596771627936,-0.3240681622419611,-0.1713769672164633,1.2638753069897042,12.054292405039632,-1.4271676143792085,0.1289972235726889,-1.0828636025256977
1.48,-0.5902040166873238,0.9187372494712204,1.125302185803588,0.0240585404848597,0.1250939103562053,0.0088729054406569,-0.0942039724211597,-0.8703898581317825,0.0109769059654777,-0.5860548472344116,0.9329606633609736,1.123621091442412,-0.0228523095612799,-0.9957385912955816,0.0224762207161981,1.3442449362306934,-0.1546965336384508,-0.0467382340399169,1.3344957731446505,12.054387571582993,-1.4194790644778628,0.1333292537018524,-1.1008221055575946
1.5,-0.5920885640623941,0.9013348095119856,1.1258004116549267,0.0211935222975733,0.1332100819677701,0.0088691894140922,-0.0938739383417869,-0.8700930356380522,0.0374631448790247,-0.5867003387478528,0.9142458915529432,1.1230055241573742,-0.0165707988207613,-1.035738591891628,0.0579792773615915,1.324497902859627,0.0165017039686431,0.0148411246865154,1.3243119456773471,12.073254799267488,-1.4121233669716784,0.1363930133875323,-1.1184649045354518
1.52,-0.5939341692084421,0.8839479518144926,1.1268284725489717,0.019898486502719,0.1402544374653873,0.0089506073271922,-0.0906526500472217,-0.8689586283670571,0.0639712212282432,-0.5870317547242679,0.8935311197151108,1.124165109704606,-0.0102892880802427,-1.0757385924876743,0.0934823340069848,1.336358568900189,0.1610644147282569,0.0567203635497559,1.3254038174609233,12.081966903080684,-1.4063810019562684,0.1379147513141557,-1.134054539965229
1.54,-0.595606666834464,0.8674572899849875,1.1282978033252151,0.0203236708419831,0.145523752253506,0.0091237613922399,-0.0856009633839463,-0.8672415725981107,0.0893382117744158,-0.5873631707006832,0.8728163478772781,1.125324695251838,-0.0040077773397241,-1.115738593083721,0.1289853906523783,1.2961018748802082,0.2525843331637745,0.0858527884473159,1.2683495273086292,12.11170144548123,-1.402168556426055,0.1377915260037262,-1.14849530482636
1.56,-0.5972494919647884,0.8501249531797729,1.1303704491493265,0.0225093770896369,0.1493853522741714,0.0094084109677496,-0.078977986814131,-0.8662448228659755,0.1166070871278905,-0.5875375489085854,0.8511015760245445,1.1273718572152045,0.0022737334007943,-1.1557385936797673,0.1644884472977716,1.403966605475516,0.3311488284907619,0.049837486606763,1.3634437676737388,12.151757223945424,-1.399346255849551,0.1357604693842853,-1.1604347344392736
1.58,-0.5987510073762307,0.8327907462020134,1.132994763534574,0.0258897681640803,0.1515107807832998,0.0097523601206211,-0.0715920959882239,-0.8676013223718166,0.1444718255831114,-0.5875548893479747,0.8283868041569097,1.130306595594706,0.0085552441413129,-1.1957385942758136,0.199991503943165,1.4429441459906112,0.3692945412953549,-0.0678249752920578,1.3932369227610424,12.2163013051113,-1.3974415903280923,0.1325493732773546,-1.1701117738190487
1.6,-0.6001015861105726,0.8154000296858237,1.1361847404904033,0.029235404981564,0.152007941218058,0.0100607919706124,-0.0640275637793556,-0.8713665305424303,0.1731245231419195,-0.6023306121756419,0.7894106800834226,1.1402183548137297,-0.0334698220066527,-0.9676013238619328,0.23889756344093,1.4936331690743117,0.3782266104434148,-0.1882604085306827,1.4326348779404043,12.274978217496027,-1.3979478737649755,0.1291673723538594,-1.1775826918846537
1.62,-0.6012710992820883,0.7987235738198366,1.13962777104379,0.0294374630026246,0.1513506688052288,0.0101189149583528,-0.0595630761242807,-0.8825792030977423,0.1879045418521701,-0.6023306121756419,0.7894106800834226,1.1402183548137297,-0.0334698220066527,-0.9676013238619328,0.23889756344093,0.954076292717625,0.2232243827537446,-0.5606336277655999,0.7390009355125334,12.342800770827123,-1.4028717023609207,0.1291489958637008,-1.179549385560234
1.64,-0.602418327561092,0.7809956161198893,1.1435749333478598,0.0261240116679747,0.149928152484933,0.0099275418159166,-0.0554718225828583,-0.8891411936192801,0.2062532941113553,-0.6023306121756419,0.7894106800834226,1.1402183548137297,-0.0334698220066527,-0.9676013238619328,0.23889756344093,0.9955837290427968,0.2045626770711194,-0.3280995260768915,0.9174376129592556,11.46565701381678,-1.4048299403070557,0.1328442073715326,-1.1805021754935223
1.66,-0.6034922606842494,0.7631911518431288,1.147917006483507,0.0220353663346862,0.148202664202442,0.0096976350706637,-0.0522163760437899,-0.8909411374450624,0.2271141460961619,-0.6026653103957084,0.7797346668448033,1.142607330448139,-0.0258453672103385,-0.987601324159956,0.2577827110124937,1.0594961956948157,0.1627723269534239,-0.0899971912891151,1.0430425992403305,11.839138147698575,-1.4072544094721025,0.1372139569212659,-1.1819675212104368
1.68,-0.6044616510945136,0.7462719006219901,1.152446787161138,0.0190185995270129,0.1467359133958596,0.0095652107832584,-0.0500013001469156,-0.8902954504034176,0.2486318182310483,-0.6033347068358415,0.7603826403675646,1.1473852817169576,-0.01059645761771,-1.0276013247560023,0.2955530061556212,1.0820509312055613,0.1107537948437133,0.0322843520822402,1.0758836067443212,11.839138147698575,-1.4094329037314588,0.1409164983509254,-1.1847326442789858
1.7,-0.6054407580882524,0.728485935619889,1.157671570611161,0.0172414372334437,0.1456633416067742,0.0095502994846953,-0.0480017532065718,-0.8885915135160465,0.2727606134174854,-0.6040041032759745,0.741030613890326,1.1521632329857765,0.0046524519749184,-1.0676013253520489,0.3333233012987486,1.2135694727041917,0.0999773470171869,0.0851968443685569,1.2064397593218548,11.948106857098535,-1.410967363424519,0.1431338927373504,-1.1895723118830293
1.72,-0.6063807562146888,0.7107418371358466,1.163392198978425,0.0172061537767645,0.1451350437913943,0.0096790822158784,-0.0460588808164097,-0.886104576670289,0.2981238372201469,-0.6039110542364762,0.7196785873832849,1.1588296990117513,0.0199013615675469,-1.1076013259480952,0.371093596441876,1.2779404618986927,0.0971436195081096,0.1243468422878757,1.268161190133077,12.14560220009571,-1.4122472202539469,0.1435366543018813,-1.1961939071152985
1.74,-0.6072809860341901,0.6930528002452145,1.1696288446135528,0.0193402528348246,0.1451284027370493,0.0099758865720878,-0.0439986530663255,-0.8832824870824482,0.3242389840616609,-0.6038180051969778,0.698326560876244,1.1654961650377262,0.0351502711601754,-1.1476013265441418,0.4088638915850036,1.317392901318597,0.1030113875042093,0.1411044793920401,1.3057573420756974,12.14560220009571,-1.4130065026274676,0.1417484023834285,-1.2038632692418636
1.76,-0.6080934830732029,0.6762756067510823,1.176044093010292,0.0229188438239208,0.1454768454381677,0.010376648879415,-0.041587722553648,-0.8833242129663963,0.3497149986473123,-0.6033437334176638,0.6759745343543019,1.1731068884422793,0.0503991807528038,-1.1876013271401882,0.446634186728131,1.27949369493823,0.1205465256338744,-0.0020862941974064,1.2738007292825704,12.200146579367356,-1.412418499639151,0.1379530511467408,-1.2120998356783617
1.78,-0.6088929728368595,0.6585803275091189,1.1833305912804328,0.0268280848220412,0.1460350868351338,0.010815584198348,-0.0384503568791413,-0.8862452705108022,0.3776352881299848,-0.602488238898534,0.6526225078174586,1.1816618692254106,0.0656480903454323,-1.2276013277362343,0.4844044818712584,1.4123722998465549,0.1568682837253324,-0.1460528772202929,1.3960144741336278,12.258159703822455,-1.4123438629397391,0.1339532068270848,-1.2193206865442252
1.8,-0.6096234864821873,0.6408059650608533,1.191186291903442,0.0301095445053449,0.1466172752975511,0.0112140113313206,-0.0347569445371028,-0.8908767490515989,0.4065167414792156,-0.6108154906808165,0.6142680639835788,1.2022123556869322,0.0065873970008825,-0.9862452720009184,0.4651476173507566,1.4741355397028246,0.1846706171019261,-0.2315739270398353,1.4440726674615378,12.354165380054836,-1.4125097029302394,0.1307731816405564,-1.2258476150253128
1.82,-0.6102615034465486,0.623747271111516,1.1989904627617298,0.0297145008608457,0.1466723960945301,0.0113361481983074,-0.0327355150560213,-0.9031420723070792,0.4135829165620044,-0.6108154906808165,0.6142680639835788,1.2022123556869322,0.0065873970008825,-0.9862452720009184,0.4651476173507566,0.7149390918271199,0.1010714740540728,-0.6132661627740121,0.3533087541394392,12.42741346429284,-1.416430364369531,0.1315637638255699,-1.2315090661968242
1.84,-0.6108998870006681,0.6056107837588257,1.2073693352635402,0.0254343630458874,0.1460840268841036,0.0111881726922883,-0.0312529211828054,-0.9091233161499775,0.4242207002724386,-0.6108154906808165,0.6142680639835788,1.2022123556869322,0.0065873970008825,-0.9862452720009184,0.4651476173507566,0.6146865151666493,0.0741296936607949,-0.2990621921449277,0.5318891855217084,11.280528632913956,-1.417643729517566,0.1366584193966851,-1.231350751432222
1.86,-0.611514233002906,0.5874184798106574,1.2159968954920837,0.0207887380746745,0.1453773930363413,0.0110300760782858,-0.0302640566448508,-0.9098859044906094,0.4381022924147444,-0.6107496167108077,0.6044056112635696,1.2068638318604397,0.0155949477768873,-1.0062452722989417,0.482650083194911,0.6968823330681807,0.0494432268977348,-0.0381294170315849,0.6940796071152944,11.464606520338748,-1.4187646176326454,0.1421880868115992,-1.2320713695307386
1.88,-0.6121125033617871,0.5692391936179322,1.2249271964156476,0.0173407166709775,0.1449188130870982,0.0109779484953534,-0.0295833442934023,-0.9083108280680436,0.4543022847737772,-0.61061786877079,0.5846807058235512,1.2161667842074548,0.0336100493288969,-1.046245272894988,0.5176550148832197,0.8145305204150708,0.0340356175724244,0.0787538211282912,0.80999961795164,11.464606520338748,-1.4196158215080623,0.1462499536273557,-1.2339149346552114
1.9,-0.61266895519698,0.5520105331302237,1.2337315835498175,0.0156740087886965,0.1449165871208345,0.0110602388270809,-0.0289561518109113,-0.9057383378063302,0.471633230973367,-0.6104861208307724,0.5649558003835329,1.22546973655447,0.0516251508809065,-1.0862452734910344,0.5526599465715285,0.8766024936220772,0.0313596241245498,0.1286245130856678,0.8665473099794874,11.736505488451256,-1.420028921574771,0.1486956756116163,-1.237308380223591
1.92,-0.6132384884820133,0.533932305904355,1.2433739178545546,0.0158001134303363,0.1454171099313843,0.0112945392802399,-0.0279531062386129,-0.902439488371324,0.4917568731774797,-0.6094536178131542,0.5432308949137122,1.2365229354859006,0.0696402524329161,-1.1262452740870807,0.5876648782598373,1.0208446056747464,0.0501522786149158,0.1649424717503012,1.0061821102056334,11.736505488451256,-1.4198944456544107,0.1490009800962751,-1.24235628002107
1.94,-0.6137835223895495,0.5159238552252298,1.253430732489898,0.0182447260169648,0.146389146643024,0.0117039215863836,-0.0265099000519008,-0.8989622105196585,0.5128862026889459,-0.6084211147955361,0.5215059894438915,1.2475761344173313,0.0876553539849257,-1.166245274683127,0.622669809948146,1.073106321572059,0.0721603093356053,0.1738638925832814,1.0564664755733115,11.87247189882055,-1.4194199419816729,0.1466966409745364,-1.2484211451701634
1.96,-0.614291064876385,0.4979500830690549,1.2639185423026649,0.0222522462262813,0.1476537858190285,0.0122319487765047,-0.0242442537414174,-0.8989754679670686,0.5348627607357728,-0.6069382342391176,0.4987810839591697,1.2595044566409694,0.1056704555369352,-1.2062452752791737,0.6576747416364547,1.1046520182275383,0.1132823155241737,-0.0006628723705048,1.0988279023413428,12.003236022955209,-1.4182993210435708,0.1427712940988948,-1.2536551711701729
1.98,-0.614722442316949,0.4808427903981563,1.2743008721976214,0.0259971845768979,0.1489110502894911,0.0127337801807678,-0.0212517844472078,-0.901716373211052,0.5568967296631,-0.605004976143899,0.4750561784595467,1.2723079021568156,0.1236855570889448,-1.24624527587522,0.6926796733247633,1.120226785882778,0.1496234647104759,-0.1370452621991646,1.1016984463663615,12.003236022955209,-1.4171447913900943,0.1386590863521358,-1.2591985349606905
2.0,-0.6151072598108083,0.4627636826300419,1.285693892553737,0.0292586104098082,0.1501134067650057,0.0132139391275826,-0.0173568216756425,-0.9059553047267948,0.5812939433806323,-0.6157850315393093,0.4357569717376037,1.3021457086807764,0.0552203713025899,-1.001716374701168,0.6033553278894088,1.2533587999511422,0.1947481385782669,-0.2119465757871474,1.219860685876617,12.093454596823904,-1.4162447310413455,0.1353187117191979,-1.2645069743451676
2.02,-0.6154846027164095,0.4445173407504272,1.2972944282502803,0.0290469470838236,0.1521001141949389,0.0134775035520656,-0.020649009983308,-0.9175599215138376,0.5760766985272322,-0.6157850315393093,0.4357569717376037,1.3021457086807764,0.0552203713025899,-1.001716374701168,0.6033553278894088,0.6571249471896036,-0.164609415383273,-0.5802308393521416,-0.2608622426700069,12.190144776809577,-1.4201110610145204,0.1363258568725711,-1.2607986077222746
2.04,-0.6159270870630176,0.4261038252799198,1.308768443936623,0.0250470278633606,0.1558032691641103,0.013524831693713,-0.0230759334419226,-0.922609108717902,0.5717474877487049,-0.6157850315393093,0.4357569717376037,1.3021457086807764,0.0552203713025899,-1.001716374701168,0.6033553278894088,0.3539996993663169,-0.1213461729307321,-0.252459360203211,-0.2164605389263663,10.416619217618065,-1.4150532829818874,0.1409780093748464,-1.2647166377481445
2.06,-0.6163698365291159,0.4085721027454385,1.3196217072767826,0.0210141172391547,0.1604703871919391,0.0135737967954613,-0.0231651476268983,-0.9227850974553088,0.570873780440888,-0.6152328278262834,0.4257398079905921,1.3081792619596704,0.0705148024525494,-1.021716374999191,0.6126470475346706,0.0447854794053699,-0.0044607092487835,-0.0087994368703381,-0.0436853653908442,10.416619217618065,-1.4078335842893686,0.146242092056299,-1.2714972602190076
2.08,-0.6168121480801049,0.3901380086018224,1.331054414464466,0.0179467058526995,0.166032133555446,0.0137106829333078,-0.0208130558394916,-0.9209270672236772,0.5725225770275754,-0.6141284204002316,0.4057054804965687,1.3202463685174586,0.1011036647524686,-1.0617163755952377,0.6312304868251941,0.1710492787350641,0.1176045893703337,0.0929015115815723,0.0824398293343686,10.61069653224058,-1.3998129398516894,0.1501765859175999,-1.2800151089365006
2.1,-0.6171797622890964,0.3717539142516657,1.342547084822168,0.0166096800746161,0.1717144587743568,0.0139649848858272,-0.0159031601119848,-0.9180031141024192,0.5766071750967432,-0.6130240129741799,0.3856711530025453,1.3323134750752468,0.1316925270523877,-1.101716376191284,0.6498139261157176,0.3512140348026898,0.245494786375338,0.1461976560629074,0.2042299034583916,10.929511435762834,-1.3918923316859175,0.1521482834732365,-1.2893096238652195
2.12,-0.6174238496490996,0.3534343740769742,1.354144364753994,0.0172816830719244,0.177035773262611,0.0143560765603226,-0.0086532807273049,-0.9144551016165864,0.5828768686218114,-0.6103901624331322,0.3636368254787196,1.345309753597561,0.1622813893523068,-1.1417163767873304,0.6683973654062412,0.5110239734844,0.3624939692339952,0.1774006242916348,0.3134846762534116,10.929511435762834,-1.3849719666821565,0.151860855965223,-1.298234305458562
2.14,-0.6175039563688937,0.3360959935120072,1.3652876943030263,0.0200360092583965,0.1814440193883186,0.0148735483800181,-0.0001033583695166,-0.911247868356886,0.589761001039639,-0.6077563118920843,0.3416024979548939,1.3583060321198754,0.192870251652226,-1.181716377383377,0.6869808046967647,0.5717927873201141,0.4274961178894186,0.1603616629850146,0.3442066208913796,11.07936923521811,-1.378626411773269,0.1489246737467597,-1.3070348348462029
2.16,-0.6173955684100313,0.3178722652487594,1.377168982136866,0.0242207298719601,0.1851482464080582,0.0155020194716758,0.0105316411488739,-0.9115759253906146,0.5980424831686647,-0.6043577397935387,0.3185681704161671,1.371766896624453,0.2234591139521451,-1.2217163779794231,0.7055642439872882,0.6741546232633086,0.5317499759195267,-0.0164028516864256,0.4140741064512843,11.150437048615458,-1.3732829760923386,0.1443242587820202,-1.3146442021909677
2.18,-0.6170601752425238,0.2996105412772333,1.3892293464198648,0.0281949007677776,0.1876833964348101,0.0160960704271158,0.0224548760462935,-0.9145377476076536,0.6076354723004588,-0.600194446137495,0.2945338428625391,1.3856923471112934,0.2540479762520642,-1.2617163785754697,0.7241476832778118,0.7793608948156016,0.5961617448709795,-0.1480911108519556,0.4796494565897036,11.337514721876689,-1.3697057251244416,0.1401415205424145,-1.320096996066207
2.2,-0.6165123826641883,0.2821916903393474,1.400877872533466,0.0311829694495742,0.1889347263040519,0.0165744612368993,0.0344983126067696,-0.9186692307989872,0.6180460289998821,-0.6159374314402091,0.2538836538968506,1.4196111200348878,0.1085304725576574,-1.0145377490977698,0.6325055215088614,0.8223338864755501,0.6021718280238065,-0.2065741595666748,0.5205278349711684,11.337514721876689,-1.367788291967203,0.1367026099710703,-1.3238887924551983
2.22,-0.6156921281560015,0.2636923056837038,1.4131585534695503,0.0308433104668574,0.1881070602536141,0.0167654413823198,0.0467256309033306,-0.93018960528395,0.6085066334265056,-0.6159374314402091,0.2538836538968506,1.4196111200348878,0.1085304725576574,-1.0145377490977698,0.6325055215088614,0.9659534265488048,0.6113659148280493,-0.576018724248134,-0.4769697786688287,11.430032610433956,-1.3690525986688455,0.1374859078076545,-1.3183793454867796
2.24,-0.6146436987300126,0.245025126053955,1.4252421206663015,0.0266689697447545,0.1843357645751182,0.0166106919985867,0.0572761177432148,-0.9352758592075678,0.6006775600424952,-0.6159374314402091,0.2538836538968506,1.4196111200348878,0.1085304725576574,-1.0145377490977698,0.6325055215088614,0.7044095782751495,0.5275243419942122,-0.2543126961808972,-0.3914536692005199,10.11378618580693,-1.3749209413686738,0.1429319096234968,-1.3115498533699363
2.26,-0.6134170950721715,0.2263175736051633,1.4372061411942585,0.0223016247425837,0.1790459972656342,0.016432591816063,0.0646118048537239,-0.935450728202339,0.5961238048731304,-0.6148521267146325,0.2437382764058729,1.4259361752499764,0.1257455918599302,-1.034537749395793,0.6374795313505419,0.4317973213532531,0.3667843555254554,-0.0087434497385574,-0.2276877584682368,10.320140511761563,-1.3826934757246216,0.1483546221811224,-1.3037433389723203
2.28,-0.6121504476464069,0.2085654295902914,1.4485093154330522,0.0193398315495436,0.1741838936992392,0.0163778420791438,0.0682693680255846,-0.9336352584749004,0.5939061243272745,-0.6126815172634793,0.2234475214239175,1.4385862856801537,0.1601758304644758,-1.0745377499918396,0.647427551033903,0.2323349182261742,0.1828781585930354,0.0907734863719256,-0.1108840272927957,10.57063301546532,-1.3904527980514183,0.1525907648873071,-1.2960084107669811
2.3000000000000003,-0.6107737134204403,0.1899235109467625,1.460379866002286,0.017859776534023,0.1707408734560732,0.0164839718479473,0.069046120847076,-0.930923770878776,0.5933371323200473,-0.6105109078123262,0.2031567664419621,1.4512363961103307,0.1946060690690214,-1.114537750587886,0.657375570717264,0.1438685322952893,0.0388376410745676,0.1355743798062247,-0.0284496003613632,10.675375518864712,-1.3958721303364867,0.1548287209514077,-1.290810814385888
2.32,-0.6094040756781433,0.1713417140454169,1.4722561802144238,0.0183628898348086,0.170346499178703,0.0167883362937103,0.0682383145333246,-0.9276125316495508,0.5943464787819777,-0.6066187864309458,0.1808660114302044,1.464383907524676,0.229036307673567,-1.1545377511839323,0.667323590400625,0.1777332028203258,-0.0403903156875704,0.1655619614612635,0.0504673230965202,10.675375518864712,-1.3962719948458666,0.1547373103058308,-1.2906560565407437
2.34,-0.6080371226839631,0.1528279851710443,1.4841608768738843,0.0211852652126198,0.1729242850833183,0.0173113490311925,0.0689231136840862,-0.9243873074258672,0.5960213978154549,-0.6027266650495654,0.1585752564184467,1.4775314189390214,0.2634665462781126,-1.194537751779979,0.6772716100839862,0.1849079158569433,0.0342399575380805,0.1612612111841771,0.0837459516738636,10.759968516352274,-1.392542386604488,0.1519691809041096,-1.2954650803382477
2.36,-0.6066975567056182,0.1352641154943688,1.4955083044342738,0.0251050788203839,0.1771750393999507,0.0179408216371735,0.0723176625928723,-0.9248221168623812,0.5983228065040768,-0.5979737877030713,0.1352845013917878,1.4909276308454509,0.2978967848826582,-1.2345377523760253,0.6872196297673472,0.2062068348302654,0.1697274454393049,-0.0217404718256986,0.1150704344310915,10.79120219046763,-1.3859590266069364,0.1475040167897666,-1.3036288887422705
2.38,-0.6051860799940688,0.116738593203713,1.5075101688505057,0.0290538478491288,0.1824647134586061,0.0186254700126337,0.0788883876636878,-0.9276785725997037,0.6017721408893714,-0.5923601543914636,0.1109937463502278,1.5045725432439638,0.3323270234872038,-1.2745377529720716,0.6971676494507083,0.3975917348144382,0.3285362535407752,-0.1428227868661258,0.17246671926473,10.847226181022052,-1.3779103381089872,0.1431673720692671,-1.3125048606168654
2.4,-0.6035111696537282,0.0981392499425114,1.5195935457972478,0.0322066100239812,0.1876370812576295,0.0192636889379232,0.0883532646027754,-0.93189486500927,0.6063658247467771,-0.6012416606108845,0.0703546645737278,1.5375987758949743,0.1788883891538039,-0.9756789157436436,0.5932461406951198,0.5667074830475326,0.4732438469543784,-0.2108146204783112,0.2296841928702886,10.932179026412086,-1.3702142740940133,0.1397631266460605,-1.3210273852576095
2.42,-0.601644684964965,0.0792230174510993,1.5315787714077382,0.0269490753127907,0.1916518679182707,0.0192765974180389,0.0975767742541799,-0.9559370658261472,0.5911161152703758,-0.6012416606108845,0.0703546645737278,1.5375987758949743,0.1788883891538039,-0.9756789157436436,0.5932461406951198,1.4963741089073035,0.4611754825702266,-1.2021100408438623,-0.7624854738200681,11.018473093864486,-1.3654017133208365,0.1458531620288477,-1.3199092127736354
2.44,-0.599711110666319,0.0609895974997839,1.5426721898323654,0.0143281027577541,0.1941848895050048,0.0187019787933429,0.1054816790171271,-0.9611260695295164,0.5775150606940218,-0.6012416606108845,0.0703546645737278,1.5375987758949743,0.1788883891538039,-0.9756789157436436,0.5932461406951198,0.8282541342091266,0.3952452381473618,-0.2594501851684583,-0.6800527288176983,9.81596916691069,-1.3625573258947574,0.1622339750306484,-1.319770222166366
2.46,-0.5975196616888601,0.0418128419412704,1.5540791782995491,0.0008234879929444,0.1962593670059324,0.0180622568222859,0.1132643068527181,-0.9563357829648124,0.5638834545485046,-0.5994527767193464,0.0605978754162913,1.5435312373019254,0.1988883894518271,-0.9852789843724316,0.5915409406562695,0.820574231111665,0.3891313917795458,0.2395143282352019,-0.6815803072758586,9.927811101573752,-1.3599709438225225,0.1789831873212926,-1.3191525299795952
2.48,-0.5951760380797045,0.0227925594494185,1.565216050524088,-0.0101520111593135,0.1982127998099547,0.0175968363859024,0.120772056863349,-0.9464232603190892,0.5504676729909118,-0.5958750089362703,0.0410842971014185,1.555396160115828,0.2388883900478736,-1.0044791216300075,0.588130540578569,0.9146141402596398,0.3753875005315494,0.4956261322861588,-0.670789077879641,9.949373409734108,-1.3573542781139003,0.192073810561562,-1.3189742383784695
2.5,-0.5926818905176772,0.0039989165023087,1.5760903392190713,-0.0177943048579755,0.2003800386085667,0.0173634036104016,0.1283998173259403,-0.9343163857781344,0.5376105118638271,-0.5922972411531943,0.0215707187865456,1.5672610829297302,0.27888839064392,-1.0236792588875836,0.5847201405008683,0.961854631782926,0.3813880231295606,0.6053437270477413,-0.6428580563542341,9.968970926119257,-1.3542527024100262,0.2019869547578386,-1.3200306293022184
2.52,-0.5901658586502176,-0.0136264251479853,1.5861924067828683,-0.0223124165406751,0.2027684859605336,0.017329591849246,0.1361933286503744,-0.9222851356359264,0.5263958176253039,-0.5867194733403158,0.0010971336087939,1.5789554857397476,0.3188883912399665,-1.0428793961451597,0.5813097404231676,0.9100263260093444,0.3896755662217047,0.6015625071103925,-0.5607347119261641,10.011270004505604,-1.350817618941485,0.2083699532932431,-1.3223621400401362
2.54,-0.5873502351995263,-0.0319388320704769,1.5966017024220251,-0.0248190341127948,0.2056559222426888,0.0174463042135164,0.1450932885299188,-0.9099913291314536,0.5151406837133005,-0.5811417055274374,-0.0193764515689577,1.590649888549765,0.358888391836013,-1.0620795334027355,0.5778993403454671,0.9447552640817204,0.4449979939772211,0.6146903252236435,-0.5627566956001695,10.081036205988312,-1.3467210918126662,0.2119166334800362,-1.3251829267760558
2.56,-0.5843409989984221,-0.0500101367678725,1.606794484913198,-0.0255582276162625,0.2087094475223112,0.0176879510445775,0.1554972719577844,-0.8979150108553883,0.5047323135234589,-0.5745639376996579,-0.0403300401781487,1.6022590313578398,0.3988883924320594,-1.0812796706603116,0.5744889402677664,0.9518593702340058,0.5201991713932791,0.6038159138032628,-0.5204185094920766,10.179539580190976,-1.3423813085663263,0.2133184710757878,-1.3287894327399044
2.58,-0.5812748675090292,-0.066952786472891,1.6162961494164074,-0.0246956205678982,0.2113906673489628,0.0180396579352352,0.1667597789786611,-0.8863332506333494,0.4959561270031875,-0.5669861698569771,-0.0617636322187792,1.613782914163972,0.4388883930281058,-1.1004798079178877,0.5710785401900659,0.9192424653956826,0.5631253510438389,0.5790880111019414,-0.43880932601357,10.25400747169715,-1.3381796181660564,0.2128213765078575,-1.3326946841699123
2.6,-0.5778047751323818,-0.0845548219192399,1.6261292682853783,-0.0222102300056656,0.2137419154037704,0.0185403811792376,0.1796959100705837,-0.8746522670494963,0.4878727925820892,-0.5729368785600962,-0.1112694490045585,1.641093955766567,0.2667597804687773,-0.8595650672976876,0.4531721551272815,0.960636716554399,0.6468065545961299,0.5840491791926583,-0.404166721054916,10.25400747169715,-1.334718888905598,0.210350746287778,-1.3362059789794642
2.62,-0.5740609074102366,-0.1021948633912636,1.635666076961749,-0.0266410689827853,0.2144644375586721,0.0186012264621135,0.1938108090290449,-0.8866581090446789,0.4654333502960329,-0.5729368785600962,-0.1112694490045585,1.641093955766567,0.2667597804687773,-0.8595650672976876,0.4531721551272815,1.4550766171666971,0.7057449479230593,-0.600292099759131,-1.121972114302816,10.33001188495382,-1.332418951025187,0.2154736120288501,-1.3335683725452383
2.64,-0.5700584717083682,-0.1199070808246968,1.6447362331456534,-0.0395140092444919,0.2129854266935478,0.0181603774347179,0.2055578984367157,-0.882397009334367,0.4427894780033991,-0.5729368785600962,-0.1112694490045585,1.641093955766567,0.2667597804687773,-0.8595650672976876,0.4531721551272815,1.2931512215303136,0.5873544703835373,0.2130549855155927,-1.132193614631688,9.44009678261864,-1.333679410403541,0.2312648761578836,-1.3251828881616243
