t,x,y,z,roll,pitch,yaw,v_x,v_y,v_z,ref_x,ref_y,ref_z,ref_v_x,ref_v_y,ref_v_z,a_com,a_x,a_y,a_z,thrust,wind_x,wind_y,wind_z
0.0,-2.3623533941735646,-0.7045112311164011,2.912625198047395,0.0131904112353933,0.1498591910875527,0.0281388704545743,0.0017627326409891,0.0042790046175537,-0.0034558764398565,-2.362295008178914,-0.7044892457102796,2.912521690250095,0.1018979129673031,0.1016685429927349,-0.1034510925757576,0.2887913989725547,0.0881366320494556,0.213950230877685,-0.1727938219928288,10.658697663259773,-1.413530304952628,0.1796578091442735,-1.2789110238258197
0.02,-2.362421265334052,-0.7047082523945074,2.9123154410740826,0.0048820983919925,0.1522300043612905,0.0275981228018087,-0.0079375091747126,-0.0176688593329479,-0.0273910239836921,-2.362265257541515,-0.7042972808855235,2.9124524042254025,0.1017627341311052,0.1042790061076698,-0.1034558779299727,1.694619950916723,-0.4850120907850868,-1.0973931975250848,-1.1967573771917788,10.658697663259773,-1.4084468030962998,0.1880365922425462,-1.2682714667217647
0.04,-2.362642272803249,-0.7050638489856158,2.9115357851382515,-0.010107616591438,0.1575208621963883,0.0265724722531043,-0.0144740600617106,-0.0178601020322923,-0.0534347765278139,-2.362265257541515,-0.7042972808855235,2.9124524042254025,0.1017627341311052,0.1042790061076698,-0.1034558779299727,1.3426095093583763,-0.3268275443499022,-0.0095621349672184,-1.302187627206088,9.274061391961368,-1.3983323654558728,0.2058114518698073,-1.268214343349144
0.06,-2.3629764995824467,-0.7053487070183987,2.910178054654456,-0.0267054941573773,0.1646075613565717,0.0253417467262685,-0.0182937556899666,-0.010184576140453,-0.0809931729951842,-2.362265257541515,-0.7042972808855235,2.9124524042254025,0.1017627341311052,0.1042790061076698,-0.1034558779299727,1.4430601063898767,-0.1909847814127975,0.3837762945919652,-1.3779198233685186,9.106257358356288,-1.3880610007402965,0.2238005273519363,-1.2702819869118434
0.08,-2.36335776259113,-0.7054350070401076,2.908278869149584,-0.0427698626847787,0.1722923581142095,0.0240354589460961,-0.0193854378182776,0.0015321222736912,-0.1075280260295511,-2.361247630200204,-0.7032544908244468,2.9114178454461026,0.1217627344291284,0.124279006405693,-0.1234558782279959,1.4513538654931224,-0.0545841064155495,0.5858349207072131,-1.326742651718342,9.189803150556145,-1.3771988664718469,0.2422249960618469,-1.2734903167337854
0.1,-2.363735808233037,-0.7052421856686216,2.9058632599012206,-0.0577585943100832,0.1800417382647586,0.0227065417702121,-0.0181542134909976,0.0172694094666882,-0.1327602996639931,-2.359212375517582,-0.7011689107022934,2.909348727887503,0.1617627350251749,0.1642790070017395,-0.1634558788240423,1.488158051335873,0.0615612163639981,0.7868643596498515,-1.261613681722102,9.189803150556145,-1.3665968940022724,0.2595362202987541,-1.277445580938991
0.12,-2.3640531554440214,-0.7047258239922728,2.903110848432772,-0.0703603207230811,0.1872122817187331,0.0214937535201189,-0.0151425116770342,0.0360563830367997,-0.1557364209405139,-2.35717712083496,-0.6990833305801399,2.907279610328904,0.2017627356212213,0.2042790075977859,-0.2034558794200888,1.4915787547542425,0.1505850906981708,0.939348678505574,-1.148806063826037,9.27923459350859,-1.356619071609223,0.2749773843567054,-1.2820702218669349
0.14,-2.364309127846751,-0.7037745491728894,2.8997407017121186,-0.0816980828766349,0.1944357275310736,0.0203139735533286,-0.010435972964891,0.0579753747294187,-0.1800950917795254,-2.3531418661225354,-0.6949977504281842,2.9032104927405022,0.2417627362172678,0.2442790081938324,-0.2434558800161352,1.6552481298232278,0.2353269356071581,1.0959495846309528,-1.2179335419505777,9.36499900537092,-1.3470580016716045,0.2882021182822427,-1.2869759622908628
0.16,-2.3644556714852083,-0.7023633178211156,2.8958819919254952,-0.0911207868732026,0.2012760697449009,0.0192562673552812,-0.0042904586101973,0.0818824672662811,-0.2045672635332103,-2.349106611410111,-0.6909121702762285,2.8991413751521,0.2817627368133143,0.2842790087898789,-0.2834558806121817,1.7379611694394228,0.3072757177346837,1.1953546268431197,-1.2236085876842426,9.379164005767052,-1.338639247458852,0.2988208369928334,-1.2920426716976814
0.18,-2.364464646168972,-0.7004479169156281,2.8915361503929025,-0.0984110786216242,0.2077185197578982,0.0183593509490559,0.0032442912781314,0.1079502023561482,-0.2287868453085842,-2.344071356682785,-0.6858265901093716,2.8940722575487974,0.3217627374093607,0.3242790093859253,-0.3234558812082281,1.8185759607239276,0.3767374944164397,1.3033867544933546,-1.2109790887686946,9.400472373123192,-1.3305903995878747,0.3076793502152764,-1.2974870852611
0.2,-2.3643209039199897,-0.6981344462610355,2.886962730262796,-0.1033739193865323,0.2134730105099821,0.0176733295699893,0.0116391219996183,0.1337920023697102,-0.2513994617836414,-2.3380361019405584,-0.6797410099276137,2.888003139930593,0.3617627380054071,0.3642790099819717,-0.3634558818042745,1.7674856679980342,0.4197415360743476,1.2920900006780998,-1.1306308237528608,9.441653345328632,-1.323393302633822,0.3141424378975472,-1.3030433930675285
0.22,-2.3639848794433624,-0.6951677518184353,2.8816868865174534,-0.1068297821572252,0.2191571819776421,0.0171189889792421,0.0216603627033976,0.1612146313184033,-0.274972018652721,-2.363738947820009,-0.69144484614255,2.874392757173614,0.1116391234897344,0.2337920038598263,-0.3513994632737575,1.876227119145476,0.5010620351889655,1.3711314474346536,-1.1786278434539776,9.485725642773104,-1.3165772564162734,0.3184930165899621,-1.308630378926661
0.24,-2.3634174194573125,-0.6915402671947378,2.876027568097995,-0.1055237319739331,0.2244522033914832,0.0169613703788337,0.0348492767100905,0.1991597679432316,-0.2891821126145776,-2.363738947820009,-0.69144484614255,2.874392757173614,0.1116391234897344,0.2337920038598263,-0.3513994632737575,2.13055604042561,0.6594457003346453,1.8972568312414144,-0.7105046980928342,9.513685600004465,-1.3111347722068123,0.3181280114101357,-1.3191095055498654
0.26,-2.36257165880047,-0.6872275177088328,2.87009896361309,-0.0989229735470845,0.229360404473932,0.0172615696840117,0.0491998543505559,0.2290521833243546,-0.3029347483955407,-2.363738947820009,-0.69144484614255,2.874392757173614,0.1116391234897344,0.2337920038598263,-0.3513994632737575,1.7948750422079875,0.7175288820232693,1.4946207690561513,-0.6876317890481515,10.181587796210806,-1.3061439925877203,0.3113937575947416,-1.33175864636851
0.28,-2.3614959163477462,-0.6826389398725322,2.8641994378968665,-0.0915212341339961,0.2337001815930299,0.0177051366958242,0.0634139112015778,0.25221182311718,-0.3173789650770879,-2.3626225565851118,-0.6891069261039517,2.8708787625408765,0.1316391237877577,0.2537920041578496,-0.3713994635717808,1.5387037751310273,0.7107028425510947,1.157981989641267,-0.7222108340773636,10.090658870479274,-1.3005933809317736,0.302626896509513,-1.3421078966473925
0.3,-2.3600663612765467,-0.6773702618467029,2.8576768887673865,-0.0840035614795093,0.2379663451604639,0.0182256573324373,0.0788716931815784,0.273361552304148,-0.3342109175744324,-2.360389774115317,-0.6844310860267552,2.8638507732754013,0.1716391243838041,0.293792004753896,-0.4113994641678272,1.5568949011543596,0.7728890990000271,1.0574864593484028,-0.8415976248672213,9.989756915960244,-1.295101369005007,0.293903219318721,-1.3502742422798917
0.32,-2.35832259907959,-0.6717010809908113,2.8508013879354497,-0.0773066021486688,0.2419543585500883,0.0187517034908903,0.0948194994530221,0.2925642439440317,-0.352517443299472,-2.3581569916455223,-0.6797552459495586,2.856822784009926,0.2116391249798506,0.3337920053499424,-0.4513994647638736,1.547744144884334,0.7973903135721861,0.960134581994182,-0.9153262862519828,9.891084803882222,-1.2901742772515763,0.2864459339439866,-1.356687658019915
0.34,-2.3563656547549128,-0.6659732597636724,2.843919884989716,-0.0717905337043697,0.2455062401617869,0.0192413799305203,0.1104464905943004,0.309501050626471,-0.3709576242177844,-2.353924209145925,-0.6730794058425598,2.8477947947146487,0.251639125575897,0.3737920059459889,-0.4913994653599201,1.4757189307486756,0.7813495570639185,0.8468403341219649,-0.92200904591562,9.818557806637727,-1.2853443031011296,0.2796262816187891,-1.362274274040793
0.36,-2.3539790098541418,-0.659607479086793,2.836290972749892,-0.0668858891073665,0.2490117378295059,0.0197374980003876,0.1274659768424005,0.3262572765774775,-0.3910072562568,-2.349691426646328,-0.6664035657355609,2.838766805419371,0.2916391261719435,0.4137920065420354,-0.5313994659559667,1.5591838932357929,0.8509743124050028,0.8378112975503255,-1.0024816019507776,9.732312507363533,-1.280620852595629,0.2738525360549941,-1.3663171407563126
0.38,-2.3512454916288354,-0.6529061175017256,2.8282578403661947,-0.0625848186872477,0.2522907937670535,0.0202299208292783,0.1451094135415843,0.3429726943798697,-0.4113136478490828,-2.34445864413183,-0.6587277256136609,2.828738816109192,0.3316391267679899,0.4537920071380818,-0.571399466552013,1.583544750208982,0.8821718349591903,0.8357708901196109,-1.0153195796141403,9.72818165515764,-1.2761895740997249,0.2688276817042567,-1.3696884985227116
0.4,-2.348152612116792,-0.6458748434382466,2.8198171014896336,-0.058522923953713,0.2553548446547505,0.0207394166737957,0.1633673949940839,0.3592100777176753,-0.4317532991152528,-2.3382258616024307,-0.6500518854768598,2.8177108267841127,0.3716391273640363,0.4937920077341282,-0.6113994671480595,1.5927851771828094,0.9128990726249786,0.8118691668902805,-1.021982563308499,9.72818165515764,-1.2720199069570337,0.2643521390064831,-1.3727559668267888
0.42,-2.344870749851188,-0.638900638339244,2.811417986255298,-0.0547747285528243,0.2580773586681884,0.0212432226771204,0.1812381729948905,0.3739950588113942,-0.4513475187508496,-2.339984242367088,-0.6279143395523629,2.798229436533871,0.2633673964842,0.4550304972080127,-0.531753300605369,1.5181352174820832,0.8935389000403304,0.7392490546859448,-0.9797109817798438,9.725906539067182,-1.2675175659785962,0.259810962055484,-1.3760613464936196
0.44,-2.340995921616186,-0.6312465020585611,2.802344861132345,-0.0507152980311009,0.2606709389055598,0.0218116053894456,0.2055966116417751,0.3904618440210988,-0.4540384418282027,-2.339984242367088,-0.6279143395523629,2.798229436533871,0.2633673964842,0.4550304972080127,-0.531753300605369,1.476253378882516,1.2179219323442303,0.8233392604852285,-0.1345461538676512,9.719815584016942,-1.264849924786559,0.2558286252504698,-1.3854050417594663
0.46,-2.336628732854925,-0.623289856263367,2.7932211695128157,-0.0469846138740852,0.2629661846838159,0.0223848741287434,0.2299156086325558,0.4045207375873114,-0.4583204545566525,-2.339984242367088,-0.6279143395523629,2.798229436533871,0.2633673964842,0.4550304972080127,-0.531753300605369,1.4207407715258098,1.2159498495390355,0.7029446783106297,-0.2141006364224901,10.893213839881357,-1.2625127326589451,0.2520088028578088,-1.3897052454445995
0.48,-2.332035118316139,-0.6154775757724196,2.784440205375622,-0.0440290478615901,0.2649665733735624,0.0229057274290212,0.2524477985101297,0.4171937616907179,-0.4657855582652222,-2.337350568402245,-0.6233640345802828,2.792911903527817,0.2833673967822233,0.4741945811060801,-0.5517533009033921,1.3453929667426785,1.1266094938786928,0.6336512051703269,-0.3732551854284865,10.66581023783874,-1.2596487200628117,0.248719660054581,-1.3937920937606438
0.5,-2.326741243982128,-0.6070009640051541,2.77501451233754,-0.0414780882923854,0.2669386231986562,0.0234281488884158,0.275762854012028,0.4298549472123056,-0.4765315632456144,-2.332083220472561,-0.6142634246361225,2.78227683751571,0.3233673973782697,0.5125227489022152,-0.5917533014994386,1.4312355282301317,1.1657527750949137,0.6330592760793868,-0.5373002490196094,10.459550193649193,-1.2570362673624305,0.2462839943805606,-1.398917485235728
0.52,-2.3209845711621173,-0.5982760864802597,2.765345983991225,-0.0394602302965331,0.2688037459178318,0.0239238423223985,0.2987833085197972,0.4420902025079219,-0.4897882179970805,-2.3268158725428774,-0.6051628146919622,2.7716417715036026,0.3633673979743161,0.5508509166983501,-0.6317533020954851,1.4623454560164175,1.151022725388459,0.6117627647808127,-0.6628327375733073,10.290985882506902,-1.2548351239952331,0.2445962584575836,-1.4033423897217432
0.54,-2.315090619560953,-0.5897648124265439,2.755897794964308,-0.0379856690502915,0.270488472510287,0.0243718574250408,0.3205163406236462,0.4532699260128259,-0.504101967161659,-2.319548524583391,-0.5941457963579951,2.759006705461693,0.4033673985703626,0.589179084494485,-0.6717533026915316,1.416151754950283,1.0866516051924513,0.5589861752452019,-0.7156874582289224,10.163712300881343,-1.253460299107835,0.2434034360393555,-1.406949628182396
0.56,-2.3084390571371487,-0.580582162452596,2.745649733688208,-0.0370368565655574,0.2721725125903443,0.0248084440534519,0.3435258689036299,0.464440147936683,-0.5199927425464614,-2.312281176623905,-0.5831287780240282,2.7463716394197832,0.4433673991664091,0.62750725229062,-0.711753303287578,1.5055970508620753,1.150476413999188,0.5585110961928513,-0.7945387692401218,10.066844344088167,-1.2514502165917665,0.242948194194904,-1.410204497317055
0.58,-2.3013251258206613,-0.5711706089801455,2.735078831735948,-0.0365939763470868,0.2737632530772226,0.0252164198190707,0.3667507255927972,0.4761344721793293,-0.5363225174523901,-2.3040138286495173,-0.5711535554951578,2.7327365733629723,0.4833673997624555,0.6658354200867549,-0.7517533038836244,1.5352627920023991,1.161242834458362,0.5847162121323191,-0.8164887452964342,10.02559071921678,-1.2491649710392445,0.2431420355173574,-1.4134552806302791
0.6,-2.2937444975996217,-0.5615205600187332,2.7241772936725748,-0.0362964764646222,0.2752610820113029,0.0256208128904562,0.3901824790115755,0.4882396381345505,-0.5530342198572998,-2.2947464806602285,-0.558220128771384,2.71810150729126,0.5233674003585019,0.7041635878828898,-0.7917533044796708,1.5611398947180708,1.1715876709389144,0.6052582977610604,-0.8355851202454856,10.010592632401313,-1.2470658429536643,0.2434710923847831,-1.4159675041781323
0.62,-2.2861072580697464,-0.552124742158055,2.7135070062429576,-0.0358807870451807,0.2766010718545938,0.0260201014343371,0.4125964703366682,0.5000943387680374,-0.5693220140489892,-2.274235373649043,-0.5371085781120056,2.6965255826797097,0.4901824805016916,0.5457734461870904,-0.653034221347416,1.5068287675294711,1.1206995662546348,0.5927350316743435,-0.8143897095844677,9.976780388312363,-1.244925186837141,0.2436495131631862,-1.418576012439959
0.64,-2.277539826959424,-0.5418242278480523,2.7021704859623075,-0.0300654985189472,0.2778176997542128,0.0268305771856855,0.4434261209776045,0.526631608820141,-0.5621288472770457,-2.274235373649043,-0.5371085781120056,2.6965255826797097,0.4901824805016916,0.5457734461870904,-0.653034221347416,2.065451348173959,1.5414825320468144,1.32686350260518,0.3596583385971741,9.976780388312363,-1.243024302079722,0.2372058233934496,-1.427879463367448
0.66,-2.268349141917964,-0.5311228234902392,2.6909896981512373,-0.0189359368857086,0.2787826851759963,0.0280209926982973,0.4740261442189445,0.5412160396780469,-0.5566697506802685,-2.274235373649043,-0.5371085781120056,2.6965255826797097,0.4901824805016916,0.5457734461870904,-0.653034221347416,1.7167329302140528,1.5300011620670018,0.729221542895292,0.2729548298388617,11.676383060537772,-1.243197673579277,0.2242801252625963,-1.4341943075505383
0.68,-2.258561309037522,-0.5202105760691077,2.679859556270932,-0.0069369625145337,0.2796211621072638,0.0292637088506611,0.5031839863110236,0.5489296487159768,-0.5568574638421042,-2.269333548844026,-0.5316508436501347,2.6899952404662355,0.5101824807997148,0.5572802077975985,-0.6730342216454391,1.5080739007818698,1.4578921046039528,0.3856804518964973,-0.0093856580917872,11.314184788847342,-1.2429552084578752,0.2091763317173257,-1.438694426202528
0.7000000000000001,-2.2487355336948984,-0.5097452336914796,2.6692303333432323,0.0037591615161108,0.2803618621979559,0.0303799742748217,0.5296748069649084,0.5522969620013047,-0.5619793646442115,-2.2595298992339923,-0.520735374726393,2.676934556039287,0.5501824813957613,0.5802937310186144,-0.7130342222414856,1.359536911511109,1.324541032694243,0.1683656642663955,-0.2560950401053641,10.949959386940463,-1.24258296003348,0.1948415286926042,-1.4412359916258113
0.72,-2.2378525207819298,-0.4986892845304664,2.6578970009511136,0.0137228456616414,0.2809358653650449,0.0314432137326562,0.5571781776619616,0.5531397475732847,-0.5712480600042784,-2.2497262496239583,-0.5098199058026511,2.663873871612339,0.5901824819918078,0.6033072542396303,-0.7530342228375321,1.4517699550011267,1.375168534852661,0.042139278598996,-0.4634347680033457,10.425413060101164,-1.2421097574205848,0.1821538023643306,-1.442325455608807
0.74,-2.2264234242522454,-0.4876399374843932,2.6463403391541664,0.022140245481678,0.2809961540456385,0.0323656239870186,0.5842692693631714,0.5519541875262827,-0.5839160953403183,-2.237922599984122,-0.4977537607178585,2.648813187155588,0.6301824825878543,0.6263207774606462,-0.7930342234335785,1.4965058648929146,1.3545545850604856,-0.0592780023500993,-0.6334017668019942,10.425413060101164,-1.2422046227204648,0.1719630034049858,-1.442302427319283
0.76,-2.215065886227402,-0.4771799242609952,2.635112552982334,0.0287218681050777,0.2804226773807236,0.033100760945907,0.6098298420154815,0.5493877990305832,-0.5972927698106228,-2.226118950344286,-0.4856876156330659,2.633752502698837,0.6701824831839007,0.6493343006816622,-0.833034224029625,1.4481580059763697,1.2780286326155077,-0.1283194247849728,-0.6688337235152275,10.173793815140016,-1.243594897481544,0.1631783689427287,-1.4403250745417944
0.78,-2.2025834966688587,-0.466227676872965,2.623007763334305,0.0343909843275921,0.2788508089279197,0.0337243846546064,0.6370177152608221,0.546053164662002,-0.6125092610543351,-2.2133153006895485,-0.4730461324677479,2.6176918182271858,0.7101824837799471,0.6723478239026781,-0.8730342246256714,1.566717782297437,1.3593936622670275,-0.1667317184290584,-0.7608245621856136,10.173793815140016,-1.2463145211667823,0.1560853656634686,-1.436395651184742
0.8,-2.189553762499709,-0.4553499285058585,2.610587150160508,0.0389931855744041,0.2756768469078479,0.0341778651666199,0.6645116917986262,0.5419718827859011,-0.6287966154403737,-2.1995116510199098,-0.4598293112219045,2.6006311337406327,0.7501824843759936,0.695361347123694,-0.9130342252217178,1.6107867026005689,1.3746988268902085,-0.2040640938050453,-0.8143677193019283,10.04799260015534,-1.251366170053849,0.1503756910831294,-1.4296888014727462
0.8200000000000001,-2.1759767153349965,-0.4445614474150791,2.5978287288179107,0.0426229593065058,0.2702862285191793,0.0344311414395623,0.691374387144944,0.5372250150978175,-0.6461085880833681,-2.1563281779097774,-0.4282513343665635,2.5791473193884897,0.7645116932887424,0.5676746405467835,-0.7287966169304898,1.6154268405819592,1.34313476731589,-0.2373433844041816,-0.8655986321497222,10.04799260015534,-1.2593306202525445,0.146134535023903,-1.4199309291791151
0.84,-2.1625439918608227,-0.4343299213987558,2.585695429295048,0.0481311111469173,0.2640650383138245,0.0347208014693089,0.7211013046456101,0.5381349506010047,-0.630237662507613,-2.1563281779097774,-0.4282513343665635,2.5791473193884897,0.7645116932887424,0.5676746405467835,-0.7287966169304898,1.6855295053354316,1.4863458750333014,0.0454967751593593,0.7935462787877545,9.97918769723492,-1.2707583805493503,0.1391601469130707,-1.4052935992555209
0.86,-2.1478264501857187,-0.4236231597383951,2.5732152509662694,0.0558709323147464,0.2575761789678455,0.0350859247034808,0.7487793172493785,0.5321254178756727,-0.6190574246923356,-2.1563281779097774,-0.4282513343665635,2.5791473193884897,0.7645116932887424,0.5676746405467835,-0.7287966169304898,1.522485289647622,1.383900630188423,-0.3004766362666,0.5590118907638719,12.125748456445764,-1.280638646437484,0.1293854952749889,-1.3992673935830833
0.88,-2.1325901562102256,-0.4130825529834111,2.560877281450596,0.0632680347474251,0.2512688793435158,0.0353487157962873,0.7732104442380897,0.5222514250521422,-0.6155586538271957,-2.14868306097689,-0.4225745879610956,2.571859353219185,0.7845116935867655,0.57281519209896,-0.748796617228513,1.3291135182748846,1.2215563494355597,-0.493699641176526,0.1749385432569972,11.073626993697872,-1.2889997715480377,0.1204299466046348,-1.3917351699750355
0.9,-2.1176931875925824,-0.4032742273832421,2.5491550709560937,0.0690991026284634,0.2453868432022653,0.0354468972968355,0.7935178042921466,0.510954923240165,-0.6184348331315228,-2.1333928271111158,-0.41122109515016,2.557283420880575,0.824511694182812,0.583096295203313,-0.7887966178245595,1.1707606853492174,1.015368002702843,-0.5648250905988583,-0.1438089652163576,11.073626993697872,-1.297393288801587,0.1126100882897589,-1.381771666377157
0.92,-2.1016241109152314,-0.3931908901055915,2.5367106927169303,0.0738337227343467,0.2394372246759281,0.035403027242447,0.8121163701635925,0.4981818499712551,-0.6260041128376292,-2.1181025932453403,-0.3998676023392243,2.542707488541965,0.8645116947788585,0.5933773983076659,-0.8287966184206059,1.1899076103596526,0.9299282935722964,-0.6386536634454931,-0.3784639853053217,10.690038379450924,-1.3053816700212886,0.1066723043475345,-1.3707422066402284
0.94,-2.085209628198348,-0.3833693875459363,2.5240727794211413,0.0771602509746082,0.2339184942891296,0.0352390077075225,0.828228903282036,0.4848560766547629,-0.6375139453439648,-2.100812359349763,-0.388000054373071,2.526131556173553,0.904511695374905,0.6036585014120188,-0.8687966190166524,1.19338405626539,0.8056266559221759,-0.6662886658246131,-0.5754916253167763,10.392839650546192,-1.3123281488715866,0.1026938685411982,-1.3605786732667768
0.96,-2.068495642318264,-0.3738192786664874,2.5111811263748605,0.0791221318903753,0.2290654027305258,0.0349912682330097,0.8422508588181666,0.4711644468250448,-0.6509917399849486,-2.083522125454186,-0.3761325064069176,2.509555623805141,0.9445116959709514,0.6139396045163718,-0.9087966196126988,1.1892507229720133,0.7010977768065307,-0.6845814914859027,-0.6738897320491932,10.040029155878983,-1.318824819694544,0.1002064775365137,-1.349921515058095
0.98,-2.0523690177195637,-0.3650025632185354,2.4986718393640714,0.07977998784473,0.2251866013104931,0.0347035952926322,0.8544978113303651,0.4577936606407314,-0.6650510522165171,-2.065231891543708,-0.3640079308631555,2.4919796914218275,0.9845116965669978,0.6242207076207248,-0.9487966202087452,1.147203152723394,0.6123476256099214,-0.6685393092156683,-0.7029656115784211,10.040029155878983,-1.3242103930092644,0.0993233368841434,-1.3402880645659514
1.0,-2.035153457459211,-0.3559992876205483,2.4852030758668726,0.0789865304476584,0.221841278615287,0.0343383234029799,0.8663135228889383,0.4433917292674135,-0.681108015134791,-2.045941657618328,-0.3516263277417845,2.473403759023613,1.024511697163044,0.6345018107250777,-0.9887966208047916,1.2296876890861208,0.5907855779286597,-0.7200965686658983,-0.8028481459136982,9.953364548596255,-1.3285813226763523,0.1003158376634185,-1.3312294780883382
1.02,-2.017710459914268,-0.3472872186802279,2.471400211558097,0.0763034870053303,0.2192325221459654,0.0338907860899252,0.8773268292869042,0.4289213745468748,-0.6983060520666142,-1.9918377813147643,-0.3338297011571776,2.451147675110133,0.9663135243790544,0.4666151442845415,-0.7811080166249071,1.2514557102251451,0.5506653198982969,-0.7235177360269351,-0.8599018465911601,9.794799462670198,-1.3314494347638532,0.1035743541368884,-1.3221388758772734
1.04,-2.000897341234896,-0.3392366309610964,2.4582671563731573,0.0737811167818415,0.2180704583646613,0.0335659205437885,0.8922823339616189,0.4187693454679053,-0.6815921537646523,-1.9918377813147643,-0.3338297011571776,2.451147675110133,0.9663135243790544,0.4666151442845415,-0.7811080166249071,1.2309398959169175,0.7477752337357368,-0.5076014539484724,0.8356949150980952,9.794799462670198,-1.336086716793356,0.1070424649015107,-1.3117941570715024
1.06,-1.982887832101688,-0.330988542870085,2.444792409115469,0.0720193374110485,0.2188444596409366,0.0334267571365162,0.9079934065371684,0.4066476026408292,-0.6673446426921764,-1.9918377813147643,-0.3338297011571776,2.451147675110133,0.9663135243790544,0.4666151442845415,-0.7811080166249071,1.2214397471839142,0.78555362877748,-0.606087141353806,0.7123755536237952,12.115319778288722,-1.3340348030038165,0.108959141856342,-1.312945916222247
1.08,-1.9645572707637824,-0.3229870907681152,2.4315238101136307,0.0700725578831467,0.220705539628936,0.0333411663277782,0.9243501365696432,0.3943523013693274,-0.6605035025585414,-1.9821746460709735,-0.3291635497143321,2.443336594943884,0.9863135246770776,0.471259827287967,-0.8011080169229303,1.078793595921257,0.8178365016237366,-0.6147650635750901,0.3420570066817507,11.132902464146357,-1.3304107985360785,0.1111270315150794,-1.3144241978996305
1.1,-1.9458965613566916,-0.3152254738590904,2.418325248555538,0.0675471045333554,0.2226958212080978,0.0332108067760881,0.940931066157208,0.3827581896747759,-0.6596388453240835,-1.9628483755833928,-0.3198312468286413,2.427714434611385,1.026313525273124,0.4805491932948182,-0.8411080175189768,1.0125441769456436,0.8290464793782315,-0.5797055847275745,0.0432328617228972,10.802339920407576,-1.3271415173115657,0.1138773644131135,-1.315034288229804
1.12,-1.9278625430535887,-0.3080568986263755,2.4057611800080934,0.0646354000300447,0.2242995923010806,0.0330198842082654,0.9565468815728396,0.3726870385173569,-0.6629025175753578,-1.943522105095812,-0.3104989439429505,2.4120922742788875,1.0663135258691705,0.4898385593016695,-0.8811080181150233,0.9433097758615652,0.7807907707815809,-0.5035575578709511,-0.1631836125637165,10.802339920407576,-1.3244709073175078,0.1174348232389427,-1.3147618788750246
1.14,-1.9085630826047155,-0.300705239240257,2.392434706498623,0.0611623747051938,0.2255552618804223,0.0327520289603112,0.9725363196120024,0.363238802832861,-0.6697024961822264,-1.922195834578428,-0.3007021727569171,2.394470113916587,1.1063135264652169,0.4991279253085206,-0.9211080187110696,0.988902163274868,0.7994719019581487,-0.4724117842247965,-0.3399989303434325,10.551597257442154,-1.322562131362316,0.1214888007338777,-1.3139545573205578
1.16,-1.888945270939691,-0.2935316670510089,2.3789522432851484,0.057381150418133,0.2263273624867525,0.0324253681012619,0.9884032602659018,0.354831530125796,-0.6781610205310304,-1.900869564061045,-0.2909054015708837,2.376847953554287,1.1463135270612634,0.5084172913153718,-0.9611080193071162,0.992457397378636,0.7933470326949632,-0.4203636353532464,-0.4229262174402004,10.345835312439704,-1.3214494483499168,0.125909626145055,-1.3118492606876218
1.18,-1.8690067640988293,-0.2865129046782099,2.3652894357730214,0.0534817001395881,0.2264457456378616,0.0320490524716892,1.0045804246572494,0.3476148713645687,-0.687723951519105,-1.87854329352876,-0.2808763962346791,2.358225793177085,1.1863135276573098,0.517706657322223,-1.0011080199031626,1.0065168410207577,0.8088582195673821,-0.3608329380613645,-0.4781465494037296,10.19378480409796,-1.3211012119116072,0.1302102623405784,-1.3087229780970715
1.2,-1.84976400646596,-0.279968717262921,2.352119021095181,0.0497810719495365,0.2256460067971313,0.0316436637234058,1.0200844215611484,0.341725866621355,-0.6981256164463975,-1.8552170229815743,-0.2706151567483031,2.338603632784982,1.2263135282533562,0.5269960233290742,-1.041108020499209,0.9788372312613708,0.7751998451949516,-0.2944502371606872,-0.5200832463646221,10.19378480409796,-1.3219553905086958,0.1346927585429638,-1.304035656471018
1.22,-1.8291922760198385,-0.2731908123341427,2.338026905586445,0.0459739321549067,0.2235383146497701,0.0311665563671795,1.0361900272271116,0.3364803786280483,-0.7105839006372114,-1.7987597853879027,-0.2628824239318532,2.317212740272861,1.097114216015723,0.3536900163944759,-0.7981256179365136,1.051325976011384,0.8052802832981598,-0.2622743996653354,-0.6229142095406981,10.113128899971343,-1.324531129395658,0.1390272600784567,-1.2976147944924794
1.24,-1.8081649133137847,-0.2664172627824128,2.3240668752537004,0.0457146432999966,0.218220708152132,0.0307971589343741,1.0650873532641487,0.3394958416667839,-0.6847491324813489,-1.7987597853879027,-0.2628824239318532,2.317212740272861,1.097114216015723,0.3536900163944759,-0.7981256179365136,1.9439545487844936,1.4448663018518548,0.1507731519367811,1.2917384077931249,10.0146880968623,-1.3316507162160882,0.1393405343481839,-1.2835101726457336
1.26,-1.7876965419229696,-0.259972344530921,2.311239581710966,0.0495753868891693,0.209448131016308,0.0305350131180425,1.0873808842873631,0.3378382601817478,-0.6668043707809191,-1.7987597853879027,-0.2628824239318532,2.317212740272861,1.097114216015723,0.3536900163944759,-0.7981256179365136,1.4333209465675945,1.1146765511607204,-0.082879074251807,0.89723808502149,12.5483425173079,-1.3439663207533044,0.134467618340234,-1.2715623339898348
1.28,-1.7657620915821572,-0.2532846743050678,2.2980175024328293,0.0549356467845149,0.1978760649065181,0.0301621668834429,1.1042494153006908,0.3308070424190409,-0.6566733465204186,-1.7877886432277454,-0.2593455237679085,2.3092314840934955,1.112520174906638,0.3560828463491001,-0.8181256182345368,1.0447763090023752,0.8434265506663818,-0.3515608881353438,0.5065512130250249,11.851650464675004,-1.3579383412795158,0.1278951034440831,-1.2550646486951065
1.3,-1.7435589091335837,-0.2467682039470783,2.284907890236911,0.0598995904829156,0.1852343186717962,0.0296162862448031,1.1146970614126452,0.3212445480155503,-0.6550741935009995,-1.7658463589074311,-0.2522717234400189,2.2932689717347654,1.1433320926884678,0.3608685062583484,-0.8581256188305832,0.712656822876453,0.5223823055977239,-0.4781247201745303,0.0799576509709576,11.221638670592256,-1.3729874270772342,0.1218221617277436,-1.2365456149682774
1.32,-1.7212111114606423,-0.2404578055490298,2.271744626336851,0.063861578926111,0.1726515296586845,0.0289269605860041,1.119257525217629,0.3105043308312121,-0.6612179949375382,-1.7439040745871166,-0.2451979231121294,2.2773064593760357,1.1741440104702976,0.3656541661675968,-0.8981256194266297,0.6593489049337511,0.2280231902491825,-0.5370108592169104,-0.3071900718269349,10.672649660090428,-1.387241233661955,0.117169015615186,-1.2189762339583516
1.34,-1.699944371838955,-0.2346673021178739,2.259068211365865,0.066611682370862,0.1615763171793138,0.0282036680008873,1.1189726852295454,0.2998112850228979,-0.6727702550707729,-1.7204211943777106,-0.2378848397887775,2.2593439469875025,1.2049559282521274,0.3704398260768451,-0.9381256200226762,0.7872056222224313,-0.0142419994041742,-0.5346522904157103,-0.5776130066617369,10.224643768120586,-1.4012344541725017,0.1134845558742134,-1.2026449678116182
1.36,-1.6776024088927262,-0.2287924374287552,2.245454103188467,0.0685286524864443,0.1514742317953368,0.0274406728694162,1.115075830096684,0.2884185389917897,-0.6881439381958425,-1.6969383141683043,-0.2305717564654255,2.2413814345989698,1.2357678460339574,0.3752254859860934,-0.9781256206187228,0.9763839855378216,-0.1948427566430655,-0.569637301555409,-0.7686841562534796,9.869216494076682,-1.413709313445635,0.1109426420533043,-1.1897246332507594
1.38,-1.6553645204585574,-0.2231487710522473,2.2315043824143443,0.0694490918038595,0.1432465536802572,0.0267152540195703,1.108832020458968,0.2766199314382103,-0.7061444112480175,-1.6726851360143529,-0.2231390316443424,2.222418922195536,1.2665797638157872,0.3800111458953418,-1.0181256212147691,1.120501371147638,-0.312190481885799,-0.589930377678971,-0.9000236526087502,9.531174019076389,-1.4240057116949354,0.1095156597112978,-1.1792478178160792
1.4,-1.6332734588766993,-0.2177477298968562,2.217169659548836,0.0690518936109551,0.1369607717282317,0.0260264320609385,1.1005542529338928,0.2642862551775654,-0.7263904441088642,-1.6476616599158556,-0.2155866653255281,2.2024564097772013,1.297391681597617,0.3847968058045902,-1.0581256218108157,1.2555306168151288,-0.4138883762537682,-0.6166838130322427,-1.0123016430423348,9.415456238716615,-1.431914452619958,0.1095046030709159,-1.1717182838263585
1.42,-1.6124586163583297,-0.2128477161615701,2.203160855595057,0.0671648140836992,0.133029924666407,0.0254132543066474,1.0908689256148705,0.2523481917427071,-0.7471813622657703,-1.5782457462300046,-0.204533417137978,2.1808501373433926,1.1518110995704265,0.2628748749312838,-0.8263904455989803,1.2928507277122767,-0.4842663659511137,-0.5969031717429157,-1.0395459078453018,9.415456238716615,-1.4379159581514502,0.1112004189272302,-1.1666417978832422
1.44,-1.5906746270820649,-0.2078754008159861,2.18838685172645,0.0659761242050671,0.1303575675203667,0.0249321540941281,1.0879381636881813,0.2447109087469008,-0.7291725205373352,-1.5782457462300046,-0.204533417137978,2.1808501373433926,1.1518110995704265,0.2628748749312838,-0.8263904455989803,0.9889841220019506,-0.1465380963344587,-0.3818641497903147,0.9004420864217544,9.327290911100135,-1.442652241197407,0.1126623620409551,-1.1499317506040292
1.46,-1.5700498128508606,-0.2033121469691621,2.174644834827685,0.0666146939725975,0.1286086829183377,0.0246509580175195,1.083201642304291,0.2359123993029232,-0.7183644747652902,-1.5782457462300046,-0.204533417137978,2.1808501373433926,1.1518110995704265,0.2628748749312838,-0.8263904455989803,0.735972582142895,-0.2368260691945178,-0.4399254721988779,0.5404022886022486,11.713325360296947,-1.444436845948898,0.1114951068307824,-1.1505378949537617
1.48,-1.548451408760621,-0.198702447483656,2.160323328540476,0.068123308915748,0.1278996783068965,0.0244848588298813,1.076952207115713,0.2255272649203491,-0.714691783587191,-1.5667276352343005,-0.2019046683886651,2.1725862328874026,1.1620624688977332,0.2625925988820274,-0.8463904458970035,0.6332359686760698,-0.3124717594289006,-0.5192567191287064,0.1836345589049604,11.14801641289796,-1.4446231539991583,0.1094136135282737,-1.152521070328069
1.5,-1.5269848469815217,-0.1943103120404482,2.1460038849677714,0.0697955915353329,0.1282235943866488,0.0243967611912851,1.070086746293807,0.2142497703332833,-0.7176880228283639,-1.5436914132428918,-0.1966471708900395,2.156058423975423,1.1825652075523467,0.2620280467835148,-0.88639044649305,0.6769303620919338,-0.3432730410952933,-0.5638747293532892,-0.1498119620586435,10.674158261454068,-1.4437993758310588,0.1071902773756157,-1.1554931782207996
1.52,-1.5056599789205096,-0.1901530991634546,2.131563643330875,0.0710418241350496,0.1294559911516126,0.0243402593329643,1.0628952237217852,0.2021712938753497,-0.7261518961923401,-1.5206551912514832,-0.1913896733914138,2.1395306150634434,1.2030679462069602,0.2614634946850022,-0.9263904470890963,0.8204339442791568,-0.3595761286010912,-0.6039238228966792,-0.4231936681988124,10.305091486427957,-1.4422585205499778,0.1055168194383621,-1.159048990050038
1.54,-1.4855344431209665,-0.1864338140217347,2.1176509698311565,0.0714017811869544,0.1313497480078556,0.0242797000936752,1.0560782682390004,0.1900967042179042,-0.7379002741326268,-1.496593832327344,-0.1861604034977138,2.1210028061216617,1.2235706848615735,0.2608989425864895,-0.9663904476851428,0.9086954683470352,-0.3408477741392413,-0.6037294828722741,-0.5874188970143357,10.027376254398405,-1.4399425819631269,0.1046858063208397,-1.1632159010424692
1.56,-1.4644846537236478,-0.1827695455085623,2.1027485217414954,0.0705637353160797,0.1339812942993462,0.0241757012881989,1.0493850943375966,0.1771000166845008,-0.7517761060663536,-1.4725324734032048,-0.1809311336040137,2.1024749971798795,1.2440734235161872,0.2603343904879769,-1.0063904482811894,1.0077836766493935,-0.3346586950701891,-0.6498343766701705,-0.6937915966863384,9.821760758190976,-1.4369701688055934,0.1052281712740262,-1.1670321298408053
1.58,-1.443558275181267,-0.1793671310314726,2.0875587065442835,0.0681561254936284,0.13703328641943,0.0239892161632681,1.0437022621931096,0.1640389880551014,-0.766526011286686,-1.4479585460127002,-0.1757159775127765,2.0829471882231965,1.2645761621708007,0.2597698383894642,-1.0463904488772358,1.0252374774280275,-0.284141607224353,-0.6530514314699698,-0.7374952610166186,9.747128497265294,-1.4334156334090893,0.1073004123301684,-1.1702442333598118
1.6,-1.4237745393604273,-0.1763614541904132,2.072847885962384,0.0645992266458456,0.1400387627936345,0.023726029551353,1.0391570349880412,0.1534188601167249,-0.7812132403180657,-1.4228720501558303,-0.1705149352240021,2.062419379251613,1.2850789008254142,0.2592052862909516,-1.086390449473282,0.934292385168293,-0.2272613602534168,-0.5310063969188261,-0.7343614515689878,9.706063632234873,-1.4290002110971716,0.1109360379861063,-1.171953328212141
1.62,-1.4030353386936525,-0.1733942007494998,2.057052390667092,0.060359828037901,0.143115607249049,0.0234031090834087,1.0350716780397655,0.1440818870383973,-0.7975996518620319,-1.3718166876110252,-0.168690511184577,2.0337872239464807,1.0872974602230745,0.1715162775458145,-0.8183817543015538,0.9648622841479318,-0.204267847413786,-0.4668486539163796,-0.819320577198307,9.663509315063491,-1.4250397250908229,0.1151516098848041,-1.1738006049864362
1.64,-1.3822529173069844,-0.170657093481592,2.0413982066298795,0.0549316609624181,0.1444503376424568,0.0228923880700222,1.043698481120079,0.1307195339327187,-0.7644547794892942,-1.3718166876110252,-0.168690511184577,2.0337872239464807,1.0872974602230745,0.1715162775458145,-0.8183817543015538,1.8381762541391455,0.431340154015658,-0.6681176552839313,1.6572436186368833,9.605214420013,-1.4271512542044305,0.1212349097222447,-1.1588291359671137
1.66,-1.361287058690828,-0.1681536847200123,2.0264439407290604,0.048350355558808,0.1423221188713354,0.0221284279058021,1.0521379360281138,0.1207693363068863,-0.7328594112529025,-1.3718166876110252,-0.168690511184577,2.0337872239464807,1.0872974602230745,0.1715162775458145,-0.8183817543015538,1.7091650929116422,0.4219727454017552,-0.4975098812916217,1.579768411819582,13.014395185970898,-1.4282181810531878,0.1273107447082586,-1.1587661423659572
1.68,-1.3412374155793965,-0.1659349093877092,2.0127476394716504,0.0417198434492715,0.1373226535549205,0.0212733100533781,1.057444903841034,0.1136291199738153,-0.7103572916953704,-1.3609437130087945,-0.1669753484091188,2.0256034064034654,1.0969255452700808,0.1751357610316324,-0.8258154570982514,1.2098470783862467,0.2653483906460141,-0.3570108166535489,1.125105977876606,12.478018304519535,-1.4336383280199958,0.134202776633961,-1.152898011949644
1.7,-1.3200716143501048,-0.1637215804158694,1.9987273393370195,0.034637090639732,0.1299672076543407,0.0203449550716646,1.0583944017366536,0.1083616216521005,-0.6931061991032751,-1.3391977638043329,-0.1635450228582025,2.0092357713174342,1.116181715364094,0.1823747280032682,-0.8406828626916466,0.9031172133838732,0.0474748947809744,-0.2633749160857401,0.862554629604767,11.926953987047456,-1.4418841683763566,0.1412380934483491,-1.1434248510847853
1.72,-1.2989352148410749,-0.1615911500588137,1.9849861481660651,0.0276789390567014,0.1217169102762737,0.0194749559003248,1.0548431806865104,0.1051619991543631,-0.6820998517605201,-1.3174518145998717,-0.1601146973072862,1.992868136231403,1.1354378854581073,0.189613694974904,-0.8555502682850419,0.599975909733833,-0.177561052507158,-0.1599811248868682,0.5503173671377481,11.474984957360904,-1.4511845644365824,0.148141701068104,-1.132554665921399
1.74,-1.2779141484179677,-0.1595044284511094,1.9714028941094943,0.0210243223813944,0.1135862400958813,0.018712095299218,1.047263754488425,0.1038203669602937,-0.6767218564269931,-1.2947430568907092,-0.1563224234077882,1.975757130865702,1.1546940555521206,0.1968526619465398,-0.8704176738784372,0.4694957727281204,-0.3789713099042857,-0.0670816097034725,0.2688997666763504,11.076799749803286,-1.459884565734876,0.1544072461606528,-1.1219256914249192
1.76,-1.258114679496127,-0.1575304209364321,1.9585755507383444,0.0151314113130318,0.1066594871293363,0.0181047692518092,1.0372105654418695,0.1040973395768833,-0.6737717110233153,-1.2720342991815472,-0.1525301495082901,1.9586461255000007,1.1739502256461338,0.2040916289181757,-0.8852850794718323,0.524038838586794,-0.5026594523277583,0.0138486308294813,0.1475072701838886,10.7522534736554,-1.4683272442232105,0.1605546183395803,-1.1111870724983433
1.78,-1.2375031096993665,-0.1554308324127315,1.9451163517380077,0.0095283968215829,0.100681290760505,0.0175899782222996,1.024382201214223,0.105845424912925,-0.6722922312470065,-1.2488441372200347,-0.1485569014345011,1.9411634349944653,1.1932063957401469,0.2113305958898115,-0.9001524850652276,0.6515588835779778,-0.6414182113823275,0.0874042668020838,0.07397398881544,10.6210513066535,-1.4753050931281362,0.1660842997092417,-1.1021985237208125
1.8,-1.2181816654490345,-0.1533916514413441,1.93234304863194,0.0048549968730683,0.0967058078264864,0.0172090961995404,1.0100402746285506,0.1086624450414885,-0.6723356307229964,-1.2251725710061718,-0.1444026791864212,1.923309059349095,1.21246256583416,0.2185695628614473,-0.9150198906586228,0.7308015190666748,-0.7170963292836174,0.1408510064281783,-0.0021699737994929,10.52671934891805,-1.4799345903544827,0.1706821309825789,-1.095836554428714
1.82,-1.1981563501335706,-0.151178008767216,1.9188843377210532,0.0006279981019999,0.0949367004734485,0.0169018927582862,0.9933112022222148,0.1125277045319856,-0.6735881871463303,-1.167679651717607,-0.1479585291892696,1.8987262670957905,1.0325212690915175,0.1266207377790917,-0.6580912167883484,0.860771444837326,-0.8364536203167849,0.1932629745248534,-0.0626278211666941,10.44229608805199,-1.4818459270482147,0.1748405012113523,-1.0930814428196125
1.84,-1.1783674411763951,-0.1488247113760971,1.905740107315892,-0.0012401533389679,0.0936735670806768,0.0167834495217197,0.986690200003194,0.1219185063978349,-0.6389833953778654,-1.167679651717607,-0.1479585291892696,1.8987262670957905,1.0325212690915175,0.1266207377790917,-0.6580912167883484,1.82312673956498,-0.3310501109510477,0.469540093292467,1.7302395884232435,10.371128557014345,-1.483737527409281,0.1765148520892986,-1.0837744503326492
1.86,-1.1587079543360714,-0.1463047252695477,1.893315505856655,-0.0002171449876073,0.0905096053742427,0.0168795035459103,0.9793647351539572,0.1292817915211927,-0.6054014246038295,-1.167679651717607,-0.1479585291892696,1.8987262670957905,1.0325212690915175,0.1266207377790917,-0.6580912167883484,1.757575861900041,-0.3662732424618453,0.3681642561678875,1.6790985387017954,12.859912447669558,-1.486790551086904,0.1757635313414558,-1.0837760371397995
1.88,-1.1401882919533293,-0.1437887345138914,1.8820855695755112,0.0025546020441687,0.0862077281305768,0.0170944043756845,0.9702443482236288,0.1348579489332642,-0.5786141617020005,-1.1573544390266914,-0.1466923218114787,1.8921453549279068,1.0370174679841109,0.1302123963266124,-0.6552423340014187,1.442075278040995,-0.4560193465164119,0.2788078706035729,1.339363145091449,12.497154348257029,-1.4918748873020522,0.1731488822351031,-1.0818437417606728
1.9,-1.1209085922973654,-0.1410569114774692,1.87076247834241,0.0063763724641868,0.0809401757531876,0.0173666504757105,0.9579721235968908,0.1377953990992838,-0.5552853863401411,-1.1367040136448612,-0.1441599070558969,1.87898353059214,1.0460098657692978,0.1373957134216537,-0.6495445684275596,1.3261484368756224,-0.6136112313369024,0.1468725083009811,1.16643876809297,12.111345095025172,-1.497868767082719,0.1695976235662775,-1.0782511449565744
1.92,-1.101907585263795,-0.1382888720030791,1.859855688486964,0.0101345310133189,0.0757632107056211,0.0176152714398583,0.942597036187082,0.1388264693298867,-0.536535829623764,-1.1160535882630307,-0.141627492300315,1.865821706256373,1.0550022635544845,0.1445790305166949,-0.6438468028537003,1.2134684748071756,-0.7687543704904432,0.051553511530146,0.9374778358188562,11.80494198130691,-1.503210088121069,0.1662409700647241,-1.0740904059302456
1.94,-1.0841700203066449,-0.1356526738622807,1.849807912918231,0.0133077463386956,0.0718600024534568,0.0178189496870535,0.9251995156026832,0.1386653953683887,-0.5220531215534848,-1.094953542991941,-0.1387359116899811,1.852944770199299,1.0639946613396711,0.1517623476117362,-0.6381490372798411,1.131866268994017,-0.8698760292199292,-0.0080536980749015,0.7241354035139591,11.5389172782252,-1.5084922514124102,0.1631433357100523,-1.0697532236923508
1.96,-1.065879900322216,-0.1328897097368137,1.8395169835905567,0.0161131265429,0.0698334626575472,0.0180158056131102,0.904705554100635,0.1376855405915826,-0.5078374872180468,-1.0738534977208514,-0.1358443310796472,1.840067834142225,1.072987059124858,0.1589456647067775,-0.6324512717059819,1.248045304656398,-1.0246980751024148,-0.0489927388403046,0.7107817167719022,11.337287699069748,-1.5113244092252327,0.1605722058189246,-1.0688247655901162
1.98,-1.0480016003792991,-0.1301514574977312,1.829503245710932,0.0183822575345539,0.0703302989791895,0.0182160363460775,0.8844246730420016,0.1362405251054101,-0.4942687241605463,-1.052528642505132,-0.1327731675419373,1.8273333422244973,1.0819794569100447,0.1661289818018188,-0.6267535061321227,1.222204501280682,-1.014044052931673,-0.0722507743086228,0.6784381528750216,11.249657299215867,-1.5107598013410208,0.1584696920293397,-1.0722400552628757
2.0,-1.0305167414016172,-0.1274465855631819,1.819756788032135,0.0201548406387415,0.072814889129357,0.0184242368046499,0.8653649458903669,0.1344121747625891,-0.4810544649289153,-1.030978977344783,-0.1295224210768513,1.8147412944461163,1.0909718546952316,0.17331229889686,-0.6210557405582635,1.1632204338727,-0.952986357581731,-0.0914175171410527,0.6607129615815499,11.249657299215867,-1.5081741605097407,0.1569063949620536,-1.0780461311445466
2.02,-1.0142444255798553,-0.124914918513757,1.8107410431781528,0.0213733643856516,0.0764770332087279,0.0186237686286105,0.8486902325804679,0.1322241401823418,-0.4686373400047798,-0.9872484941070988,-0.1207259768250525,1.7957040647856892,0.8802482797074913,0.1366211925143275,-0.4638728244380258,1.0452494327590758,-0.8337356654949502,-0.109401729012365,0.6208562462067746,11.228072428704763,-1.5040067365135863,0.1557290921149879,-1.0861561330171152
2.04,-0.9973975544062595,-0.1222544297677484,1.8016028088221565,0.0235111197454851,0.0800417463996546,0.0188954975035805,0.8369714214043202,0.1333236456460067,-0.4453664085853294,-0.9872484941070988,-0.1207259768250525,1.7957040647856892,0.8802482797074913,0.1366211925143275,-0.4638728244380258,1.3039130499918317,-0.5859405588073852,0.0549752731832456,1.1635465709725237,11.22001922923755,-1.4987952596551384,0.1536354835755226,-1.0963548041347204
2.06,-0.9807809259913196,-0.1196065574453056,1.792930736367258,0.0266242922396521,0.0821893287797733,0.0192103680495978,0.8252080497280782,0.1312523408343799,-0.4230801404270645,-0.9872484941070988,-0.1207259768250525,1.7957040647856892,0.8802482797074913,0.1366211925143275,-0.4638728244380258,1.2642635852920194,-0.5881685838121042,-0.1035652405813408,1.1143134079132422,11.918301214672285,-1.497101882829294,0.1508373071148954,-1.102570524068585
2.08,-0.9652184618968016,-0.1171481226688552,1.7850827568405885,0.0294345776117287,0.0834581186593277,0.0194832545795571,0.8135167982404975,0.1276808389662943,-0.4041410813763686,-0.9784460113100238,-0.1193597648999092,1.791065336541309,0.8832249464709162,0.1370629960646752,-0.4604364963398479,1.1270857827438652,-0.5845625743790328,-0.1785750934042762,0.9469529525347936,11.791812136000772,-1.495871104352018,0.1479795474519022,-1.1074581122916214
2.1,-0.9490816983217626,-0.1146431532431394,1.7771920338893052,0.0319042233226744,0.0843936894241249,0.0197268981133606,0.8007676322809687,0.123065979768838,-0.3860083251454226,-0.960841045715874,-0.1166273410496226,1.7817878800525484,0.8891782799977659,0.1379466031653705,-0.453563840143492,1.132072222306144,-0.6374582979764398,-0.2307429598728178,0.9066378115473034,11.653379569227582,-1.494985436497788,0.1455912687480843,-1.1114078576524875
2.12,-0.933204365116734,-0.1122374218088301,1.7696439103496375,0.0337466779372986,0.0852363046455139,0.0199252300536277,0.7876431219911397,0.1178842394739751,-0.3697053292128678,-0.9432360801217242,-0.1138949171993361,1.772510423563788,0.8951316135246157,0.1388302102660659,-0.4466911839471362,1.0780664163307967,-0.6562255144914486,-0.2590870147431444,0.8151497966277399,11.54526599093606,-1.4942007741845729,0.1438915017256301,-1.1147421361173953
2.14,-0.9175917385919292,-0.1099408276487263,1.762406874749763,0.0348890711730799,0.0862040903250339,0.0200804005695214,0.7743402526183712,0.112137833240196,-0.3548134724115241,-0.925333447851232,-0.1111183129940148,1.7635765998848452,0.9010849470514656,0.1397138173667613,-0.4398185277507804,1.0389356538596142,-0.6651434686384239,-0.2873203116889551,0.744592840067182,11.36459892795483,-1.4933255022590468,0.1427770428216027,-1.118223249707743
2.16,-0.9030058836228652,-0.1078709111487017,1.7558005306984612,0.0351152873463344,0.0873566794991834,0.0201777959430931,0.761750788688377,0.1061550099114136,-0.3413352518758455,-0.9074308155807396,-0.1083417087886934,1.7546427762059025,0.9070382805783151,0.1405974244674567,-0.4329458715544246,0.9694730602709376,-0.6294731964997136,-0.2991411664391173,0.6739110267839327,11.36459892795483,-1.4920715743139263,0.1425764218297352,-1.1219999703395898
2.18,-0.8879071343677982,-0.1058161578251706,1.7491187752407136,0.0342633033284198,0.0888278144037938,0.0202155978886361,0.7488565087879976,0.0997377568493907,-0.3275676229780527,-0.889379349972076,-0.1055430144058547,1.7458807689318687,0.9129916141051648,0.141481031568152,-0.4260732153580688,0.996231896295622,-0.6447139950189695,-0.3208626531011449,0.688381444889638,11.329471710746477,-1.4901665679519855,0.1434889760522654,-1.1256921212876414
2.2,-0.8730620981244283,-0.1038878462774884,1.7427071661390574,0.0321788755738933,0.0905150695033318,0.0201772380130128,0.7363630559286399,0.0935501424352525,-0.3143018165039517,-0.8711790510252413,-0.1027222298454986,1.7372905780627437,0.9189449476320146,0.1423646386688474,-0.4192005591617129,0.9622299074225238,-0.6246726429678828,-0.3093807207069095,0.6632903237050514,11.279176535530496,-1.4879572285028475,0.145517475880999,-1.1290153006053545
2.22,-0.8584623739676086,-0.1020681515655224,1.7365560056901292,0.0291094921618392,0.0923700385802215,0.0200777160041016,0.7243123180307235,0.0890780306011417,-0.3014723153725417,-0.8362439453279963,-0.0992103391557258,1.72699207531386,0.7499074384561105,0.090467713842064,-0.3075310371252395,0.90804207972693,-0.6025368948958221,-0.2236055917055425,0.641475056570498,11.279176535530496,-1.484991701911068,0.1486465856588517,-1.132630283831095
2.24,-0.8447910455019314,-0.100372618890964,1.7309860218370503,0.0270476839094338,0.0936889639988938,0.020032281699373,0.7152761685983923,0.0890315240286182,-0.2855140011260516,-0.8362439453279963,-0.0992103391557258,1.72699207531386,0.7499074384561105,0.090467713842064,-0.3075310371252395,0.9169541332782676,-0.451807471616561,-0.0023253286261758,0.7979157123245095,11.252831614800016,-1.4824376310174106,0.1509613546641603,-1.1370983553176222
2.26,-0.830590763694254,-0.098601120504426,1.7254390863362463,0.0261732086481638,0.0943030949287072,0.0200571903133227,0.705170110174311,0.0880479502117994,-0.2701151205644845,-0.8362439453279963,-0.0992103391557258,1.72699207531386,0.7499074384561105,0.090467713842064,-0.3075310371252395,0.9222599374274624,-0.505302921204065,-0.0491786908409397,0.7699440280783509,11.506049439472918,-1.481970369962673,0.1519950627473497,-1.1401082741717865
2.28,-0.8165999043938844,-0.0968522972549366,1.7201810025415556,0.0261887767034041,0.0945554193294538,0.0201378914688152,0.6943976989380996,0.086840294756721,-0.2565413689502327,-0.8287448709434352,-0.0983056620173051,1.7239167649426077,0.7526163149616046,0.0898512281234263,-0.3061768812494971,0.8685476504280565,-0.538620561810571,-0.0603827727539169,0.6786875807125919,11.404168251626288,-1.48167127108271,0.1521139355704352,-1.142354879529806
2.3000000000000003,-0.8035137972882685,-0.0952153786136696,1.7154207349456247,0.0268963904339161,0.0947584831398501,0.020263768779667,0.6836519611024011,0.0854801636216791,-0.2452152571065848,-0.813746722174313,-0.0964963077404638,1.7177661442001029,0.7580340679725929,0.0886182566861509,-0.3034685694980122,0.7835841496496915,-0.5372868917849216,-0.0680065567520996,0.5663055921823936,11.296745205566369,-1.4812268069825607,0.1514737974689267,-1.1447621509096282
2.32,-0.7899625725791025,-0.0935246635119894,1.710630721679354,0.0282445102190623,0.0951347456423854,0.0204435091721346,0.6720636111300413,0.0836159616543095,-0.2344351250317683,-0.7987485734051908,-0.0946869534636226,1.7116155234575978,0.7634518209835811,0.0873852852488755,-0.3007602577465273,0.7968317758591266,-0.5794174986179901,-0.0932100983684791,0.5390066037408255,11.139127800060123,-1.4805962049476515,0.1501881333231692,-1.1473386672917694
2.34,-0.7766451977502964,-0.0918784241122467,1.7060437945500495,0.0300246588184413,0.0958161865841316,0.0206621106174301,0.6603287059357293,0.0810741009297345,-0.2247973488826176,-0.7834795369855192,-0.0929392477586451,1.7056003183026671,0.7688695739945693,0.0861523138116001,-0.2980519459950425,0.7698308011565996,-0.5867452597155987,-0.1270930362287502,0.4818888074575339,11.139127800060123,-1.4796134751752563,0.148447526168679,-1.1502380051690693
2.36,-0.7635617868991834,-0.0902924638500918,1.7016417888821933,0.0319705645116272,0.0968650732185796,0.0209033260770445,0.648688706316382,0.0776054752549426,-0.21589034243068,-0.7682105005658475,-0.0911915420536675,1.6995851131477366,0.7742873270055576,0.0849193423743247,-0.2953436342435576,0.7530865141952331,-0.5819999809673682,-0.1734312837395918,0.4453503225968824,11.078075479761536,-1.4784129374369772,0.146630642272289,-1.1533831371175105
2.38,-0.7513448501604081,-0.0888603989443258,1.697619178090034,0.0336114312823909,0.0981793161246809,0.0211284533366932,0.6379631269853218,0.0733832189864434,-0.2079893590623826,-0.7528060203209013,-0.0894746606346219,1.693637615786593,0.7797050800165458,0.0836863709370493,-0.2926353224920727,0.6987328498250568,-0.536278966553011,-0.2111128134249601,0.3950491684148668,11.009739367156726,-1.4765453306715208,0.1449106201787449,-1.1567328700007045
2.4,-0.7387001245039102,-0.0874461121332281,1.6935426975059589,0.0348738892177164,0.0998110794570011,0.0213419733698107,0.627146929873687,0.0682903339357644,-0.200095632324644,-0.7372660962506802,-0.0877886035015082,1.687757826219237,0.785122833027534,0.0824533994997739,-0.2899270107405879,0.7163074059146248,-0.5408098555817364,-0.254644252533951,0.3946863368869333,11.009739367156726,-1.4744371339261997,0.1436852295177033,-1.160191519819865
2.42,-0.7262666281756321,-0.0861411840485456,1.689618814465398,0.0353762542327807,0.1016139086013502,0.0215090756580372,0.6168211581953361,0.0625613797120528,-0.1926888696934193,-0.7073427780102258,-0.0840315954364399,1.6835379158897266,0.6469976551817477,0.0817769297601253,-0.2149105027566632,0.6969623553789028,-0.5162885839175457,-0.2864477111855792,0.3703381315612347,10.9880090256911,-1.4719167245305935,0.1432384103019029,-1.1635737078326398
2.44,-0.714035494896919,-0.0850118053128297,1.685852439841939,0.0330610463009675,0.1036245411924713,0.0214874891247243,0.6069067044109007,0.0515975177171244,-0.1842840349052563,-0.7073427780102258,-0.0840315954364399,1.6835379158897266,0.6469976551817477,0.0817769297601253,-0.2149105027566632,0.8502116082244713,-0.4957226892217725,-0.5481930997464197,0.4202417394081503,10.964507317627977,-1.470687172891661,0.1456487091196161,-1.1658955898193706
2.46,-0.7025973888096347,-0.0840999987782532,1.6824180096270775,0.0279946756281089,0.1057955465022073,0.0212745069982765,0.597693425575423,0.0456705076546114,-0.1776392748649726,-0.7073427780102258,-0.0840315954364399,1.6835379158897266,0.6469976551817477,0.0817769297601253,-0.2149105027566632,0.6406379460630274,-0.4606639417738811,-0.2963505031256523,0.3322380020141846,11.047965187920454,-1.4665394719936204,0.1512383087661128,-1.1688459817787298
2.48,-0.6907413457181972,-0.0832133437049065,1.6789269150416508,0.0219759621654698,0.1083077305530603,0.0210055816467601,0.5884850927473018,0.0435097390816452,-0.1718824415203291,-0.7008728014584084,-0.0832138261388387,1.68138881086216,0.6509678002433598,0.0844742489249974,-0.217873476843067,0.5536321984345148,-0.460416641406064,-0.108038428648309,0.2878416672321748,10.940003949945094,-1.4631334033044523,0.1577340590967696,-1.1726953080715017
2.5,-0.6790637176894976,-0.0823422044927791,1.6755382253817404,0.0162894202293814,0.1109593812573539,0.0207590606650088,0.5798249660897907,0.0437558651226254,-0.1673321413740693,-0.6879328483547734,-0.0815782875436361,1.6770906008070263,0.658908090366584,0.0898688872547418,-0.2237994250158747,0.4892943980193148,-0.4330063328755518,0.0123063020490088,0.227515007312988,10.859560611136658,-1.4599568322896936,0.16364681025977,-1.176779007952958
2.52,-0.6681250155817701,-0.081493363977355,1.6723926148634929,0.0115805656885348,0.1135345068532968,0.0205713383215341,0.5721313733037017,0.045491170971182,-0.1640204697845328,-0.6749928952511385,-0.0799427489484336,1.6727923907518931,0.6668483804898083,0.0952635255844861,-0.2297253731886824,0.4276968116058958,-0.3846796393044527,0.0867652924278334,0.1655835794768245,10.791843657499156,-1.4566764093692706,0.1691624804968672,-1.1813456969099905
2.54,-0.6567623150576052,-0.0805541442448295,1.669141276625128,0.0074126103896477,0.1162329768559683,0.0204271088391986,0.5646213257774977,0.0482872077382048,-0.1613319418056132,-0.6616559276413423,-0.0780374784367439,1.6681978832881197,0.6747886706130326,0.1006581639142304,-0.2356513213614901,0.4226310984233749,-0.3755023763101994,0.1398018383511386,0.1344263989459804,10.69570496079632,-1.4534674628922977,0.1738583424362396,-1.1860236784359333
2.56,-0.6455436102705427,-0.079549415799531,1.665935972569283,0.0040617197864541,0.1188596725801011,0.0203395042566831,0.557698952027598,0.0519052299535652,-0.1593433176030039,-0.6483189600315461,-0.0761322079250542,1.663603375824346,0.6827289607362569,0.1060528022439748,-0.2415772695342978,0.4030011454802117,-0.346118687494984,0.1809011107680197,0.099431210130467,10.69570496079632,-1.450501946725709,0.1775384550144362,-1.1904873521116703
2.58,-0.6350075399272224,-0.0785214875713184,1.6629222619566406,0.0016027940219972,0.1212069461171652,0.0203079332817011,0.5517520915876469,0.0559624430904858,-0.1579984301645981,-0.6347834851686693,-0.0740920714551209,1.658860719656252,0.690669250859481,0.1114474405737191,-0.2475032177071055,0.3661790878540092,-0.2973430219975537,0.2028606568460288,0.06724437192029,10.663657998418785,-1.447500327202752,0.1806247192711787,-1.1950754364596814
2.6,-0.6240332411309504,-0.0773533534753507,1.659772247735026,-0.0002998880964033,0.1234359053781672,0.0203254548230865,0.5460338272701811,0.0605374819291108,-0.1571032211295861,-0.621049503052712,-0.0719170690269439,1.6539699147838385,0.6986095409827053,0.1168420789034634,-0.2534291658799132,0.3688865896034212,-0.2859132158732902,0.228751941931251,0.0447604517506,10.636403080446144,-1.4448262555123677,0.1829701636064304,-1.1993320486403498
2.62,-0.6131684521375372,-0.0760891016940755,1.6566346711534252,-0.0015188751765285,0.1253697812436978,0.0203952742500106,0.5407596275669792,0.0656131062180933,-0.156725370979483,-0.5967315497674414,-0.0743264793788951,1.6519170866785466,0.5552765723865342,0.0756918278214806,-0.1698880141712326,0.3664761764702367,-0.2637099851600988,0.2537812144491239,0.0188925075051554,10.610729355242256,-1.442371808932056,0.1845810032457045,-1.2032085774655543
2.64,-0.6023476600865252,-0.074692868442515,1.6536059259602969,-0.0011208895238228,0.1255698653502899,0.0205853320662922,0.5413340444053367,0.0733271009074265,-0.146166162276336,-0.5967315497674414,-0.0743264793788951,1.6519170866785466,0.5552765723865342,0.0756918278214806,-0.1698880141712326,0.6544703148498486,0.0287208419178786,0.3856997344666629,0.5279604351573458,11.23978264586276,-1.4413894600852104,0.1845763014821193,-1.2084717580604991
