t,x,y,z,roll,pitch,yaw,v_x,v_y,v_z,ref_x,ref_y,ref_z,ref_v_x,ref_v_y,ref_v_z,a_com,a_x,a_y,a_z,thrust,wind_x,wind_y,wind_z
0.0,-0.1351946347766978,-2.5014517711454247,1.93227388120148,0.0151160462958429,0.1364014039560836,0.0259646096563221,0.0011735001622804,-0.0057846780791764,-0.0019670421235513,-0.1351618922888988,-2.501648986215408,1.9322116259074569,0.1011139691222054,0.0936170259950215,-0.072180149257801,0.3110822151232766,0.0586750081140242,-0.2892339039588206,-0.0983521061775672,10.54505431196867,-1.2839388430054908,0.1606342389812811,-1.160347102883344
0.02,-0.1352671298458245,-2.5017970971760306,1.9320503933285225,0.0053414965112171,0.1386830561101995,0.0253125225662978,-0.008283892010028,-0.0245642710191824,-0.0212166480691122,-0.1351618922888988,-2.501648986215408,1.9322116259074569,0.1011139691222054,0.0936170259950215,-0.072180149257801,1.4253619774925088,-0.472869608615426,-0.938979647000304,-0.9624802972780448,9.374219886088667,-1.295654096594372,0.1710525005110703,-1.151407273070163
0.04,-0.1355005347996866,-2.502272450622021,1.9313856835210816,-0.0100927519575945,0.1442712786816958,0.0242477077867831,-0.0153530909011686,-0.0238773565589262,-0.0476722968304749,-0.1351618922888988,-2.501648986215408,1.9322116259074569,0.1011139691222054,0.0936170259950215,-0.072180149257801,1.369622918746988,-0.3534599445570329,0.0343457230128116,-1.322782438068137,8.965340828479384,-1.286867540662066,0.1874104127377235,-1.1436272537619627
0.06,-0.1358526679615163,-2.5026782535306,1.9301483401252144,-0.0267609603113474,0.1518968261213002,0.0229924310766716,-0.0191293182281603,-0.0163282175308179,-0.0745986621639565,-0.1341507525976767,-2.500712815955457,1.9314898244148784,0.1211139694202286,0.1136170262930447,-0.0862068194157104,1.4109203937172936,-0.1888113663495818,0.3774569514054153,-1.3463182666740792,8.965340828479384,-1.2750278596418654,0.2036005599851669,-1.132799054231311
0.08,-0.1362454234932008,-2.5028907037064467,1.928397268287156,-0.0428278940091838,0.160215082051199,0.0216523146542724,-0.0196922418449108,-0.0049377743325265,-0.0991911148694743,-0.1321284732152326,-2.498840475435557,1.9300462214297227,0.1611139700162751,0.1536170268890911,-0.1142601597315292,1.3554038229665428,-0.028146180837524,0.5695221599145683,-1.2296226352758906,9.154010991317593,-1.2652513595524402,0.2182718695122715,-1.124676708266257
0.1,-0.1366033621504605,-2.5028508439625674,1.9262984297281167,-0.0573960524028507,0.1682020914898834,0.0203237177965504,-0.0177691697944093,0.0088581520126802,-0.1205444843427955,-0.1301061938327885,-2.4969681349156567,1.9286026184445664,0.2011139706123215,0.1936170274851376,-0.142313500047348,1.274747207976895,0.0961536025250706,0.6897963172603438,-1.0676684736660564,9.154010991317593,-1.2575601622053851,0.2330566809159276,-1.1189928600558914
0.12,-0.1369187954302362,-2.5024843570836426,1.923664696332084,-0.0716464083515244,0.1763945306795951,0.018917157994488,-0.0136680095444602,0.0272036010868977,-0.141664853421668,-0.1260839144205421,-2.493095794365954,1.92575634844362,0.241113971208368,0.2336170280811841,-0.1703668403631667,1.4137229282626986,0.2050580124974562,0.917272453710871,-1.056018453943628,9.273949110896863,-1.2526569736103303,0.2469487260416448,-1.1160833744509178
0.14,-0.1371336945929865,-2.5017092649513133,1.9206154185393307,-0.0841590002226584,0.1842212161042061,0.0175769604980192,-0.0078475731807321,0.0492804809818896,-0.1621919730456566,-0.1220616350082956,-2.489223453816251,1.9229100784426727,0.2811139718044145,0.2736170286772306,-0.1984201806789856,1.5351129807115556,0.2910218181864082,1.103843994749599,-1.0263559811994285,9.366969994018293,-1.2504733237180998,0.2587847628204269,-1.115462866819722
0.16,-0.1372161713639351,-2.5004547000840742,1.9171603721404769,-0.0942686142080445,0.1916261026204754,0.0163819253842102,-0.0005244205103081,0.0745271279137393,-0.1822715106367816,-0.117039355581148,-2.484351113251648,1.9193624749338305,0.3211139724004609,0.313617029273277,-0.2264735209948043,1.6539419398887734,0.3661576335211999,1.2623323465924838,-1.003976879556251,9.469064428585623,-1.2502211096302664,0.2691813956209882,-1.1167600370881734
0.18,-0.1371457112764939,-2.4987778281418063,1.913510284635364,-0.1015350249746614,0.1982577809308317,0.015415774083815,0.0077104412299509,0.1001861403647571,-0.200915196054444,-0.1110170761390993,-2.4784787726721422,1.9151135379170925,0.3611139729965073,0.3536170298693234,-0.2545268613106231,1.6384328440581757,0.411743087012951,1.28295062255089,-0.9321842708831184,9.515299376976143,-1.251411386564986,0.2771859060163452,-1.118913008042464
0.2,-0.1368897366997209,-2.4964809704033075,1.9092889568577287,-0.1070117173173036,0.2048198129695319,0.0145788329347401,0.0175970791431634,0.1278107873990294,-0.2201973426284613,-0.1367601892149964,-2.4937685211235685,1.9034645248326416,0.107710442720067,0.2001861418548733,-0.2344220849506709,1.7554685339653535,0.4943318956606257,1.3812323517136127,-0.964107328700868,9.515299376976143,-1.2532202641173498,0.2830771732018748,-1.1221460591778751
0.22,-0.136383357902444,-2.4934675509574,1.9048644216668933,-0.1061251543771735,0.2109049323589895,0.0142486630366323,0.0329379317418687,0.1705409628151573,-0.2200996060926379,-0.1367601892149964,-2.4937685211235685,1.9034645248326416,0.107710442720067,0.2001861418548733,-0.2344220849506709,2.2700325999744493,0.7670426299352644,2.136508770806397,0.0048868267911714,9.54939752059272,-1.2474866589492448,0.2826818516971149,-1.1313673835508855
0.24,-0.1355985534743231,-2.4899029507537214,1.9007074608271337,-0.0989110181116495,0.2162161932192151,0.0144772264083719,0.0489999492467199,0.2012909719442113,-0.2175037091360554,-0.1367601892149964,-2.4937685211235685,1.9034645248326416,0.107710442720067,0.2001861418548733,-0.2344220849506709,1.7394612303614612,0.8031008752425638,1.5375004564526964,0.1297948478291261,10.902803466856312,-1.253406288240949,0.277877245726974,-1.1515572813898958
0.26,-0.1344355183222772,-2.4856043294633188,1.89637629705162,-0.0897914367795261,0.2213776361039348,0.0149256456358569,0.0665383748333579,0.2266030138509689,-0.2158396916232496,-0.1356830847877957,-2.49176665970502,1.9011203039831348,0.1277104430180902,0.2201861421528965,-0.2411234627299162,1.5419669190926353,0.876921279331895,1.265602095337881,0.0832008756402907,10.849100435824766,-1.259317206591914,0.2712512814016341,-1.1749766334554
0.28,-0.1329164092997324,-2.4808438286109955,1.8920631324276256,-0.0809653541872789,0.226161561506257,0.0154427667927517,0.0845644383652989,0.2480760741785869,-0.2156596160647319,-0.1335288759333944,-2.4877629368679224,1.8964318622841212,0.1677104436141367,0.2601861427489429,-0.254526218288407,1.4018413903664992,0.9013031765970514,1.0736530163809002,0.0090037779258839,10.760330966402762,-1.2649277463793,0.264411037017277,-1.1961330219706785
0.3,-0.131032211493056,-2.47568283972438,1.887737941989444,-0.0731265750435278,0.2306163613752772,0.0159646532037416,0.1030269674140385,0.2670438048748039,-0.2169203640315957,-0.131374667078993,-2.4837592140308247,1.891743420585108,0.2077104442101831,0.3001861433449894,-0.2679289738468978,1.3249804452101523,0.9231264524369792,0.9483865348108508,-0.0630373983431908,10.615424459976566,-1.2700180349137833,0.2584966776793815,-1.2141403911763933
0.32,-0.1288957050525069,-2.470445697107829,1.8835950129954917,-0.0667550317468583,0.2345747998685677,0.0164416510187098,0.1210045066780439,0.2834305877421256,-0.2191629370988963,-0.1272204581947894,-2.477755491163925,1.88638484110817,0.2477104448062295,0.3401861439410358,-0.2813317294053885,1.2214210010186783,0.8988769632002729,0.8193391433660852,-0.1121286533650303,10.56834066270858,-1.2739754003490948,0.2530787680254469,-1.2310179131461092
0.34,-0.1262707632056521,-2.4646091318885475,1.879186399413928,-0.0611935181056106,0.238473753762651,0.0169130201432482,0.1406124593192936,0.2994705341798661,-0.2216195378693138,-0.1230662493105857,-2.471751768297025,1.881026261631232,0.2877104454022761,0.3801861445370823,-0.2947344849638793,1.272582586565888,0.9803976320624852,0.8019973218870241,-0.1228300385208713,10.583980234302544,-1.276753799305978,0.2486783701298054,-1.2464115327847805
0.36,-0.1232464229906542,-2.4584529398666173,1.8747292344019288,-0.0564840482030625,0.2421126875364402,0.0173675388175587,0.1609014661844447,0.3153436692796871,-0.2240175582119395,-0.1179120404114809,-2.464748045415224,1.875332613265332,0.3277104459983225,0.4201861451331287,-0.30813724052237,1.29359066075301,1.0144503432575545,0.7936567549910484,-0.119901017131288,10.583980234302544,-1.2795521489927113,0.2453371389099587,-1.2607833814607017
0.38,-0.1199913307364758,-2.4523148550783467,1.8704511777632176,-0.0524391066616179,0.2453428134165512,0.0178035763909965,0.1807770077480087,0.3299300627604024,-0.2262191310430718,-0.1117578314974749,-2.456744322518522,1.869303896010469,0.3677104465943689,0.4601861457291751,-0.3215399960808608,1.2375853002419606,0.9937770781781984,0.7293196740357666,-0.1100786415566143,10.60824586921808,-1.28157592379398,0.2422109147972442,-1.2757564600712032
0.4,-0.1161509095370739,-2.4455618748906747,1.8659027210366184,-0.0485203808007407,0.2485185588703518,0.0182702990405915,0.202277947799937,0.3445431843987989,-0.2285345702739471,-0.1109524803490754,-2.4358183519403265,1.859140221211064,0.239559346844078,0.4299300642505185,-0.2600791886354638,1.304985637820453,1.0750470025964132,0.7306560819198255,-0.115771961543766,10.63181005577735,-1.283676588170378,0.2393825696366326,-1.2900610193981432
0.42,-0.1117482879018154,-2.438523123455844,1.8613462465585895,-0.045009890515204,0.2479645886961438,0.0189001247737528,0.2370152029727515,0.3586353723343219,-0.2267440806523991,-0.1109524803490754,-2.4358183519403265,1.859140221211064,0.239559346844078,0.4299300642505185,-0.2600791886354638,1.876481088924292,1.7368627586407253,0.7046093967761485,0.0895244810774006,10.650019703386532,-1.2770902598510552,0.2360655509634547,-1.2970232872701677
0.44,-0.1066694814896521,-2.4312201668671785,1.8568312871720047,-0.0422945927481178,0.2404246290347664,0.0197844221690143,0.2680075746079145,0.371223737411897,-0.2247245454549997,-0.1109524803490754,-2.4358183519403265,1.859140221211064,0.239559346844078,0.4299300642505185,-0.2600791886354638,1.675613736300752,1.5496185817581511,0.6294182538787579,0.1009767598699709,10.994448819419633,-1.3006767482421446,0.2361472697115904,-1.3091092865737353
0.46,-0.101337653416879,-2.424051252851917,1.8525746012386464,-0.0405072537491916,0.2292934958752693,0.0207209812933747,0.2910211850758677,0.3828895128560405,-0.2233528766456488,-0.1085568868806346,-2.4315190512978213,1.8565394293247093,0.2513158146632919,0.4499300645485418,-0.2668512001539422,1.291895950537826,1.1506805233976625,0.5832887722071717,0.0685834404675428,10.994448819419633,-1.326803408463134,0.2369172107988667,-1.3136977675169093
0.48,-0.0953237516455906,-2.416271528319303,1.848115696617282,-0.0394593011726464,0.2156548588729103,0.0217114169181315,0.3085512579014037,0.3945155549182443,-0.2226051427798555,-0.103765699943753,-2.422920450012811,1.851337845552,0.2748287503017196,0.4899300651445882,-0.280395223190899,1.0524108195409947,0.8765036412767963,0.58130210311019,0.0373866932896663,10.896188801552851,-1.3537312437722586,0.238337630817856,-1.3120624937449
0.5,-0.0890275373718521,-2.4082654995706823,1.8436593334845848,-0.0394662129923779,0.2019080005553496,0.0226297280693746,0.3198524604770307,0.4056262939664276,-0.2230238120202277,-0.0989745130068715,-2.4143218487278006,1.846136261779291,0.2983416859401474,0.5299300657406347,-0.2939392462278558,0.7926868640658478,0.5650601287813528,0.5555369524091663,-0.0209334620186074,10.798930538957393,-1.3768190909252138,0.2403940610469734,-1.3062976065605212
0.52,-0.0828877778024823,-2.4004557813547023,1.839407120312112,-0.0405492006180582,0.1899909269111477,0.0233954128936824,0.3257414889246294,0.4160163381219868,-0.2245423125829954,-0.0930076792880685,-2.403723247412988,1.8402574768547333,0.3218546215785751,0.5699300663366812,-0.3074832692648125,0.6019541460323683,0.2944514223799349,0.519502207777961,-0.0759250281383891,10.697805015211998,-1.3967813867890675,0.2434752611616102,-1.2983811151243794
0.54,-0.0763443011538186,-2.3920196227359973,1.834891695992404,-0.0428771793688076,0.179493351184015,0.024065089996127,0.3281614908813195,0.4272942324770685,-0.2269672620276623,-0.0870408455692656,-2.393124646098175,1.8343786919301763,0.3453675572170029,0.6099300669327277,-0.3210272923017693,0.5893379555992417,0.1210000978345032,0.5638947177540848,-0.1212474722333434,10.606392911222429,-1.4122452677599773,0.2476664060535007,-1.290248924523153
0.56,-0.069782131536567,-2.3833298912372527,1.8303189434996727,-0.0456299760740352,0.1715272781482821,0.0246343235001863,0.3278447008394151,0.4411449598365938,-0.2302168832739209,-0.0804861884595019,-2.3815260447684614,1.8281613064296955,0.3688804928554306,0.649930067528774,-0.3345713153387261,0.7115178187555918,-0.0158395020952217,0.6925363679762625,-0.1624810623129274,10.543106832285048,-1.4236304972367364,0.2522136724344635,-1.28436262004097
0.58,-0.0632531922776928,-2.37434579429744,1.8256745385079576,-0.0478255514166416,0.1665004522242926,0.0251372200734781,0.3250621645793622,0.456358694450821,-0.2340486412881932,-0.0733437079587776,-2.3689274434238463,1.8216053203532905,0.3923934284938583,0.6899300681248205,-0.3481153383756829,0.7966846904996101,-0.1391268130026407,0.7606867307113602,-0.1915879007136162,10.49801893912172,-1.4314546613033776,0.2558777561605013,-1.281588304224099
0.6,-0.0571187539820379,-2.365521907173267,1.821187535171445,-0.0491152922493456,0.1649114921714384,0.0255331054775609,0.321116704904971,0.4715306875206978,-0.2380844959447749,-0.0470000840487247,-2.351527859574899,1.813972106443548,0.3201938038774138,0.5563586959409371,-0.2579956604181848,0.8093888876240053,-0.1972729837195624,0.7585996534938411,-0.2017927328290841,10.473015735286026,-1.4332661912538711,0.2583945323300853,-1.281214075339761
0.62,-0.0505894554581996,-2.355852962385889,1.816502151941317,-0.0476532815471133,0.1625025660981185,0.0261882229949683,0.3324084650763205,0.4940626346418502,-0.2295572642084862,-0.0470000840487247,-2.351527859574899,1.813972106443548,0.3201938038774138,0.5563586959409371,-0.2579956604181848,1.3303253078871826,0.5645880085674765,1.126597356057618,0.4263615868144346,10.446375468843144,-1.4218960441314152,0.2561786907538881,-1.2766977103894523
0.64,-0.0438395699759454,-2.3457736566793312,1.811993223319618,-0.0427976326605327,0.1551090875924217,0.0272932626348202,0.3411142416865981,0.5118556745306657,-0.2217333771961066,-0.0470000840487247,-2.351527859574899,1.813972106443548,0.3201938038774138,0.5563586959409371,-0.2579956604181848,1.0648896924746685,0.4352888305138774,0.8896519944407766,0.3911943506189771,11.350761488748503,-1.440172204513846,0.2536627356578985,-1.2847496377358183
0.66,-0.0373251571752396,-2.3359204681256904,1.8078286386734803,-0.0375896685944386,0.1454430668932058,0.0284430922126181,0.3437077953394599,0.5243555598641136,-0.2169926389907865,-0.0437981460099506,-2.3459642726154897,1.8113921498393664,0.3192201317370242,0.5763586962389603,-0.2627850642441831,0.6808969316846009,0.1296776826430895,0.6249942666723962,0.2370369102660086,11.168259542328087,-1.4594856502216773,0.2495728167175006,-1.2855391921732078
0.68,-0.0304729229322057,-2.325321641357501,1.8035164303654372,-0.0326898307727539,0.1343315413426042,0.029579240377357,0.3409474537186757,0.534923010784095,-0.2145857943549911,-0.0373942699324023,-2.334837098696671,1.8062322366310024,0.3172727874562448,0.6163586968350068,-0.2723638718961797,0.5592034645603181,-0.13801708103921,0.5283725459990674,0.120342231789769,10.962585619848142,-1.4776441811271914,0.2455546930414813,-1.279827933986745
0.7000000000000001,-0.0237306696501672,-2.314529424850282,1.7992224722969263,-0.0288286454582904,0.1237528349210321,0.0305643246721197,0.3332471755781393,0.5439971705850482,-0.2149065650092352,-0.030990393854854,-2.3237099247778525,1.801072323422639,0.3153254431754654,0.6563586974310532,-0.2819426795481763,0.5952679089021194,-0.3850139070268182,0.4537079900476581,-0.0160385327122078,10.625836146875372,-1.4921449356400407,0.242419221617917,-1.271119840509102
0.72,-0.0171839328565829,-2.303565164285583,1.7949002291994287,-0.026024726770626,0.114743285163418,0.0313866009474745,0.3218065670687232,0.5522260856729354,-0.2172924549213539,-0.0246838849913447,-2.310582750829232,1.7954334698316754,0.3133780988946861,0.6963586980270997,-0.2915214872001729,0.7146590747729529,-0.572030425470807,0.4114457543943628,-0.1192944956059344,10.503061566334509,-1.5037339108454717,0.2399199585661879,-1.2600513168207037
0.74,-0.0112032152725302,-2.2930022445755465,1.790740045973498,-0.024300350825093,0.1082881153078276,0.0320224526534804,0.3083103005707983,0.5594538271072383,-0.2204955996911534,-0.0183773761278354,-2.29745557688061,1.789794616240712,0.3114307546139067,0.7363586986231462,-0.3011002948521695,0.7820639232831985,-0.6748133248962451,0.3613870717151468,-0.1601572384899746,10.503061566334509,-1.5119123094863247,0.2383746522410018,-1.2493259593904384
0.76,-0.0052081060717343,-2.281731487616608,1.786289192511934,-0.0232538163062472,0.104427691381492,0.032553495024688,0.2918191902896882,0.5672585328422461,-0.2244393590802985,-0.0121195508713456,-2.283328402917088,1.7839162924584484,0.3094834103331274,0.7763586992191925,-0.3106791025041661,0.9333051323565992,-0.8245555140555028,0.39023528675039,-0.1971879694572548,10.45090800012531,-1.515821927850485,0.2376084277381625,-1.2414607172721133
0.78,0.0004443339713978,-2.270304335246133,1.7817549811174886,-0.0227874938675465,0.1041918176909934,0.0329532190082192,0.2747623030584915,0.5750950882956238,-0.228768242841487,-0.0059104092218752,-2.268201228938665,1.7777984984848851,0.307536066052348,0.816358699815239,-0.3202579101561628,0.9631825346338904,-0.8528443615598347,0.3918277726688846,-0.2164441880594267,10.39142830624769,-1.512906173685563,0.237117381220503,-1.2362379771354122
0.8,0.0055150130684441,-2.2593018947273418,1.777366170386724,-0.0227748718116278,0.1066953889395524,0.0332371398859077,0.2601827903416315,0.5826772394495197,-0.2329834621097204,0.0141824491243224,-2.241549580831352,1.7703165689754143,0.2577560846251114,0.67509508978574,-0.2299107163836185,0.8482618709173644,-0.7289756358429988,0.3791075576947911,-0.2107609634116658,10.39142830624769,-1.506172406167032,0.2370486725443469,-1.234291380613628
0.8200000000000001,0.0106192104255685,-2.2475132875431383,1.7728108976660444,-0.021702656742215,0.110409963766438,0.0335818480391012,0.2512872451911992,0.5954515865107984,-0.2215529271188955,0.0141824491243224,-2.241549580831352,1.7703165689754143,0.2577560846251114,0.67509508978574,-0.2299107163836185,0.965623887108552,-0.4447772575216141,0.638717353063939,0.5715267495412415,10.37260791478002,-1.4911727690931935,0.2351658664295444,-1.2337756396417705
0.84,0.0155642526030745,-2.235497554551818,1.7684975581494289,-0.019122411777005,0.1138100787574337,0.0340378887080645,0.243711893882085,0.6052414892731466,-0.2104642614949261,0.0141824491243224,-2.241549580831352,1.7703165689754143,0.2577560846251114,0.67509508978574,-0.2299107163836185,0.8309432123691313,-0.3787675654557135,0.4894951381174073,0.5544332811984715,11.401968277112246,-1.4876210978383644,0.2334041792400137,-1.2470826838247704
0.86,0.0201283700535005,-2.2239273527679604,1.76458201229413,-0.0166975002804622,0.1166681450368527,0.0344761491051541,0.2371338966705546,0.612296794947804,-0.2022709755661237,0.0167600099705735,-2.2347986299334943,1.7680174618115785,0.2543548409384353,0.6950950900837631,-0.2301392110920448,0.6328058939929101,-0.3288998605765189,0.3527652837328698,0.4096642964401223,11.275204359446434,-1.4839392605658148,0.2313789119867569,-1.258923714278836
0.88,0.0248030199109124,-2.21161656084755,1.760609004530164,-0.0148324494296722,0.1192309677606653,0.0348946769710473,0.2307030662502716,0.6185501271021906,-0.1955581853462795,0.0219151316630758,-2.22129672813778,1.763419247483906,0.2475523535650833,0.7350950906798096,-0.2305962005088974,0.5601814336961694,-0.3215415210141487,0.3126666077193307,0.3356395109922097,11.135147760116524,-1.4804940230741814,0.2300041291502075,-1.268372518378608
0.9,0.0293529249323347,-2.1991888193581146,1.7567523951778996,-0.0139872623904964,0.121326769766326,0.0352446093837775,0.2246217711355634,0.6240109557208439,-0.1905123409126432,0.027070253355578,-2.207794826342065,1.7588210331562335,0.2407498661917312,0.7750950912758561,-0.23105318992575,0.4802690535599163,-0.3040647557354128,0.2730414309326634,0.252292221681813,11.027384619277656,-1.4775995029948463,0.2297137747036241,-1.275583264332015
0.92,0.0337839880353803,-2.186659679890606,1.7529823591673697,-0.0145411502185317,0.1229774835415658,0.035497687379925,0.2187835238408819,0.6288510997224998,-0.1867489381160719,0.0318852506794126,-2.192292924516548,1.7541999693577184,0.2339473788183792,0.8150950918719025,-0.2315101793426026,0.4233064080540865,-0.2919123647340718,0.2420072000827944,0.188170139828564,10.939327568710723,-1.4752737698564609,0.2308696683839482,-1.2803823120122568
0.94,0.0378877765866804,-2.174667833474172,1.7494685678119877,-0.0165904304236083,0.1241764663468645,0.0356324713893326,0.2134746338559955,0.6334236122185934,-0.1833187821489812,0.0367002480032472,-2.1767910226910305,1.7495789055592037,0.2271448914450271,0.855095092467949,-0.2319671687594552,0.3900581794973959,-0.265444499244323,0.2286256248046847,0.1715077983545379,10.876023732669635,-1.4727890549566078,0.2338691362170945,-1.2838419761187398
0.96,0.0420992444713818,-2.1619265262030525,1.7458405598511677,-0.0198689015741451,0.1251140721728895,0.035698156993557,0.2079424357390991,0.6407886176250882,-0.1796711556122337,0.0413451831427481,-2.1602891208506123,1.744946417025267,0.2203424040716751,0.8950950930639954,-0.2324241581763078,0.4953627458587132,-0.2766099058448198,0.3682502703247381,0.1823813268373747,10.88437453539882,-1.4702181009667186,0.2382609317387441,-1.287644871530994
0.98,0.0462000100803917,-2.149010354117211,1.742286010922046,-0.0230438258572604,0.1258006621294365,0.0357742183116468,0.2024121654358264,0.6504276390578315,-0.1759688188400643,0.0458200560979151,-2.142787218995293,1.7403025037559094,0.2135399166983231,0.9350950936600418,-0.2328811475931604,0.5856661194373068,-0.2765135151636316,0.4819510716371655,0.1851168386084678,10.88437453539882,-1.4684953846889222,0.2426193301959759,-1.291391195412002
1.0,0.050189972710011,-2.1358873096081066,1.7388053828257608,-0.0255465377244648,0.1263167866878756,0.035900012166957,0.1968675174825406,0.6612086155630602,-0.1722867847150351,0.0563206183521831,-2.11648897216432,1.7334875699800427,0.1940433492091056,0.7504276405479476,-0.192268884282984,0.6335020730630037,-0.2772323976642912,0.5390488252614345,0.1841017062514605,10.89641067040975,-1.467198438820877,0.2460815779029917,-1.295255564202064
1.02,0.0538552016456348,-2.123145414009325,1.7355732724584367,-0.0249340887850452,0.1273782453027709,0.0362110374874333,0.1894809084317218,0.678387070571692,-0.1681070424231439,0.0563206183521831,-2.11648897216432,1.7334875699800427,0.1940433492091056,0.7504276405479476,-0.192268884282984,0.9580338660243812,-0.3693304525409405,0.8589227504315899,0.2089871145945582,10.90235982955437,-1.4647809532773266,0.2463088024286156,-1.3038827299391726
1.04,0.0575723693268232,-2.1094353216446784,1.7322474367555052,-0.0207894299384785,0.1295234125409101,0.0367533177920587,0.182805354143377,0.6910240142871399,-0.164751328549768,0.0563206183521831,-2.11648897216432,1.7334875699800427,0.1940433492091056,0.7504276405479476,-0.192268884282984,0.73402347905909,-0.333777714417241,0.631847185772394,0.1677856936687954,10.981129695286654,-1.462101701847021,0.2420721824251452,-1.3117328307021927
1.06,0.0611683783701061,-2.0955276502133944,1.7289706807836416,-0.0159401810418605,0.1322721040309943,0.0373312971653868,0.177271719036115,0.6990803963162963,-0.1631030596155249,0.0582610518442741,-2.1089846957588403,1.7315648811372129,0.1923695859637615,0.7704276408459708,-0.195528897371568,0.4955885374472137,-0.2766817553631007,0.4028191014578186,0.0824134467121553,10.79636471138565,-1.4581371776003151,0.2368069086819138,-1.3192303201505116
1.08,0.0646655164090708,-2.0814864295346123,1.7257113820497307,-0.0117671678794958,0.1352505980326797,0.037858646892452,0.1728153681795331,0.7048583123699926,-0.1629253702087998,0.0621419188284562,-2.093976142947881,1.7277195034515531,0.1890220594730731,0.8104276414420173,-0.2020489235487359,0.3649484566544388,-0.2228175428290943,0.2888958026848187,0.0088844703362553,10.715556716138051,-1.4539722938117647,0.2324373953683804,-1.3253852343471884
1.1,0.0679147400606756,-2.068051826853728,1.7226073702654774,-0.0088140902101312,0.1380282002460888,0.0382884086457742,0.1694814393156027,0.7092993744374765,-0.1638332029236158,0.0660227858126384,-2.0789675901369224,1.7238741257658936,0.1856745329823848,0.8504276420380638,-0.2085689497259038,0.2813462021917215,-0.1666964431965178,0.2220531033741923,-0.045391635740799,10.715556716138051,-1.449625557130215,0.2290313108235803,-1.330779920380657
1.12,0.0712749736621093,-2.053824058896345,1.719313412429201,-0.0068313278361271,0.1407014016204777,0.0386605512584344,0.16676350455926,0.7134392743975001,-0.1655545630899431,0.0697362764722861,-2.061959037296161,1.7197027467713757,0.1823270064916965,0.8904276426341102,-0.2150889759030717,0.2621498704985273,-0.1358967378171371,0.2069949980011809,-0.0860680083163659,10.656324812228377,-1.4457892308528146,0.2269931615555495,-1.3348301709992276
1.14,0.0745885187527573,-2.0395199111025413,1.7159792005880017,-0.0061346499927991,0.1429781080203674,0.0389393247274632,0.1647334054843301,0.7169891058658954,-0.1677843531246139,0.0734497671319338,-2.0449504844554,1.715531367776857,0.1789794800010082,0.9304276432301568,-0.2216090020802396,0.2328871470624643,-0.1015049537464937,0.1774915734197635,-0.1114895017335387,10.616540260990403,-1.4428575478938386,0.2264902557304913,-1.337286296257636
1.16,0.0778667539856401,-2.0251384389703677,1.712598031919418,-0.0066129051761506,0.1447907379795595,0.0391312673741241,0.1631833666454145,0.7210684470835694,-0.1702230667083083,0.0770795696293142,-2.026941931599737,1.71119698812791,0.1756319535103198,0.9704276438262032,-0.2281290282574075,0.2499548414997041,-0.0775019419457817,0.2039670608837029,-0.1219356791847189,10.594512083154768,-1.4402759279529094,0.2273580329998855,-1.3391512342301723
1.18,0.080955571328744,-2.0113946840910124,1.7093401287922316,-0.0079137184920282,0.146067719657386,0.0392504425663655,0.1620128061437882,0.7254900602970841,-0.1725926010189843,0.0806256839644275,-2.0079333787291738,1.7066996078245338,0.1722844270196315,1.0104276444222495,-0.2346490544345753,0.257563429796262,-0.0585280250813141,0.221080660675732,-0.1184767155337995,10.586544432941082,-1.4384313521682657,0.2293615233849759,-1.340263444791771
1.2,0.0841844134770537,-1.9968296013296705,1.705861838234293,-0.0099692658559313,0.1469700934927204,0.0393252932781938,0.1609163659808711,0.7308581973176,-0.1751125808890359,0.0890562116359335,-1.9751201810761585,1.7007104987412824,0.147843910362748,0.8254900617872002,-0.1776684403671216,0.3015351333068712,-0.0548220081458522,0.2684068510257986,-0.1259989935025809,10.585953207390958,-1.437241263053154,0.2322446055674886,-1.3408882716783557
1.22,0.0874203745746635,-1.982085609607404,1.702425434157543,-0.0105559870456879,0.1469722614368755,0.039506278887568,0.1627700550810727,0.7428066336305351,-0.1679192606546102,0.0890562116359335,-1.9751201810761585,1.7007104987412824,0.147843910362748,0.8254900617872002,-0.1776684403671216,0.7034649060178293,0.0926844550100766,0.5974218156467537,0.3596660117212838,10.58595550058817,-1.4296406205202556,0.2328002005121984,-1.3436295846760478
1.24,0.0906942826522697,-1.9671290069927645,1.6991398354837333,-0.0087495155203864,0.1456099958808908,0.0398585445664105,0.1643920910342177,0.75211630517107,-0.1610558408516022,0.0890562116359335,-1.9751201810761585,1.7007104987412824,0.147843910362748,0.8254900617872002,-0.1776684403671216,0.5839681417214941,0.0811017976572542,0.4654835770267429,0.3431709901503987,11.242585200669964,-1.4329170822180943,0.2315052313977006,-1.3495895593283025
1.26,0.0938258679161246,-1.9527679028274905,1.6961280348293832,-0.0059981836966274,0.1431966795951798,0.0402590825459308,0.165062995935311,0.7589219049813779,-0.1563099678872543,0.0905346507395609,-1.9668652804582865,1.6989338143376111,0.14501013120654,0.8454900620852234,-0.1786836082367491,0.4162019112104808,0.0335452450546641,0.3402799905153963,0.2372936482173959,11.153874270239612,-1.4379905863746183,0.2286939931740907,-1.3526488659277252
1.28,0.0971238560014307,-1.937540442967466,1.693039568413793,-0.0031907582777782,0.1396703231886591,0.0406578013545749,0.1645476818090893,0.7635322470363547,-0.1528483736919169,0.0934915289468159,-1.9503554792225424,1.6953804455302688,0.1393425728941239,0.8854900626812698,-0.1807139439760041,0.2894107672744953,-0.0257657063110858,0.2305171027488395,0.1730797097668698,11.039146913127295,-1.4437024805591312,0.2257768359383465,-1.3522448092404895
1.3,0.1003940543578217,-1.9222361944305144,1.6900040923822264,-0.0012181314248005,0.1354533106404004,0.040977641348391,0.1623435244108247,0.7669153316322797,-0.1508535115557385,0.0964484071540709,-1.9338456779867983,1.6918270767229264,0.1336750145817078,0.9254900632773164,-0.182744279715259,0.2251835149487399,-0.1102078699132327,0.1691542297962478,0.0997431068089194,10.855113111380888,-1.4497210048964595,0.2238605088290087,-1.3493829438518048
1.32,0.1034414503703494,-1.9076430046002997,1.6871476283227371,-0.0003620663250519,0.1312385757215176,0.0411939813248742,0.1584161477199986,0.7692236737540357,-0.1499123516819689,0.099121907445705,-1.915335876721252,1.6881721911286212,0.1280074562692917,0.9654900638733628,-0.184774615454514,0.2325860750921648,-0.196368834541305,0.1154171060878006,0.0470579936884804,10.855113111380888,-1.4562966549615994,0.223076973181212,-1.3445004594908727
1.34,0.1065490265015367,-1.8922419443092624,1.6841573546112891,-0.0009135007769197,0.127139746390078,0.0413106957618098,0.1523835864408947,0.7709103347320487,-0.1491645007753544,0.1017954077373392,-1.8968260754557056,1.684517305534316,0.1223398979568756,1.0054900644694091,-0.1868049511937689,0.3154199653613369,-0.3016280639551907,0.0843330489006533,0.037392545330725,10.79256952270407,-1.4618816422919745,0.2240204510766759,-1.338619308180222
1.36,0.1095147383143395,-1.8767996001054223,1.681181657814234,-0.0029680430386947,0.1240474186998375,0.0413209735382684,0.144361370550973,0.773353456444281,-0.1484370919593623,0.1043272190711629,-1.877316274175258,1.6808116615465294,0.1166723396444596,1.0454900650654555,-0.1888352869330239,0.4208738381952397,-0.4011107944960887,0.1221560856116132,0.0363704407996046,10.776456250737285,-1.465522888762992,0.2267214476703805,-1.333477328770864
1.38,0.1123016362201786,-1.8612911264559613,1.67822190157905,-0.0059700897758695,0.122680023018029,0.0412631796205541,0.1348229150628753,0.7776721171572823,-0.1475790406747472,0.1067173414471763,-1.8568064728799092,1.6770552591652614,0.1110047813320435,1.085490065661502,-0.1908656226722788,0.5252837696413999,-0.4769227744048837,0.2159330356500677,0.0429025642307567,10.775014610840117,-1.465366427322183,0.2302374986397287,-1.331059335757861
1.4,0.114774844249069,-1.846456091366687,1.6754273643150113,-0.0087643129762493,0.1230582690163215,0.0412026203850916,0.1261979075304222,0.7836516121804484,-0.1466352893833943,0.1190427819733223,-1.8224075205980972,1.6708429495453128,0.1130638613706536,0.8776721186473985,-0.1400221128186893,0.526867588125497,-0.4312503766226563,0.2989747511583041,0.0471875645676439,10.780275991687631,-1.462384900693347,0.2338574663453045,-1.3316220791367186
1.42,0.1172280583897431,-1.830641374285376,1.6725774347825255,-0.0091650264016348,0.1244584568008785,0.041302823692132,0.1197782402081214,0.7968321473287139,-0.1380378877476752,0.1190427819733223,-1.8224075205980972,1.6708429495453128,0.1130638613706536,0.8776721186473985,-0.1400221128186893,0.8497851937541959,-0.3209833661150366,0.6590267574132724,0.429870081785956,10.786129377929685,-1.4531650071490687,0.2340548010080232,-1.3376818216476247
1.44,0.1195671471854293,-1.814599077848376,1.6699059340661853,-0.0063262684975958,0.1261807282351346,0.0416190824778816,0.1145262402900167,0.8064211935763342,-0.1295989400638345,0.1190427819733223,-1.8224075205980972,1.6708429495453128,0.1130638613706536,0.8776721186473985,-0.1400221128186893,0.6905598255932907,-0.2625999959052355,0.4794523123810179,0.4219473841920354,11.243836512931011,-1.4504901682859477,0.2311975303489749,-1.3464264076943555
1.46,0.1216996803192379,-1.7992211833397205,1.667509163965924,-0.0026201271345998,0.1278316121793614,0.041983507230902,0.1102531850915011,0.8117133732749622,-0.1231255706858061,0.1201734205870289,-1.8136307994116236,1.6694427284171258,0.1087120506322093,0.8976721189454216,-0.1385107272474777,0.4694962135005095,-0.213652759925783,0.264608984931397,0.3236684689014169,11.243836512931011,-1.4479668666274876,0.2267389493978454,-1.3544829373532423
1.48,0.1238630311912998,-1.7829541781754816,1.6651051909378998,0.0007760282358224,0.1293854218816453,0.042325023402422,0.1063249367711578,0.8148519288451008,-0.1176812948625674,0.122434697814442,-1.7960773570386754,1.6666422861607522,0.1000084291553207,0.937672119541468,-0.1354879561050546,0.3705462358890919,-0.196412416017163,0.1569277785069323,0.2722137911619369,11.147602200274378,-1.445318027970136,0.2227569525216811,-1.360915918417396
1.5,0.1259520866019753,-1.7666365826314914,1.662797187507338,0.0031209726024357,0.1306223470290409,0.0425842326771047,0.1027716006665313,0.8169750143466062,-0.1134428121787039,0.124695975041855,-1.7785239146657277,1.6638418439043785,0.091304807678432,0.9776721201375146,-0.1324651849626314,0.296219618613265,-0.1776668052313239,0.1061542750752708,0.2119241341931747,11.069283989283576,-1.4430712733203424,0.2200086488525166,-1.365758093567413
1.52,0.1279729892047834,-1.7502853250909576,1.6605643365617535,0.0041976328106927,0.1314715373916834,0.0427443693124325,0.0994625697707777,0.8182933640790419,-0.1100539420543813,0.1265220711954237,-1.758970472262977,1.6611925402051255,0.0826011862015433,1.017672120733561,-0.1294424138202083,0.2458260167557109,-0.1654515447876821,0.0659174866217804,0.1694435062161312,11.00515126499704,-1.4416387733025509,0.2188367894160837,-1.3687565155902244
1.54,0.1298332468918633,-1.7347334805689263,1.6585044424905964,0.0037634438743521,0.1319100186758562,0.0427853346749515,0.0964790381030516,0.8189122202847697,-0.1069459662756363,0.1283481673489923,-1.7394170298602267,1.658543236505873,0.0738975647246547,1.0576721213296076,-0.1264196426777851,0.2176232849269472,-0.1491765833863054,0.030942810286394,0.1553987889372506,10.964247298496955,-1.4404816298400027,0.2194584398780919,-1.3705176130948038
1.56,0.1317295751819474,-1.7183417954948672,1.6564015042175293,0.0017798115133817,0.1320293320954694,0.0427147332258541,0.0932810007670061,0.8203498737770004,-0.1035025424548294,0.1299566729656388,-1.7188635874425753,1.6559695020851808,0.065193943247766,1.097672121925654,-0.123396871535362,0.2457206644554144,-0.1599018668022742,0.0718826746115341,0.1721711910403434,10.963068064214896,-1.4395580669254735,0.2220338419362794,-1.3716247229464706
1.58,0.133560590252798,-1.7019039289291806,1.65437085951819,-0.0012689723643843,0.1318752817702095,0.0425666019323792,0.0899337903417457,0.8236992984474464,-0.0997388592491368,0.1313475880453629,-1.6973101450100228,1.6534713369430494,0.0564903217708774,1.1376721225217004,-0.1203741003929388,0.3024391448158466,-0.1673605212630172,0.1674712335222983,0.1881841602846309,10.99567101406774,-1.4384815018019848,0.2259271269909294,-1.372864032161951
1.6,0.1353222919324869,-1.6853730377194978,1.6524189686899653,-0.004307853203459,0.1315331005920531,0.0424189892775778,0.0863756491813235,0.8291826132001687,-0.095644963529763,0.1380572797698853,-1.6607189640068083,1.6493839165557331,0.0780019565306414,0.9236992999375624,-0.0852395348752359,0.3856393760886617,-0.1779070580211129,0.2741657376361173,0.2046947859686912,10.99567101406774,-1.438007785812283,0.2296801868259117,-1.3742949032646603
1.62,0.1369088911186745,-1.6694960898450593,1.6506701389604663,-0.0047822048706961,0.1317559445697865,0.0424425747256188,0.0809284126244831,0.8411761452443777,-0.0884881826823666,0.1380572797698853,-1.6607189640068083,1.6493839165557331,0.0780019565306414,0.9236992999375624,-0.0852395348752359,0.7495610533827524,-0.2723618278420214,0.5996766022104472,0.3578390423698167,11.018626763440809,-1.4352046694174776,0.2304926463055311,-1.3788411787164865
1.64,0.1384768440871685,-1.652576277250507,1.6489808783302342,-0.0019808953801205,0.1330953871190833,0.0426855708558009,0.0763166066888381,0.8498639785728286,-0.0808617496546224,0.1380572797698853,-1.6607189640068083,1.6493839165557331,0.0780019565306414,0.9236992999375624,-0.0852395348752359,0.6223135918844706,-0.2305902967822473,0.4343916664225455,0.3813216513872119,11.27060272833296,-1.4323544217202315,0.227133551999995,-1.386839666576835
1.66,0.1399655587102989,-1.6355269771129384,1.6474340664165703,0.0019093870485124,0.135014748714433,0.0429967412574234,0.0728923926190272,0.8544619154594384,-0.0742615262913846,0.1388372993351917,-1.6514819710074329,1.6485315212069809,0.0756155897684206,0.9436993002355856,-0.0823396700004557,0.4371190171273926,-0.1712107034905437,0.2298968443304905,0.3300111681618867,11.18490449849105,-1.4293454617354928,0.2225731528194288,-1.394372704945828
1.68,0.1413267332433541,-1.6192731931124893,1.646076069704786,0.0050765670358111,0.1369896073605183,0.0432504618949476,0.0706047259383488,0.8564751507203162,-0.0690255430286029,0.1403973384658045,-1.6330079850086814,1.646826730509476,0.0708428562439789,0.9836993008316322,-0.0765399402508954,0.3029111081887665,-0.1143833340339239,0.100661763043891,0.2617991631390863,11.13006132121609,-1.4257445096833936,0.2183416357472077,-1.40141575813759
1.7,0.142721498212105,-1.6021334618898209,1.644747223282697,0.0073465329445796,0.1389309617964745,0.0434363500209343,0.0690252359289938,0.8576305156451416,-0.0641686314884878,0.1419573775964173,-1.61453399900993,1.6451219398119714,0.0660701227195371,1.0236993014276785,-0.070740210501335,0.2618169518369296,-0.0789745004677454,0.0577682462412687,0.2428455770057576,11.13006132121609,-1.4223767796499802,0.2154545892217459,-1.4073216985092152
1.72,0.1440920325178587,-1.5849775841095557,1.6435105927306926,0.0083390619839744,0.1405225417021818,0.0435229859554173,0.0681142152857992,0.8580372780310329,-0.0597571814671218,0.1432787800508081,-1.594060012981377,1.6437071356019448,0.0612973891950954,1.0636993020237249,-0.0649404807517746,0.2261432374730279,-0.0455510321597331,0.0203381192945661,0.2205725010683001,11.09853195195501,-1.4198667985634097,0.2142115549420217,-1.411905795408826
1.74,0.1454502585354611,-1.567822235481295,1.642361607381045,0.0076423045743146,0.1416271459903344,0.0434799723920854,0.0677077801628256,0.8577570457844882,-0.0553633068822535,0.1446001825051988,-1.573586026952823,1.642292331391918,0.0565246556706537,1.1036993026197714,-0.0591407510022143,0.2210760812974855,-0.0203217561486807,-0.014011612327236,0.2196937292434111,11.080936351388118,-1.418148417068805,0.2150416254684715,-1.4149556230341662
1.76,0.1467351924412385,-1.5515203555032049,1.6413541681559258,0.0054733062901613,0.1421945702761478,0.043324701606743,0.0675194105872376,0.8583772121751312,-0.0509042809788351,0.1458022666214785,-1.5521120409093685,1.6410225204256303,0.051751922146212,1.1436993032158178,-0.0533410212526539,0.2252942601157818,-0.0094184787793993,0.0310083195321497,0.2229512951709221,11.088437578498088,-1.4168090214272484,0.2179709018103133,-1.417476528337165
1.78,0.1480838048554453,-1.534326715678293,1.6403899368249706,0.0022257109838565,0.1423162936589913,0.0430887449880072,0.0673024700850188,0.8612534504723273,-0.0457345793600634,0.1468850323996472,-1.5296380548510125,1.6398977027030817,0.0469791886217703,1.1836993038118642,-0.0475412915030936,0.2959967261258601,-0.0108470251109375,0.1438119148598038,0.2584850809385846,11.11030496459898,-1.4157427675109555,0.2222059779481522,-1.4199722869797795
1.8,0.1494265574644382,-1.5170505101897367,1.6395341918627857,-0.000928489813403,0.1420140603015741,0.0428584986134973,0.0669380504221514,0.8662068726584365,-0.0400840227877475,0.1514489283596962,-1.4912640431546766,1.6381032078569675,0.056189935643965,0.9612534519624434,-0.0275189994479969,0.3761581536450663,-0.018220983143373,0.247671109305464,0.2825278286157934,11.143060523364513,-1.415629923939883,0.2261965473103722,-1.4224308738629845
1.82,0.150685044485454,-1.50046740080023,1.6388297385935613,-0.0012081899820743,0.1415926147983654,0.0428284431608322,0.0656002849631068,0.8779877814142483,-0.0343606172692468,0.1514489283596962,-1.4912640431546766,1.6381032078569675,0.056189935643965,0.9612534519624434,-0.0275189994479969,0.6582871680835403,-0.0668882729522285,0.5890454377905863,0.2861702759250371,11.21225009468435,-1.414863400145386,0.2268302866801381,-1.427786546041056
1.84,0.1519843372100006,-1.4828199852943142,1.6382075292695166,0.0017007929954434,0.1411934918451795,0.0430114192250894,0.0644045123459665,0.8858220426894884,-0.0281588642333994,0.1514489283596962,-1.4912640431546766,1.6381032078569675,0.056189935643965,0.9612534519624434,-0.0275189994479969,0.5031581823797359,-0.0597886308570161,0.3917130637620059,0.3100876517923694,11.21225009468435,-1.4156032614400835,0.2231551738864603,-1.4327004863268549
1.86,0.153260432179303,-1.465061584944238,1.63770458414805,0.005563913155561,0.1407842629691043,0.0432470901555554,0.0632514486097321,0.8894962206992071,-0.0224795678062427,0.1520108277161359,-1.481651508635052,1.6378280178624876,0.0539674287557542,0.9812534522604666,-0.0238758834655836,0.3430872627132721,-0.057653186811718,0.1837089004859349,0.2839648213578362,11.187600064751678,-1.4163478767215083,0.2181389463091837,-1.4368909288013867
1.88,0.154512963953157,-1.4472598423304186,1.6373080253426404,0.0087664265056166,0.1403458958896864,0.043422025668046,0.0620301099143014,0.8907695563477541,-0.0174634699839167,0.1531346264290152,-1.462426439595803,1.6372776378735276,0.0495224149793326,1.0212534528565131,-0.0165896515007571,0.2658678677743926,-0.0610669347715354,0.0636667824273518,0.2508048911163001,11.153524411418402,-1.4167506051665295,0.2140768650336355,-1.4398526794065791
1.9,0.1556793269918585,-1.430335625303174,1.637020222546446,0.0107387088183875,0.1398963108683903,0.0435013722407734,0.0607762882799797,0.8909802446955963,-0.0130828117169992,0.1542584251418945,-1.4432013705565545,1.6367272578845675,0.0450774012029111,1.0612534534525595,-0.0093034195359305,0.228071398481494,-0.0626910817160861,0.0105344173921106,0.2190329133458719,11.133485452347486,-1.4170455586046078,0.2112063018739694,-1.4421113873900888
1.92,0.1568805089255594,-1.4125229505610624,1.6368062411256827,0.0114834749233899,0.1393849830140943,0.0434816367976392,0.0593830737171878,0.8904231651140391,-0.0085474743826298,0.1551599731659527,-1.421976301487503,1.636541189493849,0.0406323874264895,1.101253454048606,-0.0020171875711039,0.2388549204783557,-0.0696607281395946,-0.0278539790778631,0.2267668667184716,11.133485452347486,-1.4174776430321503,0.2101284390082811,-1.4435763368235524
1.94,0.158053165520959,-1.3947297021112943,1.6366840563018663,0.0104202494571102,0.1388325231814751,0.0433289680643912,0.0579174495702941,0.8892282588658428,-0.003895573082737,0.1560615211900109,-1.400751232418452,1.6363551211031306,0.036187373650068,1.1412534546446524,0.0052690443937226,0.2510778802776195,-0.0732812073446831,-0.0597453124098146,0.2325950649946422,11.143474903950846,-1.4178792011951034,0.2113090563195988,-1.44430177065419
1.96,0.1591386389088167,-1.3778371327601853,1.6366578955612578,0.0078290219984972,0.1382826057337259,0.043072050722787,0.05638882302082,0.8892423726837452,0.0009102621095834,0.1568519438696586,-1.3785261633344998,1.6363512085115326,0.0317423598736464,1.1812534552406988,0.0125552763585492,0.2521554591088536,-0.0764313274737082,0.0007056908951197,0.2402917596160219,11.143474903950846,-1.4176827374002707,0.2147186991170208,-1.4449393669659298
1.98,0.1602481991399283,-1.360027225684353,1.6367349631121506,0.0043477668989919,0.1376931353806185,0.0427514153373848,0.0546251046700486,0.8919315647098601,0.0065668006686389,0.1575312412048957,-1.3553010942356465,1.6365294517190554,0.0272973460972249,1.2212534558367452,0.0198415083233758,0.3253416844036805,-0.0881859175385687,0.1344596013057475,0.2828269279527751,11.167701694720565,-1.41737834491354,0.2192063114819908,-1.446134983768141
2.0,0.161320960876025,-1.3421407433025856,1.63693171498237,0.0011330153497383,0.1371060590297155,0.0424532222936848,0.052722921788967,0.8964987417169151,0.0128139225109784,0.1629794543734307,-1.31543064744886,1.6370633031455826,0.0357297151578673,0.9919315661999762,0.0164208370519697,0.3984467870365105,-0.0951091440540782,0.22835885035275,0.3123560921169767,11.206534184393604,-1.4173045339993324,0.2232045014116574,-1.4479599416114588
2.02,0.1623464865578559,-1.3240840987091986,1.637214144213968,0.0007400460878268,0.1365090261217606,0.0423532148571053,0.0499015767850739,0.908181978495764,0.0149081880532068,0.1629794543734307,-1.31543064744886,1.6370633031455826,0.0357297151578673,0.9919315661999762,0.0164208370519697,0.6100081094194708,-0.1410672501946541,0.5841618389424486,0.1047132771114183,10.975836936061569,-1.4180163155833532,0.2240925032965831,-1.4521486892413384
2.04,0.1632682553446408,-1.3067537175669603,1.6375165657273802,0.0035401303007456,0.135905895068291,0.0424723103268385,0.0472583130748106,0.9152029456492098,0.0168434038912648,0.1629794543734307,-1.31543064744886,1.6370633031455826,0.0357297151578673,0.9919315661999762,0.0164208370519697,0.3873818631261307,-0.132163185513166,0.3510483576722845,0.0967607919029013,10.995565984671885,-1.419194713791106,0.220197190772421,-1.454154532398639
2.06,0.1641836402858877,-1.2884132926509209,1.6378727986827646,0.007406828631126,0.1352519312384728,0.042648750264507,0.0444017958540091,0.9183435774879284,0.0186629501089385,0.1633367515250094,-1.3055113317868603,1.6372275115161024,0.031950637255431,1.0119315664979995,0.0183916443286359,0.2309437562338453,-0.1428258610400738,0.1570315919359299,0.090977310883686,10.995565984671885,-1.4202083214542889,0.2149165430201729,-1.455652004238417
2.08,0.1650402294897094,-1.270040229805044,1.6382609646865327,0.0105867486682768,0.1346225234122663,0.0427637027670479,0.041377185064925,0.9190913107537556,0.0200640561660377,0.1640513458281668,-1.2856727004628608,1.6375559282571417,0.0243924814505585,1.051931567094046,0.0223332588819682,0.1708103747252253,-0.1512305394542071,0.0373866632913555,0.0700553028549603,10.980014603597738,-1.4207498760850192,0.2106680376514905,-1.456283575461436
2.1,0.1657965589996657,-1.2525829362077492,1.6386535502199182,0.0125164479149971,0.1340758638703357,0.0427865358567762,0.0383691447016402,0.9188015750560782,0.0211943887909259,0.1647659401313241,-1.2658340691388612,1.637884344998181,0.016834325645686,1.0919315676900925,0.0262748734353005,0.1613219253894657,-0.1504020181642407,-0.0144867848838659,0.0565166312444073,10.95730760992683,-1.42103430526454,0.2076646764142203,-1.456321379604414
2.12,0.1665302408458575,-1.2342193242751482,1.6390903954648324,0.0131868591175242,0.1335610258159418,0.042707991952565,0.0351436755623497,0.9177262067510208,0.0224374078818005,0.1651026266442378,-1.2439954377850593,1.638409842466887,0.0092761698408135,1.1319315682861388,0.0302164879886329,0.1810052804500167,-0.1612734569645217,-0.0537684152528694,0.0621509545437297,10.946568888223736,-1.4212877789044498,0.2065245403463124,-1.455800161083013
2.14,0.1671988614947578,-1.215885269707726,1.639553060013402,0.0120195223368642,0.1331039572845911,0.0424974348696364,0.0318623475945141,0.9160364670160396,0.0237732336426885,0.1654393131571515,-1.2221568064312576,1.638935339935593,0.001718014035941,1.1719315688821854,0.0341581025419652,0.1962572550756195,-0.1640663983917833,-0.0844869867490549,0.0667912880444031,10.951895630163564,-1.4214495013569497,0.2077141581315499,-1.454808113910916
2.16,0.1677720658219925,-1.1984874001927823,1.6400210370616564,0.0093203173487516,0.1327346746743484,0.0421873463431912,0.0286291781105688,0.915688701014021,0.0254252735104196,0.1655870457749435,-1.1993181750625546,1.6395593777681323,-0.0058401417689314,1.2119315694782318,0.0380997170952975,0.1823702403672817,-0.1616584741972657,-0.0173883001009345,0.0826019933865515,10.957478120490125,-1.4208149758712914,0.2111568595369429,-1.453775645186442
2.18,0.1683081615443839,-1.1801518028619962,1.640553427200236,0.0057926759511006,0.1324241255731149,0.041817127182336,0.0251470097164264,0.9180488886908056,0.0277510005338842,0.1655458244976136,-1.1754795436789502,1.640281955964505,-0.0133982975738039,1.251931570074278,0.0420413316486298,0.2403382448887568,-0.174108419707117,0.1180093838392293,0.1162863511732304,10.97876022494802,-1.4200229232898771,0.215593507234203,-1.4534628740416802
2.2,0.1687741605149219,-1.1617475913358597,1.6411385477159055,0.002547725095013,0.1321912353076709,0.0414713530738422,0.0216322761950794,0.922215780900377,0.0306632599737763,0.1695655120302052,-1.1342493584274558,1.6419409772269302,0.0047077574590793,1.0180488901809217,0.0407873382149989,0.3090210245982815,-0.1757366760673527,0.2083446104785724,0.1456129719946063,11.0141369611938,-1.419338790188838,0.2197020370558307,-1.4539678629018158
2.22,0.1691615093285124,-1.1431813087692655,1.6417815476718909,0.0021384339456135,0.1321974092407895,0.0413258510938528,0.0173326429580966,0.9334515678990666,0.0334722017178219,0.1695655120302052,-1.1342493584274558,1.6419409772269302,0.0047077574590793,1.0180488901809217,0.0407873382149989,0.6176971530894615,-0.2149816618491394,0.5617893499344773,0.1404470872022818,11.051960750234684,-1.417632694874814,0.2201435165241361,-1.4575339118407675
2.24,0.1694544692945801,-1.1253737328256834,1.6424461096735847,0.0049473241448246,0.1324830487635747,0.0414068637447701,0.0137623916497854,0.940168498426492,0.0363373986125224,0.1695655120302052,-1.1342493584274558,1.6419409772269302,0.0047077574590793,1.0180488901809217,0.0407873382149989,0.4064271255716011,-0.1785125654155577,0.3358465263712695,0.1432598447350212,11.051960750234684,-1.4169465499372742,0.2160974811107337,-1.460856595636752
2.26,0.1696942109737045,-1.1065382247596656,1.643200319786546,0.008843988767859,0.1328976546303913,0.041550646437066,0.0104242833123616,0.9429055559992572,0.0389040469447255,0.169612589604796,-1.1240688695256469,1.6423488506090802,0.0006199070076099,1.0380488904789449,0.0433946057512218,0.2511082191516784,-0.1669054168711923,0.1368528786382605,0.1283324166101551,11.062258574033876,-1.4161740495523054,0.2106587390213418,-1.4639518755934473
2.28,0.169870447838533,-1.0876785307706285,1.6439989616357225,0.0120355560521501,0.1333110932392221,0.0416371547301058,0.0073631810423786,0.9432238403344144,0.0408310092186908,0.1697067447539776,-1.1037078917220282,1.6431645973733802,-0.0075557938953289,1.0780488910749917,0.0486091408236677,0.1815546448771461,-0.1530551134991468,0.0159142167578618,0.0963481136982646,11.033705853683388,-1.41509217958012,0.2060966700995819,-1.4662303085325714
2.3000000000000003,0.1699875794814597,-1.068822748854396,1.6448324371734275,0.0140752715344289,0.1336473905033349,0.0416350702287896,0.0044970883571555,0.942566972641788,0.0424074658932806,0.1698008999031592,-1.0833469139184098,1.64398034413768,-0.0157314947982677,1.1180488916710378,0.0538236758961135,0.1668171011374806,-0.1433046342611574,-0.0328433846313258,0.0788228337294919,11.000618699446932,-1.414130706707895,0.2031734566363433,-1.4675487614833602
2.32,0.1700475955779746,-1.0509309003164171,1.6456523172784152,0.0146496308576806,0.1338417312946771,0.0415308005634003,0.0019421972020097,0.941075905746645,0.0438213891844396,0.1694862700071938,-1.060985936084989,1.6450568176556024,-0.0239071957012065,1.1580488922670842,0.0590382109685594,0.1639354169613365,-0.127744557757288,-0.0745533447571444,0.0706961645579484,10.98270796279212,-1.4134007094846492,0.2020041377240436,-1.4680390651746442
2.34,0.1700596409331965,-1.0321329125298333,1.6465463381192595,0.013476644729809,0.133883642816233,0.0412915453746254,-0.0006217649513653,0.938998821121844,0.0455225227151779,0.1691716401112285,-1.0386249582515683,1.6461332911735247,-0.0320828966041454,1.1980488928631308,0.0642527460410053,0.1856208349830828,-0.1281981076687575,-0.103854231240047,0.0850566765369147,10.98188206120176,-1.4128671880449404,0.203290548991578,-1.4677162989090975
2.36,0.170020169975459,-1.0133644331864806,1.6474798581429675,0.0105398491398449,0.133766750752444,0.0409279214800386,-0.0032305582160488,0.9383228816058052,0.0477491263453319,0.1686526176926897,-1.0152639804032464,1.647340128068258,-0.0402585975070842,1.2380488934591771,0.0694672811134512,0.1747888744529806,-0.130439663234175,-0.0337969758019474,0.1113301815076999,10.997578019756476,-1.4119532544010025,0.2066991628974263,-1.467436174396712
2.38,0.1699273940648583,-0.9945770813395508,1.648465445302792,0.0069845058428051,0.1335353267808741,0.0405242766795767,-0.0059392849140999,0.9405475353275508,0.0506950819761208,0.1679292027515774,-0.9909030025400232,1.6486773283398026,-0.0484342984100231,1.2780488940552237,0.074681816185897,0.2289374318727102,-0.1354363349025528,0.1112326860872869,0.1472977815394464,11.02587133409179,-1.4111557270594608,0.2111924534534111,-1.4676680081730864
2.4,0.1697881870667841,-0.9766691734375555,1.6494625142069643,0.003939612281372,0.1332458914183622,0.0401687392532532,-0.0085897606579379,0.9442846304531848,0.0541066191922475,0.1696304298191533,-0.9475497045731732,1.651000199401598,-0.022996890001857,1.0405475368176669,0.0469215349656245,0.2856111334652806,-0.1325237871919008,0.1868547562817013,0.170576860806336,11.068450975240012,-1.4106737552532989,0.2150916263055867,-1.468274358511163
2.42,0.1695540920541212,-0.9576655802768842,1.650524210167059,0.0035767652420883,0.1335635453133575,0.0399981428156277,-0.0146092871918773,0.9551327597921784,0.0515662447614814,0.1696304298191533,-0.9475497045731732,1.651000199401598,-0.022996890001857,1.0405475368176669,0.0469215349656245,0.633186607756398,-0.300976326696969,0.5424064669496742,-0.1270187215383068,11.108800975577651,-1.4122976337025277,0.2157969013173526,-1.4707417454425828
2.44,0.1692069505354325,-0.938490904711456,1.651525344831428,0.0065543081813743,0.1349618228087388,0.0400628479771516,-0.0196307973140658,0.9614808524017544,0.0487008655296151,0.1696304298191533,-0.9475497045731732,1.651000199401598,-0.022996890001857,1.0405475368176669,0.0469215349656245,0.4293141094507834,-0.2510755061094253,0.3174046304788069,-0.1432689615933166,10.727789769824083,-1.4098884768508886,0.2117225366130771,-1.472727038891934
2.46,0.1687958940207673,-0.92019883015921,1.6524207116986696,0.0101842810318768,0.1368346096951213,0.0401827612893022,-0.0232920361602421,0.963657804269312,0.0456822045743061,0.1694004609191348,-0.9371442292049964,1.6514694147512543,-0.0264084110194084,1.06054753711569,0.0461668255635253,0.2610368905227745,-0.1830619423088172,0.1088475933778754,-0.1509330477654478,10.727789769824083,-1.406742085472567,0.2062218587132271,-1.4753371550480163
2.48,0.1682993415504479,-0.9009257510336928,1.653297451188239,0.01335016511933,0.1390093977891232,0.0402651987327304,-0.0260970873976849,0.963723044433208,0.0421309005081612,0.1689405231190976,-0.9163332784686432,1.6524078454505668,-0.0332314530545113,1.1005475377117366,0.0446574067593268,0.226298084911701,-0.1402525618721374,0.0032620081948042,-0.1775652033072436,10.708333129964558,-1.4032194758852865,0.2015857614610194,-1.4777898207560407
2.5,0.1677569620402471,-0.8816639264122406,1.654100567782658,0.0152930790158466,0.1410886874509209,0.0402600972144439,-0.0279781289145734,0.9628065421610362,0.03836075104734,0.1684805853190605,-0.8955223277322899,1.6533462761498794,-0.0400544950896141,1.140547538307783,0.0431479879551283,0.2155940662453701,-0.0940520758444234,-0.045825113608594,-0.1885074730410635,10.68191327175009,-1.399997920476289,0.1987062222008382,-1.4789677776877803
2.52,0.1672144125371183,-0.8633884696122395,1.6547944254521385,0.0158284677582691,0.1427810898487997,0.0401575268965441,-0.0290448153800224,0.96121148017356,0.0348694457520345,0.1676794954172682,-0.8727113769661342,1.654209235908982,-0.046877537124717,1.1805475389038294,0.0416385691509298,0.1991937211892704,-0.0533343232724508,-0.0797530993738082,-0.1745652647652733,10.68191327175009,-1.397273018475596,0.1975418912149251,-1.4790731249561355
2.54,0.1666268104371134,-0.8441885320818321,1.6554538189536565,0.0146635361441203,0.1441448747734389,0.0399200164855086,-0.0296641301619519,0.9590567996195442,0.0312637533791205,0.1668784055154759,-0.8499004261999785,1.6550721956680845,-0.0537005791598198,1.220547539499876,0.0401291503467313,0.2122923489969716,-0.0309657390964781,-0.1077340277007954,-0.1802846186456989,10.691030385842168,-1.3954232309938392,0.1988136899454304,-1.478122836950696
2.56,0.1660299178727467,-0.825019442199195,1.656045271341903,0.0117986343586798,0.1450391698294841,0.0395562212530513,-0.0300190989519145,0.958275773142254,0.0280895761779955,0.1659067395628061,-0.8260894754189217,1.6558974199570822,-0.0605236211949226,1.2605475400959223,0.0386197315425328,0.1644035135285842,-0.0177484394981263,-0.0390513238645084,-0.1587088600562489,10.696235481216718,-1.3939184280533128,0.2023840539130111,-1.4769232614807632
2.58,0.1654272917346821,-0.8058350894097782,1.6565809233861677,0.0083199272617649,0.1454772890538169,0.0391464043916934,-0.0302734316106274,0.9602971876731076,0.025636340982826,0.1647644975592586,-0.8012785246229638,1.6566849087759747,-0.0673466632300255,1.3005475406919689,0.0371103127383343,0.1594456390878473,-0.0127166329356493,0.1010707265426846,-0.1226617597584751,10.758715950020814,-1.3931196188577089,0.2065885903698472,-1.475813386512944
2.6,0.1648498585182839,-0.7875542433270395,1.6570505771800172,0.0053442797508759,0.1455253697337702,0.0387811852645348,-0.0305338998043858,0.9637988173572763,0.0239235878463224,0.1639136201541507,-0.7578202300261229,1.657862740435309,-0.0466679964925483,1.04678153793718,0.0240875187121197,0.1953380238945685,-0.0130234096879183,0.1750814842084336,-0.0856376568251821,10.796189291927476,-1.393023705072666,0.2105955940726704,-1.4747233325676925
2.62,0.1642278816733162,-0.768121299846595,1.65752204949857,0.0063791940889242,0.1454240703215342,0.0386892174181306,-0.0316171986852512,0.978228785549306,0.0233674082034683,0.1639136201541507,-0.7578202300261229,1.657862740435309,-0.0466679964925483,1.04678153793718,0.0240875187121197,0.7240629362897227,-0.0541649440432705,0.7214984096014843,-0.0278089821427058,10.796189291927476,-1.3911758713413127,0.2088430813990577,-1.4783464042366592
2.64,0.1635874566517308,-0.7484794175794385,1.6579837442657557,0.0123099941398889,0.145327530667578,0.0389306397185241,-0.0323453512686059,0.98424357900792,0.0228232145699393,0.1639136201541507,-0.7578202300261229,1.657862740435309,-0.0466679964925483,1.04678153793718,0.0240875187121197,0.3041549491838161,-0.0364076291677326,0.3007396729306943,-0.0272096816764473,10.891404770562986,-1.392886654503952,0.2010801291281417,-1.479468859885147
2.66,0.1629661484676426,-0.7297756920647526,1.658400631032675,0.0184205456934477,0.145195193534244,0.0391799293090315,-0.0330311697353606,0.9843486638933046,0.0210857499288054,0.1634469401892252,-0.7473524146467511,1.6581036156224302,-0.0499469094689324,1.0640784079899943,0.0237777542579785,0.0935437488781146,-0.0342909233377378,0.0052542442692316,-0.0868732320566952,10.869343494683562,-1.393908173676583,0.1920387869207187,-1.480180297141708
