t,x,y,z,roll,pitch,yaw,v_x,v_y,v_z,ref_x,ref_y,ref_z,ref_v_x,ref_v_y,ref_v_z,a_com,a_x,a_y,a_z,thrust,wind_x,wind_y,wind_z
0.0,-1.7749786861468348,0.4012497909226343,1.9339756371429635,0.0239850755141639,0.1500513773242723,0.0289079396049201,0.0017777963162754,0.0033599117269215,-0.0034195410349856,-1.7749264101931506,0.4014295846024042,1.933871579733872,0.1017085886766201,-0.0765818584861963,-0.1033723601398433,0.2556502857656246,0.0888898158137732,0.1679955863460772,-0.1709770517492821,10.660070656776044,-1.4130787163155685,0.1670503678490561,-1.2808321305607429
0.02,-1.7750485925819617,0.4015291178265776,1.933695774183804,0.0322948385195232,0.1521996391904814,0.0295343550898162,-0.0085096910408265,0.0207728895707167,-0.0258020782336734,-1.7749264101931506,0.4014295846024042,1.933871579733872,0.1017085886766201,-0.0765818584861963,-0.1033723601398433,1.508328681821109,-0.5143743678551019,0.8706488921897602,-1.119126859934392,10.660946351291386,-1.4071166880263388,0.1570281653845632,-1.278630169918011
0.04,-1.7753056943503471,0.4019547570744037,1.9328472189345365,0.0468154078779987,0.1576934072782539,0.0307333145945504,-0.0162419180023811,0.0202368495455566,-0.0582011606298164,-1.7749264101931506,0.4014295846024042,1.933871579733872,0.1017085886766201,-0.0765818584861963,-0.1033723601398433,1.6656644416010276,-0.3866113480777292,-0.0268020012580038,-1.6199541198071474,9.248168048796742,-1.3955696136846174,0.1396784620627877,-1.2840050117637651
0.06,-1.775677983694739,0.4022958769935843,1.9313487327130512,0.0617427254390951,0.164793482822583,0.0321078366784213,-0.0202698564639086,0.0135698286169319,-0.0900324998899136,-1.7739093243063844,0.4006637660175423,1.9328378561324735,0.1217085889746433,-0.09293785432007,-0.1233723604378665,1.638526483920826,-0.2013969230763728,-0.3333510464312343,-1.5915669630048608,8.825468647160505,-1.3846818941251218,0.1228987659549987,-1.2896577464895798
0.08,-1.7760757691065745,0.4024634089379972,1.929355296722027,0.0754247388101525,0.1721055560604855,0.0334940676929622,-0.0211735008489849,0.0041369551084326,-0.1182555584815784,-1.771875152532852,0.3991321288478183,1.9307704089296769,0.1617085895706898,-0.1256498459878175,-0.163372361033913,1.4885703813311713,-0.0451822192538163,-0.4716436754249681,-1.4111529295832383,8.917812356775812,-1.37299153208113,0.1059373030437565,-1.2946781120170552
0.1,-1.7764864312909672,0.402417776910112,1.92669417525007,0.0891704578422636,0.1798729643429267,0.0349962554963852,-0.0196007654949841,-0.00850088235755,-0.1463292378264322,-1.7698409807593196,0.3976004916780944,1.92870296172688,0.2017085901667362,-0.158361837655565,-0.2033723616299594,1.5413629555266917,0.0786367677000389,-0.6318918732991312,-1.4036839672426922,9.04831197657586,-1.3623506667750067,0.0906728598645862,-1.2982769448900484
0.12,-1.7768408625343146,0.4020915003725179,1.9234910385285329,0.1022439417595918,0.1874285835639294,0.0365098481270787,-0.01570733394667,-0.0237776649291794,-0.1725368920445035,-1.7658068089559849,0.3944332549249831,1.9246355144942808,0.2417085907627826,-0.1910738293233125,-0.2433723622260059,1.529199165066669,0.1946715774157061,-0.7638391285814737,-1.310382710903564,9.157444066618154,-1.3518037502443931,0.0747558507744214,-1.301705807805384
0.14,-1.77709706953014,0.4014337214206592,1.9197733565347797,0.1146687034562754,0.1946320129838568,0.0380078141081968,-0.0099359505659451,-0.0414964009528242,-0.197984773272439,-1.76177263715265,0.3912660181718718,1.9205680672616816,0.2817085913588292,-0.2237858209910601,-0.2833723628220524,1.5770677945114038,0.2885691690362454,-0.8859368011822404,-1.2723940613967726,9.33088214835334,-1.3428701700958128,0.0610203098424255,-1.3056616504696137
0.16,-1.7772174959197955,0.4004430936646729,1.915772254966437,0.1253882635651217,0.2011036935378062,0.0393609487010987,-0.002891669687602,-0.0617557713791696,-0.2219205990490536,-1.7567384653344142,0.3872809816270668,1.9155006200141813,0.3217085919548756,-0.2564978126588075,-0.3233723634180988,1.6070063307072866,0.3522140439171531,-1.0129685213172683,-1.1967912888307342,9.33088214835334,-1.3329195388865076,0.0478294731526821,-1.3085867668773878
0.18,-1.7771840911856862,0.3989546212609639,1.91106994542259,0.1349148527826195,0.2075196450828638,0.040646892026935,0.0060148267167674,-0.0858126272883581,-0.2470195032387431,-1.750704293501277,0.3824781452905681,1.90943317275178,0.361708592550922,-0.289209804326555,-0.3633723640141452,1.7944448904603567,0.4453248202184737,-1.202842795459424,-1.2549452094844715,9.376934006785632,-1.3231641585805738,0.0367944179978996,-1.3103146265189192
0.2,-1.776956719225677,0.3969632641523976,1.9058709661123152,0.1423370451078838,0.2135402394658442,0.041749493206043,0.0164216503183668,-0.1118034895765134,-0.2715554604639457,-1.7768833498498475,0.394663989896546,1.8987189702606528,0.1060148282068835,-0.1839101900782751,-0.3470195047288592,1.861343665818884,0.5203411800799728,-1.2995431144077667,-1.226797861260129,9.469671748872315,-1.3140317616065773,0.0283084346043566,-1.311064979247473
0.22,-1.7765104652215078,0.3944938454798416,1.9005701865347024,0.1451093079547261,0.2188843022060876,0.0424391294075638,0.0301171989114875,-0.1450797248212187,-0.2849657013019082,-1.7768833498498475,0.394663989896546,1.8987189702606528,0.1060148282068835,-0.1839101900782751,-0.3470195047288592,1.9200979419417987,0.6847774296560329,-1.6638117622352642,-0.6705120418981247,9.469671748872315,-1.305974596945617,0.0255452551035198,-1.309338417433383
0.24,-1.7757499501252252,0.3912756045251329,1.894722505698962,0.1440047632369188,0.2241183119211848,0.042797188083607,0.0453046082956464,-0.174706065673333,-0.2991675408740117,-1.7768833498498475,0.394663989896546,1.8987189702606528,0.1060148282068835,-0.1839101900782751,-0.3470195047288592,1.8097442659941367,0.7593704692079478,-1.4813170426057165,-0.7100919786051763,10.155080927802372,-1.2994510237831132,0.0271988198281741,-1.310150106496908
0.26,-1.77467926123287,0.3874891342751019,1.8885780476410776,0.1406208686023643,0.2290028423137841,0.0429052275221381,0.0610968965784802,-0.2018724589147309,-0.3145489275270853,-1.7758232015677788,0.3928248879957632,1.895248775213364,0.1260148285049067,-0.2035297026362585,-0.3670195050268824,1.749282957618456,0.78961441414169,-1.3583196620698943,-0.7690693326536796,10.06571086459644,-1.2933591625565175,0.0315539947943555,-1.3099553193261342
0.28,-1.773286654070553,0.3831965819428782,1.8821162068725288,0.1363839301814405,0.2335689927757678,0.0428663239085874,0.0774811887633246,-0.2258218385191473,-0.3308408152493877,-1.7737029050036413,0.3891466841941977,1.8883083851187872,0.1660148291009532,-0.2427687277522253,-0.4070195056229289,1.6639136241035004,0.8192146092422192,-1.1974689802208198,-0.8145943861151222,9.917834370564378,-1.2872218047641777,0.0365209323008608,-1.3092624092965506
0.3,-1.771654463935218,0.3786956317153542,1.8756671745247264,0.1324356315432618,0.2376320327867107,0.0427603652026759,0.0935970538122531,-0.2467429364979625,-0.347194138629644,-1.7715826084395037,0.3854684803926322,1.88136799502421,0.2060148296969996,-0.2820077528681921,-0.4470195062189753,1.55309741524292,0.8057932524464261,-1.0460548989407583,-0.8176661690128123,9.917834370564378,-1.280719443184593,0.0415124859744415,-1.3085370339404814
0.32,-1.7695999006939689,0.3735433507442664,1.8685333133254325,0.1287318181887713,0.2416402680383131,0.0426099587767434,0.1110938540803492,-0.2674017801351134,-0.3653928148458569,-1.7674623118455637,0.3798283253352684,1.8724276048998303,0.246014830293046,-0.3212467779841589,-0.4870195068150217,1.6310408149924196,0.8748400134048053,-1.0329421818575462,-0.909933810810648,9.857494119217336,-1.2745339363456365,0.0458480814438509,-1.3077836124047648
0.34,-1.7671883149910506,0.3679866901054133,1.8610307910966923,0.125608038412895,0.245389860020106,0.0424349652339109,0.1292796898706053,-0.2873066363596852,-0.3839634323410171,-1.7633420152516237,0.3741881702779046,1.8634872147754509,0.2860148308890926,-0.3604858031001258,-0.5270195074110683,1.6369145967815342,0.909291789512804,-0.9952428112285888,-0.9285308747580072,9.795298792891115,-1.2688361599011275,0.0492474080734333,-1.3067707357609089
0.36,-1.7645534396118692,0.3623354723293925,1.8535577412471225,0.122846487637128,0.2487261081922211,0.0422277968529282,0.1472372651538688,-0.3064351729869845,-0.4017338506028201,-1.7582217186427826,0.3675670395926416,1.8535468246361704,0.326014831485139,-0.3997248282160925,-0.5670195080071146,1.5844267013303497,0.8978787641631736,-0.9564268313649648,-0.8885209130901517,9.779878497884056,-1.2632133017899425,0.0525046362880191,-1.3053229580545236
0.38,-1.7614048565679048,0.3559991263299981,1.845324425207376,0.1199091650799929,0.2520145490431636,0.0419535228412635,0.1667498631708321,-0.3260671066659916,-0.4206642621456917,-1.7521014220190405,0.3599649332794793,1.8426064344819884,0.3660148320811854,-0.4389638533320593,-0.6070195086031611,1.676689284371898,0.9756299008481628,-0.981596683950356,-0.9465205771435808,9.778805085381464,-1.2579163284203536,0.0557429543399394,-1.30354907668839
0.4,-1.757859523246541,0.3492751310610106,1.8367113161257251,0.1168641630993259,0.2550876804351379,0.041620275359799,0.1868778529866597,-0.3452014537243962,-0.4396895070181159,-1.7530673634093632,0.3396957709966985,1.8242912121000912,0.2667498646609482,-0.4092337059396733,-0.5206642636358079,1.6831660300110305,1.006399490791382,-0.9567173529202276,-0.9512622436212064,9.76483214639211,-1.2529441219209154,0.0590583831646896,-1.301452060908531
0.42,-1.7538542787409983,0.3421196414207574,1.8278915631123325,0.1124950483276492,0.2578773091029451,0.0411354997197987,0.2129433078731981,-0.3686975262331104,-0.4403083967262293,-1.7530673634093632,0.3396957709966985,1.8242912121000912,0.2667498646609482,-0.4092337059396733,-0.5206642636358079,1.7548905850848169,1.3032727443269192,-1.1748036254357108,-0.0309444854056734,9.759832926534727,-1.2472175313371672,0.0638049653041662,-1.2941329150092884
0.44,-1.7495619354402383,0.3349294114881826,1.81950996354074,0.107458417009991,0.2602390846276002,0.0405579137177116,0.2375912703018568,-0.3868630406538042,-0.4420348402310148,-1.7530673634093632,0.3396957709966985,1.8242912121000912,0.2667498646609482,-0.4092337059396733,-0.5206642636358079,1.5333693074633234,1.2323981214329345,-0.9082757210346905,-0.0863221752392756,10.976816258950748,-1.2447397813941774,0.0695350457617665,-1.295430628889927
0.46,-1.7445445036113645,0.3270123965360891,1.8106162480427368,0.1023753446561067,0.2625195561323015,0.0399237686657999,0.2628583630110683,-0.4037936751120504,-0.4474115512950219,-1.7503998647627537,0.3356034339373018,1.819084569463733,0.2867498649589714,-0.4258670257944096,-0.540664263933831,1.5443294491465052,1.2633546354605771,-0.8465317229123082,-0.2688355532003528,10.73854052681054,-1.2426581207572642,0.0749848160266371,-1.2966912487562767
0.48,-1.7390274767714546,0.3187734224905002,1.8015808532401347,0.0977492181188182,0.2646496631920743,0.039289615131749,0.2875959678718615,-0.4192104564118471,-0.4559873489077066,-1.7450648674695348,0.3274187598185084,1.8086712841910169,0.3267498655550178,-0.4591336655038823,-0.5806642645298775,1.5191860852017331,1.2368802430396564,-0.7708390649898367,-0.4287898806342366,10.508364364220142,-1.2406242462491035,0.0796518237684473,-1.2971546022606042
0.5,-1.733019535292932,0.3102393640550939,1.7923461826404197,0.093646098860424,0.2666611511532682,0.0386665345256198,0.3119821708358522,-0.4334101186147913,-0.4671563025466121,-1.7397298701763158,0.3192340856997149,1.7982579989183007,0.3667498661510643,-0.4924003052133549,-0.620664265125924,1.517450845222582,1.2193101481995372,-0.7099831101472082,-0.5584476819452733,10.321853210234622,-1.2383782454884114,0.083948866055546,-1.2969124514976424
0.52,-1.7268629571590532,0.3018792684142591,1.7833442629918168,0.0902693085076529,0.2684771083824405,0.0380913363965489,0.3349060591239317,-0.4459455447153523,-0.479852234590619,-1.7323948728532943,0.3093860795954478,1.7858447136157822,0.4067498667471107,-0.5256669449228276,-0.6606642657219705,1.4524361020652647,1.1461944144039726,-0.6267713050280538,-0.6347966022003465,10.173386744654636,-1.2360736045160785,0.0875640120168778,-1.2960977027928071
0.54,-1.7199109465972149,0.2928302474513919,1.773597557577059,0.0872835665203405,0.2702920709944535,0.0375073273391368,0.3591226226923535,-0.458346757284707,-0.4941981370357394,-1.725059875530273,0.2995380734911806,1.7734314283132635,0.4467498673431572,-0.5589335846323004,-0.7006642663180169,1.5378856761952793,1.2108281784210917,-0.6200606284677307,-0.7172951222560175,9.997705395569938,-1.23376355401716,0.0904700697296961,-1.2947400649169702
0.56,-1.7124727362772394,0.2835307666451134,1.7635562192337284,0.0846096303215286,0.2720080424643558,0.036927871983261,0.3835298302088838,-0.4708894514739536,-0.5092073894372776,-1.7167248781923508,0.2888584013941768,1.760018142995844,0.4867498679392036,-0.592200224341773,-0.7406642669140633,1.5638962672864651,1.2203603758265151,-0.627134709462332,-0.750462620076911,9.997705395569938,-1.2317828890532456,0.09287869436751,-1.2931257352520005
0.58,-1.7045427601975771,0.2739834196453667,1.7532087236887657,0.0819527452932997,0.2735728147024729,0.03632924903799,0.4082685134466969,-0.4830906478945327,-0.5247774700589463,-1.7073898808395271,0.277347063304436,1.7456048576635232,0.5267498685352501,-0.6254668640512456,-0.7806642675101098,1.5837448129352067,1.2369341618906542,-0.6100598210289576,-0.7785040310834324,9.966498097115618,-1.2297462884310435,0.0953555797675657,-1.2911909815075695
0.6,-1.6965411363150371,0.2646926491253122,1.7430832392744358,0.0793769732046463,0.2746046118804479,0.0357139616889327,0.4327000346237374,-0.4941626329301629,-0.5402540979017161,-1.6841293345252424,0.2498288872506401,1.7269698501858182,0.508268514936813,-0.5405785603705955,-0.6247774715490624,1.548397630646756,1.2215760588520252,-0.5535992517815086,-0.773831392138491,9.93538870744851,-1.2276698068356555,0.097806438192844,-1.28878944663782
0.62,-1.6875372181763373,0.2546026848513261,1.7323565679981876,0.0743013933280217,0.2748477877513517,0.0348292312492429,0.4666951018004918,-0.512981809851767,-0.5301266143924303,-1.6841293345252424,0.2498288872506401,1.7269698501858182,0.508268514936813,-0.5405785603705955,-0.6247774715490624,2.0077300208130167,1.699753358837719,-0.9409588460802032,0.5063741754642914,9.900022616294336,-1.224471940552163,0.1029834432667575,-1.2792608513026484
0.64,-1.6778554314543943,0.2442038504835631,1.7218385797034856,0.0670414562710264,0.2741406399943171,0.033728024462505,0.4996236743619923,-0.5254821720400782,-0.5222733232066697,-1.6841293345252424,0.2498288872506401,1.7269698501858182,0.508268514936813,-0.5405785603705955,-0.6247774715490624,1.8043171341433517,1.6464286280750278,-0.6250181094155594,0.3926645592880251,11.712888742257746,-1.2273217706877078,0.1103377285341972,-1.2805318105406271
0.66,-1.6680604389448062,0.2341331954973834,1.7119365892001832,0.0600133998110109,0.2723962728528871,0.0326211074933228,0.5296892238637128,-0.5338363896700526,-0.5203893542008456,-1.6790466493758742,0.2444231016469341,1.7207220754703276,0.5282685152348362,-0.5520761428658081,-0.6447774718470856,1.5630735413475292,1.5032774750860205,-0.4177108814987229,0.0941984502912052,10.939859760650506,-1.2309369666133614,0.1182216042785551,-1.2800627480422846
0.68,-1.6571478532789434,0.2233883716783295,1.7015044389739074,0.0531569200324622,0.269010709938163,0.0314346161077792,0.5598236753535453,-0.5401531403024172,-0.5231058984036563,-1.668881279077138,0.2336115304395222,1.7082265260393463,0.5682685158308827,-0.5750713078562332,-0.684777472443132,1.5454498677977002,1.5067225744916255,-0.3158375316182293,-0.1358272101405322,10.939859760650506,-1.236489923864721,0.1254747314001087,-1.2763645425784194
0.7000000000000001,-1.6456518599229937,0.2125365528437946,1.6909729617936755,0.0471204209775738,0.2637764275461901,0.0302526644038087,0.5879170465381971,-0.5447303955397843,-0.5300080166030321,-1.6587159087784018,0.2227999592321103,1.695730976608365,0.6082685164269291,-0.5980664728466583,-0.7247774730391785,1.464435049485624,1.4046685592325914,-0.2288627618683536,-0.3451059099687903,10.631813963675995,-1.245013928126306,0.1318075072028922,-1.2687876488467935
0.72,-1.633630794782854,0.2016071232928402,1.6802681304451503,0.041979061331541,0.2570870376225847,0.0291169614808642,0.6124217529874223,-0.5480417885045477,-0.5402084447360391,-1.646550538449863,0.2108386297751772,1.6812354271475811,0.6482685170229756,-0.6210616378370833,-0.764777473635225,1.337436629925344,1.22523532246126,-0.1655696482381674,-0.5100214066503517,10.14571985054863,-1.254999883476266,0.1368460414801355,-1.2588806224772482
0.74,-1.6217899338968862,0.1911729175568797,1.6698888657107902,0.0379610004762448,0.2501307981955111,0.0281218621270696,0.6325508904379457,-0.5502797235102899,-0.5517676641543946,-1.6343851681213246,0.198877300318244,1.666739877686798,0.6882685176190221,-0.6440568028275085,-0.8047774742312714,1.1659825053937072,1.006456872526168,-0.1118967502871104,-0.5779609709177735,10.01333474076364,-1.265337209349164,0.1410112389595803,-1.2468519658328383
0.76,-1.6089388815321333,0.1801447637657495,1.6587101467446648,0.0344181454994519,0.2426829794617835,0.0271638192931957,0.6512513100910815,-0.5524321323522187,-0.5655313101851767,-1.6212197977778848,0.1863410917365502,1.651244328211113,0.7282685182150684,-0.6670519678179336,-0.8447774748273178,1.1659508041582043,0.9350209826567925,-0.1076204420964399,-0.6881823015391031,10.01333474076364,-1.2753428827603803,0.1443149396160828,-1.2345334157484542
0.78,-1.5957388943702369,0.1690775203145406,1.6472388413571526,0.0313556304307899,0.2353481451533006,0.026285618299323,0.6675983747410793,-0.5541817739052244,-0.5809440541286072,-1.607054427419544,0.1732300040300958,1.6347487787205273,0.7682685188111149,-0.6900471328083587,-0.8847774754233643,1.1267657743526,0.81735323249989,-0.087482077650286,-0.7706371971715253,9.772589756451453,-1.2844498570013547,0.1469241019064492,-1.2226954434159705
0.8,-1.582236197204517,0.1579802336321033,1.635440210173638,0.0286781754117212,0.2283205111781195,0.0254820593676769,0.6816980975219769,-0.5554756161699299,-0.5980947403217094,-1.5623589756331828,0.1413684316192794,1.6181916386507222,0.7675983762311954,-0.6075488484842249,-0.6386875699479183,1.1120052239067575,0.7049861390448775,-0.0646921132352762,-0.8575343096551113,9.772589756451453,-1.293153526263774,0.1492176374211297,-1.2109446570303963
0.8200000000000001,-1.5690727244767804,0.1474022258599067,1.6242846379634015,0.0262185246375504,0.2219480644588358,0.0247655759516874,0.703540060279679,-0.557856096331589,-0.5731251972890561,-1.5623589756331828,0.1413684316192794,1.6181916386507222,0.7675983762311954,-0.6075488484842249,-0.6386875699479183,1.6629913575906097,1.0920981378851058,-0.1190240080829518,1.2484771516326654,9.65865134300202,-1.2967497102170027,0.1509410723296614,-1.19161158714838
0.84,-1.554782251870875,0.136230374867095,1.6130852979730668,0.02376206072151,0.2156074895808493,0.0240634313777287,0.7240257302741316,-0.5591815560111648,-0.5487155473490719,-1.5623589756331828,0.1413684316192794,1.6181916386507222,0.7675983762311954,-0.6075488484842249,-0.6386875699479183,1.594718257778133,1.0242834997226336,-0.0662729839787934,1.220482496999209,12.639375405337889,-1.3093176962373057,0.1534778289891901,-1.1909799254471838
0.86,-1.540120231576068,0.1250440777774086,1.6022848543462591,0.0217613458585107,0.2097937637193496,0.0234364484140445,0.7410045107139184,-0.5594999702899611,-0.5324885204179648,-1.554682991870871,0.1352929431344372,1.611804762951243,0.7875983765292186,-0.618222263400025,-0.6502362731117806,1.174411316254128,0.8489390219893367,-0.0159207139398154,0.8113513465553557,12.086087498759298,-1.3188748454803545,0.1552978193210431,-1.1887759570615375
0.88,-1.5251517030804405,0.1138593577721625,1.5917419260083203,0.0203801686218337,0.2046583498903506,0.0228929205873389,0.7548648090803823,-0.5590566445528109,-0.5225772216622335,-1.539331024346247,0.1231419661647527,1.5990310115522846,0.8275983771252651,-0.6395690932316251,-0.673333679439505,0.8522591324561791,0.6930149183231982,0.0221662868575112,0.4955649377865634,11.561426208939338,-1.3264147364788792,0.156439759856657,-1.1853378967819188
0.9,-1.510702163799701,0.1032487971456263,1.5818610282712673,0.0198641821538141,0.2007149197744893,0.0224689822028666,0.7653602531921153,-0.557979205179602,-0.5179856769480093,-1.5239790568216232,0.1109909891950682,1.5862572601533262,0.8675983777213115,-0.6609159230632253,-0.6964310857672295,0.5753205749149148,0.5247722055866488,0.053871968660446,0.2295772357112091,11.15686295544947,-1.3325759757510696,0.156657823464625,-1.1819666280743144
0.92,-1.4953017310493422,0.0921062029308291,1.571515741753272,0.0204140864529066,0.1980003410004218,0.0221398608186279,0.7740019775388112,-0.55643856882409,-0.5169463900590477,-1.506627089267197,0.0977726707338037,1.5723286384379818,0.907598378317358,-0.6822627528948255,-0.719528492094954,0.441964583710529,0.4320862173347928,0.0770318177755968,0.0519643444480799,10.840774059474825,-1.3368840863847895,0.1556726435768614,-1.1797023040292425
0.94,-1.4797431950490392,0.080995447356131,1.561171612180586,0.022310706521367,0.1971812587608606,0.0219515103837146,0.7816603557551414,-0.5548974964512401,-0.5175260472841078,-1.4892751217127709,0.0845543522725391,1.558400016722637,0.9475983789134044,-0.7036095827264257,-0.7426258984226783,0.3916684294824085,0.3829189108165098,0.0770536186424974,-0.0289828612530018,10.60073227797966,-1.3379918200194774,0.1533478582930414,-1.179724324766638
0.96,-1.4648086653361478,0.0704546387907578,1.5513249983954696,0.0250975806176056,0.1976924348846534,0.0218763213584938,0.7901247584619295,-0.5550385006607604,-0.5189475357469407,-1.470923154143443,0.0708023630654846,1.5438939598490995,0.987598379509451,-0.7249564125580259,-0.7657233047504028,0.429204568998725,0.4232201353394083,-0.0070502104760172,-0.0710744231416482,10.517879486106722,-1.3373965878303766,0.1497807584510832,-1.1819929014882753
0.98,-1.4489026081253928,0.059334468221427,1.5409233585240958,0.0281501981594858,0.1988470503008325,0.0218285703227235,0.8001122787877175,-0.5570176895783536,-0.5211781527250413,-1.451571186559215,0.0565167031126401,1.5288104678173686,1.0275983801054973,-0.7463032423896261,-0.7888207110781272,0.5211607312829273,0.499376016289399,-0.0989594458796594,-0.1115308489050281,10.435174139406628,-1.335968676319339,0.1460533591613181,-1.1844452990671233
1.0,-1.4327861306015215,0.0481620121547508,1.5304690162820738,0.0308451918006584,0.2000820524858053,0.0217663159850607,0.8110435771023198,-0.5600619460816394,-0.5241430892062194,-1.408896994186007,0.0314835837425093,1.5148644508878435,0.9001122802778336,-0.5867306143121116,-0.5400865081101064,0.586412032699801,0.5465649157301133,-0.1522128251642884,-0.1482468240589063,10.402642427897264,-1.3344648283072988,0.1428627562253382,-1.1865219733614336
1.02,-1.4171570354762688,0.0373560751599084,1.5208118944379,0.0290236835965867,0.1997902207092324,0.0213636696281318,0.8333069955357648,-0.5754021782678715,-0.4921642905395705,-1.408896994186007,0.0314835837425093,1.5148644508878435,0.9001122802778336,-0.5867306143121116,-0.5400865081101064,2.09381594704038,1.1131709216722518,-0.7670116093116075,1.5989399333324466,10.402642427897264,-1.3316254496263142,0.1440117699445137,-1.1840647164168934
1.04,-1.4002549305546292,0.0257591735863008,1.5112965990951006,0.0218494905249183,0.1965899361696017,0.0205192719663254,0.855445464150539,-0.582348040192124,-0.4613519361807123,-1.408896994186007,0.0314835837425093,1.5148644508878435,0.9001122802778336,-0.5867306143121116,-0.5400865081101064,1.928573288479058,1.10692343073871,-0.3472930962126253,1.5406177179429104,12.96565195166113,-1.3361373731535418,0.1514118410514746,-1.1837035497226822
1.06,-1.382943124332763,0.0141004207614235,1.5023240337376156,0.0134803319151016,0.1906284339628381,0.0195982029790114,0.8740747234385814,-0.5828943636264251,-0.4373358660125375,-1.3998958713832286,0.0256162775993882,1.509463585806743,0.9201122805758568,-0.5926731992588632,-0.5438681791871194,1.5199666092045188,0.9314629644021188,-0.0273161717150527,1.2008035084087376,12.528244169410756,-1.3451286778382423,0.1597969640841205,-1.1779458431114866
1.08,-1.3662003184278522,0.0030529384444629,1.494189424054923,0.006003900677766,0.1833849541198671,0.0188177505698401,0.8870646058405829,-0.5800140864043389,-0.4200813051528836,-1.381893625777672,0.013881665313146,1.4986618556445406,0.9601122811719032,-0.6045583691523664,-0.5514315213411455,1.089441269818385,0.6494941201000748,0.1440138611043084,0.8627280429826967,11.636460129302575,-1.356483535946552,0.1681288885122555,-1.1693787349344664
1.1,-1.3483577717602773,-0.0084935616929477,1.4859334796627637,-0.0007840395232225,0.1752584905341858,0.0181585330712642,0.8961729117261144,-0.5748602219018901,-0.4066131807433394,-1.3638913801721153,0.0021470530269037,1.4878601254823385,1.0001122817679498,-0.6164435390458696,-0.5589948634951715,0.8528099590837456,0.4554152942765732,0.2576932251224406,0.6734062204772073,11.636460129302575,-1.3681348042998496,0.1752964479595093,-1.1604465730076732
1.12,-1.3303769846963995,-0.0199205113531125,1.477899219898107,-0.0062780062220787,0.1675628070070791,0.017669851119347,0.9012332762426916,-0.5682388662661567,-0.3976566438316953,-1.3438891345367563,-0.0101818177540135,1.476680228212435,1.040112282363996,-0.6283287089393728,-0.5665582056491975,0.6116968059119128,0.2530182258288549,0.3310677817866703,0.4478268455822054,11.305892470597428,-1.378832699044546,0.1810706460250357,-1.151519381735983
1.14,-1.3123309861376122,-0.0312029236809284,1.4700156281732002,-0.0104245778967494,0.1610603892125023,0.0173303853420126,0.9030440919965036,-0.5606261351664421,-0.3911192685220757,-1.3238868889013973,-0.022510688534931,1.4655003309425316,1.0801122829600427,-0.640213878832876,-0.5741215478032236,0.509828413364834,0.0905407876906128,0.3806365549857304,0.3268687654809837,11.01710540188742,-1.3875072347956674,0.1852128905388143,-1.1437747742712745
1.16,-1.2951752424127587,-0.041777658064938,1.4626325535431746,-0.0133150795731234,0.1564701467921214,0.0171064961547932,0.9026661785725972,-0.5530904175641583,-0.3863619312337061,-1.3028846432511372,-0.0351366885631859,1.4541313501187776,1.120112283556089,-0.6520990487263791,-0.5816848899572495,0.445987994268483,-0.018895671195318,0.3767858801141888,0.2378668644184789,10.884384249465256,-1.3944014307852697,0.1884231958641296,-1.1378791649927045
1.18,-1.2771433273185406,-0.0527530578035547,1.4549477528664665,-0.0154860909657045,0.1537540242397733,0.0169341656700656,0.9004575744232549,-0.5449793403606352,-0.3824140523933105,-1.2808823975859758,-0.0480598178387785,1.4425732857411728,1.1601122841521354,-0.6639842186198823,-0.5892482321112756,0.464363147300816,-0.1104302074671215,0.4055538601761554,0.1973939420197773,10.791013246414876,-1.39866248604836,0.190704974218833,-1.1349083740310264
1.2,-1.259161147972981,-0.0635624413025682,1.4473313665905134,-0.0168463241051241,0.1534242580209717,0.0168036713871784,0.8981354602104364,-0.5364364514856668,-0.3794804397834465,-1.2321204485973778,-0.0800020248215865,1.435827050246801,1.0004575759133711,-0.5495695797364649,-0.3835233332496368,0.4663133273137992,-0.1161057106409235,0.4271444437484228,0.1466806304932011,10.725505572797374,-1.3991379351324198,0.1921435827263614,-1.1362098897013722
1.22,-1.2411558266486085,-0.0742596738886854,1.4399856716725945,-0.0194794733308798,0.1541506295817078,0.0165845814734297,0.9027563174427204,-0.5327632383652533,-0.354122968534734,-1.2321204485973778,-0.0800020248215865,1.435827050246801,1.0004575759133711,-0.5495695797364649,-0.3835233332496368,1.301773947656053,0.2310428616141946,0.1836606560206732,1.2678735624356257,10.66067551076594,-1.3970929897743882,0.1946012850737843,-1.1380676714114308
1.24,-1.223961410427698,-0.0843074963069369,1.4334873297013648,-0.0233413741873484,0.1548868834235333,0.0162982384832132,0.906955936612992,-0.5249189530547432,-0.3313258842296373,-1.2321204485973778,-0.0800020248215865,1.435827050246801,1.0004575759133711,-0.5495695797364649,-0.3835233332496368,1.2235978363229525,0.2099809585135892,0.3922142655255034,1.1398542152548343,12.22831974193832,-1.3980824489098886,0.1992012743565524,-1.143838513960146
1.26,-1.2057822745988735,-0.0946946453318518,1.427077025966696,-0.0271621871892509,0.1558527072909467,0.0160281853116905,0.9107578017596412,-0.5142544115417463,-0.3110821389555435,-1.2221158728382442,-0.0854977206189511,1.4319918169143044,1.0204575762113943,-0.5504876276116308,-0.383745189420902,1.1597368742500755,0.1900932573324576,0.5332270756498447,1.0121872637046891,11.968149056874609,-1.3989101348909894,0.2036494325130309,-1.1499765214771989
1.28,-1.187531522343561,-0.1048536461604455,1.4210346676667245,-0.0301540076522855,0.1570809113712284,0.0158271408438153,0.914168758441795,-0.5023317448254494,-0.2943099282462263,-1.2021067213199768,-0.0964891122136804,1.4243213502493115,1.060457576807441,-0.5523237233619628,-0.3841889017634325,1.0429425429921335,0.1705478341076871,0.5961333358148468,0.8386105354658613,11.725649048963533,-1.399272998336467,0.2072716996455471,-1.1562319904661449
1.3,-1.1692149697909189,-0.1147659058211845,1.4152959913160017,-0.0321082912326824,0.1585912258108422,0.0157071921683096,0.9174097649639642,-0.4897637842517324,-0.2803938921891184,-1.182097569801709,-0.1074805038084097,1.416650883584319,1.1004575774034873,-0.5541598191122946,-0.384632614105963,0.9514644184124484,0.1620503261084593,0.6283980286858504,0.6958018028553947,11.519541294186638,-1.3983633162536684,0.2096480513184662,-1.1620447243325802
1.32,-1.1517535222744253,-0.1239444772570761,1.4100825640327692,-0.0329235222794177,0.160269468991789,0.0156733507861064,0.9205578891970744,-0.4772109577033395,-0.2690920428567563,-1.1600884182536395,-0.1185637001906556,1.4089582313021998,1.1404575779995336,-0.5559959148626265,-0.3850763264484935,0.8590924555490888,0.1574062116555141,0.6276413274196424,0.5650924666181029,11.36369143646516,-1.3965983807888078,0.2110447881950977,-1.1691245530540246
1.34,-1.1333045296112454,-0.1333440433530283,1.404821159828761,-0.0324173775157183,0.1622642125223425,0.0157412347370517,0.9242587263648504,-0.4635432061074781,-0.2576660623881452,-1.13807926670557,-0.1296468965729015,1.4012655790200803,1.1804575785955802,-0.5578320106129584,-0.385520038791024,0.9097481232429784,0.1850418583888013,0.6833875797930711,0.5712990234305576,11.238464008924892,-1.3943998938162352,0.2109571739308995,-1.1765141711055458
1.36,-1.1147708013798463,-0.1424691431700067,1.3997843497922793,-0.0302569139589827,0.1642816747015236,0.0159400872809469,0.9289894473387852,-0.4498306079175105,-0.246603075447723,-1.115070115142599,-0.1407759953489057,1.3935618339293978,1.2204575791916266,-0.5596681063632902,-0.3859637511335544,0.912146849603558,0.2365360486967338,0.6856299094983781,0.5531493470211076,11.238464008924892,-1.391701827852093,0.2090617079787392,-1.18397752693493
1.38,-1.097067010243817,-0.1508969239225292,1.395201960744934,-0.0268167815629521,0.1658886847859808,0.0162495945865161,0.9343249583740828,-0.4384770632389228,-0.2363020949718487,-1.0910609635647268,-0.1519509965186682,1.385846996030152,1.260457579787673,-0.5615042021136222,-0.3864074634760849,0.8116046659871045,0.2667755517648862,0.5676772339293867,0.5150490237937163,11.21956386248985,-1.3899842698863307,0.205788322589272,-1.1908502481835852
1.4,-1.0783164236496658,-0.159561952462158,1.3905884932739454,-0.0227668032808201,0.1670760101601729,0.0166314409782004,0.9404424668137488,-0.4287874176117208,-0.225593628135065,-1.0503507623251127,-0.1728207770844754,1.3833868559963416,1.034324959864199,-0.4101745222362916,-0.219629990374757,0.7841944973739513,0.3058754219832926,0.4844822813600991,0.5354233418391848,11.21956386248985,-1.3884238437720564,0.2017346775738813,-1.1957696175763786
1.42,-1.0593635379621642,-0.1681699652192647,1.3863343595800688,-0.0228371902861575,0.1660811291344009,0.0167857038659874,0.9546845353418896,-0.4312044123458718,-0.1996089387195783,-1.0503507623251127,-0.1728207770844754,1.3833868559963416,1.034324959864199,-0.4101745222362916,-0.219629990374757,1.4865080419598136,0.7121034264070458,-0.1208497367075484,1.2992344707743324,11.214670128767466,-1.3899026634303715,0.2022975109731908,-1.2022564304986718
1.44,-1.0401312544130656,-0.1767588233898582,1.3826057327531247,-0.0284385383422132,0.1612039671157935,0.0166775733011375,0.9672495377641472,-0.4262270330139877,-0.1746013596397752,-1.0503507623251127,-0.1728207770844754,1.3833868559963416,1.034324959864199,-0.4101745222362916,-0.219629990374757,1.4212957137040618,0.6282501211128833,0.248868966594204,1.2503789539901569,12.354556014027366,-1.3946965946835,0.2084941230232991,-1.1956976036912013
1.46,-1.0216762672046011,-0.1847552158777758,1.3794924902630166,-0.0348880028880349,0.1542790931298976,0.0166246710356785,0.9743747173888992,-0.4156127502775069,-0.1543168366269618,-1.0400075127264707,-0.1769225223068383,1.381190556092594,1.0543249601622222,-0.4045140140357654,-0.2162955694553387,1.198846379391757,0.3562589812375949,0.5307141368240398,1.0142261506406691,12.132905556264632,-1.403602286609018,0.2162462504447911,-1.1852574339982735
1.48,-1.0021554181978474,-0.1929199230806183,1.3766001711582374,-0.0411368347101468,0.1462726952386995,0.0167113193983395,0.9770068105036418,-0.4014564147807993,-0.136106376877166,-1.0193210135291868,-0.1851260127515641,1.376797956285099,1.0943249607582688,-0.3931929976347129,-0.209626727616502,1.1607654728227323,0.1316046557371275,0.707816774835382,0.9105229874897895,11.867304972454804,-1.4135719570892964,0.2234516326559873,-1.1739291153538995
1.5,-0.9826279397258024,-0.2007812616757089,1.3740380289129557,-0.0462120390401506,0.1388633024113193,0.0169285206492155,0.9754321743203598,-0.385558662099306,-0.1211380527751545,-0.9986345143319028,-0.19332950319629,1.3724053564776038,1.1343249613543152,-0.3818719812336604,-0.2029578857776653,1.0946103711532291,-0.0787318091641009,0.7948876340746619,0.7484162051005737,11.643327270211556,-1.4227169544150218,0.2294055153280954,-1.1636843632979146
1.52,-0.9631705547805592,-0.2083143923837486,1.3717474131374272,-0.0499564354115539,0.1330899526643428,0.0172176761856398,0.9701820434568702,-0.3687736023772696,-0.10875826054465,-0.9759480151048164,-0.2009669428209632,1.3683461987620504,1.1743249619503615,-0.3705509648326079,-0.1962890439388287,1.0753619851316991,-0.2625065431744788,0.8392529861018211,0.6189896115252266,11.4341074214708,-1.429954578728548,0.2337438543153258,-1.155857546186746
1.54,-0.9448173073490732,-0.2151544769332797,1.369787040710487,-0.0523022485582437,0.1302740570727978,0.0174761979053331,0.9620325393627106,-0.3523869884977517,-0.0981954247138895,-0.95326151587773,-0.2086043824456364,1.3642870410464971,1.214324962546408,-0.3592299484315555,-0.189620202099992,1.0565380165956306,-0.4074752047079799,0.8193306939758949,0.5281417915380275,11.283371229425027,-1.4343096121692471,0.2370179259730728,-1.1522725006014871
1.56,-0.9256666706046596,-0.22201542970147,1.3679359052295657,-0.0536131894881446,0.1305957579800115,0.0176770686818767,0.953838862213397,-0.3347082318428442,-0.0875019138733072,-0.9295750166357426,-0.2159587966602833,1.3603946043769146,1.2543249631424545,-0.347908932030503,-0.1829513602611553,1.1113347337641684,-0.4096838574656813,0.883937832745374,0.5346755420291129,11.227081022561832,-1.4333275834083736,0.2391158336662764,-1.1557806153295038
1.58,-0.9066593780261876,-0.2285131492896307,1.3662973796729228,-0.0534400913926949,0.1333754189876814,0.0178633780006144,0.9476369220150794,-0.3162039576046496,-0.076896988472725,-0.904888517378854,-0.2230301854649038,1.3566688887533032,1.2943249637385008,-0.3365879156294505,-0.1762825184223187,1.1105591722840944,-0.3100970099158773,0.9252137119097308,0.530246270029109,11.19438298377463,-1.4295017186186454,0.2396861285887586,-1.162986192475164
1.6,-0.8886944356859395,-0.2343392981371493,1.3649403762823722,-0.0515847710999503,0.1373790531010434,0.0180991677279708,0.9439498308936072,-0.2982595875658264,-0.0664818722889519,-0.8592775319254334,-0.2443233471698632,1.3624525302492865,1.0476369235051957,-0.2603321915440589,-0.0372244535599004,1.053648069980853,-0.1843545560736181,0.8972185019411633,0.5207558091886548,11.19540956408764,-1.4236437957952823,0.2383210536585989,-1.1719437723860169
1.62,-0.8697719079551715,-0.2401700668661534,1.3638418123386415,-0.0498704650864767,0.1407255766692788,0.0183914275820162,0.9485492052300905,-0.2854006099940217,-0.043352629149862,-0.8592775319254334,-0.2443233471698632,1.3624525302492865,1.0476369235051957,-0.2603321915440589,-0.0372244535599004,1.343009155466202,0.2299687168241637,0.6429488785902326,1.1564621569544984,11.225368204780352,-1.4198877708530826,0.2376375031334952,-1.18450048121972
1.64,-0.850756403071846,-0.245733515819726,1.363225997567938,-0.0498140967048737,0.1417749380910929,0.0186953155557621,0.9525535324932168,-0.2714408649916341,-0.0194659836549717,-0.8592775319254334,-0.2443233471698632,1.3624525302492865,1.0476369235051957,-0.2603321915440589,-0.0372244535599004,1.39774903895555,0.2002163631563247,0.6979872501193779,1.1943322747445149,12.082241682556742,-1.4191508897449514,0.2384760552516667,-1.190416611734123
1.66,-0.8326320716996753,-0.2507525204265078,1.3630708430711136,-0.0506544655964656,0.1415469054964589,0.0189934619459463,0.954971650740694,-0.2575270380827966,0.0019344033085962,-0.8488011626903815,-0.2469266690853038,1.3620802857136876,1.0676369238032188,-0.2491578383319407,-0.0292899465773355,1.2820086166815778,0.1209059123738642,0.6956913454418762,1.0700193481784002,11.970218241142902,-1.4194715010371997,0.240371610537502,-1.1944574707212958
1.68,-0.8135193315830499,-0.2557434945083371,1.3633352232010023,-0.0521825310952124,0.1407567184795351,0.0193034283068651,0.9560991111131852,-0.2422570077275126,0.0233222300850302,-0.8278484242202776,-0.2521333129161849,1.3613357966424895,1.1076369243992654,-0.2268091319077044,-0.0134209326122056,1.3151845195271816,0.0563730186245503,0.763501517764202,1.069391338821696,11.970218241142902,-1.4204441864009762,0.2430094817763137,-1.1974025945856406
1.7,-0.794397842402443,-0.2604184531274827,1.3640122983311898,-0.0540285543394654,0.1399995090553535,0.0196043118060683,0.9560127537778166,-0.2260120756558609,0.0433120242383349,-0.8068956857501737,-0.2573399567470661,1.3605913075712914,1.1476369249953118,-0.2044604254834681,0.0024480813529241,1.2879219171726224,-0.0043178667684273,0.8122466035825809,0.999489707665234,11.899730721959711,-1.421121404826844,0.2458434944076636,-1.200024734771208
1.72,-0.7762424463251996,-0.2645473141530761,1.3650151668600172,-0.0556623057974406,0.1396676904671794,0.0198910070306195,0.955149603729297,-0.2094813285708189,0.0612480660293252,-0.7839429472502675,-0.2614291652567355,1.36064026919835,1.187636925591358,-0.1821117190592318,0.018317095318054,1.2203608301687248,-0.0431575024259778,0.8265373542521034,0.8968020895495192,11.81981415303926,-1.421279664485002,0.2487350641046949,-1.2034347445032565
1.74,-0.7571526313172161,-0.2685457577173082,1.3664368948931005,-0.0568809628997705,0.13994432843405,0.0202052386622958,0.9539477201891108,-0.1912692166110503,0.0799706218715397,-0.7609902087503612,-0.2655183737664049,1.3606892308254084,1.2276369261874047,-0.1597630126349955,0.0341861092831839,1.307344296029318,-0.0600941770093121,0.91060559798843,0.9361277921107248,11.758216607853685,-1.420757249522531,0.2511358486162897,-1.208258037428421
1.76,-0.7380821077196628,-0.2721649844991939,1.368229825593054,-0.0570463357517828,0.1408005447293351,0.0205705592450733,0.9532474345910747,-0.1717752896178829,0.0983741487177933,-0.7370374702355538,-0.2690488646154683,1.361134917801595,1.267636926783451,-0.1374143062107592,0.0500551232483137,1.3408890613269733,-0.035014279901796,0.9746963496583688,0.9201763423126792,11.761218476862268,-1.4196926272222965,0.2526154219800394,-1.216424506973342
1.78,-0.719018956812824,-0.2753871447278099,1.3703888447634274,-0.0556232827570047,0.1419515233428917,0.0210386313694343,0.9531601536661762,-0.1516818000906617,0.1166004585114927,-0.7120847317058453,-0.2720206378039259,1.36197733012691,1.3076369273794974,-0.1150655997865229,0.0659241372134435,1.356423890268361,-0.0043640462449312,1.0046744763610589,0.9113154896849712,11.753491444759677,-1.4185193035950632,0.2524932708549521,-1.2258520969167768
1.8,-0.7009046563225455,-0.2780791789950176,1.3727771301157174,-0.0525855616246542,0.1431053438759095,0.0216041858338844,0.9536485411698896,-0.1332097019513616,0.1338979379370249,-0.6713609491295152,-0.282971234732343,1.376218867689002,1.0531601551562924,-0.0673147707217843,0.172383786180398,1.2655628456327503,0.0244193751856636,0.9236049069650044,0.8648739712766085,11.75716313929479,-1.4176542436335566,0.250371075625491,-1.235996758326868
1.82,-0.6817618001294902,-0.2806187126417815,1.375682682357073,-0.0503118698538742,0.1425316159822824,0.0222316416880111,0.9606648127244554,-0.1210950815071905,0.1558825518445035,-0.6713609491295152,-0.282971234732343,1.376218867689002,1.0531601551562924,-0.0673147707217843,0.172383786180398,1.303183931468077,0.3508135777282928,0.6057310222085555,1.0992306953739277,11.763913871625846,-1.4168667663945254,0.2490638701769517,-1.243582962157231
1.84,-0.6624863361632748,-0.2829032615660523,1.3790350903967288,-0.0502839640238522,0.1384998944546639,0.0228808243701453,0.9661667198301148,-0.107784931507402,0.1782497671074937,-0.6713609491295152,-0.282971234732343,1.376218867689002,1.0531601551562924,-0.0673147707217843,0.172383786180398,1.3301535563959543,0.2750953552829782,0.6655074999894283,1.1183607631495118,12.03542729860601,-1.4230466262939736,0.2503991937491584,-1.244275920041828
1.86,-0.6431437373046801,-0.2849152467213094,1.382828322207943,-0.0518962559650858,0.1324075144026406,0.0235325718007762,0.9674596457244596,-0.0939039663465079,0.1999668296543414,-0.6608293475779522,-0.2836443824395608,1.377942705550806,1.0731601554543155,-0.0504413648480088,0.1835404517141791,1.2903329578348348,0.0646462947172354,0.6940482580447007,1.085853127342387,12.034424496608152,-1.4314390893818032,0.2533324096198678,-1.240563665962157
1.88,-0.6247872961936686,-0.2865580617521219,1.3868245186319372,-0.0545819568489406,0.1263357898165753,0.0241100012031755,0.9646157955772736,-0.079382088119741,0.2195863333932811,-0.6397661444748264,-0.2849906778539965,1.381390381274414,1.113160156050362,-0.0166945531004579,0.2058537827817411,1.2287161570669682,-0.1421925073593066,0.7260939113383477,0.9809751869469848,11.980365869459092,-1.4400057384827774,0.2577842863424093,-1.2359423214052945
1.9,-0.605561851995312,-0.2879646836644485,1.3914250028380175,-0.0576754944390464,0.1210299267233447,0.0246701683036066,0.9578358708460571,-0.0619811678555913,0.2393877239339163,-0.6187029413717006,-0.2863369732684322,1.384838056998022,1.1531601566464085,0.017052258647093,0.2281671138493033,1.3609321003847048,-0.3389962365608123,0.8700460132074848,0.9900695270317588,11.871462163236174,-1.4475818144633943,0.2626369165789967,-1.2330260403318591
1.92,-0.5865114779557555,-0.2890081486604759,1.3964123542215756,-0.0603962353859664,0.1183354728119824,0.0251299753472736,0.947451278922148,-0.0432955288237869,0.2583152234730311,-0.5956397382387724,-0.2859959280954903,1.3894013992750078,1.1931601572424548,0.050799070394644,0.2504804449168654,1.427623107000065,-0.5192295961954696,0.9342819515902204,0.9463749769557396,11.871462163236174,-1.4514099716155626,0.2670413771369229,-1.2339334002992726
1.94,-0.5676797861934153,-0.2896686700053344,1.40177498925378,-0.0624799977255398,0.1191647122237277,0.0254343872062057,0.9367572467658994,-0.023837617833969,0.2769812243407757,-0.5725765351058442,-0.2856548829225485,1.393964741551994,1.2331601578385014,0.084545882142195,0.2727937759844275,1.450338074589156,-0.5347016078124212,0.9728955494908924,0.9333000433872308,11.837892715968335,-1.449751646459689,0.2706083165196087,-1.2411641659067003
1.96,-0.549965125997627,-0.289922711466294,1.4072174343739678,-0.0635942619581381,0.1224587369543905,0.0256320597906425,0.9288171149069844,-0.0040797979344933,0.2949571335303946,-0.5485133319580149,-0.2844701674559178,1.399085917105669,1.2731601584345478,0.1182926938897459,0.2951071070519896,1.3933327423039534,-0.3970065929457589,0.9878909949737844,0.8987954594809444,11.82797001115796,-1.4443378944080163,0.2733764941732673,-1.2531767363148487
1.98,-0.5314513921542312,-0.2897769318014028,1.4133231896997582,-0.0634628398526068,0.1274766966892255,0.0258363518882651,0.923278790389923,0.0174930392409186,0.3146975264052387,-0.5234501287952844,-0.2824417816955984,1.4047649259360333,1.313160159030594,0.1520395056372969,0.3174204381195517,1.4880721194773396,-0.2769162258530633,1.0786418587706,0.9870196437422012,11.854101003391406,-1.4368595383186982,0.274623117254394,-1.2678311665465287
2.0,-0.5130171846836067,-0.2891934994126266,1.4198326117727558,-0.0616227670246233,0.133098363392214,0.0261303905732059,0.9206524729205802,0.0395835437827278,0.3352834877980338,-0.485287452634735,-0.2889022798393568,1.42905806602002,1.0232787918800392,0.110494121780477,0.3611644767323966,1.5154782585269282,-0.1313158734671415,1.1045252270904633,1.0292980696397585,11.926660247356269,-1.4287502970178287,0.2736812678431778,-1.2815672720147693
2.02,-0.4945660796083009,-0.2881596088260859,1.4266741861291996,-0.0573303226361396,0.1368360370558803,0.0267238450938051,0.924514861442635,0.0617010100445388,0.347479286886112,-0.485287452634735,-0.2889022798393568,1.42905806602002,1.0232787918800392,0.110494121780477,0.3611644767323966,1.2775346123827882,0.1931194261027391,1.1058733130905498,0.6097899544039082,11.998687115249597,-1.421536726563192,0.2698073834378365,-1.2911371294495289
2.04,-0.4769690233667003,-0.2868247338465687,1.433404382644541,-0.0523830843935535,0.1372050538976172,0.0275361026143522,0.927396572083394,0.0776964779612332,0.3604020256243253,-0.485287452634735,-0.2889022798393568,1.42905806602002,1.0232787918800392,0.110494121780477,0.3611644767323966,1.038215327602108,0.1440855320379575,0.7997733958347186,0.6461369369106629,11.5550914509804,-1.4217253939859509,0.2647456857548165,-1.2955339711926606
2.06,-0.4584047909195476,-0.2851194955486778,1.440766868802029,-0.0478544256724994,0.1354742225031218,0.0284448276500737,0.9286816256967854,0.0921031159579666,0.3752076105236517,-0.4750546647159346,-0.2877973386215521,1.432669710787344,1.0432787921780624,0.1290943382883887,0.3704578667978283,1.034900871302871,0.0642526806695631,0.7203318998366695,0.7402792449663242,11.5550914509804,-1.4243744499290274,0.2604373587018574,-1.2965471061354084
2.08,-0.4398391246129384,-0.2831401977523256,1.4484308076832206,-0.044444913294954,0.1326857588328937,0.0293101449027493,0.9276200152816032,0.1052886103753987,0.3904489488114941,-0.4545890888783339,-0.2855874561859425,1.439893000321992,1.083278792774109,0.166294771304212,0.3890446469286914,1.0090622781947167,-0.0530805207591078,0.6592747208716033,0.7620669143921177,11.622019962524064,-1.4284501446153042,0.2574438955637155,-1.2957325842023608
2.1,-0.4213244124751353,-0.2809048973672763,1.456400633071366,-0.0421924910245943,0.1301070981093953,0.0300716714727123,0.9237963114641544,0.1178709871259952,0.4057575619117947,-0.4341235130407331,-0.283377573750333,1.44711628985664,1.1232787933701551,0.2034952043200354,0.4076314270595546,1.0090720373593491,-0.1911851908724449,0.6291188375298253,0.7654306550150286,11.64093699046498,-1.4321939627765143,0.2558744982668978,-1.2949719224472958
2.12,-0.4038298301066665,-0.2785522926499746,1.4642556563904792,-0.0410359277975066,0.1289951113273317,0.0306624366294784,0.9180686610447292,0.1293006027154425,0.4203016063562536,-0.41165793717333,-0.2793076696639323,1.455268918397831,1.1632787939662017,0.2406956373358587,0.4262182071904178,0.968208810964962,-0.2863825209712567,0.5714807794723636,0.7272022222229474,11.6469197781189,-1.4345150586271884,0.2554980750328108,-1.2968141422072423
2.14,-0.3855336873704999,-0.2758458037323945,1.4728222558790365,-0.041022302499171,0.1296929490646912,0.0311202412403654,0.9120515781361564,0.1408638787686534,0.4355703057600559,-0.3891923613059268,-0.2752377655775316,1.4634215469390222,1.2032787945622485,0.2778960703516822,0.444804987321281,1.0038025469372347,-0.3008541454286362,0.5781638026605446,0.7634349701901161,11.650139104923255,-1.4338782507878154,0.2565701153000031,-1.3016860235784753
2.16,-0.3673451392160787,-0.2728989674909098,1.481693701816801,-0.0421268421398514,0.1319392948808518,0.0314343124448045,0.9073332484380158,0.1533072575666466,0.4507846377935596,-0.3657267854236226,-0.2702378506657353,1.4720388449834847,1.2432787951582946,0.3150965033675055,0.4633917674521442,1.0106634087029178,-0.2359164849070338,0.6221689398996616,0.7607166016751848,11.65044104170738,-1.430633982171471,0.2589266547029794,-1.308606872153995
2.18,-0.3492327935321859,-0.2696900933946994,1.4908724763154313,-0.0438659802294543,0.1350714845038727,0.0316630517744598,0.904308423418298,0.166955873442384,0.4663075117251566,-0.3412612095264171,-0.2643079249285434,1.481120812531219,1.283278795754341,0.3522969363833289,0.4819785475830074,1.0445021503323912,-0.1512412509858895,0.6824307937868729,0.7761436965798479,11.653067613870917,-1.4261217023835082,0.2620358063963244,-1.316489870396497
2.2,-0.3311624753465773,-0.2661928837406981,1.500366393352926,-0.0457155323626149,0.1384937383669017,0.0318662594369547,0.9029867304811054,0.1820184779575884,0.4822852464534041,-0.304017372361271,-0.2613422997225803,1.5141878519016891,1.0043084249084142,0.2669558749325001,0.4932281637421539,1.0999056028222671,-0.0660846468596265,0.7531302257602165,0.798886736412377,11.72917610370132,-1.4213462973149251,0.2651176575631658,-1.3241895401764048
2.22,-0.3139739517110984,-0.262539766225873,1.5095800880074304,-0.0457074908189584,0.1400998582621251,0.0322543478500521,0.9061261394408237,0.2010648473019614,0.4868110082657292,-0.304017372361271,-0.2613422997225803,1.5141878519016891,1.0043084249084142,0.2669558749325001,0.4932281637421539,0.9913407509536404,0.1569704479859102,0.9523184672186504,0.2262880906162556,11.72917610370132,-1.4149794472332728,0.2658045666424296,-1.3286927857317767
2.24,-0.2958321389284155,-0.2583352389272475,1.5193779290849017,-0.0433732139915363,0.1390187134706235,0.0329465659919341,0.90767519294675,0.2182540890339413,0.4928699712028997,-0.304017372361271,-0.2613422997225803,1.5141878519016891,1.0043084249084142,0.2669558749325001,0.4932281637421539,0.9145772656788898,0.0774526752963244,0.8594620865989971,0.3029481468585254,11.029852525235585,-1.417500485906252,0.2639458780320279,-1.32910251757931
2.26,-0.277682657913149,-0.253814237113286,1.5293085306111072,-0.0399998670237895,0.1364358221624713,0.0337622068197914,0.9070103316500427,0.2326855780901801,0.4999301205701967,-0.2939742881121869,-0.2586727409732552,1.519120133539111,1.0243084252064374,0.2869558752305234,0.4986122941455534,0.8039832492234265,-0.0332430648353698,0.7215744528119405,0.3530074683648465,11.141755977631874,-1.4222333540258,0.2608577957443137,-1.3279114436863904
2.28,-0.2595758895093246,-0.2490366510338127,1.5393852551228835,-0.0370022525963341,0.1336642824123863,0.0345402430158506,0.9035772358860202,0.2445511868388004,0.5073828645354498,-0.2738881196140186,-0.2533336234746052,1.5289846968139538,1.064308425802484,0.3269558758265698,0.5093805549523523,0.7213220676506061,-0.1716547882011254,0.593280437431011,0.3726371982626542,11.181599523066325,-1.4270898394144735,0.2582103242480258,-1.3264857747687633
2.3000000000000003,-0.2415673456604413,-0.2440352000085135,1.5496120523462549,-0.0349476058149238,0.1320917777741694,0.0351929134499923,0.8974501279175076,0.2552798503984645,0.5149091152897227,-0.2538019511158503,-0.2479945059759552,1.5388492600887969,1.1043084263985303,0.3669558764226163,0.5201488157591513,0.7233431485997353,-0.306355398425634,0.5364331779832088,0.3763125377136467,11.196353654981976,-1.4301865619493317,0.2567443994510486,-1.3266616647367024
2.32,-0.2245817214341931,-0.2390920091904672,1.5594682232512846,-0.0340662038656509,0.1325087424677943,0.0356629216352726,0.8910972166190574,0.2647187558519858,0.5221814929103172,-0.2317157825878797,-0.2406553884475029,1.5492522364039798,1.144308426994577,0.4069558770186627,0.5309170765659502,0.6751664505568468,-0.3176455649225085,0.4719452726760609,0.3636188810297258,11.203232729249066,-1.4300506735187808,0.2565252824241819,-1.330403753254649
2.34,-0.2068235492163635,-0.2336994096805852,1.569993202467295,-0.0345607375152709,0.1347982065438614,0.0359896276486504,0.885292296478472,0.2741981715560128,0.5299163348323724,-0.209629614059909,-0.2333162709190506,1.559655212719163,1.1843084275906233,0.4469558776147092,0.5416853373727492,0.6770971117341856,-0.2902460070292711,0.4739707852013497,0.3867420961027601,11.220071842876678,-1.427294794702388,0.2580754094691151,-1.336783407253607
2.36,-0.1891616040902585,-0.2281055972257343,1.580674800712072,-0.0364048593200406,0.1384240257204324,0.036168610373589,0.8814161391598198,0.2848100874646095,0.5378469828887621,-0.1865434455170373,-0.2249771533756971,1.5703273955545158,1.2243084281866696,0.4869558782107556,0.5524535981795481,0.6901676126209986,-0.1938078659326103,0.530595795429839,0.3965324028194827,11.220071842876678,-1.422326719201691,0.2612644230211258,-1.3450394389403786
2.38,-0.1715544516285434,-0.2222805421596204,1.5915208543506254,-0.0389724867551956,0.1426095104164537,0.0362660211859982,0.8796406358665348,0.2973389308140672,0.5463269764413219,-0.1624572769592644,-0.2156380358174424,1.5812687849100389,1.264308428782716,0.5269558788068021,0.563221858986347,0.7616341284881644,-0.0887751646642454,0.6264421674728821,0.4239996776279897,11.24111997730506,-1.416509584798764,0.2650966979856655,-1.3531020738079125
2.4,-0.1539619960895777,-0.2161796107327765,1.6025426978252368,-0.0412759684463083,0.1467098027642581,0.0363737411029204,0.8797777990534719,0.3119695260129554,0.5554098234585103,-0.1275724198352166,-0.207413595618917,1.6188372031726914,0.9762882933205488,0.3964804019019998,0.5449406643719505,0.8610621922242755,0.0068581593468508,0.7315297599444104,0.4541423508594211,11.288422136882218,-1.4106845565412662,0.2689295607839295,-1.3620057127543392
2.42,-0.1371958333652388,-0.2100288873107202,1.613079402201632,-0.0402880439761967,0.1484322405986451,0.0367802596008368,0.8848005131365894,0.3335178839468147,0.5533081963108689,-0.1275724198352166,-0.207413595618917,1.6188372031726914,0.9762882933205488,0.3964804019019998,0.5449406643719505,1.1112787938611155,0.2511357041558748,1.0774178966929642,-0.1050813573820697,11.34431630434574,-1.4030285307102552,0.2680587889989737,-1.365025767040232
2.44,-0.1194601256261232,-0.2031764704440613,1.6241303317063605,-0.0355252690324694,0.146721278559966,0.0375967354522131,0.888278089578881,0.3497792153757278,0.5520350502303887,-0.1275724198352166,-0.207413595618917,1.6188372031726914,0.9762882933205488,0.3964804019019998,0.5449406643719505,0.8338844924436198,0.1738788221145815,0.8130665714456559,-0.0636573040240118,10.747556373955376,-1.4074798855460993,0.2632294166611934,-1.367432542577897
2.46,-0.1016823570976275,-0.1960632074586437,1.63516063372253,-0.0303522110837825,0.1428472906370113,0.0384878377336332,0.8891045904662493,0.3608248250154351,0.5510712716057746,-0.1178095369020111,-0.203448791599897,1.6242866098164108,0.9956178248113514,0.4163086961195863,0.5446634019580763,0.5559169570782997,0.0413250443684176,0.552280481985365,-0.0481889312307026,10.747556373955376,-1.4138836168882305,0.2575817418367161,-1.364166037709991
2.48,-0.0839260265830917,-0.188759574745098,1.6461683838953756,-0.0262384074534722,0.1383215131335708,0.0392880625204527,0.8863166342840548,0.369341458329319,0.5497586068398085,-0.0982837710356002,-0.195519183561857,1.6351854231038498,1.034276887792957,0.4559652845547593,0.5441088771303277,0.4528488474778391,-0.1393978091097258,0.4258316656941957,-0.0656332382983071,10.735955860219292,-1.4210997915904513,0.2531963707023581,-1.3589339221614494
2.5,-0.0662631076891661,-0.1812964257772834,1.6571452740978974,-0.0235029146687646,0.134770753425705,0.0399371693121475,0.879891037795443,0.3768189346656118,0.5479680987817528,-0.0787580051691892,-0.187589575523817,1.6460842363912889,1.0729359507745624,0.4956218729899324,0.5435543523025792,0.5010161217472006,-0.3212798244305925,0.3738738168146405,-0.0895254029027847,10.702208295952914,-1.4270434386889097,0.2506394332700894,-1.354829680362635
2.52,-0.0496347970336011,-0.1740761783281599,1.6675366457124925,-0.0223040599963629,0.1338760809285729,0.0403813672849156,0.8710257641778738,0.3831234581427707,0.5459318982354374,-0.057299286153698,-0.1776771380640184,1.6569553234373404,1.111595013756168,0.5352784614251054,0.5429998274748307,0.5533674304953967,-0.4432636808784584,0.3152261738579465,-0.1018100273157684,10.67300543998408,-1.4294688773139588,0.2497886828758074,-1.3552681414518697
2.54,-0.0323080764542793,-0.1663501148233388,1.6784300096315783,-0.02268534907711,0.1359429052354389,0.0406572099170939,0.8624630626669562,0.3893365562036124,0.5434768119636906,-0.0358405671382067,-0.1677647006042197,1.667826410483392,1.1502540767377736,0.5749350498602785,0.5424453026470821,0.5430236948799426,-0.4281350755458823,0.3106549030420846,-0.1227543135873421,10.654573584580248,-1.427078033537641,0.2510039286661538,-1.360626673816892
2.56,-0.015127547198994,-0.1584888072962528,1.6892762403203274,-0.0246594142544466,0.1402569977084296,0.040759609821965,0.8563591375188737,0.3966322183031749,0.5412416479393125,-0.0134153715481753,-0.1568608484335417,1.67868363440875,1.188913139719379,0.6145916382954515,0.5418907778193336,0.4885707366908584,-0.3051962574041222,0.3647831049781225,-0.1117582012189033,10.634808328552026,-1.4213229446682552,0.2539248525841586,-1.368029779916666
2.58,0.0011086053645604,-0.1508662559549194,1.6995456035026268,-0.0274073243037302,0.1454081442280981,0.040754160155827,0.8532115182176762,0.4056161767953567,0.5398251180447183,0.0099763006163961,-0.1449655815519845,1.689526995213414,1.2275722027009843,0.6542482267306245,0.541336252991585,0.4812109059362538,-0.1573809650598778,0.4491979246090904,-0.0708264947297088,10.70749400551631,-1.4131670151873637,0.2580904263814959,-1.3764100949116214
2.6,0.0181616297440832,-0.1426326521682093,1.710334266423891,-0.030170157382552,0.1510393067142992,0.0407323011113134,0.8524450691127154,0.4172353569517021,0.5391351270820963,0.0437691812754442,-0.1305854471151515,1.726536859404863,0.8799656292692356,0.4919821596854858,0.5143286016679846,0.5832428294985864,-0.0383224552480354,0.5809590078172722,-0.0344995481311005,10.70749400551631,-1.4049439097206182,0.2621976164396344,-1.3857237479711442
2.62,0.0354101925859959,-0.1340336104467706,1.7210502660174254,-0.0286008645557843,0.149894990798919,0.0412016951455001,0.8709339509930415,0.4402716462796804,0.5326532691386737,0.0437691812754442,-0.1305854471151515,1.726536859404863,0.8799656292692356,0.4919821596854858,0.5143286016679846,1.5120547787577725,0.9244440940163025,1.151814466398915,-0.3240928971711299,10.588622580723497,-1.3984932640869947,0.2598254103350593,-1.3820985294660393
2.64,0.0520735897433341,-0.1255213920304173,1.7311140390626825,-0.0228594513654066,0.139134865907876,0.042170551066165,0.8810051378293632,0.4537635474220305,0.5271913495780678,0.0437691812754442,-0.1305854471151515,1.726536859404863,0.8799656292692356,0.4919821596854858,0.5143286016679846,0.8850039067902145,0.5035593418160844,0.6745950571175052,-0.2730959780302966,10.588622580723497,-1.417014348151606,0.2534076625051483,-1.3676895652044074
