t,x,y,z,roll,pitch,yaw,v_x,v_y,v_z,ref_x,ref_y,ref_z,ref_v_x,ref_v_y,ref_v_z,a_com,a_x,a_y,a_z,thrust,wind_x,wind_y,wind_z
0.0,-0.1360753666097047,-2.502457523955439,1.921842942272616,0.0107037551714331,0.1362408638083226,0.0256794440370584,0.000989965479694,0.0011752977188369,-0.0010317066821253,-0.1360416053272029,-2.502523763796749,1.9218118033144411,0.1010909462985082,0.0986739751297412,-0.0736829030814754,0.0925442469420884,0.0494982739847001,0.0587648859418481,-0.0515853341062687,10.543752104518717,-1.2856687003012932,0.1655373238481104,-1.162901164392062
0.02,-0.1361445762645552,-2.5026772943755526,1.9216817054100357,0.0023627019680892,0.1385161097632895,0.0251300006932379,-0.0077385786553901,-0.0188137651228196,-0.0157206160383103,-0.1360416053272029,-2.502523763796749,1.9218118033144411,0.1010909462985082,0.0986739751297412,-0.0736829030814754,1.314832854472414,-0.4364272067542098,-0.9994531420828324,-0.7344454678092497,10.543476047346305,-1.293879583884237,0.1741723082180918,-1.1527306907671386
0.04,-0.1363588701948451,-2.503050078010714,1.9211768618198155,-0.0125948632342076,0.1440613567879066,0.0240928106131949,-0.013933243691743,-0.0185868168422442,-0.0365962929326147,-0.1360416053272029,-2.502523763796749,1.9218118033144411,0.1010909462985082,0.0986739751297412,-0.0736829030814754,1.088828804530427,-0.3097332518176416,0.0113474140287693,-1.0437838447152208,9.279477153358584,-1.2845645334070968,0.1900334767744439,-1.1469373744464548
0.06,-0.136673286265783,-2.503346591930556,1.9202220746155616,-0.0290749450593741,0.1516184077908253,0.0228435006347145,-0.0168264308287566,-0.0106436703702452,-0.0577299533417655,-0.1350306958642179,-2.501537024045452,1.9210749742836264,0.1210909465965314,0.1186739754277645,-0.0882123935523616,1.1380857941898728,-0.1446593568506816,0.3971573235999548,-1.056683020457536,9.279477153358584,-1.2733785086214675,0.2063475556152217,-1.1399329440221635
0.08,-0.1370111699928184,-2.503438996065438,1.918866678056642,-0.0450143710047241,0.1598590899800855,0.0215064291311327,-0.0165513537595806,0.0013718001868032,-0.0767917287195841,-0.1330088769382477,-2.499563544542857,1.9196013162219967,0.1610909471925778,0.1586739760238109,-0.117271374494134,1.126719220409077,0.0137538534587986,0.6007735278524201,-0.9530887688909306,9.34185300088302,-1.2640190879324809,0.2212931381571025,-1.1353148031332367
0.1,-0.1373017869392885,-2.5032673964975185,1.917244102799116,-0.0593090355262335,0.1677727205829238,0.0201939887226332,-0.0138615956531617,0.0162745774673473,-0.0930920235319062,-0.1309870580122775,-2.4975900650402623,1.918127658160368,0.2010909477886243,0.1986739766198574,-0.1463303554359065,1.1124603142507632,0.1344879053209469,0.7451388640272059,-0.8150147406161046,9.575447178822287,-1.256741269687352,0.2363235810592165,-1.1333251398913844
0.12,-0.1375307188535541,-2.502734583497943,1.915214123036896,-0.0728398647838353,0.1758943940997643,0.018839712753019,-0.0089598695520626,0.0361897290082397,-0.1090080127588862,-0.126965239056505,-2.493616585507865,1.9152010510516493,0.2410909483846708,0.2386739772159038,-0.175389336377679,1.2980359131590424,0.2450863050549548,0.995757577044621,-0.7957994613490039,9.575447178822287,-1.25221375873995,0.2501077343199223,-1.1341925068757732
0.14,-0.1376424424095822,-2.501769350839623,1.9128739004349105,-0.0843024694162203,0.1836584846174724,0.0175827880171256,-0.002272829626112,0.0591654291881334,-0.1241976624733149,-0.1229434201007325,-2.489643105975468,1.9122744439429316,0.2810909489807173,0.2786739778119503,-0.2044483173194515,1.417149216009615,0.3343519962975322,1.148785008994685,-0.7594824857214306,9.73631106117773,-1.2500686997570585,0.2620953040002517,-1.137104962982263
0.16,-0.1376038238423757,-2.500311258840122,1.910235589336689,-0.0932887559424957,0.1910068106973252,0.0164842507671593,0.0059689618927544,0.0849157554215007,-0.1388655684864421,-0.1179216011300589,-2.4846696264281696,1.908621362310669,0.3210909495767637,0.3186739784079967,-0.2335072982612239,1.5379807340919769,0.412089575943325,1.2875163116683648,-0.7333953006563628,9.73631106117773,-1.2498150547031197,0.2714051176437073,-1.1415079417245564
0.18,-0.1374008261122623,-2.4984343696704694,1.907462442485725,-0.0995153975869193,0.197588626538979,0.0156142638819395,0.0151231048868391,0.1108128247859141,-0.1522900199785735,-0.1118997821444841,-2.4786961468659703,1.9042418061548625,0.3610909501728101,0.3586739790040432,-0.2625662792029963,1.528620647418759,0.4577071497042351,1.2948534682206718,-0.671222574606567,9.79125727110022,-1.2509666278743752,0.2789549915856381,-1.147309323503715
0.2,-0.1369859957723034,-2.495923972971407,1.9042722227662463,-0.1039590952610822,0.2041006867498068,0.0148795250245422,0.0260218314429174,0.1385115047589261,-0.1659897813949003,-0.1366446708679203,-2.4928937284311736,1.8998479414867964,0.1151231063769553,0.2108128262760303,-0.2026170602336432,1.6383547964770748,0.5449363278039119,1.3849339986505975,-0.6849880708163405,9.84494069905486,-1.2532378960549522,0.2845724828707757,-1.1549230401143036
0.22,-0.1363278715192639,-2.49272935512756,1.900871926360158,-0.1027040936183943,0.2101923228264706,0.0146015513034577,0.0394877702567207,0.1781860320038985,-0.1728347735755769,-0.1366446708679203,-2.4928937284311736,1.8998479414867964,0.1151231063769553,0.2108128262760303,-0.2026170602336432,2.122647838315787,0.673296940690166,1.983726362248618,-0.3422496090338331,10.430176542156914,-1.2531985131505337,0.2852768066431864,-1.1722643290611865
0.24,-0.1353838841349401,-2.4888346773504257,1.8973588952646092,-0.0954314407648346,0.2158655125234941,0.014837357642636,0.0543633094097353,0.2081752700949898,-0.1780943656363916,-0.1366446708679203,-2.4928937284311736,1.8998479414867964,0.1151231063769553,0.2108128262760303,-0.2026170602336432,1.694328314571306,0.7437769576507283,1.4994619045545663,-0.2629796030407333,10.410508360730091,-1.258069493918827,0.279896691564189,-1.1880002185198304
0.26,-0.1342028214751504,-2.4846478225937143,1.8939220154989005,-0.0872865017187254,0.2208854003887964,0.0152375810168326,0.0693023862297095,0.2308019646875221,-0.183434430938899,-0.1354934398041507,-2.490785600168413,1.89782177088446,0.1351231066749785,0.2308128265740535,-0.2126824682846571,1.3817196005809815,0.7469538409987108,1.131334729626618,-0.2670032651253679,10.410508360730091,-1.2627788703296805,0.2726475877388372,-1.2048772473896217
0.28,-0.1326455986359172,-2.479816657949981,1.8901877637238207,-0.0791343366930406,0.2258127599144909,0.0157130233318023,0.0857119281193739,0.2510818904403327,-0.1897811428699309,-0.1331909776766116,-2.4865693436428926,1.8937694296797871,0.1751231072710249,0.2708128271700999,-0.232813284386685,1.3424131311780132,0.8204770944832198,1.0139962876405284,-0.3173355965515975,10.370983433327638,-1.2674492627943483,0.2655487424861192,-1.2201571934878963
0.3,-0.1307536039271496,-2.474604535954683,1.886318218705076,-0.0720453104241967,0.230406537975568,0.0161861758597451,0.1027418479419352,0.2692543278448152,-0.1969029104448467,-0.1308885155490725,-2.482353087117372,1.8897170884751144,0.2151231078670714,0.3108128277661464,-0.2529441004887129,1.2951594725880498,0.8514959911280672,0.9086218702241216,-0.3560883787457905,10.329370120078238,-1.2716421593025746,0.2596467814998639,-1.2330559060339157
0.32,-0.1285145181378199,-2.4690442276743463,1.882299733963116,-0.0661076271788223,0.2346941607737063,0.0166385036942806,0.1203863670580596,0.2860383996369685,-0.2046392903182599,-0.1265860533917311,-2.4761368305620493,1.88465820646534,0.2551231084631178,0.3508128283621928,-0.2730749165907408,1.2775814008402635,0.8822259558062179,0.8392035896076677,-0.3868189936706581,10.29781376210849,-1.2745349568227962,0.25447049140887,-1.2458187629267743
0.34,-0.1260539620913882,-2.4634604897208305,1.8783371936759337,-0.0614871268190672,0.2385028719811007,0.0170429906602193,0.137793765672583,0.3010533479619081,-0.2121255846393173,-0.1222835912343896,-2.4699205740067263,1.879599324455565,0.2951231090591644,0.3908128289582393,-0.2932057326927688,1.2088329106901137,0.8703699307261683,0.7507474162469802,-0.3743147160528703,10.275896671346343,-1.2769854335526614,0.250375383740044,-1.2573982837436684
0.36,-0.1231001436619095,-2.4572740965876885,1.8740110604953697,-0.0573619319480077,0.2422510168436351,0.0174582769907635,0.1567391406319583,0.316781617386898,-0.2201173245598495,-0.1169811290621471,-2.462704317436502,1.8740371720432407,0.3351231096552108,0.4308128295542857,-0.3133365487947966,1.294385566990979,0.9472687479687658,0.7864134712494919,-0.3995869960266088,10.282474377178003,-1.2797208867650942,0.2471282777606014,-1.2685377377911122
0.38,-0.1197607035425287,-2.450776207192869,1.869525510409628,-0.0536394105778139,0.245747864273863,0.0178821443313189,0.1763204673009927,0.3321614364235599,-0.2280671392827744,-0.1106786668750033,-2.454488060851377,1.867971749228365,0.3751231102512572,0.4708128301503321,-0.3334673648968245,1.3068729297915151,0.9790663334517224,0.7689909518330984,-0.3974907361462457,10.29265625487551,-1.2816308462210455,0.2442512137844936,-1.2793999210650164
0.4,-0.1160232554910986,-2.4439761733370937,1.8648813420237644,-0.0501454947027684,0.2490088208423895,0.018322371689942,0.1965024856701346,0.3469936821984544,-0.2359784809592379,-0.1109446801774791,-2.434168135371691,1.8581221534454893,0.2763204687911089,0.432161437913676,-0.2821536531000848,1.313296146439372,1.0091009184570912,0.7416122887447252,-0.3955670838231742,10.324696947962366,-1.2836163423770073,0.2417394760493441,-1.2894742993584838
0.42,-0.1120645095901405,-2.437242108707541,1.860393047398323,-0.0469471139356544,0.2515760994521303,0.0187744286049326,0.219136902429469,0.3610153912357443,-0.2361003526860833,-0.1109446801774791,-2.434168135371691,1.8581221534454893,0.2763204687911089,0.432161437913676,-0.2821536531000848,1.3312963598307666,1.131720837966721,0.7010854518644943,-0.0060935863422734,10.826724811312488,-1.282952612140332,0.2387837222814351,-1.296971157401412
0.44,-0.1074362209690725,-2.429888257186035,1.8556580675644685,-0.04416331152955,0.2535988373750222,0.0192543902123728,0.2424481878487928,0.3737961904726138,-0.237533925882832,-0.1109446801774791,-2.434168135371691,1.8581221534454893,0.2763204687911089,0.432161437913676,-0.2821536531000848,1.3311836736010374,1.165564270966192,0.6390399618434767,-0.0716786598374333,10.826724811312488,-1.287585126424595,0.2376990726922936,-1.3138589903886109
0.46,-0.102342556490633,-2.4222823062311463,1.850874499235228,-0.0422133410503122,0.2550566189412196,0.019710857469226,0.2656957229231216,0.3863192019659209,-0.2407723955184672,-0.108181475489568,-2.429846520992554,1.8553006169144883,0.2963204690891321,0.4521614382116992,-0.2929709558635468,1.3301892623557154,1.1623767537164376,0.6261505746653517,-0.1619234817817602,10.723314243972707,-1.2911506493112397,0.237380451859854,-1.3280738380731472
0.48,-0.0970743967299049,-2.414827778982067,1.846258263998577,-0.0410216394559795,0.2558784634878308,0.0201296488499648,0.2876194549662288,0.3978222625358466,-0.2449994766372086,-0.1026550661137458,-2.4212032922342805,1.8496575438524867,0.3363204696851785,0.4921614388077457,-0.3146055613904709,1.2558250713751558,1.0961866021553606,0.5751530284962864,-0.2113540559370699,10.58672894324809,-1.2956886987533556,0.2377673778431723,-1.3408887435181285
0.5,-0.0910836462537778,-2.406750054046488,1.8413030598473583,-0.0406177044678335,0.2562310699445683,0.0205391959161694,0.3102376744166086,0.4094089371570319,-0.2503490772818229,-0.0971286567379236,-2.412560063476007,1.844014470790485,0.376320470281225,0.5321614394037921,-0.3362401669173951,1.2985117509476147,1.1309109725189892,0.5793337310592672,-0.2674800322307116,10.58672894324809,-1.3006334808209974,0.239135549765908,-1.3519141981288725
0.52,-0.0846447737389809,-2.398442506879125,1.836233289654028,-0.0412585012995575,0.2561726139620175,0.0209003310597784,0.3324569655864642,0.420852425570855,-0.2563954495044295,-0.0896022473322991,-2.401916834687931,1.837289667452137,0.4163204708772714,0.5721614399998386,-0.3578747724443192,1.2856991718734558,1.11096455849278,0.5721744206911544,-0.3023186111303338,10.542213022349642,-1.305297134880254,0.2416744982086587,-1.361045110899136
0.54,-0.0777648995035728,-2.3899038662247345,1.8310400475879451,-0.043001925115795,0.2557787954312247,0.0212081753525894,0.3543520040612775,0.4325692843848446,-0.2626367634435875,-0.0820758379266746,-2.391273605899855,1.8305648641137893,0.4563204714733179,0.6121614405958851,-0.3795093779712434,1.2802650994692908,1.0947519237406638,0.585842940699477,-0.3120656969578972,10.512024157957969,-1.3093520835844723,0.2452628268668526,-1.368045193304182
0.56,-0.0708213179100995,-2.381557317380516,1.8259892342470527,-0.0452425888324757,0.2549914838610072,0.0214899211555709,0.3753696961637367,0.4455259629736576,-0.2687219197959651,-0.073549428506149,-2.3796303770968783,1.823299195637268,0.4963204720693643,0.6521614411919314,-0.4011439834981675,1.271463752138126,1.050884605122962,0.6478339294406499,-0.3042578176188831,10.511063929652664,-1.3128023772481223,0.2497804396514102,-1.3745037513071698
0.58,-0.0630817422058444,-2.372486654909368,1.820545779838333,-0.0473299837854506,0.2534886217898464,0.0218517352110175,0.3974197195011756,0.4607772518419676,-0.2753048237974884,-0.0640230190707221,-2.366987148279,1.8154926620225744,0.5363204726654108,0.6921614417879779,-0.4227785890250916,1.380344129573773,1.1025011668719469,0.7625644434155032,-0.3291452000761613,10.515518296175289,-1.317872502960573,0.2541181278987237,-1.380567530593663
0.6,-0.0549021057234995,-2.363099077650924,1.814968896420532,-0.0486411196839318,0.2510490715747179,0.0223286340120262,0.4193590442439912,0.4771009636021446,-0.2820490134930735,-0.0432107562307856,-2.3494477923172696,1.8067805386484588,0.4974197209912918,0.5607772533320838,-0.3180756640250923,1.4082627866010105,1.0969662371407785,0.8161855880088498,-0.3372094847792578,10.51633817326274,-1.3241804471831051,0.2575698206601943,-1.3859922034198648
0.62,-0.0462362802595397,-2.35330760601804,1.8094117344940923,-0.0468471871997301,0.2470325338750318,0.0231100095183037,0.446231304059242,0.5006576519797297,-0.2724729588238553,-0.0432107562307856,-2.3494477923172696,1.8067805386484588,0.4974197209912918,0.5607772533320838,-0.3180756640250923,1.849822111666988,1.3436129907625385,1.1778344188792504,0.4788027334609118,11.675849985555033,-1.3304793940027797,0.2570961106372175,-1.3891574431927212
0.64,-0.0375209604373393,-2.343610280826581,1.8043195378189791,-0.0416746922770472,0.241473314189209,0.0241580666084673,0.4694348811712183,0.5180604557252361,-0.2640404811620326,-0.0432107562307856,-2.3494477923172696,1.8067805386484588,0.4974197209912918,0.5607772533320838,-0.3180756640250923,1.5102733597872111,1.1601788555988146,0.87014018727532,0.4216238830911351,11.47124028201506,-1.3467071320502997,0.2536073370547655,-1.4057512056743589
0.66,-0.0279114389158972,-2.3331049142847893,1.7991045776004029,-0.0355725972565538,0.234765690244728,0.0252964977430835,0.4899728418536294,0.5314111084541131,-0.2580212058955783,-0.0382365590208726,-2.343840019783949,1.803599782008208,0.517419721289315,0.580777253630107,-0.3266298320706131,1.261228995873355,1.0268980341205547,0.6675326364438516,0.3009637633227147,11.47124028201506,-1.3607779017766486,0.2482948771293,-1.4159626353963792
0.68,-0.0179309969235971,-2.3223640555860423,1.7939751130301047,-0.0300694676609157,0.2280570190516845,0.0263406888843973,0.506878388208727,0.5421083483892211,-0.2551986330570174,-0.0282881646010468,-2.332624474717307,1.797238268727706,0.5574197218853615,0.6207772542261535,-0.3437381681616546,1.0101922554922456,0.8452773177548806,0.534861996755398,0.1411286419280427,11.050275291596336,-1.372856101542281,0.2430301743222886,-1.4204349188186227
0.7000000000000001,-0.0076459298500743,-2.311427238300987,1.7888747338392277,-0.0255529973928777,0.2220110496047588,0.0272513663149718,0.5206727773565452,0.5512285267254984,-0.2549714495274986,-0.018339770181221,-2.3214089296506653,1.7908767554472045,0.597419722481408,0.6607772548222,-0.3608465042526962,0.8269135946443108,0.6897194573909082,0.4560089168138659,0.0113591764759418,10.88171378608422,-1.383049165745741,0.2388921145243271,-1.422370984498722
0.72,0.0023528041137353,-2.300878445290353,1.7840133948914336,-0.0222471083276624,0.217464530669725,0.0279870198331623,0.5310458461685188,0.5589254723373773,-0.256753062820601,-0.0063913757315928,-2.308193384554221,1.7836598253621505,0.6374197230774544,0.7007772554182464,-0.3779548403437378,0.6519541284789946,0.518653440598682,0.3848472805939473,-0.0890806646551223,10.88171378608422,-1.3920373558774002,0.2356347129344362,-1.4231597504492195
0.74,0.0130658137836963,-2.289622502228669,1.778850248977791,-0.0197639699653414,0.2146895445448836,0.0286279004982018,0.5395855798981263,0.5664292181748217,-0.2595081633631517,0.0055570187180353,-2.2949778394577773,1.7764428952770963,0.6774197236735009,0.7407772560142929,-0.3950631764347793,0.5848585999306212,0.4269866864803739,0.3751872918722199,-0.1377550271275313,10.749129772409104,-1.3980251368826089,0.2335135770882124,-1.424060044612062
0.76,0.0239425053505123,-2.278211552411276,1.7736230609665442,-0.0179580194880738,0.2143766157379604,0.0291631056836243,0.5479798536479528,0.5743394845214923,-0.2631108595584303,0.0185054131825646,-2.2807622943464323,1.7687982567897669,0.7174197242695473,0.7807772566103393,-0.4121715125258209,0.6041845027344089,0.4197136874913243,0.395513317333529,-0.1801348097639293,10.642703479048578,-1.398086267165033,0.2319582993126901,-1.426660100080414
0.78,0.0350040381206814,-2.2666418021973422,1.768317376317864,-0.0164721254923674,0.2157150312888514,0.029641964789298,0.5579308093229517,0.5822230372305917,-0.2673037844054873,0.0324538076619951,-2.265546749220186,1.7607259099001606,0.7574197248655937,0.8207772572063857,-0.4292798486168624,0.6684918491201095,0.4975477837499464,0.3941776354549675,-0.2096462423528511,10.642703479048578,-1.396548193387943,0.2308739746190813,-1.4308453810313289
0.8,0.0457118826909422,-2.255506210844392,1.763195578390268,-0.015287686697256,0.2177414302051022,0.0300663922322257,0.5688071765032168,0.5895286140510602,-0.2716422223993133,0.062900578586829,-2.2375306503358128,1.7549521870975897,0.6384942576924547,0.6822230387207078,-0.2996557029240305,0.6900885087182422,0.5438183590132539,0.3652788410234253,-0.2169218996912997,10.617166855966389,-1.3941575029767894,0.2300540780975917,-1.4362328334818506
0.8200000000000001,0.0573164358772787,-2.2435942167432064,1.757876908679756,-0.0130720377985095,0.2181921643885979,0.0306028133255574,0.5913263403810223,0.6007386667882145,-0.2591208591202582,0.062900578586829,-2.2375306503358128,1.7549521870975897,0.6384942576924547,0.6822230387207078,-0.2996557029240305,1.404957795176879,1.1259581938902752,0.5605026368577182,0.6260681639527532,11.83717182662258,-1.3898273367674163,0.2273022281793483,-1.4338550565971522
0.84,0.0693764666636078,-2.23149922912408,1.752817280488716,-0.0101538802525452,0.214702871434397,0.0312266613287605,0.6131238082205587,0.6082150718626351,-0.2475351076632062,0.062900578586829,-2.2375306503358128,1.7549521870975897,0.6384942576924547,0.6822230387207078,-0.2996557029240305,1.2896277310497664,1.08987339197682,0.37382025372103,0.5792875728525978,11.83717182662258,-1.39729391551922,0.2252243432930271,-1.444237051621274
0.86,0.0812002711812049,-2.2198885853982904,1.7481931179088708,-0.007871127759773,0.2085932482245693,0.0317917006449289,0.6299352410771152,0.6137490460182983,-0.2397412309966354,0.0692855211637536,-2.2307084199486056,1.7519556300683494,0.6546069473663553,0.702223039018731,-0.3061260866277392,0.9669457820112932,0.8405716428278254,0.2766987077831573,0.3896938333285416,11.639305514703665,-1.40936929560727,0.2235458454713161,-1.449392820109083
0.88,0.0939420150607872,-2.207564278566346,1.7434574259065496,-0.0063360873895944,0.2007081654066693,0.0323135105040771,0.6429542760849651,0.6184940409427852,-0.2343401861044479,0.0820554063176027,-2.217063959174192,1.7459625160098688,0.6868323267141565,0.7422230396147774,-0.3190668540351565,0.7436086593371106,0.6509517503924978,0.2372497462243439,0.270052244609377,11.402204672273,-1.4226583106422055,0.2227799425332823,-1.4492356080621935
0.9,0.1068978501901481,-2.195154365104746,1.7388002409078285,-0.0060161016725167,0.1926054525642913,0.0327361256514928,0.6516986547524976,0.6223702452285144,-0.2317441773056623,0.0948252914714518,-2.203419498399777,1.7399694019513885,0.7190577060619577,0.7822230402108239,-0.3320076214425738,0.495551156867971,0.4372189333766207,0.1938102142864606,0.1298004399392802,11.196567797853277,-1.4350399929582638,0.2233352120392132,-1.4453474891488454
0.92,0.1199882044666316,-2.1826742418170464,1.7341675152369194,-0.0072790794861897,0.1852668526583481,0.033042393822095,0.6568220289256137,0.62569009225702,-0.2316285028639164,0.1092064455926909,-2.1877750375955607,1.7333292495225368,0.751283085409759,0.8222230408068704,-0.344948388849991,0.3053020135329295,0.2561687086558073,0.1659923514252814,0.0057837220872936,11.007795357085342,-1.4466051292294948,0.2257872018817182,-1.4392387911754725
0.94,0.1324911574580214,-2.1707541575329534,1.7297585948455256,-0.0100806049518152,0.1796549168825431,0.0332242092273848,0.6589431804697711,0.6293552238071332,-0.2324618559538275,0.1235875997139301,-2.172130576791344,1.7266890970936852,0.7835084647575602,0.8622230414029168,-0.3578891562574084,0.2157947550647405,0.1060575772078686,0.1832565775056582,-0.0416676544955557,10.85448679871115,-1.4555236082103364,0.2303961285236551,-1.433204847234551
0.96,0.1456737263558933,-2.1580979333404304,1.7250950818829798,-0.0137280345786614,0.1757927207283939,0.0333656051667984,0.659084547372203,0.6362068066491079,-0.2338651198984009,0.1387743883188643,-2.1554861159722267,1.7197254254796484,0.8157338441053614,0.9022230419989632,-0.3708299236648257,0.349761782287908,0.0070683451215969,0.3425791420987367,-0.0701631972286717,10.789540071396004,-1.4609591586024695,0.2358721748726075,-1.428560826416672
0.98,0.1588425025957169,-2.1452831271366644,1.7203992721915895,-0.0170488358610645,0.1745314820547322,0.0335069968606203,0.6580379137270012,0.6448433645878937,-0.2356602892934875,0.1547668114074935,-2.137841655138208,1.712438234680426,0.8479592234531625,0.9422230425950096,-0.383770691072243,0.4441514611434042,-0.0523316822600927,0.4318278969392908,-0.0897584697543293,10.72922101939912,-1.4620243992659068,0.2405716440435891,-1.42674174086661
1.0,0.1713435297081151,-2.1329386276862263,1.7159021243495205,-0.0195774804016356,0.1754159719915958,0.0336526232787004,0.6581466962619736,0.6540000546795113,-0.237650039924048,0.1917443982820669,-2.11304095890727,1.7086162577269153,0.7060403355829277,0.7448433660780098,-0.2428131740264194,0.4685507300326671,0.0054391267486242,0.4578345045808785,-0.0994875315280224,10.72922101939912,-1.4597253714306786,0.2446188587769343,-1.4277590828501436
1.02,0.1846404498460505,-2.1196692782648365,1.7113170740398778,-0.0191337077210272,0.1750179047226167,0.0340474769307483,0.671871896088674,0.6717451601544578,-0.2197253632010316,0.1917443982820669,-2.11304095890727,1.7086162577269153,0.7060403355829277,0.7448433660780098,-0.2428131740264194,1.4357610475149407,0.6862599913350198,0.8872552737473283,0.8962338361508184,10.71241411639221,-1.4529267660786114,0.2438465882322166,-1.4242798435838708
1.04,0.1982173248995025,-2.1060861837913745,1.7071076738757696,-0.0147117203180518,0.1700582625814111,0.0347865749565826,0.6844018967955495,0.684736485642637,-0.2021483177493393,0.1917443982820669,-2.11304095890727,1.7086162577269153,0.7060403355829277,0.7448433660780098,-0.2428131740264194,1.2596904207631432,0.6265000353437744,0.6495662744089581,0.878852272584614,11.95981496400691,-1.4626377660023973,0.2399950267753063,-1.432213528429381
1.06,0.2112974941025123,-2.0930011043610386,1.7033979488524162,-0.0096600310897232,0.1626072393518218,0.0355421562998623,0.6913956113483738,0.6919248278244137,-0.1891850324633883,0.1988048016378962,-2.105592525246489,1.7061881259866511,0.715640819954113,0.764843366376033,-0.2442437509730058,0.8194984319290228,0.3496857276412135,0.3594171090888332,0.6481642642975529,11.95981496400691,-1.475642656066961,0.2343852814546412,-1.4349331274751145
1.08,0.2251560403881613,-2.0791130573794323,1.6997237085237866,-0.0050142055640718,0.1536079348515591,0.0362411331739234,0.6936855306768112,0.6966125217613136,-0.17906692023023,0.2129256083495548,-2.0906956579249294,1.701331862506123,0.7348417886964835,0.8048433669720795,-0.2471049048661785,0.5691976812575447,0.1144959664218681,0.2343846968449969,0.5059056116579127,11.424293443873466,-1.4896085326993165,0.2293468971968156,-1.432562491612304
1.1,0.2390105547758836,-2.065148540802215,1.6962145545029743,-0.0015724242814936,0.1448116644275724,0.0368007681003876,0.691393437329425,0.6998141745331932,-0.172490539931239,0.2270464150612133,-2.075798790603369,1.6964755990255944,0.7540427574388542,0.844843367568126,-0.2499660587593512,0.3832526915162283,-0.1146046673693057,0.1600826385939779,0.3288190149495523,11.424293443873466,-1.5021515108377703,0.2258259260206764,-1.42767146368887
1.12,0.2527806664136066,-2.0511287422329545,1.692805931517773,0.0005860858026915,0.1372352080452678,0.0372307202713607,0.6856138989698147,0.7022335007723718,-0.1688127213081307,0.2421272702099904,-2.058901923252007,1.691476277850407,0.7732437261812248,0.8848433681641724,-0.252827212652524,0.3632580106696457,-0.2889769179805157,0.120966311958931,0.1838909311554143,11.024268388784549,-1.5132889466449315,0.2235789403041027,-1.421065193266719
1.14,0.2657264797185827,-2.037773427617488,1.6896209201992067,0.0013301570276232,0.1319492036958369,0.0375288516470914,0.6773500639662368,0.703702418026583,-0.1666189882271953,0.2572081253587675,-2.042005055900644,1.6864769566752205,0.7924446949235954,0.9248433687602188,-0.2556883665456967,0.4337659267867577,-0.4131917501788984,0.0734458627105583,0.1096866540467686,11.024268388784549,-1.5219212409187866,0.2230673138989217,-1.4141379939055037
1.16,0.2791625613727755,-2.0236815645039004,1.686308050661588,0.0007492299111955,0.129195970348565,0.037742462959469,0.6666527065537704,0.705507871485122,-0.1648019325331722,0.2727690047261038,-2.024108188534381,1.6814061066527042,0.811645663665966,0.9648433693562652,-0.2585495204388695,0.5499882025920669,-0.5348678706233179,0.0902726729269498,0.0908527847011536,10.96049799750108,-1.525481200064254,0.2242416067523988,-1.4101999036448227
1.18,0.2923831319906234,-2.009548672526845,1.683029081860426,-0.0010828100802977,0.1295792160692016,0.0378666805176807,0.6563399926263448,0.7078314739801167,-0.1631927847678987,0.2888099083119994,-2.005211321153216,1.6762637277828585,0.8308466324083366,1.0048433699523116,-0.2614106743320422,0.5346507122274988,-0.5156356963712805,0.1161801247497373,0.0804573882636758,10.93350145088334,-1.523453571259764,0.2267026366600373,-1.4098212688540963
1.2,0.3047691764141887,-1.9960672979457312,1.6799458461304269,-0.0037016632250406,0.1320389232649759,0.0379147413290001,0.6482157110727932,0.7114331954723631,-0.1614508569621538,0.3252001316219406,-1.9741570988278392,1.674869442622031,0.6644691832799073,0.8078314754702328,-0.1573147139328746,0.4527986885733976,-0.4062140776775802,0.1800860746123178,0.0870963902872459,10.91311425897311,-1.517745488573475,0.2304652646651838,-1.4128995144855876
1.22,0.3177647300734623,-1.9817179547565265,1.6768535855788536,-0.0047128887970236,0.1330805147590404,0.0380857086781957,0.651987507711243,0.722708934123015,-0.1472592771463116,0.3252001316219406,-1.9741570988278392,1.674869442622031,0.6644691832799073,0.8078314754702328,-0.1573147139328746,0.9257019899366202,0.1885898319224921,0.563786932532595,0.7095789907921118,10.922483375117736,-1.5057969764951689,0.2313419835322527,-1.4168883515900803
1.24,0.33084269874969,-1.967173318652433,1.6740576174973183,-0.0031941672297627,0.1292049160389937,0.0384447084949546,0.6550026854191914,0.7310163641995603,-0.1331624882123704,0.3252001316219406,-1.9741570988278392,1.674869442622031,0.6644691832799073,0.8078314754702328,-0.1573147139328746,0.8319016608579479,0.1507588853974173,0.4153715038272665,0.7048394466970587,11.798688217960262,-1.5133503973112663,0.2302989830111978,-1.4201599823131603
1.26,0.3439328260473655,-1.952487418816488,1.6715147369064554,-0.0005793987430806,0.1220094576631975,0.0388659388257611,0.6533700046560736,0.7370390817284106,-0.1217937599725293,0.3318448234547397,-1.9660787840731369,1.6732962954827022,0.6660950214106198,0.827831475768256,-0.1561390997658698,0.6484341807345125,-0.0816340381558866,0.3011358764425154,0.5684364119920536,11.686163118989498,-1.5251661278185238,0.2279344641125652,-1.418190131529675
1.28,0.3562923368297754,-1.9384517054600612,1.6692835213864323,0.0018707095513385,0.1138701264972859,0.0392316149063758,0.6474490677909687,0.7402279254888137,-0.1136176867028512,0.3451342071203378,-1.949922154563732,1.6701500012040449,0.6693466976720449,0.8678314763643025,-0.1537878714318601,0.5293259676228953,-0.2960468432552487,0.1594421880201535,0.4088036634839059,11.501421847472557,-1.5387292345882742,0.2252631936877528,-1.4116559926472507
1.3,0.3691396801444188,-1.9236287573573323,1.6670801757375924,0.0035906755295384,0.1053542015240425,0.0395252997887882,0.6373613798374339,0.7420599052926699,-0.1072410821597342,0.358423590785936,-1.9337655250543275,1.6670037069253871,0.6725983739334699,0.9078314769603488,-0.1514366430978505,0.6036942184353924,-0.5043843976767381,0.0915989901928093,0.3188302271558502,11.32261347966869,-1.55126921237266,0.2235487353256206,-1.4027616585155154
1.32,0.3817500548956079,-1.9087804803193444,1.6649828500147503,0.0039747763478754,0.0979329341182471,0.03971025075018,0.6240615942782992,0.7428215763831644,-0.1028876801260198,0.3718755582646054,-1.9156088955151205,1.6639749740634302,0.6758500501948949,0.9478314775563952,-0.1490854147638408,0.7007434409900164,-0.6649892779567346,0.038083554524726,0.2176701016857199,11.178916464590657,-1.561390663013713,0.2234175343020095,-1.39400326368513
1.34,0.3940637632266446,-1.8939263372201365,1.6629615317548674,0.0025260147932068,0.0924958093618655,0.039771479331682,0.6079147856022017,0.7428596525396205,-0.099449583351815,0.3853275257432748,-1.8974522659759132,1.660946241201473,0.6791017264563199,0.9878314781524418,-0.1467341864298312,0.8254413813908685,-0.8073404338048762,0.0019038078228061,0.1719048387102392,11.060576272495382,-1.569078392761616,0.2254256237478512,-1.3847616331272887
1.36,0.4054393564033363,-1.8798017894561512,1.6611032425036312,-0.0004284001329658,0.0900256292895869,0.0397324940044202,0.5903665224229443,0.7443469404511365,-0.0963326271275671,0.3988607851284798,-1.8782956364218053,1.6579762890478664,0.6823534027177449,1.027831478748488,-0.1443829580958215,0.8942440690942546,-0.8774131589628698,0.0743643955757988,0.1558478112123937,11.023486912204136,-1.5709276745997196,0.2294463161170475,-1.3802451076160824
1.38,0.4170542907943549,-1.8648726093232464,1.6592138495393305,-0.0040797259800186,0.0905320718488815,0.0396557640102039,0.5723921409587708,0.7486359123820395,-0.0927601334622901,0.4124753364202204,-1.858139006852796,1.65506511760261,0.68560507897917,1.0678314793445345,-0.1420317297618119,0.941058420386512,-0.8987190732086758,0.2144485965451525,0.1786246832638491,11.019583792607593,-1.5670048281874491,0.2341139983981307,-1.3819535581908544
1.4,0.4283273395233617,-1.849836750146532,1.657401797924876,-0.0074313206884044,0.0934119416066781,0.0395845580796399,0.5561385101151575,0.7546826862548314,-0.0886345674654716,0.4456738978422934,-1.827440813704145,1.6545758428662158,0.5348580605130043,0.8486359138721556,-0.0861052888429564,0.8912972072536203,-0.8126815421806655,0.3023386936395922,0.2062782998409264,11.02951981622664,-1.5606777921684754,0.2382421117713593,-1.3865829549933586
1.42,0.4393854172565493,-1.834593333720089,1.6557175814715244,-0.0078975407455191,0.0950107083892136,0.039716316273301,0.5506251727525014,0.768572875430545,-0.0797691031929676,0.4456738978422934,-1.827440813704145,1.6545758428662158,0.5348580605130043,0.8486359138721556,-0.0861052888429564,0.8688076613650114,-0.2756668681328011,0.6945094587856804,0.4432732136252025,11.058068369382454,-1.5465075840415168,0.2385380228247574,-1.3941861303920609
1.44,0.4497991251484798,-1.8198932005566248,1.6542831379316476,-0.0050273596354293,0.0922069440109779,0.0400937000869209,0.5454159911832813,0.777752603569024,-0.0716828703280643,0.4456738978422934,-1.827440813704145,1.6545758428662158,0.5348580605130043,0.8486359138721556,-0.0861052888429564,0.6648122728690548,-0.2604590784610061,0.4589864069239502,0.4043116432451629,11.384066823944522,-1.552388440157145,0.2354314378346133,-1.3957769118470975
1.46,0.4606176035779774,-1.8042814195952328,1.6529232267153846,-0.0010040533737546,0.0858786845300744,0.0405458554239069,0.5362078078091995,0.7827831942174753,-0.0648011923476478,0.4510224784474235,-1.818954454565423,1.6537147899777862,0.5273512444238511,0.8686359141701788,-0.0847743199190897,0.6274053218397809,-0.4604091687040901,0.2515295324225675,0.3440838990208236,11.317400944561086,-1.563507533913819,0.2309210223048143,-1.391014976336511
1.48,0.4712050783021117,-1.788602246682101,1.6516777569035737,0.0023532740107712,0.0779425739422446,0.0409107971780679,0.5226834674785177,0.7851473512965168,-0.0600692375603143,0.4617196396576836,-1.80198173628798,1.6519926842009272,0.5123376122455444,0.9086359147662252,-0.0821123820713562,0.7260998832527417,-0.6762170165340919,0.1182078539520736,0.2365977393666767,11.201252545780337,-1.5752118705739515,0.2270285582024224,-1.3815805521974622
1.5,0.4814805845176103,-1.7728899159272913,1.6505087239349738,0.0045392944060671,0.0699172376731794,0.0411574915697625,0.5053830042823689,0.786325443684929,-0.0570610423343075,0.4724168008679437,-1.785009018010537,1.650270578424068,0.4973239800672379,0.9486359153622718,-0.0794504442236227,0.8799760891562656,-0.8650231598074376,0.0589046194206077,0.1504097613003407,11.074733749742336,-1.585486087246209,0.2245702479272564,-1.3703755048811117
1.52,0.4908922603063244,-1.7579501403374675,1.649442019582864,0.0053352440246277,0.0631982902767472,0.0412852781503901,0.4861531068811635,0.7864712790010667,-0.055364956096957,0.4823632804692884,-1.7660362997032917,1.6486815695395958,0.4823103478889313,0.988635915958318,-0.0767885063758892,0.9652550576464864,-0.96149487006027,0.0072917658068882,0.0848043118675222,10.973878703009175,-1.594484338459783,0.2235575258648305,-1.3578700982960672
1.54,0.5003807232928698,-1.742228794385051,1.6483494174694076,0.0044157563860329,0.0578192824914188,0.0412989208244296,0.4635478115707187,0.7858482588955846,-0.0539941129581032,0.4923097600706332,-1.747063581396046,1.6470925606551232,0.4672967157106247,1.0286359165543646,-0.0741265685281557,1.1327695496388437,-1.1302647655222402,-0.0311510052741048,0.0685421569426913,10.89121608917867,-1.6009960322715762,0.2247223740104227,-1.3460114080857832
1.56,0.5093875488751887,-1.7265120337195714,1.6472836121371297,0.0016414693004446,0.0551859155001653,0.0411992704188697,0.4382960673449899,0.7862001890682778,-0.0526433909641178,0.5018808988675203,-1.7270908630738997,1.645570100216844,0.4522830835323181,1.068635917150411,-0.0714646306804222,1.264514621498223,-1.2625872112864422,0.0175965086346596,0.06753609969927,10.900766287781153,-1.6017230663953883,0.2277199809331097,-1.3377851963979208
1.58,0.5174720880964382,-1.7115472516576498,1.6463008871375924,-0.0018119709207437,0.055709793843469,0.0410557343112409,0.4143594675855337,0.7892072210705218,-0.0508583643650508,0.5110766968599497,-1.7061181447368516,1.6441141882247583,0.4372694513540116,1.108635917746457,-0.0688026928326887,1.2095343830027014,-1.1968299879728057,0.1503516001121974,0.0892513299533517,10.900766287781153,-1.5957082162347482,0.2317780456564711,-1.337138347377819
1.6,0.5255096090204564,-1.6957118606548636,1.6453102962136832,-0.0053174831821738,0.058697044745541,0.0409034672668675,0.3909497969953508,0.7942056528565147,-0.048259529997041,0.5381900614757149,-1.6720868906041235,1.6437579689193398,0.3441267856554686,0.8892072225606379,-0.0398630908867216,1.2039008862157734,-1.1704835295091476,0.2499215892996453,0.1299417184004902,10.919300560907686,-1.5869204611682293,0.2357602000242845,-1.340756784175966
1.62,0.5331489418051129,-1.6796928478808908,1.6444055952142311,-0.0061419589127413,0.0617445197800943,0.0409289251679456,0.3742245563999369,0.8066719830929886,-0.0421947662021883,0.5381900614757149,-1.6720868906041235,1.6437579689193398,0.3441267856554686,0.8892072225606379,-0.0398630908867216,1.086191077143729,-0.8362620297706957,0.6233165118236961,0.3032381897426353,10.953386524986854,-1.574063905179502,0.236323867350272,-1.3504303936584932
1.64,0.5401062899832484,-1.66428141574149,1.6436622501168126,-0.0039019366383931,0.0628927670515567,0.0411685412515372,0.3587881701739513,0.8147830509662138,-0.0363818556988372,0.5381900614757149,-1.6720868906041235,1.6437579689193398,0.3441267856554686,0.8892072225606379,-0.0398630908867216,0.9190502846441968,-0.7718193112992766,0.4055533936612621,0.2906455251675533,11.16393239538138,-1.5709543132205983,0.2335768261758475,-1.3551711091469874
1.66,0.5471069912432612,-1.6479308715075365,1.6429907933961292,-0.0004377945430929,0.0627122450940969,0.0414937916679211,0.3420123433071935,0.8195992003892654,-0.0311125821785915,0.5416313293322697,-1.6631948183785177,1.6433593380104723,0.3300802492694556,0.9092072228586612,-0.0376640361910558,0.9115768011524804,-0.8387913433378913,0.2408074711525765,0.2634636760122834,11.144818506667434,-1.569812846626147,0.2293375883547625,-1.3573003860076729
1.68,0.5537649810140879,-1.631515637585777,1.642413616482241,0.0025414903789845,0.0615021715633188,0.0417716006436316,0.3245275255252278,0.8218441150808569,-0.026912347028274,0.548513865045379,-1.645410673927305,1.6425620761927382,0.3019871764974295,0.9492072234547076,-0.0332659267997241,0.9060911518150788,-0.874240889098285,0.1122457345795746,0.2100117575158782,11.09117482336751,-1.5692190303058156,0.2255553432540811,-1.3564581790601031
1.7,0.5600635345708984,-1.615070781551274,1.6419103208677748,0.0043686818154892,0.0596512534306317,0.0419530546674159,0.3061056909488203,0.8228584673159641,-0.0236188723659991,0.5553964007584884,-1.627626529476092,1.6417648143750037,0.2738941037254034,0.989207224050754,-0.0288678174083924,0.937069734556128,-0.9210917288203752,0.0507176117553631,0.1646737331137451,10.980881804546698,-1.5692511316716398,0.2231365938990561,-1.3533220826138703
1.72,0.5656956607593225,-1.59943766058422,1.6414881845396083,0.0047654392073071,0.0576802573823769,0.0420211143493167,0.2875981992230888,0.822929640407172,-0.020974198751366,0.5608742828329965,-1.6078423849950767,1.6411874580268355,0.2458010309533774,1.0292072246468005,-0.0244697080170607,0.9347815441519868,-0.925374586286576,0.0035586545603927,0.132233680731654,10.980881804546698,-1.5695976055392231,0.2224687625166082,-1.3488523180582244
1.74,0.5712342965018834,-1.58298596349354,1.6410977885709264,0.0033730966828024,0.0557796509872264,0.0419631137659353,0.2671540549737163,0.8224392506053473,-0.0181964946750089,0.5663521649075045,-1.5880582405140615,1.6406101016786678,0.2177079581813513,1.0692072252428468,-0.0200715986257291,1.0318904449876156,-1.022207212468626,-0.0245194900912348,0.1388852038178539,10.953509842768652,-1.569153881681825,0.2239178085059809,-1.343502139340354
1.76,0.5763497354026105,-1.5665303025962425,1.6407652774115034,0.0002255270527947,0.0545605018647716,0.041787212059885,0.245418258195183,0.8235981334404195,-0.0151767013906789,0.571127720162712,-1.5672740960181455,1.6401426980652831,0.1896148854093252,1.1092072258388932,-0.0156734892343974,1.0987572781365398,-1.0867898389266633,0.057944141753613,0.1509896642165016,10.955701368276095,-1.5665898695536031,0.2273979402467273,-1.3391659899326485
1.78,0.5810244237281289,-1.550018238311856,1.6404985853430754,-0.0034202988149099,0.0543745960208164,0.0415805272860063,0.2232738928294349,0.8276328941342261,-0.0116414969530319,0.5752009485986187,-1.545489951507328,1.639785247186682,0.1615218126372992,1.1492072264349396,-0.0112753798430657,1.1392430400533375,-1.1072182682874034,0.2017380346903297,0.1767602218823492,10.9695943112456,-1.5627873201432263,0.2312911341940895,-1.337272529717177
1.8,0.5850560587910961,-1.5342393821261613,1.6403153595686917,-0.0065335148142683,0.0551305344780208,0.0414060319682637,0.2023528867681654,0.8330111314668727,-0.007822071800147,0.5921881183696006,-1.508636593605145,1.639916510495424,0.1238776118850875,0.9276328956243424,0.0194638220850015,1.096815777512841,-1.046050303063477,0.2689118666323264,0.1909712576442436,11.02713822361875,-1.5576459021070934,0.2349869289768115,-1.337397938526739
1.82,0.5889177479859758,-1.5174432411870604,1.6402516880338902,-0.0070977314148107,0.0554297486391662,0.0414128011843527,0.1849665915808558,0.8455920670398787,0.0015033002563592,0.5921881183696006,-1.508636593605145,1.639916510495424,0.1238776118850875,0.9276328956243424,0.0194638220850015,1.1699634227451938,-0.869314759365479,0.6290467786502996,0.4662686028253132,11.02713822361875,-1.5480075859524034,0.2350457452403791,-1.3431062305149473
1.84,0.5924369464320344,-1.5004349541278106,1.640383310664277,-0.0043693332162095,0.0537571705054005,0.0416532026313782,0.1676979638038806,0.8543068247729833,0.0111490889106166,0.5921881183696006,-1.508636593605145,1.639916510495424,0.1238776118850875,0.9276328956243424,0.0194638220850015,1.0807332538709848,-0.8634313888487594,0.4357378866552297,0.4822894327128714,11.37388129026749,-1.548147033617233,0.2317088558854149,-1.345890293308668
1.86,0.5956021193895056,-1.4832986771060854,1.640699493233189,-0.0006196706256363,0.0503523135989151,0.0419512716159788,0.1495258562362491,0.8587761693664553,0.0199850852677138,0.5934268944884515,-1.4993602646489013,1.6401111487162738,0.1039983556962181,0.9476328959223654,0.0256848858926082,1.0347407479260258,-0.9086053783815772,0.2234672296736017,0.4417998178548604,11.35434746622559,-1.5504133922222676,0.2272680269500701,-1.3451118435896925
1.88,0.5982582457889469,-1.4669654288333818,1.641155576659223,0.002353676464835,0.0459020255654174,0.0421691707988891,0.1308141465679201,0.8605574085363952,0.0275831312448483,0.5959044467261533,-1.4808076067364144,1.640500425157974,0.0642398433184791,0.987632896518412,0.0381270135078216,1.013695213517129,-0.9355854834164512,0.0890619584969942,0.3799022988567234,11.304558237918172,-1.5536808373984194,0.2231641994344231,-1.3403210723614358
1.9,0.6006494128629434,-1.4497487015815025,1.64178665896147,0.0043105113780149,0.0405139906681418,0.0422914510503835,0.1090383903805684,0.8612457568661713,0.0351051103275821,0.598381998963855,-1.4622549488239276,1.640889701599674,0.0244813309407402,1.0276328971144584,0.050569141123035,1.152429553459967,-1.0887878093675831,0.0344174164888078,0.3760989541366912,11.256007241172483,-1.5576107609797427,0.2204636834351139,-1.3327020550842652
1.92,0.602578356642007,-1.4325276616952192,1.6425645468223795,0.0047704182556001,0.0352403779784862,0.0422946427454459,0.0847611051014114,0.8609847187407073,0.0422965961218619,0.5988716255826698,-1.4417022908816384,1.641901084422135,-0.0152771814369987,1.0676328977105047,0.0630112687382484,1.266068905468661,-1.213864263957848,-0.0130519062732037,0.3595742897139899,11.22232097374399,-1.5610290032517278,0.2195311013892565,-1.3240058471949128
1.94,0.603995338560934,-1.415320946569008,1.6434881248187885,0.0032780141650711,0.0310148560380743,0.0421641210343244,0.0580365731038125,0.860023861025356,0.0497035206097362,0.5993612522014846,-1.4211496329393492,1.6429124672445954,-0.0550356938147377,1.107632898306551,0.0754533963534618,1.3874314293046277,-1.336226599879948,-0.0480428857675629,0.3703462243937163,11.22232097374399,-1.562375784932241,0.2207470084099296,-1.315967934383941
1.96,0.60482016265913,-1.3989783604378518,1.6445073250323738,0.000229127244346,0.0289727094563809,0.0419392141927781,0.030118775222672,0.8607303064332478,0.0572098074257455,0.598856916010856,-1.3995969749821588,1.6442349032574364,-0.0947942061924766,1.1476328989025977,0.0878955239686752,1.4458966469035206,-1.395889894057024,0.0353222703945887,0.375314340800463,11.251004933840704,-1.5596629432371774,0.2239625712128997,-1.310864786364278
1.98,0.6051109343832517,-1.381728742172586,1.6457421424195058,-0.0034755191990376,0.0294955904735755,0.0416731433878765,0.0007363688611701,0.864319091690819,0.0659230458790765,0.5973586170107839,-1.3770443170100677,1.6458683924606576,-0.1345527185702155,1.187632899498644,0.1003376515838886,1.5428267138291905,-1.4691203180750934,0.1794392628785612,0.4356619226665491,11.296874267803105,-1.552293752354989,0.2278037176861215,-1.3132623862971011
2.0,0.6048271469582726,-1.3643864738074218,1.6471592169432208,-0.0068199661994281,0.032219226424861,0.0414210268971065,-0.0273755717354485,0.8696947370420739,0.0753768936160531,0.6051477528263102,-1.338512787588045,1.6490382947134596,-0.0992636326289459,0.9643190931809352,0.0863059847856269,1.507111479025547,-1.4055970298309377,0.2687822675627449,0.4726923868488337,11.342196324864744,-1.541573841183273,0.2312387088912513,-1.320411513746433
2.02,0.6039726656469651,-1.3468562869553768,1.6486926946909608,-0.0072369747186608,0.0371802174894386,0.0413500711369423,-0.0562962545871611,0.8822780349442515,0.077137657693144,0.6051477528263102,-1.338512787588045,1.6490382947134596,-0.0992636326289459,0.9643190931809352,0.0863059847856269,1.579434687506469,-1.446034142585629,0.6291648951088802,0.088038203854545,11.382112569024684,-1.5320731712966122,0.231678107518152,-1.3324673692909412
2.04,0.6026593220565458,-1.3300107766592373,1.6501788257655734,-0.0044291184555792,0.0435658166859287,0.0414981615218772,-0.080221639436707,0.8900369760744146,0.0792572814330073,0.6051477528263102,-1.338512787588045,1.6490382947134596,-0.0992636326289459,0.9643190931809352,0.0863059847856269,1.2620598365953235,-1.1962692424772925,0.3879470565081533,0.105981186993162,10.943182346833964,-1.517064398642224,0.2275519001980559,-1.3444286933129417
2.06,0.6008205467809746,-1.312165004959016,1.6517917255559014,-0.0006018721914421,0.0507029834679499,0.0417295890463665,-0.1021698835166942,0.8940334325794398,0.0819231027127773,0.6041551165000207,-1.3288695966562356,1.649901354561316,-0.1192636329269691,0.9843190934789584,0.0903825725669369,1.123391834898811,-1.0974122039993608,0.1998228252512612,0.1332910639885005,10.943182346833964,-1.5019413894574618,0.2222653259984601,-1.3567565028984885
2.08,0.5985731454951566,-1.294268006030319,1.6534582206223023,0.002500155236221,0.0573695612864135,0.0419270810216607,-0.1213634294041239,0.8957741465585667,0.084568614446489,0.6021698438474418,-1.3095832147926167,1.6516274742570285,-0.1592636335230156,1.0243190940750049,0.0985357481295571,0.9726523289737268,-0.959677294371488,0.0870356989563447,0.1322755866855832,10.956673601077457,-1.4872203756007265,0.2178255043238318,-1.368628309705573
2.1,0.5959667282019524,-1.2763469358991968,1.6551772140844845,0.0043962154555241,0.0630076704383854,0.0420460081841633,-0.1383037499188943,0.8965898788909887,0.0871779151516327,0.6001845711948629,-1.290296832928998,1.653353593952741,-0.199263634119062,1.0643190946710512,0.1066889236921773,0.8579748372638512,-0.8470160257385194,0.0407866166211023,0.1304650352571858,10.95967672720053,-1.4749554809482743,0.2150145085386836,-1.3777269880954115
2.12,0.5931931132264563,-1.2593131547715222,1.6568597175621902,0.0048577550380205,0.067123261538215,0.0420600557675275,-0.1528570242129114,0.8966432763321981,0.0897831985632988,0.5961992985124817,-1.269010451035577,1.6554873724265846,-0.2392636347151085,1.1043190952670976,0.1148420992547974,0.7392363384242004,-0.7276637147008519,0.0026698720604678,0.1302641705833072,10.95967672720053,-1.4640567297584066,0.2138053407903116,-1.3841979815464591
2.14,0.5899851346979378,-1.24138591278509,1.658684824560877,0.0035805169667759,0.0700436419216609,0.0419399547196644,-0.1672147838700198,0.8962729819521327,0.0925878192561033,0.5922140258301004,-1.247724069142156,1.6576211509004282,-0.279263635311155,1.1443190958631442,0.1229952748174176,0.7316902991185965,-0.7178879828554197,-0.0185147190032708,0.1402310346402244,10.97492717766363,-1.455665998537114,0.2149345691618761,-1.3877046620771616
2.16,0.586490260019684,-1.2234521400527982,1.6605691060184686,0.000613723970746,0.0716974645963192,0.0416917167354793,-0.181638784542375,0.8975000673518287,0.0956936690270665,0.587228753132818,-1.2254376872338335,1.659958758763337,-0.3192636359072014,1.1843190964591903,0.1311484503800378,0.7402766995759803,-0.7212000336177595,0.0613542699848035,0.1552924885481608,10.983971591079351,-1.449259542952558,0.2182701378283348,-1.3897720776536158
2.18,0.5827030153347763,-1.2054609265301242,1.6625215234672497,-0.0028246670673275,0.0725069017491977,0.0414073019073749,-0.1964074464190205,0.9016075808015372,0.0993852667074326,0.5812434804206345,-1.2021513053106103,1.6625001960153116,-0.3592636365032478,1.224319097055237,0.1393016259426579,0.7883732203086049,-0.7384330938322788,0.2053756724854194,0.1845798840183043,11.004749680086206,-1.4442454370530422,0.2220417409167047,-1.3910732365857963
2.2,0.5788279573668249,-1.188275630614276,1.664450241386538,-0.0056726037017482,0.072828355744231,0.0411675626630287,-0.2107615299557379,0.907033540905714,0.1034467975634202,0.5728826430138253,-1.1603805474900473,1.6674907868026214,-0.2964074479091367,1.0016075822916533,0.1265679407428626,0.7936888403608126,-0.7177041768358663,0.2712980052088365,0.2030765427993817,11.085573842814483,-1.4396536698692124,0.2254957779174897,-1.3922677529693523
2.22,0.5744346654446248,-1.1700045140203743,1.6665470419053314,-0.0059588444049947,0.0733757077288217,0.041102182663112,-0.2277293782204251,0.9191061794914772,0.1059360840974243,0.5728826430138253,-1.1603805474900473,1.6674907868026214,-0.2964074479091367,1.0016075822916533,0.1265679407428626,1.0486336641128386,-0.8483924132343598,0.6036319292881731,0.1244643267002049,11.085573842814483,-1.436123376921759,0.2256476429505897,-1.3963150970248916
2.24,0.5697141221474545,-1.1515321380704615,1.6686975692977803,-0.0029950211762553,0.0743692377100384,0.0412558783695772,-0.2433782856707908,0.9271881140474066,0.1090405920003262,0.5728826430138253,-1.1603805474900473,1.6674907868026214,-0.2964074479091367,1.0016075822916533,0.1265679407428626,0.8942090637479803,-0.7824453725182853,0.4040967277964657,0.1552253951450928,11.030942390512791,-1.429832226497944,0.2213226495186969,-1.3997325492783976
2.26,0.5646914030589788,-1.1329449552214466,1.6709121836031962,0.0008507919233931,0.0753487135766811,0.0414647568778538,-0.2580912472050845,0.9310719396656908,0.1122540087595527,0.5699185685347339,-1.1503644716671306,1.66875646621005,-0.3164074482071599,1.0216075825896764,0.1320044755499486,0.7776268157209559,-0.7356480767146858,0.1941912809142132,0.1606708379613255,11.030363596993084,-1.4244297666411136,0.2161376962448565,-1.4026346209241602
2.28,0.5596539114434073,-1.1152417465881488,1.6730742956280729,0.0038633150399883,0.0760784032619159,0.0416117697286722,-0.2714541386934535,0.932506940413513,0.1151683233625785,0.5639904195765512,-1.1303323200212976,1.6712878250249072,-0.3564074488032063,1.061607583185723,0.1428775451641205,0.6876033116586601,-0.6681445744184472,0.071750037391105,0.1457157301512898,11.023086379308552,-1.4190038102015747,0.2114848888424165,-1.4051765061374613
2.3000000000000003,0.5540819965277458,-1.0965879712298383,1.6754102300760911,0.0058657024199218,0.0764958032043948,0.0416763993850185,-0.2850550737459457,0.933027510952033,0.1182709723938986,0.5580622706183684,-1.1103001683754643,1.6738191838397645,-0.3964074493992528,1.1016075837817694,0.1537506147782925,0.6980022546511535,-0.6800467526246107,0.0260285269259974,0.1551324515660021,11.023086379308552,-1.4140816176736908,0.208361022155516,-1.4067341853975757
2.32,0.5482405202504632,-1.0779311461267822,1.6778100323518303,0.0064303708467711,0.0764857239016593,0.0416316055137744,-0.2984491722989669,0.932784568291432,0.1215618823695899,0.5501341216303834,-1.088268016699829,1.6768941961353303,-0.4364074499952992,1.1416075843778155,0.1646236843924645,0.6897299936433299,-0.669704927651063,-0.0121471330300437,0.1645454987845691,11.028452873202696,-1.409930227956236,0.2070982607462587,-1.406950927111543
2.34,0.5421320837214253,-1.0592864029078293,1.680279746018254,0.0051578195030654,0.0760555011450103,0.0414522880896093,-0.3117950551590709,0.931999388977568,0.1252444736392506,0.5422059726423983,-1.066235865024194,1.679969208430896,-0.4764074505913457,1.1816075849738623,0.1754967540066365,0.693344384721471,-0.6672941430051982,-0.0392589656932063,0.1841295634830347,11.043013233908823,-1.4064628841574311,0.2080966004967518,-1.406186540295958
2.36,0.5360758735136506,-1.0415750522839369,1.6827001358003415,0.002419574071985,0.0754499326222826,0.0411751801015812,-0.3250519404291009,0.9326888555837914,0.1293478400766086,0.5332778236395121,-1.0432037133336574,1.6833160474668163,-0.5164074511873922,1.221607585569909,0.1863698236208085,0.694726542214764,-0.6628442635015025,0.0344733303111743,0.205168321867899,11.06759889006753,-1.4030473095174028,0.2112678358939618,-1.405635466389846
2.38,0.529424282125221,-1.0228875022906492,1.6853401758675184,-0.0010023298217949,0.0748693285222864,0.0408502794251795,-0.3394100184205791,0.9361432950811992,0.1344730339349284,0.5233496746217248,-1.0191715616282195,1.6869347132430907,-0.5564074517834386,1.261607586165955,0.1972428932349804,0.7815931933173071,-0.7179038995739073,0.1727219748703823,0.2562596929159902,11.106641171389128,-1.399379391490822,0.2152027336641233,-1.405823980985751
2.4,0.5224818063126718,-1.00410973017169,1.6880915070811748,-0.0040080846724106,0.0745356534903683,0.0405586188924999,-0.3540667847880659,0.9413283618907636,0.1403935422166205,0.512453781204192,-0.9760803375365892,1.6920638275642648,-0.4349352757099887,1.036143296571315,0.1548301807940974,0.8318024652589182,-0.7328383183743431,0.2592533404782215,0.2960254140846052,11.210377564111695,-1.395196056192762,0.2184312845102439,-1.40673864561654
2.42,0.5155728095427303,-0.9861095186485616,1.690749420243823,-0.0043223649571557,0.0755952279902606,0.0404538498080771,-0.3722917218018215,0.9525607477906556,0.1387159982068513,0.512453781204192,-0.9760803375365892,1.6920638275642648,-0.4349352757099887,1.036143296571315,0.1548301807940974,1.0736956925313683,-0.9112468506877774,0.5616192949946086,-0.0838772004884594,11.210377564111695,-1.395503211686559,0.2191364168915146,-1.410246121558333
2.44,0.5079505403574639,-0.966974178368097,1.6935086417725471,-0.0014109466938207,0.0787332037312011,0.040560350564027,-0.3886497054958918,0.9600744515916017,0.1374056256567998,0.512453781204192,-0.9760803375365892,1.6920638275642648,-0.4349352757099887,1.036143296571315,0.1548301807940974,0.9024362187486538,-0.8178991847035161,0.3756851900472924,-0.0655186275025782,10.797903161259455,-1.3844660515436475,0.2145625437163644,-1.415086932383593
2.46,0.5000303257343583,-0.9477327998957076,1.6962476691421025,0.0023963705950551,0.0826912978713905,0.0407326268977292,-0.402359727322805,0.9635795446640504,0.1365638271927058,0.5081044284470921,-0.965718904570876,1.6936121293722055,-0.4540403271678706,1.0561432968693385,0.1589016101659312,0.7088000433745686,-0.6855010913456583,0.1752546536224475,-0.0420899232047008,10.813053583544388,-1.3733957798321774,0.2088723957810274,-1.4203719293941122
2.48,0.4918610373714154,-0.9284501669359216,1.6989712321314678,0.0055100896973223,0.0866429047677019,0.040862059701782,-0.4138168386808599,0.9648047589189408,0.1358239871550347,0.4994057229328923,-0.9449960386394496,1.6967087329880877,-0.4922504300836345,1.0961432974653849,0.1670444689095988,0.5773082234010687,-0.5728555679027469,0.0612607127445208,-0.0369920018835526,10.817371333451774,-1.3639256535886657,0.2043669467297427,-1.4244814421574898
2.5,0.4839054070763636,-0.91011896054733,1.7015462767269005,0.0073749789279837,0.0898560457890639,0.0409076681579118,-0.4230592693425835,0.9650487366169392,0.1352646642786998,0.4907070174186926,-0.9242731727080234,1.6998053366039696,-0.5304605329993983,1.1361432980614312,0.1751873276532664,0.4631276598678798,-0.4621215330861766,0.0121988848999166,-0.0279661438167461,10.817371333451774,-1.355071037248888,0.2011227862002153,-1.4272278376108134
2.52,0.4753543401130773,-0.8908236721219818,1.704248885122447,0.0079759058081339,0.0923164609548951,0.0408518607157254,-0.431573073649317,0.96461675797307,0.1350421681842778,0.4800978067587046,-0.9015503067467948,1.703309083157035,-0.5686706359151622,1.1761432986574776,0.183330186396934,0.4263829670441428,-0.425690215336677,-0.0215989321934562,-0.0111248047211007,10.828279311922415,-1.3479859509583785,0.199753409015029,-1.4280150055312395
2.54,0.4666417145888025,-0.8715436498645608,1.7069505169551216,0.0067773607132671,0.0936368946030906,0.040657798004751,-0.4393856746160162,0.9636921024166472,0.1351328731205176,0.4694885960987167,-0.8788274407855662,1.7068128297101002,-0.6068807388309261,1.2161432992535242,0.1914730451406016,0.3933826036708784,-0.3906300483349612,-0.0462327778211479,0.0045352468119916,10.85378006661358,-1.3431691048764014,0.2008256580823602,-1.427141985932029
2.56,0.4577697141183283,-0.8522673820067335,1.7096606167381196,0.0039830228356292,0.0939871118386631,0.040344299170263,-0.4475170723221963,0.9642675521302686,0.1358765801831287,0.4579241328658346,-0.8551045748094364,1.710520147731757,-0.6450908417466898,1.2561432998495703,0.1996159038842692,0.4092794620548249,-0.4065698853090022,0.0287724856810722,0.037185353130556,10.871410521678628,-1.34040955393584,0.2038783463543297,-1.425549223355186
2.58,0.4491859287904294,-0.8339165011360605,1.71225786123392,0.0008500356525688,0.0937341955531911,0.040012926441004,-0.4556874511532124,0.967416841969828,0.1374787691762072,0.4454044170600584,-0.8303817088184055,1.714431037222006,-0.6833009446624537,1.2961433004456169,0.2077587626279368,0.445084616408529,-0.4085189415508061,0.1574644919779766,0.0801094496539214,10.964858857430045,-1.33851863400199,0.20782449312712,-1.4237610864026868
2.6,0.4399781202332843,-0.8145180623248123,1.7150333394566253,-0.0020643551633956,0.0931214318117451,0.0396950191421972,-0.4647002572236504,0.9722005122546656,0.1400224885562764,0.4264015562327688,-0.7855456590375691,1.7191317996927302,-0.5320542333416279,1.0674168434599445,0.1411468066522252,0.5257962603088331,-0.4506403035219014,0.2391835142418752,0.1271859690034613,10.964858857430045,-1.3371861207883722,0.2112804718835058,-1.4219990903278088
2.62,0.430508901241743,-0.7949519176025845,1.7177677389375785,-0.0021939300369509,0.0943744058731853,0.0395688015897316,-0.4815031075149993,0.9834798758191974,0.1328064687982892,0.4264015562327688,-0.7855456590375691,1.7191317996927302,-0.5320542333416279,1.0674168434599445,0.1411468066522252,1.0742797139037297,-0.8401425145674463,0.5639681782265871,-0.3608009878993568,10.42276039409171,-1.3427418558660522,0.2121631355699391,-1.4257032442656814
2.64,0.4212271159248487,-0.7761953306589972,1.720225710694862,0.0007308196021985,0.0985129755379017,0.0396569228020396,-0.4942790473658106,0.99007767024486,0.126347484860153,0.4264015562327688,-0.7855456590375691,1.7191317996927302,-0.5320542333416279,1.0674168434599445,0.1411468066522252,0.7881529100814669,-0.6387969925405607,0.3298897212831331,-0.3229491969068146,10.485533091433354,-1.32982678885448,0.2072074114775522,-1.427598755140245
2.66,0.4112335037322609,-0.7563596268573934,1.7226839139123926,0.0045930817152201,0.1043180214459987,0.0398167252405368,-0.5041038776015908,0.9930637119478926,0.1198125211198873,0.4210810138993525,-0.7748714906029697,1.7205432677592525,-0.5473275897793111,1.0874168437579674,0.1418804141474288,0.6085833659013722,-0.4912415117890117,0.1493020851516258,-0.3267481870132815,10.485533091433354,-1.316191615865708,0.2012521322081281,-1.4309012555247878
