t,x,y,z,roll,pitch,yaw,v_x,v_y,v_z,ref_x,ref_y,ref_z,ref_v_x,ref_v_y,ref_v_z,a_com,a_x,a_y,a_z,thrust,wind_x,wind_y,wind_z
0.0,1.9482876592584144,-2.4381589596545665,2.070935335817337,0.0147258872216882,0.1499707348337063,0.0282105406931228,0.0003552660586764,-0.0047963153256424,0.0005847042381779,1.9482997353890743,-2.438355273975869,2.070950291654232,-0.0996091005157971,0.0939127474192025,0.0203804318230012,0.2422433369650412,0.0177633029338224,-0.2398157662821222,0.0292352119088996,10.662509858048908,-1.4133762842858226,0.1777908637996966,-1.2785953928947174
0.02,1.9485095627885023,-2.4384819355300715,2.0709867564922964,0.0051821671252254,0.1435632388238991,0.0274992098810306,0.0210779615064618,-0.0232351054146785,0.0050804603751077,1.9482997353890743,-2.438355273975869,2.070950291654232,-0.0996091005157971,0.0939127474192025,0.0203804318230012,1.4050186029123817,1.0361347723892709,-0.9219395044518052,0.2247878068464898,10.662509858048908,-1.4135042639472466,0.1876119711239413,-1.274453162586186
0.04,1.9490703316064832,-2.4389455156523616,2.071131523940427,-0.0110010465750073,0.1260932738506298,0.0264960609486752,0.032207502768333,-0.0213973405741877,0.0093494487357567,1.9482997353890743,-2.438355273975869,2.070950291654232,-0.0996091005157971,0.0939127474192025,0.0203804318230012,0.6030512621908567,0.5564770630935607,0.0918882420245379,0.2134494180324475,10.87673254856236,-1.4382371713889297,0.2063159791118376,-1.2430987648672056
0.06,1.949688443260988,-2.4392750794299696,2.071361133153212,-0.0266694390035663,0.103947605096335,0.0259592576524484,0.0312657299001191,-0.0130325414555921,0.0147077395616679,1.947303644383916,-2.4374161465016773,2.0711540959724624,-0.1196091008138203,0.1139127477172257,0.0243522230903962,0.4989190340245766,-0.0470886434106972,0.4182399559297822,0.2679145412955607,10.87673254856236,-1.4707629225939796,0.225092162701424,-1.2022556080069926
0.08,1.9502014320588423,-2.439408863177689,2.0717253839093885,-0.0424865608905237,0.0787663728866243,0.0259509532202238,0.0191596952029239,-0.0003964650698794,0.0214817859801313,1.9453114623736003,-2.435537891553293,2.0715617046089223,-0.1596091014098668,0.1539127483132722,0.0322958056251863,0.938235321487574,-0.6053017348597608,0.6318038192856348,0.3387023209231675,10.862944579699615,-1.503246160025674,0.2425072812405188,-1.1586992493878234
0.1,1.950362478665657,-2.439245998125252,2.072231162160585,-0.0572185046788762,0.0548698118847202,0.0264175699309576,-0.0027804742650295,0.016214191255817,0.0287232666516874,1.9433192803632844,-2.433659636604909,2.0719693132453822,-0.1996091020059132,0.1939127489093186,0.0402393881599763,1.4227824694673474,-1.0970084733976757,0.8305328162848239,0.3620740335778076,10.895497499458545,-1.5323230098650813,0.2583039435185548,-1.11813562154883
0.12,1.950002452775984,-2.4386981477954137,2.072882056409913,-0.0700530830289662,0.0344813852848135,0.0271940712780961,-0.0321469961609044,0.0374118025152174,0.0359807173661734,1.939327098323166,-2.4297813816267224,2.072774101008582,-0.2396091026019597,0.2339127495053651,0.0481829706947663,1.846890577591664,-1.4683260947937429,1.0598805629700188,0.3628725357242974,10.940240182928392,-1.5550241229001511,0.2712719535033204,-1.08622636518405
0.14,1.9489978780455095,-2.437694601569435,2.073681016525671,-0.0805002004553798,0.0188660192741838,0.0280707028101023,-0.0666236501056861,0.0614375861291577,0.0435576612534171,1.935334916283048,-2.425903126648536,2.073578888771781,-0.2796091031980062,0.2739127501014116,0.0561265532295564,2.134998843186194,-1.7238326972390838,1.2012891806970185,0.3788471943621845,11.070354077091906,-1.5731460737951772,0.2825581826014452,-1.0616139197847303
0.16,1.9473647081207035,-2.436271021733728,2.0745821576415806,-0.0880013635210143,0.0091781263155054,0.0288089557338092,-0.1033847953729122,0.0866001381519543,0.0509476237451073,1.9303427342280284,-2.4210248716554483,2.0745822660983504,-0.3196091037940526,0.313912750697458,0.0640701357643464,2.257845970879454,-1.8380572633613068,1.2581276011398272,0.3694981245845122,11.070354077091906,-1.5858373789860494,0.2913949231060199,-1.0467504022347192
0.18,1.94486434033062,-2.434248692744577,2.0756859381776684,-0.0934770649527119,0.0052278634878193,0.0292778330005171,-0.1442800312428073,0.1139141413284739,0.0591280150743492,1.924350552158108,-2.41514661664746,2.0757842329882896,-0.3596091043900991,0.3539127512935044,0.0720137182991365,2.492686246141303,-2.0447617934947515,1.365700158825981,0.4090195664620932,11.155326478015011,-1.5907331803856466,0.2979822008663536,-1.04426166384977
0.2,1.9415603318425607,-2.4316720224659543,2.0769594400282143,-0.0967315451075289,0.0072424857901338,0.0293662412800289,-0.1834661036115867,0.1419682428837807,0.0679191930953249,1.9376503387684796,-2.4285529856781527,2.078642338931386,-0.2442800327329234,0.21391414281859,0.0950828667315013,2.4494212034494858,-1.9593036184389687,1.4027050777653414,0.4395589010487862,11.208213144711408,-1.5890693462256775,0.3025163563860469,-1.051827396513054
0.22,1.937466950095124,-2.428414961078714,2.078363169376943,-0.0941279785955528,0.0149160062850225,0.0293268777300827,-0.2231285479444314,0.1807366749591443,0.072046824503755,1.9376503387684796,-2.4285529856781527,2.078642338931386,-0.2442800327329234,0.21391414281859,0.0950828667315013,2.7807994161220733,-1.983122216642237,1.9384216037681783,0.2063815704215058,11.009826741510553,-1.5818802732932389,0.3016996142053754,-1.0682345525607158
0.24,1.932650454162784,-2.4244906800556203,2.0798769554166183,-0.0857143693959311,0.0271220998531668,0.0293334692537406,-0.2557793441573675,0.2086794814315532,0.0792765738935319,1.9376503387684796,-2.4285529856781527,2.078642338931386,-0.2442800327329234,0.21391414281859,0.0950828667315013,2.178958583321489,-1.6325398106468048,1.3971403236204438,0.3614874694888463,11.07727568620612,-1.5680705108465005,0.2953342373939112,-1.0976382306033847
0.26,1.9275316726296257,-2.42031915110602,2.081465249088468,-0.0770501029771913,0.0404599375290809,0.0293463860405946,-0.2809661526016841,0.2289848680622059,0.0875333432002602,1.9352075384411505,-2.426413844249967,2.079593167598701,-0.2642800330309466,0.2339141431166132,0.1022738370629318,1.669474681760344,-1.2593404222158322,1.0152693315326369,0.4128384653364132,11.07727568620612,-1.552011349560539,0.2876132406347495,-1.1281663360482777
0.28,1.9216871540276328,-2.4155505347951323,2.0833119112512226,-0.0689516376872741,0.0544925616142035,0.0294081632478793,-0.3017842060281608,0.2469252624974328,0.0966559078577048,1.930321937786492,-2.422135561393595,2.081494824933331,-0.3042800336269931,0.2739141437126597,0.1166557777257926,1.44781757042144,-1.0409026713238343,0.8970197217613468,0.4561282328722292,11.09956733933359,-1.5354410616140377,0.2805877952654709,-1.1578614938930234
0.3,1.915479350474536,-2.4104459122909083,2.085338303689684,-0.0624855720977325,0.0670207134265946,0.0295562619435802,-0.3178753159817721,0.2629792451517848,0.1054464746263347,1.9254363371318333,-2.417857278537223,2.083396482267961,-0.3442800342230395,0.3139141443087062,0.1310377183886535,1.2185321525499249,-0.8045554976805647,0.802699132717595,0.4395283384314975,11.108354702896577,-1.5210953076696236,0.2752438573947391,-1.182852428165143
0.32,1.9089869778493496,-2.4050308999416194,2.087535398762867,-0.0575937910988892,0.0771766845341107,0.029805636838919,-0.3306169624420387,0.2780493872757896,0.1137527301435651,1.9185507364473724,-2.411578995651049,2.086017236635734,-0.3842800348190859,0.3539141449047526,0.1454196590515144,1.070575334660819,-0.6370823230133299,0.7535071062002435,0.415312775861517,11.095585731038229,-1.508774444511933,0.2710835187002422,-1.2045635232228669
0.34,1.9026044387289536,-2.3996124715433784,2.089771284808472,-0.0542195895847531,0.0842734609354991,0.0301330509003299,-0.3407361839953396,0.2918318232027274,0.1211391630807964,1.911665135762912,-2.405300712764875,2.088637991003508,-0.4242800354151325,0.3939141455007991,0.1598015997143753,0.9312808068208426,-0.5059610776650458,0.6891217963468893,0.3693216468615687,11.086185492560617,-1.49982697888802,0.268307618245756,-1.2211225253060247
0.36,1.8956842883555935,-2.39362045883435,2.092273304236375,-0.0515396661157642,0.0892106727809227,0.0305694729279544,-0.3508233866829714,0.3066965955549652,0.1286463546719874,1.9037795350635496,-2.3980224298638,2.0916182938878523,-0.4642800360111789,0.4339141460968455,0.1741835403772361,0.97348734035434,-0.5043601343815873,0.743238617611891,0.3753595795595456,11.073521180494026,-1.4944180632416382,0.266497184352008,-1.233090905818664
0.38,1.8885634468880013,-2.3873300776573667,2.09492449501578,-0.0493044758156795,0.0920244152866211,0.0310897716271669,-0.3608992344068044,0.3215901703600182,0.1360795098645591,1.8948939343492863,-2.389744146947824,2.094958145288768,-0.5042800366072253,0.4739141466928919,0.188565481040097,0.9728734166689368,-0.503792386191651,0.7446787402526495,0.3716577596285866,11.076721020591322,-1.4917878492269447,0.2652160054852972,-1.2412424720748385
0.4,1.881607617074746,-2.3810799870780266,2.0975819249166823,-0.0473730688199736,0.0932640924074931,0.0316411510788595,-0.3708884835165821,0.3355305717828853,0.1432695307293492,1.8705184851676613,-2.3712505691393657,2.101728470509008,-0.4608992358969205,0.4215901718501343,0.1537898808075093,0.9298068208557984,-0.499462455488886,0.6970200711433533,0.3595010432395074,11.085686902519228,-1.490804214184838,0.2640494234602321,-1.247233041457091
0.42,1.874060905087471,-2.3742139168713927,2.100417758592577,-0.0451366426616344,0.0936627748158919,0.0322749482301445,-0.3833645325962767,0.3500912344249559,0.1393736913700901,1.8705184851676613,-2.3712505691393657,2.101728470509008,-0.4608992358969205,0.4215901718501343,0.1537898808075093,0.978317767302999,-0.6238024539847287,0.7280331321035283,-0.1947919679629581,11.10324437489453,-1.4910850490051373,0.2624316662994,-1.2490556027648665
0.44,1.8662665778276424,-2.367086617304746,2.103165827200122,-0.0432460807828857,0.093374297642341,0.0329093011375192,-0.3955445658063795,0.3621770275639611,0.135681763848989,1.8705184851676613,-2.3712505691393657,2.101728470509008,-0.4608992358969205,0.4215901718501343,0.1537898808075093,0.8775675666566901,-0.6090016605051402,0.6042896569502632,-0.1845963760550559,10.364660903827826,-1.490715646021372,0.2611173429081199,-1.2497969647245517
0.46,1.858633314520847,-2.360097205470917,2.105723250142076,-0.042328464505442,0.0925176993987652,0.0334699112787729,-0.4074175877094518,0.3730862748598053,0.1336980833128198,1.865909492808692,-2.367034667420864,2.103266369317083,-0.4808992361949438,0.4415901721481576,0.1573319549960994,0.812273528656287,-0.5936510951536161,0.5454623647922069,-0.0991840268084603,10.447472341837056,-1.4911971988025432,0.260729662406303,-1.248835139001597
0.48,1.850350943277513,-2.352520908023055,2.108388334333085,-0.0425473219116168,0.0911979680698594,0.0339907884418242,-0.4202573130802291,0.3840844231500946,0.1329714321262589,1.8566915080907536,-2.3586028639838617,2.1063421669332336,-0.5208992367909903,0.481590172744204,0.1644161033732795,0.8460878136445221,-0.6419862685388633,0.5499074145144695,-0.0363325593280422,10.539023219846058,-1.4922922120234867,0.2617396743255394,-1.247152386112915
0.5,1.8418061133931976,-2.344724219239236,2.111052336213516,-0.0441815759548225,0.0896328200847748,0.0344231876556867,-0.4336551149199238,0.3951730573594075,0.1335110336723625,1.8474735233728152,-2.350171060546859,2.109417964549384,-0.5608992373870367,0.5215901733402505,0.1715002517504596,0.86998573636616,-0.6698900919847345,0.5544317104656443,0.0269800773051817,10.619519384392332,-1.4940232862166194,0.264405214593135,-1.2450596672003904
0.52,1.8329859392080547,-2.3366952070828737,2.1137388694950867,-0.0471040249413054,0.0880684772957611,0.0347705862139553,-0.4477728803727033,0.4075768602097331,0.1351440975633023,1.8362555386250743,-2.339739257080054,2.1128479695843927,-0.6008992379830832,0.561590173936297,0.1785844001276397,0.9431761821119762,-0.7058882726389742,0.6201901425162776,0.0816531945469878,10.757968134753355,-1.4962284480122885,0.2683682024563333,-1.2429492118841663
0.54,1.824337292643741,-2.3288137715793886,2.1163270600884707,-0.0502195066936068,0.0868392136654968,0.0350718618526012,-0.4619121761085694,0.4214941435533936,0.1372038081673366,1.8250375538773336,-2.3293074536132488,2.116277974619402,-0.6408992385791297,0.6015901745323434,0.1856685485048198,0.9973124727817052,-0.7069647867933043,0.6958641671830273,0.1029855302017171,10.757968134753355,-1.4980940299501493,0.2730180714397496,-1.241824218377187
0.56,1.814935657614876,-2.3202105419677577,2.119097172318616,-0.0530318211702512,0.0860642549298469,0.0354015116919128,-0.4774717020617251,0.4379803707816497,0.1397171714183105,1.812819569114692,-2.3178756501315427,2.1198850833638407,-0.680899239175176,0.6415901751283898,0.1927526968819999,1.1404073076536778,-0.777976297657787,0.8243113614128023,0.1256681625486949,10.82139574510802,-1.4993386178667705,0.277222567992631,-1.2424715429739617
0.58,1.805217527154018,-2.3112639212591226,2.1219215093439194,-0.0548493233116138,0.0860513086004012,0.0357626637169975,-0.4934378103244908,0.4555630000902922,0.1425930664873978,1.799601584337149,-2.3054438466349354,2.123669295817709,-0.7208992397712225,0.6815901757244363,0.19983684525918,1.1961774940533398,-0.7983054131382866,0.8791314654321258,0.1437947534543612,10.849413765809004,-1.4996825865115433,0.2802223471618127,-1.24484064870197
0.6,1.7956893569086552,-2.30243177766121,2.1246598550020988,-0.0554310351180131,0.0868222002278197,0.0361417835728211,-0.5085982456466295,0.4730496346432052,0.1455090357918192,1.7805456366377934,-2.288485771254608,2.129051162668289,-0.593437811814607,0.5555630015804083,0.1651402723974844,1.166323351528433,-0.7580217661069311,0.8743317276456497,0.1457984652210697,10.868266153351216,-1.4991278589063626,0.2820825383391556,-1.249308338651654
0.62,1.7853286409035358,-2.292721018727621,2.127557759541374,-0.0527995311572318,0.0889923157508704,0.036689565712044,-0.5264595002877085,0.4963872584007755,0.1439411891679453,1.7805456366377934,-2.288485771254608,2.129051162668289,-0.593437811814607,0.5555630015804083,0.1651402723974844,1.4715019903481017,-0.8930627320539508,1.1668811878785157,-0.078392331193694,10.868266153351216,-1.4973100928847007,0.2801556568498746,-1.2558606730023123
0.64,1.7746358114675556,-2.2826107558388413,2.130428329213028,-0.0472040286950092,0.0925131959959307,0.0373750979955095,-0.541703798874567,0.5129822265000227,0.1432273561970782,1.7805456366377934,-2.288485771254608,2.129051162668289,-0.593437811814607,0.5555630015804083,0.1651402723974844,1.1272656775696486,-0.7622149293429248,0.8297484049623577,-0.0356916485433525,10.59757531492778,-1.4925934814826265,0.2751266849345568,-1.267150155591019
0.66,1.764216566557263,-2.2727430825531045,2.133147356740548,-0.0419493085747223,0.0962375788722681,0.0380114117658246,-0.5541949216600903,0.5250130334005315,0.1429993092485669,1.7746112585196474,-2.282930141238804,2.1307025653922644,-0.6134378121126302,0.5755630018784315,0.1696497135795017,0.8672088395119665,-0.6245561392761667,0.601540345025442,-0.0114023474255667,10.6514133279843,-1.4872468986155216,0.2696072927916765,-1.277372899030175
0.68,1.7530114394052372,-2.262130364984302,2.136007069647364,-0.037431379167762,0.0999776346702107,0.0386241830354918,-0.5655769481979653,0.5358104782963149,0.1429732538442464,1.7627425022833552,-2.271818881207196,2.134005370840214,-0.6534378127086766,0.6155630024744779,0.1786685959435364,0.7844361402792198,-0.5691013268937506,0.5398722447891691,-0.0013027702160231,10.670760619197608,-1.4821642101815782,0.2651719631351362,-1.2864063317289574
0.7000000000000001,1.7415934005885043,-2.2513111359538653,2.1388677157122937,-0.0341783425956402,0.1031186138136675,0.0391722844729173,-0.5756324630622551,0.5457930844597729,0.1430817439071438,1.7508737460470631,-2.2607076211755874,2.137308176288164,-0.6934378133047231,0.6555630030705244,0.187687478307571,0.7084800192920241,-0.5027757432144897,0.4991303081729015,0.0054245031448685,10.700055527707264,-1.4781286931996,0.2622782667126431,-1.2935831273367933
0.72,1.7299843258448375,-2.2402957026325123,2.141732938626293,-0.0321009554593817,0.1054358780900698,0.0396625540765171,-0.5847877270711124,0.5554445390276092,0.1434350076182604,1.7370049897809687,-2.247596361114177,2.141061925854315,-0.7334378139007696,0.6955630036665709,0.1967063606716057,0.665383779477069,-0.4577632004428622,0.4825727283918113,0.0176631855558315,10.700055527707264,-1.4749349571876766,0.2605365698094077,-1.299418508082976
0.74,1.7187918456985336,-2.2296563738657165,2.144463856411973,-0.0312029681556864,0.1067842722407058,0.0400740348249799,-0.5929875640544238,0.564170536994273,0.1440013969963339,1.7231362335148743,-2.2344851010527664,2.1448156754204666,-0.773437814496816,0.7355630042626173,0.2057252430356403,0.5993771016536611,-0.4099918491655696,0.4362998983331922,0.028319468903673,10.721401688219885,-1.4729909122800249,0.2601488954424841,-1.3036188075399
0.76,1.7068387864216812,-2.218271568883345,2.14735361987774,-0.0312223327716916,0.1074861348876038,0.0404543591839145,-0.6019273203318364,0.5738894316345591,0.1449589571247635,1.7082674772338786,-2.220373840976455,2.1487948970457187,-0.8134378150928624,0.7755630048586637,0.214744125399675,0.6619914590235999,-0.4469878138706307,0.485944732014304,0.0478780064214798,10.739448287535197,-1.4720870199429366,0.2609146241967388,-1.3060213180181628
0.78,1.6947026491306467,-2.2066854047005404,2.150267801993604,-0.0318854602206212,0.1077947359660966,0.0407945130339709,-0.6112580609444399,0.5842529734713091,0.1464296302185218,1.6923987209379818,-2.205262580885242,2.152999590730072,-0.8534378156889089,0.8155630054547102,0.2237630077637096,0.7011215998856076,-0.4665370306301764,0.5181770918375017,0.0735336546879128,10.767131386279289,-1.471710414100719,0.2624519649491989,-1.3078590946090825
0.8,1.682376121231482,-2.1948831538575155,2.153217675180354,-0.0328215291847567,0.1080068325857146,0.0411119345020458,-0.6209115046154796,0.5954067385535317,0.1484751243949442,1.6641397460834246,-2.177472756026975,2.15758928350453,-0.711258062434556,0.6842529749614252,0.1475826168791215,0.7446131489658264,-0.4826721835519854,0.5576882541111272,0.102274708821122,10.802222369285118,-1.471510133298098,0.2642362850817856,-1.3097320385904043
0.8200000000000001,1.670447934438963,-2.18342773380227,2.1559522415639405,-0.032545082837732,0.1090588270690282,0.0414601591373081,-0.6341400311322858,0.6095543950040004,0.1386615164880131,1.6641397460834246,-2.177472756026975,2.15758928350453,-0.711258062434556,0.6842529749614252,0.1475826168791215,1.0856530258297497,-0.6614263258403086,0.7073828225234391,-0.4906803953465571,10.838955601327145,-1.4710310108556155,0.2646189075522157,-1.310547220147782
0.84,1.6576387312691716,-2.1711091300995444,2.158616088853922,-0.0306753949956074,0.1114585368575485,0.0418871912197282,-0.6458705575451255,0.6215144825509905,0.1283810211384936,1.6641397460834246,-2.177472756026975,2.15758928350453,-0.711258062434556,0.6842529749614252,0.1475826168791215,0.982773535314071,-0.5865263206419835,0.5980043773495036,-0.514024767475972,10.063934717632948,-1.4664694245789247,0.262873195361023,-1.3151051153192916
0.86,1.6446144927057949,-2.158566091508041,2.161088714105773,-0.0283901224766049,0.1142513712283874,0.042324751738077,-0.6558727364599372,0.6321545914349617,0.1193785115427311,1.6570271654590791,-2.170630226277361,2.159065109673321,-0.7312580627325792,0.7042529752594484,0.1478132142112414,0.8577596970137703,-0.500108945740585,0.5320054441985578,-0.4501254797881264,10.212083474712928,-1.461720135538834,0.2606745052285403,-1.3210829475215609
0.88,1.6314061290247124,-2.145826849235118,2.1633908489430547,-0.0263509498822373,0.1169569346105788,0.0427413547101958,-0.6644275492304732,0.6413728502088428,0.1112710827592527,1.642802004210388,-2.156945166778132,2.162016762010903,-0.7712580633286257,0.7442529758554949,0.1482744088754813,0.748150248680601,-0.4277406385268023,0.460912938694058,-0.405371439173921,10.212083474712928,-1.4574182661811672,0.2588118668296981,-1.3261821912995095
0.9,1.6187109922378873,-2.1335624408262484,2.1654346505110267,-0.02506530173277,0.1191313861502376,0.0430951402789115,-0.6714873357999755,0.6492934918085063,0.1042611138670411,1.628576842961697,-2.143260107278904,2.1649684143484857,-0.8112580639246721,0.7842529764515414,0.1487356035397212,0.635839629204995,-0.3529893284751173,0.3960320799831718,-0.3504984446105773,10.263984619639814,-1.4535686382628907,0.2576491763578377,-1.330691524167501
0.92,1.6052113705748785,-2.120496760244757,2.167448443140698,-0.0247388621302231,0.1207925764497701,0.0434029754243507,-0.6781140080595486,0.6569568111777813,0.0975115695747482,1.6123516816832035,-2.1275750477498727,2.16794312641928,-0.8512580645207186,0.8242529770475878,0.1491967982039611,0.6086780699699212,-0.3313336129786515,0.38316596846375,-0.3374772146146433,10.308374419961185,-1.4506197192611685,0.2577472559390857,-1.333913159972541
0.94,1.5915844047400665,-2.107281198224542,2.1693310460979225,-0.0257711161740442,0.1216983783566356,0.0436258230029959,-0.6843314859788205,0.6643994508732965,0.0910803399827929,1.59612652040471,-2.111889988220842,2.1709178384900745,-0.8912580651167651,0.8642529776436343,0.1496579928682009,0.5818303691333419,-0.3108738959635981,0.3721319847757642,-0.3215614795977671,10.349230253304086,-1.4487522218043196,0.2593517847340063,-1.3353774998074437
0.96,1.5785197639939936,-2.0945750238593983,2.171005035711557,-0.0277409726930432,0.1220272343584094,0.0437755858133678,-0.6906131213230962,0.672742303331104,0.0854482275779319,1.5789013591113157,-2.0952049286769103,2.1739040804274747,-0.9312580657128116,0.9042529782396806,0.1501191875324408,0.5932596814890271,-0.3140817672137808,0.4171426228903707,-0.2816056202430486,10.3666781196398,-1.44772155532213,0.262324641737417,-1.3355596158054803
0.98,1.5646349477335124,-2.081011873065058,2.1726574351946293,-0.0302049516067895,0.1221015401120914,0.0439086898710705,-0.6975590837458934,0.6832680251507985,0.0801100234246012,1.5606761978030197,-2.077519869118077,2.1769018522314814,-0.971258066308858,0.9442529788357272,0.1505803821966807,0.6847146073130456,-0.3472981211398607,0.5262860909847289,-0.2669102076665381,10.398138375909184,-1.447125017989377,0.2658259086929829,-1.3356398908592226
1.0,1.550607555951186,-2.0672180169497127,2.1742109639832066,-0.0322001294307417,0.1221264373025293,0.0440716713075255,-0.7048109213755808,0.6953857369339168,0.0755029753147989,1.5297569935462176,-2.0468484718075186,2.1766629363658594,-0.7975590852360095,0.7832680266409147,0.0624284191733356,0.7427196310723616,-0.3625918814843698,0.6058855891559134,-0.2303524054901126,10.48209628837776,-1.4465488884443416,0.2686824382360229,-1.3368157590335008
1.02,1.537104624736846,-2.053844013531437,2.1755257898375047,-0.0319793511175279,0.1231790547060115,0.0443352184102105,-0.7160882619547629,0.7113778960609852,0.0626883121623232,1.5297569935462176,-2.0468484718075186,2.1766629363658594,-0.7975590852360095,0.7832680266409147,0.0624284191733356,1.1695545688378162,-0.5638670289591086,0.7996079563534209,-0.640733157623783,10.48209628837776,-1.446363651571909,0.2689047916584475,-1.3352013213371032
1.04,1.5226801111912744,-2.039472016531686,2.176635478725889,-0.0290241747705966,0.1258710765704529,0.0447452311972586,-0.7255138067973942,0.7247574848075017,0.0490476855521501,1.5297569935462176,-2.0468484718075186,2.1766629363658594,-0.7975590852360095,0.7832680266409147,0.0624284191733356,1.0652710745680265,-0.4712772421315625,0.6689794373258229,-0.6820313305086593,9.982743657611536,-1.4405371258440849,0.2656582733738911,-1.3420391630210735
1.06,1.5080899502016545,-2.024867554911537,2.177477398667219,-0.0251924639464923,0.129102632799305,0.0451971747365469,-0.7329075417262129,0.7348843378729585,0.0358144562308094,1.5217814026938576,-2.0390157915411096,2.177287220557593,-0.8175590855340327,0.8032680269389378,0.0588920983230825,0.9115081287050822,-0.3696867464409337,0.5063426532728399,-0.6616614660670351,9.998972273624531,-1.4341487289980388,0.2613804607016858,-1.3477511880098234
1.08,1.4933703997722692,-2.010085544450322,2.178055927144764,-0.0217946643806152,0.132277215596682,0.0456173159627206,-0.7386309243320567,0.7429828733325754,0.022687799741464,1.5058302209891374,-2.023350431008291,2.1785357889410597,-0.8575590861300791,0.8432680275349843,0.0518194566225763,0.8225759776957099,-0.2861691302921909,0.4049267729808459,-0.6563328244672687,9.998972273624531,-1.4272486417233976,0.2572580406756729,-1.3527991154222234
1.1,1.4792937683479754,-1.995902193944305,2.17836334671677,-0.0193664315420163,0.1348501119628583,0.0459652964937569,-0.7428480511896844,0.7498210940929888,0.0103201304739201,1.4898790392844172,-2.007685070475473,2.179784357324526,-0.8975590867261256,0.8832680281310308,0.0447468149220701,0.7374019684216073,-0.2108563428813881,0.3419110380206702,-0.6183834633771956,10.006987196281443,-1.421068262042415,0.2541605494157162,-1.3568533203154851
1.12,1.46439935444081,-1.9808369155084595,2.1784345806270173,-0.0177558627965008,0.1368333373527573,0.0462713823865734,-0.7463839725529526,0.7564770285452077,-0.0025397630544219,1.4719278575498946,-1.9900197099128525,2.1806792936229678,-0.937559087322172,0.9232680287270773,0.0376741732215639,0.745286966342069,-0.1767960681634095,0.3327967226109452,-0.6429946764171045,10.017549591233546,-1.4161207707553851,0.2522674193446699,-1.3595326503357854
1.14,1.4494406940117313,-1.9656440515007876,2.1782499858293862,-0.017293464769818,0.1379284856896511,0.0465027919842995,-0.7493966443959217,0.7626466681050683,-0.0152760714734449,1.4539766758153725,-1.972354349350232,2.181574229921409,-0.9775590879182184,0.9632680293231236,0.0306015315210577,0.7234538618261902,-0.1506335921484525,0.3084819779930303,-0.6368154209511494,10.031218211091982,-1.4127128983648312,0.2517876908342851,-1.360501059595304
1.16,1.4351713445515608,-1.9510886926753648,2.177842891512537,-0.0177363198426068,0.1382952078777908,0.0466631977125866,-0.7525345757589764,0.7692070943649923,-0.0269366634174628,1.4350254940659486,-1.95368898877271,2.1822923501773377,-1.017559088514265,1.00326802991917,0.0235288898205515,0.687123006520735,-0.1568965681527367,0.3280213129962017,-0.583029597200893,10.039680394035711,-1.4102297708305058,0.2524249090828527,-1.3598115197449805
1.18,1.4200835247971282,-1.93562620029538,2.1771803342139937,-0.0187855046802535,0.1382544105426792,0.0467901616301727,-0.7561119043343735,0.7767147888401316,-0.038679737190487,1.4150743123016236,-1.934023628180287,2.1828336543907536,-1.0575590891103113,1.0432680305152164,0.0164562481200453,0.7194833870685909,-0.1788664287698527,0.3753847237569607,-0.5871536886512094,10.066519046642496,-1.4083676818437747,0.2538164028337369,-1.3586332279496482
1.2,1.4049211113406357,-1.9200042883999533,2.176290289702644,-0.0200962312861477,0.1380003506265738,0.0468952403998753,-0.7599646866173932,0.7850949533873047,-0.0497070208593889,1.3822779295804095,-1.8967904608533732,2.175246347354469,-0.8561119058244896,0.8767147903302477,-0.066644049773695,0.7188046923060534,-0.1926391141509886,0.4190082273586581,-0.551364183445096,10.097216308343375,-1.4069119498629117,0.2555508200915552,-1.3574461046169286
1.22,1.3896368178639342,-1.9041701592236877,2.175148333092225,-0.0200590152896191,0.1388240575036699,0.0470644242145294,-0.7681139903377086,0.7975586126415481,-0.0641248672257312,1.3822779295804095,-1.8967904608533732,2.175246347354469,-0.8561119058244896,0.8767147903302477,-0.066644049773695,1.0363737826856725,-0.4074651860157652,0.623182962712171,-0.7208923183171175,9.929804768344184,-1.4056214926531516,0.255683904241764,-1.3559150983662949
1.24,1.3749857909175185,-1.8889221530592435,2.1737935014297483,-0.018431053720916,0.1411198853304575,0.047297231229231,-0.773520620939157,0.8068784195833634,-0.0777579750349852,1.3822779295804095,-1.8967904608533732,2.175246347354469,-0.8561119058244896,0.8767147903302477,-0.066644049773695,0.8688384263370926,-0.2703315300724207,0.4659903470907611,-0.6816553904626966,9.952757498006576,-1.3989854187488535,0.2535319690104886,-1.3601259862530313
1.26,1.3594731936622568,-1.872692944417209,2.1720849053259617,-0.0161041279205009,0.1440367217247755,0.0475683910422804,-0.7773288480741345,0.8154801774008158,-0.0924062125944,1.3737168105221649,-1.888023312950071,2.1745799068567324,-0.8761119061225128,0.8967147906282709,-0.0722369122903367,0.8704362341072641,-0.1904113567488763,0.4300878908726213,-0.7324118779707414,9.952757498006576,-1.3922532622205912,0.2505718969709232,-1.3644293393597928
1.28,1.3439023580867069,-1.8563095120940016,2.170080371378638,-0.0138247687802556,0.1468025860624667,0.0478314450539591,-0.7795415838440184,0.8225021260587722,-0.1073187755961479,1.3565945724056747,-1.870489017143466,2.1732470258612584,-0.9161119067185592,0.9367147912243172,-0.0834226373236199,0.831547499881095,-0.110636788494195,0.3510974328978178,-0.7456281500873962,9.935619529144788,-1.38618201234028,0.2477609189954099,-1.3676536932587535
1.3,1.3283002194563132,-1.8397961902442468,2.1677761203400085,-0.0121110501932617,0.1489848921140545,0.0480544314844884,-0.7806005188332162,0.8286315499654875,-0.122360897841759,1.339472334289185,-1.852954721336861,2.1719141448657844,-0.9561119073146056,0.9767147918203638,-0.0946083623569031,0.8138744104459057,-0.0529467494598923,0.3064711953357668,-0.7521061122805532,9.925992946769838,-1.3807264032007371,0.2454489765128978,-1.369638624648628
1.32,1.3134664272253878,-1.824001320858616,2.165309184463049,-0.0112445187150772,0.150285469776218,0.0482128461177202,-0.7808737948284291,0.8337989143489096,-0.1365596039010052,1.320350096142893,-1.8334204255004536,2.1700219776186462,-0.996111907910652,1.0167147924164102,-0.1057940873901864,0.7556116532278586,-0.0136637997606436,0.2583682191711067,-0.7099353029623119,9.922918740009663,-1.3764367074078785,0.2441315412194294,-1.3700908771438358
1.34,1.297850125956309,-1.8072746752955728,2.162421612484246,-0.0114309438516568,0.1507377201498666,0.0483026627058084,-0.780814337078334,0.8386937948605004,-0.1514393030948685,1.3012278579966008,-1.8138861296640465,2.168129810371508,-1.0361119085066983,1.0567147930124567,-0.1169798124234696,0.7832126763316818,0.0029728875047541,0.2447440255795407,-0.7439849596931655,9.931175220434852,-1.3735439141419146,0.2442119012682427,-1.3687086960611146
1.36,1.282231926661206,-1.79044064050513,2.1592429158033246,-0.012629426586486,0.1503656982391135,0.0483222005002085,-0.7810805641210892,0.8444933279263499,-0.1656748293765025,1.2811056198354074,-1.793351833812738,2.1659579999985383,-1.076111909102745,1.096714793608503,-0.1281655374567528,0.7686931590941646,-0.013311352137757,0.289976653292473,-0.7117763140816982,9.934886771034144,-1.371853883564129,0.2455170239918055,-1.3651595453228862
1.38,1.2666044441663284,-1.7734797387069432,2.155788562666028,-0.014362310022882,0.1494269522819774,0.0483052893991266,-0.781711942340262,0.8512857882885138,-0.1790402095395898,1.2599833816593131,-1.7718175379465286,2.163506546499736,-1.1161119096987913,1.1367147942045497,-0.1393512624900361,0.7502825186738988,-0.0315689109586403,0.3396230181081927,-0.6682690081543637,10.01257951669595,-1.3711206263995923,0.247393897658539,-1.3612071262529182
1.4,1.251742551274272,-1.7572304830651126,2.152267643597713,-0.0160972473655113,0.1481968888651071,0.0482840185387513,-0.7827117392215732,0.8587632794916183,-0.1909093868893046,1.2275188470493152,-1.7309154492925174,2.146836552189048,-0.8817119438303781,0.95128578977863,-0.213637647368369,0.7031888783523401,-0.0499898440655621,0.3738745601552296,-0.5934588674857396,10.01257951669595,-1.3710101605731635,0.2495302792056756,-1.3570824508665136
1.42,1.2360233457626109,-1.739924664582279,2.1483144438032933,-0.0163005719444101,0.1481812988269692,0.0483485658985192,-0.7889897835421005,0.8710642242101528,-0.2038308022584655,1.2275188470493152,-1.7309154492925174,2.146836552189048,-0.8817119438303781,0.95128578977863,-0.213637647368369,0.9456347823041056,-0.3139022160263627,0.6150472359267245,-0.6460707684580443,10.05713395605926,-1.3702859008613355,0.2496416383486699,-1.3534496921561194
1.44,1.2202010837644623,-1.722399740540596,2.144101771468669,-0.014409547295161,0.1502770919536463,0.0485158576493484,-0.7926855296759633,0.8807700347872811,-0.2167988510188543,1.2275188470493152,-1.7309154492925174,2.146836552189048,-0.8817119438303781,0.95128578977863,-0.213637647368369,0.8307099179269483,-0.1847873066931404,0.4852905288564135,-0.6484024380194409,10.02876409750479,-1.365016438507163,0.2472964376648013,-1.3569844256846757
1.46,1.2051224307940982,-1.7055841964409264,2.1398518629361045,-0.0116713247278811,0.1530054723919131,0.0487232360424919,-0.794245569748503,0.8885873571157256,-0.2299191638758535,1.2187017276110117,-1.721402591394731,2.1447001757153643,-0.9017119441284012,0.9712857900766532,-0.2205571349341248,0.767604818380307,-0.0780020036269868,0.3908661164222227,-0.6560156428499622,10.025994360509683,-1.3590551544369551,0.2435948912535278,-1.3616758799602635
1.48,1.189236488505086,-1.6877481588071588,2.135099462844385,-0.0087699869823254,0.1558699182967244,0.0489372573952719,-0.7941973789193995,0.8946342219061765,-0.2446749930444113,1.201067488734404,-1.7023768755991586,2.140427422767997,-0.9417119447244476,1.0112857906726995,-0.2343961100656365,0.7973415055697055,0.0024095414551783,0.3023432395225456,-0.7377914584278902,9.978590665355114,-1.353238754316991,0.2397727503274989,-1.3652176569139274
1.5,1.1733662579194597,-1.6698036945667176,2.1300437347837997,-0.0064912315154238,0.1581457286103513,0.0491055727933138,-0.7928765082695978,0.8996901448595912,-0.260153397578937,1.1834332498577964,-1.683351159803586,2.136154669820629,-0.9817119453204942,1.051285791268746,-0.2482350851971482,0.81683545331786,0.0660435324900843,0.2527961476707363,-0.7739202267262824,9.896698635584473,-1.3483076994815908,0.2366821474139215,-1.3670605537217415
1.52,1.157531505451847,-1.6517640990285647,2.124675289907516,-0.0049870164732427,0.1595083881938692,0.049215844651605,-0.790764426047525,0.9041691927593838,-0.2759082185796805,1.1637990109513865,-1.6623254439782111,2.1311899681166864,-1.021711945916541,1.0912857918647925,-0.2620740603286599,0.8257377703709912,0.1056041111036409,0.2239523949896293,-0.7877410500371773,9.88541698829158,-1.344707090946983,0.23463394262391,-1.367703253294668
1.54,1.1425322472874893,-1.63454880943105,2.1192835402159345,-0.0044426828911136,0.1598073265251008,0.0492534064423574,-0.7883172089863373,0.9078694516044166,-0.2908450379328082,1.1441647720449766,-1.641299728152836,2.126225266412744,-1.061711946512587,1.131285792460839,-0.2759130354601716,0.7790849749109224,0.1223608530593833,0.1850129422516389,-0.7468409676563842,9.88541698829158,-1.342371817663223,0.2336193802583106,-1.366696035312073
1.56,1.1267910852047616,-1.6163455955353698,2.113304754655535,-0.0047236189346351,0.1591096227236805,0.0492276362375024,-0.7859884179059279,0.912283378749806,-0.3062225943922676,1.1235305331236656,-1.61927401231256,2.120914590330513,-1.1017119471086334,1.1712857930568854,-0.2897520105916833,0.8083552180274154,0.1164395540204699,0.2206963572694675,-0.7688778229729687,9.888581652631729,-1.341594223853007,0.2337070047077664,-1.3639398255525692
1.58,1.1110939046722894,-1.598047411006179,2.107026622635244,-0.0055524622787913,0.1574956433206223,0.0491597185977672,-0.7839309446443706,0.9172984046970896,-0.3208096497978954,1.1018962941874535,-1.5962482964573828,2.115257939869994,-1.1417119477046798,1.2112857936529318,-0.303590985723195,0.7780839718192465,0.1028736630778626,0.2507512973641823,-0.7293527702813885,9.94490539617982,-1.3421113215966511,0.2344817334539659,-1.3600644756090725
1.6,1.0954329946411672,-1.5796418090950293,2.100465747736044,-0.0066232031136108,0.1550800720239186,0.0490736274586099,-0.7823560199115358,0.9229691423130302,-0.3345350690277138,1.071897357440071,-1.5521824907713246,2.0909861401453487,-0.8839309461344868,1.0172984061872057,-0.3798857205834178,0.746700719929356,0.0787462366417413,0.2835368807970306,-0.6862709614909202,9.94490539617982,-1.343687457609212,0.235500858899796,-1.3554670921265146
1.62,1.0805019691853806,-1.5620081383321345,2.0939603321856337,-0.0062782769333869,0.1543704990608987,0.0490701997725803,-0.7890193887844175,0.932335077570026,-0.3495820221281726,1.071897357440071,-1.5521824907713246,2.0909861401453487,-0.8839309461344868,1.0172984061872057,-0.3798857205834178,0.9467470960897252,-0.3331684436440829,0.4682967628497847,-0.7523476550229419,9.986620834346468,-1.344721384872466,0.2349253329096388,-1.3509344264340957
1.64,1.064675042034409,-1.5432916697978944,2.086793777822957,-0.0043874220493226,0.1567721964574368,0.0491442733295238,-0.7929466729006582,0.9388146784519728,-0.3663239905608175,1.071897357440071,-1.5521824907713246,2.0909861401453487,-0.8839309461344868,1.0172984061872057,-0.3798857205834178,0.9188339010924174,-0.1963642058120385,0.3239800440973495,-0.8370984216322458,9.804392241988351,-1.338090609356957,0.2321330619944954,-1.35402655315605
1.66,1.0487998449011962,-1.5244579715758864,2.079275929301609,-0.0021078677687695,0.1606557873094901,0.0492330572958173,-0.7941653173390688,0.9441775992164804,-0.3846364681888241,1.0630580479787262,-1.5420095067094526,2.0871872829395146,-0.90393094643251,1.0372984064852289,-0.3917009347405223,0.9560241240024956,-0.0609322219205288,0.2681460382253808,-0.9156238814003264,9.804392241988351,-1.330293019359419,0.2290199999007091,-1.3584083545904355
1.68,1.0337188169544007,-1.506480438104036,2.0717810889026693,-0.0001170097439788,0.1646825918740115,0.0493010193168876,-0.7931680551745793,0.9480279738198176,-0.4033843324460368,1.0453794290560363,-1.5216635385857085,2.079589568527846,-0.9439309470285564,1.0772984070812754,-0.4153313630547313,0.9582566600572344,0.0498631082244738,0.1925187301668518,-0.9373932128606348,9.72203162317328,-1.3216560873516872,0.2259151737637304,-1.3628872389462048
1.7,1.017883157283674,-1.4874860244804795,2.0634945926850383,0.0013788169573541,0.1685142887083115,0.049325866080296,-0.7903946426746971,0.9512937208590688,-0.42433220799667,1.027700810133347,-1.5013175704619643,2.071991854116178,-0.9839309476246028,1.1172984076773218,-0.4389617913689403,1.0690771846593885,0.1386706249941138,0.1632873519625599,-1.0473937775316604,9.65273492144388,-1.3135934423638522,0.2235465475028936,-1.3663093062123703
1.72,1.0021176027061958,-1.4684323396301524,2.054781233243241,0.0019800932236194,0.1714212733423658,0.0492792809168504,-0.7863109679866489,0.9539867098454358,-0.4459734897776873,1.008022191180855,-1.4789716023084178,2.0632126182887998,-1.0239309482206491,1.1572984082733682,-0.4625922196831493,1.1093620528978485,0.2041837344024077,0.1346494493183525,-1.082064089050866,9.565579490098571,-1.306809104064805,0.2222800146199863,-1.3680923997995953
1.74,0.9864440172365831,-1.449330109952247,2.0456313216016806,0.0013900412958698,0.1730884520548704,0.049137587362482,-0.7813815799393531,0.9562640125163402,-0.4679185174055517,0.9883435722283626,-1.4566256341548711,2.0544333824614203,-1.0639309488166957,1.1972984088694147,-0.4862226479973583,1.1303419964367665,0.2464694023647906,0.1138651335452212,-1.0972513813932188,9.55514566662896,-1.3019943116678392,0.2224508641575109,-1.3678375380681562
1.76,0.97164556235623,-1.43113096030301,2.0365359495364515,-0.0001150838639093,0.1735525043079974,0.0489275533294469,-0.7766896823083905,0.9593479946143236,-0.4883785511301395,0.9676649532609694,-1.4332796659864238,2.0450633859261864,-1.103930949412742,1.237298409465461,-0.5098530763115673,1.060822592344483,0.234594881548128,0.154199104899172,-1.0230016862293938,9.55514566662896,-1.2986130605595323,0.223876735149106,-1.3655260863017882
1.78,0.956163394933204,-1.411901696367332,2.0265463159469466,-0.0023135979234574,0.1730109010714476,0.0486587120320556,-0.7718226535356658,0.9634901517598142,-0.5094793604597767,0.945986334278675,-1.408933697803075,2.035102628683097,-1.1439309500087884,1.2772984100615077,-0.5334835046257762,1.102371975852719,0.2433514386362356,0.2071078572745299,-1.0550404664818571,9.5763519873517,-1.296617665294045,0.2260813691595201,-1.3617808510006226
1.8,0.9407786712116286,-1.392572353361258,2.016143562326912,-0.0045736044306043,0.1714136811221966,0.0483868415436963,-0.7669779493576776,0.9692020136575672,-0.5297276167370374,0.9175722622564207,-1.3637271887793412,2.001072347923958,-0.8718226550257819,1.0634901532499303,-0.5604955235407074,1.0794540369798595,0.2422352088994106,0.2855930948876539,-1.012412813863034,9.59672671350836,-1.2960777344654444,0.2282604711733311,-1.3573516994028354
1.82,0.926210918086478,-1.3740500671333726,2.005998823834731,-0.004837835204716,0.1706587288122664,0.0482543140056896,-0.7664826425053588,0.9794950504873006,-0.5371511467408164,0.9175722622564207,-1.3637271887793412,2.001072347923958,-0.8718226550257819,1.0634901532499303,-0.5604955235407074,0.6350211291232895,0.0247653426159399,0.514651841486663,-0.3711765001889522,10.357406982549946,-1.2957305550142144,0.2283376245640161,-1.3550893468263725
1.84,0.9109071913281004,-1.3543756348908047,1.9951641583767288,-0.0028470481873399,0.1718438708006881,0.0482560760588113,-0.7636991188138923,0.9873089637260416,-0.546054471830492,0.9175722622564207,-1.3637271887793412,2.001072347923958,-0.8718226550257819,1.0634901532499303,-0.5604955235407074,0.6084292109522208,0.1391761845733252,0.3906956619370572,-0.4451662544837809,10.357406982549946,-1.292458847918743,0.2255311079093526,-1.3582700608469247
1.86,0.8956794632949926,-1.3345633057023971,1.984125052556747,0.0002675219383792,0.1736579744108581,0.048326754802493,-0.7591266034881323,0.9932014797561326,-0.5575248868764371,0.9088540357061632,-1.3530922872468418,1.995467392688551,-0.8918226553238051,1.0834901535479535,-0.5706987561568936,0.6841053699822678,0.2286257662879987,0.2946258015045444,-0.5735207522972519,10.244256176093586,-1.2886874620548574,0.2213271305815974,-1.362580261902588
1.88,0.8805580847755442,-1.314659973122507,1.9728297701554656,0.0033720788422694,0.1751903098753063,0.0483888996769011,-0.753287730447127,0.9968945157822924,-0.5714166395858702,0.8914175826056474,-1.3318224841818431,1.9842574822177368,-0.9318226559198516,1.123490154144,-0.5911052213892658,0.7757443954350127,0.2919436520502638,0.1846518013079834,-0.6945876354716551,10.100529994309,-1.2851179174635323,0.2172291057837951,-1.365218372476763
1.9,0.8663085539714191,-1.2956948441567333,1.9618254229362428,0.0057857166229981,0.1758852452195278,0.0483989971115161,-0.7470658851790837,0.999394287874704,-0.586225967020093,0.8739811295051317,-1.3105526811168446,1.9730475717469225,-0.971822656515898,1.1634901547400465,-0.6115116866216381,0.8128290073986947,0.3110922634021684,0.1249886046205905,-0.7404663717111404,9.980293347519364,-1.2822335245308825,0.2135439051188362,-1.3662537076153352
1.92,0.8514407746577801,-1.275686579363819,1.9499257848587908,0.0075890253596619,0.1754885913453846,0.0483399650456009,-0.7400863075052382,1.0014201140857395,-0.6029980258732438,0.8545446763748138,-1.2872828780220438,1.9608173380144895,-1.0118226571119444,1.2034901553360928,-0.6319181518540105,0.9139480763644549,0.3489788836922747,0.1012913105517709,-0.8386029426575403,9.82672524904592,-1.2806066412622568,0.2107440733612576,-1.3651066614981922
1.94,0.8367201743068513,-1.2556441826344436,1.937687949497808,0.0084679005873183,0.173467313956721,0.0481915022626743,-0.732448381007149,1.0028598597322942,-0.6199180887935353,0.8351082232444959,-1.264013074927243,1.9485871042820568,-1.051822657707991,1.2434901559321394,-0.6523246170863827,0.9309931765910098,0.3818963249044571,0.0719872823277345,-0.8460031460145734,9.82441244418078,-1.2810290045527697,0.2090659212896015,-1.3613670374633629
1.96,0.8221509010745114,-1.235567426592516,1.9251182112252272,0.0085506467121318,0.1694859887716394,0.0479604950479402,-0.725026906111328,1.0047536117115703,-0.6361787652202556,0.8146717700992767,-1.2397432718175407,1.9358467089188147,-1.0918226583040374,1.2834901565281858,-0.672731082318755,0.8987132246200864,0.3710737447910506,0.0946875989638162,-0.8130338213360178,9.853762853935224,-1.2840360249340912,0.2084007672760739,-1.3552095807068771
1.98,0.8084347469292876,-1.2164567806545028,1.912885144375814,0.0081308316813462,0.1639974446621176,0.0476857144378384,-0.7195002524980674,1.0067815661753057,-0.6506585865700782,0.7932353169391565,-1.2144734686929377,1.9225961519247636,-1.1318226589000835,1.323490157124232,-0.6931375475511272,0.7815397075496684,0.2763326806630328,0.1013977231867468,-0.723991067491131,9.895281760527723,-1.2904071909936536,0.2084466308694458,-1.3469419315334363
2.0,0.7940849372420529,-1.196297216207592,1.8997200753172236,0.007298194533428,0.1571582751578399,0.0473589275348915,-0.7160506203529934,1.0090717865361316,-0.6650236154291933,0.7724597343043843,-1.1661177023457374,1.8803522150473104,-0.8195002539881835,1.1067815676654216,-0.6851167320693077,0.7474943567691313,0.1724816072536994,0.1145110180413078,-0.7182514429557529,9.895281760527723,-1.297977494079059,0.2089429771486464,-1.3367632531740243
2.02,0.779729072980187,-1.1760490103842964,1.886408986300396,0.0075767655207702,0.1520793973435201,0.0471204341510213,-0.7199350165252941,1.0152815432108209,-0.6646653462850922,0.7724597343043843,-1.1661177023457374,1.8803522150473104,-0.8195002539881835,1.1067815676654216,-0.6851167320693077,0.3666673163845101,-0.194219808615037,0.310487833734463,0.0179134572050543,9.926746514220213,-1.304417788568679,0.2083439280778041,-1.3302732121176388
2.04,0.7652906550224666,-1.155704603780665,1.873119395606391,0.0094089141574202,0.1513161563683042,0.0470116693677762,-0.7231942143464742,1.0188473424249354,-0.6644141634609734,0.7724597343043843,-1.1661177023457374,1.8803522150473104,-0.8195002539881835,1.1067815676654216,-0.6851167320693077,0.2418697339690158,-0.1629598910590057,0.1782899607057242,0.0125591412059422,10.740529103444716,-1.3046085787236492,0.2057046407824598,-1.3296831150190191
2.06,0.7515410735652505,-1.1363256475646908,1.8604710794230543,0.0115484184373389,0.1529635432700233,0.0469496418486318,-0.7237583087692842,1.020828980852448,-0.6670095487924815,0.7642647317645025,-1.1550498866690833,1.8735010477266167,-0.8395002542862067,1.1267815679634448,-0.6920083611691535,0.165688852931087,-0.0282047211404956,0.0990819213756322,-0.129769266575408,10.740529103444716,-1.3016504745187167,0.2025281950346436,-1.3327685192536622
2.08,0.7370807192022452,-1.1159022510890213,1.8470769554249924,0.0134707342156965,0.1556992583727295,0.0468674088642817,-0.7221124666903737,1.0215218327396511,-0.6723860067434538,0.7478747266847388,-1.1329142553157747,1.859798713085231,-0.8795002548822531,1.1667815685594911,-0.7057916193688454,0.2832628637188727,0.0822921039455248,0.0346425943601569,-0.2688228975486151,10.557133199002235,-1.2971626432534291,0.1997092613720776,-1.336678703679879
2.1,0.7226726047931351,-1.0954734554709926,1.8335514712399843,0.0146081495014559,0.1583982180179284,0.0467247931471952,-0.7187372958832138,1.0214045124920548,-0.6799778488820293,0.7314847216049751,-1.1107786239624664,1.8460963784438449,-0.9195002554782996,1.2067815691555377,-0.7195748775685371,0.4154564028723414,0.1687585403579938,-0.0058660123798182,-0.3795921069287722,10.28770039311894,-1.2927309409330956,0.197838894402393,-1.340329409967593
2.12,0.7090606478536085,-1.0760764928185764,1.8205449770584303,0.0145576125405592,0.1602553707857845,0.0464943114705527,-0.7143544106326294,1.0205678517703476,-0.6887316506242628,0.7130947164954091,-1.0866429925793557,1.831704880892474,-0.959500256074346,1.246781569751584,-0.7333581357682288,0.4912706210057957,0.2191442625292194,-0.0418330360853591,-0.4376900871116751,10.28770039311894,-1.2894158402294642,0.1974354361716821,-1.3424357246605256
2.14,0.6948301014680631,-1.0556795953107914,1.8066699088806395,0.0129563551984391,0.1610823595991885,0.046121550846919,-0.7090199256849986,1.0193319810002983,-0.698312184549258,0.6947047113858431,-1.062507361196245,1.8173133833411037,-0.9995002566703926,1.2867815703476306,-0.7471413939679207,0.5517488933037076,0.266724247381539,-0.0617935385024637,-0.4790266962497624,10.210507762398263,-1.287391838663131,0.1989058555765777,-1.342672249061778
2.16,0.6807072231101049,-1.035293136501549,1.7926074197991042,0.0099054600137625,0.1606311427302219,0.0456295544814572,-0.7036063577716603,1.0197488407572806,-0.707419101417593,0.6753147062613759,-1.037371729798233,1.8025773043347404,-1.039500257266439,1.326781570943677,-0.7609246521676124,0.5301330598446067,0.2706783956669178,0.0208429878491123,-0.455345843416749,10.222901699656177,-1.2866937151378088,0.2021049754770681,-1.3403020804960797
2.18,0.6666940469995529,-1.0148701393159083,1.778371804841304,0.0065188810417569,0.1587943657875545,0.0451059623824659,-0.6981012481993537,1.022574980135753,-0.7156775975246413,0.6549247011220076,-1.01123609838532,1.787496643873385,-1.0795002578624853,1.3667815715397234,-0.7747079103673042,0.5159846246250621,0.2752554786153272,0.1413069689236268,-0.4129248053524159,10.222901699656177,-1.2879803568626196,0.2055839482701054,-1.3373046917396103
2.2,0.6534821746866212,-0.9954020002617268,1.7647027319996331,0.0036305710430007,0.1556116918817309,0.0446325852235254,-0.6930240655470833,1.0264833528059685,-0.7227470625950082,0.6317889845895852,-0.9637413903091206,1.742587924965072,-0.7981012496894698,1.1225749816258692,-0.7230980293471797,0.4770495178567406,0.2538591326135209,0.1954186335107688,-0.3534732535183438,10.265474776245355,-1.291596137167038,0.2088683620361642,-1.332806676230823
2.22,0.6396398473094747,-0.9747674018201764,1.7503214489230248,0.0029422693132039,0.1523076585659355,0.0443068791071077,-0.6917085185366678,1.0361458105064043,-0.7142344270818295,0.6317889845895852,-0.9637413903091206,1.742587924965072,-0.7981012496894698,1.1225749816258692,-0.7230980293471797,0.6472223654385644,0.0657773505207737,0.4831228850217917,0.4256317756589356,10.30661074944146,-1.2965311535635458,0.2094228185358657,-1.3302048441764438
2.24,0.6258169983167458,-0.9539719235409022,1.736131249651941,0.0051630693039993,0.1509586768305695,0.0441842819748651,-0.6905254014667443,1.0427324824651636,-0.7053735319967717,0.6317889845895852,-0.9637413903091206,1.742587924965072,-0.7981012496894698,1.1225749816258692,-0.7230980293471797,0.5552014841520422,0.0591558534961733,0.3293335979379641,0.4430447542528914,11.360882694139036,-1.299802599816692,0.2065387580118942,-1.3321584010246712
2.26,0.6120309457091637,-0.9330753655103748,1.7220883791366248,0.0086646384310293,0.1506631048203728,0.0441454861089292,-0.6880902972420319,1.0462793266116646,-0.6993581888373344,0.6238079720926906,-0.952515640492862,1.7353569446716002,-0.818101249987493,1.1425749819238924,-0.7245821157116874,0.3697775997493966,0.1217552112356246,0.1773422073250485,0.3007671579718651,11.254538982206212,-1.3016881780647604,0.2022890654375461,-1.335332143927966
2.28,0.5989894658181566,-0.91318533112924,1.7088346794620672,0.011819149679387,0.1504670106444695,0.044087379845345,-0.684884073283083,1.0473464843809377,-0.696059164706512,0.6078459470989012,-0.9300641408603444,1.7208949840846566,-0.8581012505835395,1.182574982519939,-0.7275502884407027,0.2361263326865844,0.1603111979474436,0.0533578884636565,0.1649512065411196,11.079208352573003,-1.3029863423392718,0.1978813796018132,-1.3371846803213787
2.3000000000000003,0.5853330248962507,-0.8922393553919461,1.6949323408305688,0.0143840814272329,0.1497267239999183,0.0439568683873401,-0.6809928294217451,1.0473448761653217,-0.6944174997955875,0.5918839221051118,-0.9076126412278273,1.706433023497713,-0.898101251179586,1.2225749831159851,-0.7305184611697181,0.2111684461189557,0.1945621930668939,-8.04107808116683e-05,0.0820832455462217,10.819691957871328,-1.304633333603665,0.1943470373384969,-1.3374198947932765
2.32,0.5717586683789463,-0.8713004563471074,1.681048326478166,0.0159847332268512,0.1479155482067537,0.0437333005384426,-0.6766983316937911,1.0466827342607916,-0.6941014221587127,0.5739218970815201,-0.8831611415655074,1.6918226542743189,-0.9381012517756324,1.2625749837120317,-0.7334866338987335,0.2178362212171606,0.2147248863976991,-0.0331070952264922,0.01580388184374,10.819691957871328,-1.3072098603297693,0.1920380411577148,-1.3357658377144035
2.34,0.5582756302861017,-0.8503832158755793,1.6671682013170877,0.0163660990680385,0.1444277028399897,0.04338980158129,-0.6719869441847703,1.045278351975434,-0.693894211354204,0.5559598720579283,-0.8587096419031878,1.677212285050924,-0.9781012523716788,1.3025749843080785,-0.7364548066277488,0.2460304766745793,0.235569375451039,-0.0702191142678776,0.0103605402254347,10.744516549172658,-1.311954658199176,0.1910228541612759,-1.331367361624293
2.36,0.5455467689573105,-0.8305331260376316,1.6539921268636568,0.0156293870668141,0.1392806515525441,0.0429555789327442,-0.6684809495976362,1.0443443165300836,-0.6930368198384602,0.5369978470194354,-0.8332581422259668,1.6625277115093045,-1.0181012529677254,1.3425749849041246,-0.7394229793567642,0.1864104374053037,0.1752997293567093,-0.0467017722675211,0.042869575787191,10.774608179044662,-1.3198901060488946,0.1915211420861699,-1.3241808652508131
2.38,0.5321934175927695,-0.8096540469793951,1.640149577004386,0.0138770938380048,0.1324736151331465,0.0424170536028226,-0.667374713486877,1.043683515664317,-0.6911973772501464,0.5170358219660414,-0.8068066425338448,1.6477689336494592,-1.0581012535637715,1.382574985500171,-0.7423911520857794,0.1122938684061608,0.0553118055379553,-0.0330400432883348,0.0919721294156905,10.774608179044662,-1.3296855582974434,0.1932283074982701,-1.3146429231478105
2.4,0.5188336207704204,-0.7887801529138687,1.6263553711744083,0.0113194425799921,0.1250269494198557,0.0418329406894481,-0.6689419679984038,1.043970673294833,-0.6882483112303058,0.4988246819184256,-0.7574698711961793,1.6055897081418786,-0.7673747149769932,1.143683517154433,-0.6607114249771352,0.1675987514723994,-0.0783627255763363,0.014357881525806,0.1474533009920287,10.817341954224505,-1.3393039571890757,0.1956972158305321,-1.3040009971364948
2.42,0.5060520799346386,-0.7688854509793619,1.6134386593727026,0.0102077896917948,0.11951620686352,0.0414051634289838,-0.6766266866415488,1.049727896684554,-0.6708256835083611,0.4988246819184256,-0.7574698711961793,1.6055897081418786,-0.7673747149769932,1.143683517154433,-0.6607114249771352,0.994671401168404,-0.3842359321572508,0.2878611694860478,0.8711313860972347,11.971259120326977,-1.348420045041329,0.1968712413200455,-1.2964826776366545
2.44,0.4924284930317132,-0.7478526793300073,1.6002273489504752,0.011165362907538,0.1176129293795646,0.0411435331171786,-0.6849625425088015,1.053141003613385,-0.6513480384322039,0.4988246819184256,-0.7574698711961793,1.6055897081418786,-0.7673747149769932,1.143683517154433,-0.6607114249771352,1.0729800203871436,-0.4167927933626358,0.1706553464415505,0.9738822538078618,11.971259120326977,-1.3526553113552324,0.1954723849643768,-1.295989048019664
2.46,0.4786618175400088,-0.7267698334068734,1.5873855794568603,0.0130125210739013,0.1183866177769643,0.0409697868112219,-0.691056938034885,1.0549632730818492,-0.6339029792951948,0.4911509347686557,-0.7460330360246349,1.5989825938921072,-0.7873747152750163,1.1636835174524562,-0.654614234522533,0.9284293337914687,-0.3047197763041742,0.0911134734232099,0.8722529568504556,11.745483633446383,-1.3535384017106449,0.1930146264452676,-1.299119177961871
2.48,0.4647960947718321,-0.7056671268469942,1.5748678255820967,0.014984289810209,0.1203949371963246,0.0408193532706093,-0.6950884749929797,1.0553173791369257,-0.6187435727565702,0.4758034404691158,-0.7231593656815463,1.5857683653925645,-0.8273747158710628,1.2036835180485028,-0.6424198536133284,0.7845162330156374,-0.201576847904733,0.0177053027538121,0.7579703269312288,11.745483633446383,-1.3529697050391458,0.1905306040770909,-1.303642589055675
2.5,0.4515657632923746,-0.6856264678337245,1.563238920054036,0.0163717270925135,0.1225132601701598,0.0406457631568393,-0.6973583759502698,1.054363412945616,-0.6061102889121044,0.4604559461695759,-0.7002856953384576,1.5725541368930218,-0.8673747164671093,1.2436835186445492,-0.630225472704124,0.6435494591422432,-0.1134950478645091,-0.0476983095654692,0.6316641922232913,11.492666641696816,-1.3520337590990292,0.188482699636742,-1.308391701944164
2.52,0.4376055239890248,-0.6645614106721196,1.551244678811022,0.0167402699473443,0.124305158900288,0.0403794962503607,-0.6985543611911182,1.0523188761354842,-0.594029137249024,0.4431084518402338,-0.6754120249655666,1.5599496274389393,-0.9073747170631558,1.2836835192405955,-0.6180310917949196,0.6155581551946625,-0.0597992620424203,-0.1022268405065918,0.6040575831540218,11.492666641696816,-1.3516381791048144,0.1877577411204092,-1.3120740849897308
2.54,0.4236305010174014,-0.643544213527205,1.5394879711837437,0.0154729556040807,0.1252222077392668,0.0399845662920141,-0.6989593215984531,1.0496863545456627,-0.5822424557468235,0.4257609575108915,-0.6505383545926756,1.547345117984857,-0.9473747176592022,1.323683519836642,-0.605836710885715,0.6041937265618922,-0.0202480203667421,-0.1316260794910762,0.5893340751100207,11.421735089987124,-1.3523530805938455,0.1889958037483845,-1.3140143078425572
2.56,0.4096469598265079,-0.622568865038084,1.5279706376493276,0.0125710854175756,0.1251762830039287,0.0394640956928713,-0.6995103900786368,1.048340614531431,-0.5700699450345791,0.4074134631666482,-0.6246646842048835,1.5350454680535046,-0.9873747182552486,1.3636835204326885,-0.5936423299765106,0.6129533214190593,-0.0275534240091857,-0.0672870007115911,0.6086255356122228,11.414902395568788,-1.3540276941369158,0.1919928000182135,-1.313837978763872
2.58,0.3963488039536372,-0.6026406885584414,1.5172615063719344,0.0092242911075851,0.1243929508425899,0.0389270778018176,-0.7003640118702043,1.0495436322978295,-0.5578155102727519,0.3880659688075037,-0.5977910138021902,1.5230506776448822,-1.027374718851295,1.4036835210287348,-0.581447949067306,0.6171448234433882,-0.0426810895783724,0.0601508883199319,0.6127217380913597,11.439614279308444,-1.3569444718162882,0.1959628890544902,-1.31327785902377
2.6,0.3823291723128518,-0.5816216497027548,1.5062473343312863,0.0058913611062045,0.1228784941605641,0.0383808326667628,-0.7016314895109318,1.052314349262574,-0.544216860581775,0.361330603360127,-0.55016350694355,1.4893707308582969,-0.7738811406953919,1.1495436337879457,-0.4978441292939292,0.6967902221730242,-0.0633738820363771,0.1385358482372201,0.6799324845488453,11.483366201270655,-1.3610108827271488,0.1997637354098623,-1.3126136043156824
2.62,0.3682054442881189,-0.5604704514330525,1.4955701855520651,0.005244481935632,0.1231821061236974,0.0380412267772147,-0.7103884805608365,1.061927159763997,-0.5238896511296278,0.361330603360127,-0.55016350694355,1.4893707308582969,-0.7738811406953919,1.1495436337879457,-0.4978441292939292,1.2065306275596994,-0.4378495524952341,0.480640525071152,1.0163604726073583,11.52869015766464,-1.3639336860514104,0.2004753441791102,-1.3157603788979726
2.64,0.3539364609194218,-0.5391638154175007,1.4853158564647184,0.0080005925191513,0.1269440694187922,0.0379627365720174,-0.7156285066334503,1.0679212745859952,-0.5026261018370914,0.361330603360127,-0.55016350694355,1.4893707308582969,-0.7738811406953919,1.1495436337879457,-0.4978441292939292,1.1352596776256696,-0.2620013036306934,0.2997057410999093,1.0631774646268188,12.05373168695496,-1.361356917023882,0.1972534005638646,-1.3260291786870817
2.66,0.3403190968935345,-0.5188519573805775,1.475954836199252,0.0117046459275033,0.1319484661038434,0.0379878403335445,-0.7172976962339602,1.0697489564606482,-0.4838386200428734,0.3535917919531731,-0.5386680706056706,1.4843922895653576,-0.7885845664604295,1.1695436340859688,-0.4858498530981646,0.9474915397055782,-0.0834594800254939,0.0913840937326493,0.939374089710901,11.946090947606535,-1.3571487670531373,0.1924231486368726,-1.339418432855598
