t,x,y,z,roll,pitch,yaw,v_x,v_y,v_z,ref_x,ref_y,ref_z,ref_v_x,ref_v_y,ref_v_z,a_com,a_x,a_y,a_z,thrust,wind_x,wind_y,wind_z
0.0,-1.878364147537578,2.0733687131658587,2.5562222978482243,0.0238179191596531,0.1500490480854448,0.0288976765893835,0.0012917762744715,0.0035116150175983,-0.0036998729961448,-1.8783280493117236,2.0735476242875435,2.556113563065279,-0.0001160039499936,-0.0946721701909247,-0.1036443930675633,0.2631025758269565,0.0645888137235794,0.1755807508799196,-0.18499364980724,10.66035883740551,-1.4130526513369497,0.1672451048187915,-1.2807437487285662
0.02,-1.878403916728373,2.073650866951471,2.555935318350268,0.0321832440926818,0.1509444769239434,0.0294920772018854,-0.0052010271979927,0.0209132291889024,-0.0262199826720293,-1.8783280493117236,2.0735476242875435,2.556113563065279,-0.0001160039499936,-0.0946721701909247,-0.1036443930675633,1.4595615887252251,-0.3246401736232183,0.8700807085652007,-1.126005483794226,10.66035883740551,-1.4078694831104126,0.1578560368174607,-1.2780800659154896
0.04,-1.878565415248945,2.0740580166843987,2.555166294725075,0.0459437673594613,0.1533329598518855,0.0305117926201619,-0.0111830692760478,0.0204790098800205,-0.0535057444497514,-1.8783280493117236,2.0735476242875435,2.556113563065279,-0.0001160039499936,-0.0946721701909247,-0.1036443930675633,1.396859128207306,-0.2991021039027517,-0.0217109654440939,-1.3642880888861075,9.243909539385186,-1.4018209505398078,0.1407735416284739,-1.2785974484168252
0.06,-1.8788401057495967,2.0744047699443904,2.553792331561097,0.0608529194268397,0.1570025949404231,0.0316867179308655,-0.0157512512609109,0.0138620998795678,-0.0824647013285234,-1.8783292093512236,2.0726009025856342,2.555077119134604,-0.0003843589386505,-0.1146721704889479,-0.1236443933655865,1.5027249982178146,-0.228409099243156,-0.3308455000226364,-1.447947843938597,9.047446214330192,-1.3950291013227756,0.1232329959590395,-1.2796961188250224
0.08,-1.879186250733092,2.0745820544597167,2.5518465049263166,0.0752219150415652,0.1613186428770369,0.0328939070830619,-0.0184479127698802,0.0038906175730886,-0.1107016978413477,-1.8783315294302232,2.070707459181816,2.553004231273252,-0.0009210689159644,-0.1546721710849944,-0.1636443939616329,1.5033549271110558,-0.1348330754484676,-0.4985741153239596,-1.4118498256412142,9.109470494187008,-1.387603513780719,0.1064238935814403,-1.2801282656750042
0.1,-1.8795475015447087,2.0745395140627285,2.5494816644085456,0.0882392855965332,0.1655898924046699,0.0340398075957678,-0.0193247223641995,-0.0081222082073245,-0.1368442478548434,-1.878333849509223,2.0688140157779973,2.550931343411901,-0.0014577788932783,-0.1946721716810408,-0.2036443945576794,1.439192220920621,-0.0438404797159647,-0.6006412890206558,-1.3071275006747844,9.109470494187008,-1.3806471299624048,0.0913263094518824,-1.2795065551123408
0.12,-1.8799299837773196,2.074222629667742,2.546458540904556,0.1012752189963636,0.1699271561150546,0.035213053946724,-0.0187623010437841,-0.0232146775201872,-0.1641015496191233,-1.8783630050870883,2.064920572344376,2.546858455520748,-0.0019944888705921,-0.2346721722770872,-0.2436443951537258,1.5580913381204398,0.0281210660207704,-0.7546234656431363,-1.362865088213995,9.160283410361444,-1.3744338929511866,0.0763557536060008,-1.2785049620917397
0.14,-1.8802878134426475,2.0735792440120746,2.542887189539776,0.113649661343617,0.1738521797801453,0.0363178278008917,-0.0169941365656562,-0.0406307574232649,-0.1917021556287417,-1.878392160664954,2.061027128910756,2.542785567629594,-0.002531198847906,-0.2746721728731338,-0.2836443957497723,1.6341968187081128,0.0884082239063978,-0.870803995153888,-1.380030300480921,9.186791442693902,-1.369293795249453,0.0628291658799271,-1.278198035983355
0.16,-1.880584807673055,2.072624299481187,2.538981476442593,0.1248157407269792,0.177048535707215,0.0372735454400877,-0.0143366114199211,-0.0592360160265184,-0.2180670509667169,-1.8784347339922525,2.0561336854622336,2.537712679723539,-0.0030679088252199,-0.3146721734691802,-0.3236443963458187,1.6188929811575992,0.1328762572867532,-0.9302629301626704,-1.31824476689876,9.181198237506578,-1.363411113928744,0.0492887192590465,-1.276291457717911
0.18,-1.880835226045943,2.071215851264812,2.534326273801904,0.1359735294462694,0.1797778989452345,0.0381552959231324,-0.0108168945090129,-0.0808688063847831,-0.2460915405358213,-1.878490725068984,2.0502402419988104,2.5316397918025837,-0.0036046188025338,-0.3546721740652266,-0.3636443969418652,1.7788606194882202,0.1759858455454083,-1.0816395179132354,-1.4012244784552208,9.188780286915971,-1.3576685326568383,0.0364707814028071,-1.2729319134311134
0.2,-1.8810076629321053,2.0693311693390024,2.529108443239414,0.1458289957826255,0.1818387480852513,0.0388399070510293,-0.0066258294490171,-0.1062464371390927,-0.2742441943174047,-1.8813760707713936,2.0671724109455725,2.522021696775113,-0.0196272544936492,-0.1808688078748992,-0.3460915420259374,1.906673204815724,0.2095532529997908,-1.2688815377154827,-1.4076326890791715,9.187270350945257,-1.353235934688611,0.0257620542154801,-1.2685896469445432
0.22,-1.8810504027389212,2.0669046308762367,2.523768179319779,0.1494791349063512,0.1830054702198293,0.0389482544560577,0.0017777744434925,-0.1451839358144646,-0.286071337885524,-1.8813760707713936,2.0671724109455725,2.522021696775113,-0.0196272544936492,-0.1808688078748992,-0.3460915420259374,2.0776372917677977,0.4201801946254833,-1.9468749337685916,-0.5913571784059629,9.20837103052054,-1.3495215228942543,0.0215936494501617,-1.2588802236880876
0.24,-1.8809252941673904,2.063642432515249,2.517913420078372,0.1473256211949315,0.1832725411833709,0.0384693815467977,0.0101771383949807,-0.1784359242716754,-0.2988449731592411,-1.8813760707713936,2.0671724109455725,2.522021696775113,-0.0196272544936492,-0.1808688078748992,-0.3460915420259374,1.829897407816893,0.419968197574414,-1.6625994228605432,-0.6386817636858527,10.078491211461367,-1.3492198784499103,0.0242413734088921,-1.252347100514023
0.26,-1.8806394801920845,2.0597709356825438,2.5117784987605907,0.1422724034869954,0.1825910378333073,0.0376291679622563,0.0179013535508699,-0.2063663283904739,-0.3138621271995176,-1.8815723433163305,2.065363722866824,2.5185607813548536,-0.0213893264905765,-0.2008688081729224,-0.3660915423239607,1.6319358822294914,0.3862107577944597,-1.396520205939926,-0.7508577020138268,10.078491211461367,-1.349860708817849,0.029693722768365,-1.2454491874422484
0.28,-1.8802071668553084,2.0553870054557373,2.505322224645686,0.1365702208980509,0.1809202349615019,0.0365970930355186,0.0248606253641317,-0.2304586264818639,-0.3309525214054742,-1.8819648884062032,2.0617463467093256,2.511638950514335,-0.024913470484431,-0.2408688087689689,-0.4060915429200071,1.517359437979549,0.3479635906630864,-1.2046149045694967,-0.8545197102978297,9.906265156962943,-1.3516886333246148,0.0360667360578941,-1.236919007314205
0.3,-1.87967662175396,2.050800005806019,2.4988534578791715,0.1313971622409548,0.178417314786683,0.0355119551570009,0.0305564409714794,-0.2511816328998226,-0.3490794863219854,-1.882357433496076,2.0581289705518278,2.504717119673816,-0.0284376144782855,-0.2808688093650153,-0.4460915435160535,1.4057668436800703,0.284790780367385,-1.036150320897934,-0.9063482458255612,9.7534153317456,-1.354101671743939,0.042065239376218,-1.2263014632628069
0.32,-1.8790138653913615,2.04556380959436,2.491654262229282,0.1265757250697575,0.1749197425689152,0.0343093250431153,0.0352923047636617,-0.271378350068222,-0.3699557704359271,-1.8829261857856416,2.052511594364527,2.495795288803495,-0.0319617584721401,-0.3208688099610617,-0.4860915441121,1.4715255932572464,0.2367931896091151,-1.0098358584199718,-1.0438142056970827,9.61778532565404,-1.3564231743890145,0.0471528512936566,-1.214323680257437
0.34,-1.878271190741406,2.0399346716396027,2.484026578462585,0.1225131524277743,0.1707680931461157,0.0330888800130027,0.0386215965714153,-0.2906375309611945,-0.3917333598617371,-1.883494938075208,2.0468942181772265,2.4868734579331737,-0.0354859024659946,-0.3608688105571083,-0.5260915447081465,1.4630991369423365,0.1664645903876827,-0.9629590446486258,-1.0888794712904992,9.49063010970167,-1.3589859312865191,0.0511276507890339,-1.201661097165318
0.36,-1.8775186866039235,2.034227889024331,2.4763713249475603,0.1190255631587296,0.1665357664689354,0.031931565433486,0.0403160341411947,-0.3090226205957254,-0.4129477696007383,-1.88415179396462,2.040276841975025,2.4769516270479515,-0.0390100464598491,-0.4008688111531547,-0.5660915453041928,1.4061772826726435,0.0847218784889712,-0.9192544817265448,-1.0607204869500646,9.384642904618886,-1.361980094208795,0.0547620033251009,-1.1882908846694191
0.38,-1.8767093047975665,2.0278490137491456,2.4678713533899543,0.1154948605714481,0.1622017662646756,0.0307504724937712,0.0403856290483647,-0.3277971421061328,-0.4359331339079065,-1.8848967534538783,2.0326594657579227,2.4660297961478284,-0.0425341904537036,-0.4408688117492011,-0.6060915459002393,1.4839259362659365,0.0034797453584988,-0.9387260755203686,-1.1492682153584093,9.384642904618886,-1.3646582090300792,0.0581639441173763,-1.1751372784988197
0.4,-1.8759180576271244,2.02109999338212,2.458904846048121,0.112014834298772,0.1585252578205199,0.0296619613504714,0.0386508228853197,-0.3460253694050997,-0.4595168936871021,-1.874690023345148,2.011459156643839,2.446074696694559,0.0424734840614521,-0.4277971435962489,-0.5359331353980227,1.4928760399049747,-0.0867403081522485,-0.9114113649483446,-1.179187988959779,9.326899311854504,-1.366373289229891,0.0613069858920863,-1.1633515068106617
0.42,-1.8752287815721236,2.014344725974372,2.4501757456038886,0.1091673962161385,0.1577775907886389,0.0289750105032561,0.034360600302316,-0.3642919559071625,-0.4581998385307866,-1.874690023345148,2.011459156643839,2.446074696694559,0.0424734840614521,-0.4277971435962489,-0.5359331353980227,0.9404903329298976,-0.2145111291501869,-0.9133293251031404,0.0658527578157763,9.280474380045234,-1.3660884425019286,0.0648549134605143,-1.146379746509043
0.44,-1.8745729590492928,2.006872697719736,2.4409879003433232,0.1070882063123814,0.1610464188364563,0.0287572132346612,0.0318969443706824,-0.3820870452019472,-0.4610506750361309,-1.874690023345148,2.011459156643839,2.446074696694559,0.0424734840614521,-0.4277971435962489,-0.5359331353980227,0.9094807204375472,-0.123182796581682,-0.8897544647392369,-0.1425418252672172,10.736252357247396,-1.3601059141194969,0.0662209142836426,-1.1509501088220389
0.46,-1.8739364836391597,1.9990463048376668,2.4316845255741115,0.1057358430327113,0.1667016921516963,0.0288368882155613,0.0321999292061478,-0.3996457721371057,-0.469370333260992,-1.8742652885045332,2.0071811852078767,2.440715365340578,0.0428910550640696,-0.4477971438942721,-0.5559331356960459,0.9716190153198944,0.0151492417732698,-0.8779363467579238,-0.4159829112430541,10.355311973411515,-1.351368033148319,0.0669606436432702,-1.1577034599897191
0.48,-1.8732701899441444,1.9908748281091224,2.422169729352494,0.1048578656367507,0.1734754981365305,0.0290579239614646,0.0346721575271773,-0.4166010614693013,-0.48186735415347,-1.8734158188233043,1.998625242335952,2.429996702632618,0.0437261970693045,-0.4877971444903186,-0.5959331362920923,1.0603882312587172,0.1236114160514757,-0.8477644666097794,-0.6248510446238975,10.057746418451645,-1.341991390071752,0.0673200113464828,-1.1643691233200617
0.5,-1.872572023063132,1.982804131436373,2.4128649440579872,0.1044700713692008,0.1802135210951687,0.0293227986626325,0.038880400590951,-0.4321195914518281,-0.4969629375024122,-1.8725663491420756,1.9900692994640268,2.4192780399246576,0.0445613390745395,-0.527797145086365,-0.6359331368881388,1.1027360508608188,0.210412153188684,-0.7759264991263393,-0.7547791674471144,9.841207225384096,-1.3315643138984194,0.0672630975989262,-1.1708915084186082
0.52,-1.8717302916760823,1.97399640628456,2.402734564391552,0.1046377510813042,0.1870099467939447,0.0296048374294808,0.0452147958475054,-0.4478629589481433,-0.5154068385954781,-1.8716751223605848,1.9795133565622995,2.4065593771868947,0.0453964810797745,-0.5677971456824115,-0.6759331374841853,1.2531516976418786,0.3167197628277243,-0.787168374815761,-0.9221950546532908,9.678271823934663,-1.3213037602749051,0.0665950812206336,-1.1764673801195085
0.54,-1.8707420271457376,1.96487506860274,2.392221903061152,0.1054754250242301,0.1930057454455107,0.0298464024029799,0.0533834934772027,-0.4635317267702815,-0.5349757107790813,-1.8707838955790936,1.9689574136605723,2.3938407144491323,0.0462316230850094,-0.6077971462784579,-0.7159331380802317,1.3183120500925567,0.4084348814848645,-0.7834383911069082,-0.9784436091801628,9.507429716777551,-1.3123578520800123,0.0653165186111607,-1.1801172761909282
0.56,-1.8695731202896653,1.9554275384923403,2.381309338844822,0.1066002317265744,0.1978365963597062,0.0299824211795417,0.063074504745019,-0.4803625256424114,-0.5552877403892246,-1.869871790247472,1.957401470743944,2.380122051696468,0.0470667650902444,-0.6477971468745043,-0.7559331386762781,1.405142374414747,0.4845505633908113,-0.8415399436064952,-1.0156014805071611,9.507429716777551,-1.3045139258470615,0.0636570547310773,-1.1821165878360038
0.58,-1.8682733695425064,1.9461309438397896,2.370560144587665,0.1073892122291248,0.2011943081911256,0.0299561872093882,0.0731904112128187,-0.4972668408371063,-0.5751674196782167,-1.86893880636572,1.9448455278124144,2.365403388928903,0.0479019070954793,-0.6877971474705508,-0.7959331392723246,1.3993651100588882,0.5057953233899869,-0.8452157597347465,-0.9939839644496072,9.48726852463551,-1.2986382840988968,0.0622768760474208,-1.182579211082867
0.6,-1.8666938183147876,1.9359927959928056,2.358829564018462,0.1075283562737571,0.2034342547644258,0.0297337720993997,0.0841723433836129,-0.5155735334340017,-0.5968532139250717,-1.8646138489818656,1.9212676017979344,2.341801773603754,0.0731325023209148,-0.5972668423272225,-0.6751674211683328,1.5215218534070416,0.549096608539712,-0.915334629844769,-1.0842897123427508,9.427371560237589,-1.2945116636028158,0.0616456003357175,-1.181029670775594
0.62,-1.864838004854385,1.925432945066659,2.34691264415063,0.1058293244671993,0.2044031638227562,0.02923777171478,0.1010496336758142,-0.539307291088121,-0.5923746266317811,-1.8646138489818656,1.9212676017979344,2.341801773603754,0.0731325023209148,-0.5972668423272225,-0.6751674211683328,1.4732548355048107,0.843864514610062,-1.1866878827059668,0.2239293646645324,9.427371560237589,-1.2917575530404763,0.0634506902753925,-1.1699912485787305
0.64,-1.8626410437694825,1.9144253871690404,2.335089106175904,0.1021498797507304,0.2040402756521482,0.0284591390628134,0.1176444764105467,-0.5597356525282509,-0.5902707017431984,-1.8646138489818656,1.9212676017979344,2.341801773603754,0.0731325023209148,-0.5972668423272225,-0.6751674211683328,1.3201640584183905,0.8297421367366269,-1.0214180720064914,0.1051962444291343,11.112059500291252,-1.2919873232845762,0.0665164847379712,-1.1680725062155402
0.66,-1.8602544336927287,1.903620140257385,2.3238431600196776,0.0981766427812815,0.2022038863787774,0.0275396602377545,0.132641707293776,-0.5764840475954683,-0.593561411845319,-1.8638825239586565,1.9152949333746625,2.335050099392071,0.073120920542534,-0.6172668426252457,-0.695167421466356,1.136061666975739,0.749861544161462,-0.837419753360874,-0.1645355051060282,10.7481402862677,-1.2939751956491172,0.0702201415582208,-1.1642923267685452
0.68,-1.85744521749751,1.891924440590225,2.3118925388995737,0.0940795201043761,0.198328271845818,0.0264035598683038,0.1473307401749027,-0.592131442835869,-0.6014942761362088,-1.8624198739122384,1.9033495965281175,2.321546750968704,0.0730977569857724,-0.6572668432212921,-0.7351674220624025,1.1440487321895565,0.7344516440563387,-0.7823697620200354,-0.3966432145444898,10.404881028173804,-1.29817501041113,0.0738283545504217,-1.157070211679125
0.7000000000000001,-1.854364625660197,1.8799302625259824,2.299742319709844,0.0903190818072007,0.1924071166660438,0.0251244727097141,0.159545320313682,-0.606477249260572,-0.6132197407410542,-1.86095722386582,1.8914042596815728,2.3080434025453376,0.0730745934290108,-0.6972668438173386,-0.775167422658449,1.1095997590811677,0.6107290069389648,-0.7172903212351478,-0.5862732302422735,10.121926905550026,-1.3056895890344284,0.0771651003125814,-1.1459052894471469
0.72,-1.8510765911770743,1.8676606842561787,2.287321968665764,0.0869919518941673,0.1851834429395675,0.0237901372892053,0.1683308017870679,-0.6198047505226956,-0.6281499256647004,-1.85949573199724,1.8774589228052263,2.2925400540921688,0.0730514298722493,-0.7372668444133851,-0.8151674232544954,1.092837358056292,0.4392740736692921,-0.6663750631061782,-0.7465092461823086,9.88898171684832,-1.3135761930987362,0.0798415555090401,-1.1333441946349063
0.74,-1.8478193050796292,1.85576510484058,2.2752319712624183,0.0842749656596039,0.1778257133222503,0.0225412978910255,0.17389162782624,-0.6317611923254897,-0.6436886922824595,-1.8580342401286596,1.86351358592888,2.277036705639,0.0730282663154877,-0.7772668450094316,-0.8551674238505419,1.0189854695022906,0.2780413019586064,-0.5978220901397047,-0.7769383308879552,9.594812487521269,-1.321771015847064,0.0821197816271755,-1.1191136049728947
0.76,-1.8443033697502635,1.8429962010538483,2.262174100005606,0.0816580987817664,0.1701290414578629,0.0212785752831029,0.1771949352948072,-0.6444149787000069,-0.6613052502329819,-1.8565733273489984,1.848568249037632,2.26053335717093,0.0730051027587261,-0.8172668456054779,-0.8951674244465883,1.0970110116447365,0.1651653734283581,-0.6326893187258598,-0.8808278975261208,9.594812487521269,-1.3292328434351035,0.0840450069886842,-1.1055568987496542
0.78,-1.840745960498846,1.829976493576687,2.248750912675898,0.0790221519642059,0.1628916559654555,0.0200831174770667,0.1782234636609394,-0.6567944738357543,-0.6801523229748001,-1.855112993658256,1.8326229121314828,2.2430300086879584,0.0729819392019645,-0.8572668462015244,-0.9351674250426348,1.1286296130167317,0.0514264183066118,-0.6189747567873716,-0.9423536370909092,9.502878637750657,-1.3347579201339634,0.0857986044852832,-1.0934936728936469
0.8,-1.8371896908919243,1.8167144044095236,2.234936170475492,0.0762684801275892,0.1564159615174192,0.0189709192358437,0.1772850138244816,-0.6686357597500286,-0.7003338705622361,-1.8318347873157992,1.797136769884899,2.2147432965271583,0.2003012308393557,-0.7567944753258704,-0.7801523244649162,1.17088812790023,-0.0469224918228899,-0.5920642957137179,-1.0090773793717978,9.335509860574348,-1.3393100430920053,0.0877268016782144,-1.081814793337612
0.8200000000000001,-1.8338738777291668,1.8038779604875672,2.221732470149493,0.0735400817980355,0.1535699053223105,0.0181830652338077,0.1719949974398667,-0.6817938668297169,-0.6885245204559449,-1.8318347873157992,1.797136769884899,2.2147432965271583,0.2003012308393557,-0.7567944753258704,-0.7801523244649162,0.9227415743356776,-0.2645008192307438,-0.6579053539844115,0.5904675053145569,9.335509860574348,-1.3456295113402093,0.0906557087411139,-1.063163236232747
0.84,-1.8304733685631367,1.7901190846720925,2.208038332685752,0.0709854429138051,0.1558405926322604,0.0177782210615534,0.1688900289941003,-0.6934327871215663,-0.6820237684858544,-1.8318347873157992,1.797136769884899,2.2147432965271583,0.2003012308393557,-0.7567944753258704,-0.7801523244649162,0.6844068066323293,-0.1552484222883232,-0.5819460145924715,0.3250375985045239,11.326704890616384,-1.3413821625600957,0.092319757760492,-1.0685247613683864
0.86,-1.827103083238306,1.7761373255546102,2.194390448451009,0.0689541103639425,0.1610682822493814,0.0176236950164173,0.1686929775423298,-0.7042196401070171,-0.6830827509501303,-1.8298317750074056,1.7895688251316404,2.206941773282509,0.2047167842750389,-0.7767944756238936,-0.8001523247629394,0.5420250696785555,-0.0098525725885229,-0.5393426492725395,-0.0529491232137913,10.761157296444251,-1.334691425092579,0.0935508094667562,-1.0765309954144642
0.88,-1.823882648899927,1.7626619903992569,2.1813535708865897,0.0674155324087527,0.1673833848339322,0.0175972373180847,0.170582832876794,-0.7137490806683312,-0.6891821273994199,-1.8258257503906183,1.774432935625123,2.1913387267932105,0.2135478911464054,-0.8167944762199401,-0.8401523253589859,0.5735507468109726,0.0944927667232087,-0.4764720280657053,-0.3049688224644797,10.350325914809218,-1.3259783148076725,0.0945284429248106,-1.0859660204300403
0.9,-1.8204346706184795,1.7482906515324157,2.167463999595748,0.0662970269549058,0.1746266991093809,0.0176447623155753,0.1743468346845332,-0.7228944681964666,-0.6996531752411278,-1.8218197257738316,1.7592970461186055,2.1757356803039123,0.2223789980177719,-0.8567944768159865,-0.8801523259550323,0.7201539167979576,0.1882000903869626,-0.4572693764067714,-0.5235523920853968,10.059972311484673,-1.316394683175139,0.0950571975049324,-1.0954595731948686
0.92,-1.8168948520815535,1.7337442255034377,2.15332909733746,0.0659060427054683,0.182009407844173,0.017755631884428,0.1796463661673843,-0.7313290472202106,-0.7134636681247395,-1.817372145813476,1.7421611565822857,2.1581326337848115,0.2312101048891384,-0.896794477412033,-0.9201523265510788,0.8514060002927523,0.2649765741425516,-0.4217289511872002,-0.6905246441805846,9.839561550485088,-1.3069606804672471,0.0949248809168739,-1.1041549277769744
0.94,-1.8134187443169352,1.7197738938383182,2.1396293935509085,0.0664098581771855,0.1889046117162114,0.017921841353454,0.18616762560527,-0.7389190272773388,-0.7279386903555162,-1.8129245658531208,1.725025267045966,2.140529587265711,0.2400412117605049,-0.9367944780080796,-0.9601523271471252,0.8798592082050628,0.326062971894285,-0.3794990028564093,-0.723751111538834,9.67525387645037,-1.2972084307585814,0.0939197576032143,-1.1123053013712882
0.96,-1.8096104794556012,1.704904372157029,2.1249015191716976,0.0677199719678475,0.1958949057400842,0.0181463675397615,0.1944868276110856,-0.7476638692872132,-0.7441471430416133,-1.808256208220981,1.7068893774947451,2.1219265407317094,0.2488723186318714,-0.9767944786041258,-1.0001523277431716,1.0104396595896756,0.4159601002907798,-0.4372421004937177,-0.8104226343048582,9.623997536192292,-1.2880246916438272,0.0921197529823781,-1.120400126271187
0.98,-1.805621249613713,1.6898507629319457,2.1098410123649822,0.0694347512424908,0.2025404428272765,0.0183914249981266,0.2041758040677109,-0.7572679682223793,-0.7611383765857987,-1.8033670729170568,1.687753487928623,2.1023234941828064,0.2577034255032379,-1.0167944792001722,-1.040152328339218,1.0895147985302347,0.4844488228312682,-0.4802049467583058,-0.8495616772092707,9.58683812390882,-1.2791449406093216,0.0899137988653824,-1.1277567429751325
1.0,-1.8014250842064314,1.6745950091532116,2.0944323163583203,0.0711482342830599,0.2088139141077105,0.0186257840744398,0.2151041525450221,-0.7677710540307684,-0.7789010993641099,-1.7954124594103271,1.6519873645208267,2.071784093535692,0.230376774702529,-0.8572679697124954,-0.8611383780759149,1.1675379356139428,0.5464174238655569,-0.525154290419455,-0.8881361389155573,9.562510970765288,-1.2707538590732832,0.0878056574428876,-1.1338468125156986
1.02,-1.7971488529025192,1.6598446268275986,2.079750799912647,0.0713172176634465,0.2140574755553849,0.0187047191515727,0.2344901572810059,-0.7838343704095143,-0.7656151176099711,-1.7954124594103271,1.6519873645208267,2.071784093535692,0.230376774702529,-0.8572679697124954,-0.8611383780759149,1.4233452004684093,0.969300236799192,-0.8031658189372959,0.6642990877069377,9.538372528966647,-1.26026578023945,0.0874238685522829,-1.1242796499575536
1.04,-1.7922405093911071,1.6440118176012315,2.064543608212099,0.0694762811053812,0.2183793114587329,0.0185613971091937,0.255249971178768,-0.7984471172524287,-0.7562090744468789,-1.7954124594103271,1.6519873645208267,2.071784093535692,0.230376774702529,-0.8572679697124954,-0.8611383780759149,1.3536763750531118,1.0379906948881037,-0.730637342145718,0.4703021581546118,11.097084304156851,-1.257098662585876,0.0889418149887994,-1.1319459804131755
1.06,-1.7869174924118554,1.6279044646192145,2.049453327055513,0.0662594142429696,0.2211933479161116,0.0182151461040655,0.2758897747907495,-0.8111146969217892,-0.7535177636321944,-1.793108691663302,1.6434146848237017,2.063172709754933,0.2356169688294926,-0.8772679700105186,-0.881138378373938,1.2183105327891564,1.0319901805990763,-0.6333789834680248,0.1345655407342272,11.097084304156851,-1.2551860637863248,0.0918654443959065,-1.137130435975572
1.08,-1.7814835439241816,1.6123961553311597,2.035108579266346,0.0628154985426121,0.2221883401303219,0.0177503120127434,0.2949166361524377,-0.820625427224454,-0.7565304782735094,-1.7885011561692514,1.6262693254294518,2.045949942193414,0.2460973570834199,-0.9172679706065652,-0.9211383789699844,1.074187941745907,0.9513430680844092,-0.4755365151332402,-0.1506357320657514,10.702773903892194,-1.2545593106339874,0.0950224871148271,-1.1390147869005545
1.1,-1.7753825186850152,1.5958953758642325,2.019902622257918,0.0594372474238668,0.2213852135270433,0.0171725605150294,0.3140716812957762,-0.8289499355221362,-0.7640845134133071,-1.783893620675201,1.609123966035202,2.0287271746318964,0.2565777453373471,-0.9572679712026116,-0.961138379566031,1.1104916025513347,0.9577522571669216,-0.4162254148841138,-0.3777017569898844,10.380601162691164,-1.2553856622633883,0.0980631822248836,-1.137834655337219
1.12,-1.768905886143958,1.5792402013064333,2.004500610523124,0.0565601570778848,0.2184171099827528,0.0165188986381631,0.3324819046233706,-0.8362424626653108,-0.7756832677031901,-1.778762065768454,1.5899786066111496,2.009504407040576,0.2670581335912743,-0.997267971798658,-1.0011383801620777,1.1474410400788784,0.9205111663797227,-0.364626357158726,-0.5799377144941498,10.116034407815278,-1.2581323312919477,0.1005431059917041,-1.1335061076476955
1.14,-1.7620727048837836,1.5624466087357711,1.9888473550184056,0.0542346332256603,0.2130908917208469,0.015793335930823,0.3494637228252165,-0.8428782617592487,-0.7889777591609258,-1.773630510861707,1.5708332471870974,1.9902816394492555,0.2775385218452016,-1.0372679723947045,-1.041138380758124,1.1282281265057392,0.8490909100922928,-0.3317899546968983,-0.6647245728867879,9.899276911985908,-1.2634515919746525,0.1023849890364978,-1.125632919291222
1.16,-1.7552926900969856,1.546365673776274,1.97371890855528,0.0522811921884355,0.2063467472995717,0.0150547227420882,0.363031217549706,-0.8494603299846171,-0.8027521501358498,-1.7682369462486118,1.550687887748144,1.9700588718430332,0.2880189100991288,-1.0772679729907508,-1.0811383813541704,1.0211933973940992,0.6783747362244769,-0.3291034112684166,-0.6887195487461972,9.793759878652963,-1.2706633176234303,0.1040037730987127,-1.1147803162415768
1.18,-1.7479080919472645,1.5293060313760127,1.9574983280233724,0.0502757549367561,0.1981774413010305,0.014253532360713,0.3743804441265691,-0.8560905521415485,-0.8185991816376011,-1.7625813719291683,1.5295425282942894,1.9488361042219104,0.298499298353056,-1.1172679735867972,-1.1211383819502168,1.029433335822117,0.5674613288431551,-0.3315111078465715,-0.7923515750875687,9.702943132461767,-1.2786623018083851,0.1055370827903283,-1.1023363797465733
1.2,-1.740327067278003,1.5121169578134002,1.9409435177462715,0.0482542380735156,0.1894861571116322,0.0134569461671056,0.3828703053095378,-0.8623892369135561,-0.8360179166929385,-1.729189069740936,1.4865015037689353,1.9165683689414923,0.4151364536456693,-0.9560905536316646,-0.9185991831277172,1.0187780716270292,0.4244930591484341,-0.3149342386003784,-0.8709367527668654,9.595858466354002,-1.286489080426418,0.1069921617214347,-1.0898588205582664
1.22,-1.7330096928745764,1.495645088267409,1.9252271060030235,0.0458932118407649,0.1837525980278203,0.0128204040539357,0.3870304465157171,-0.8707724548209818,-0.8174707190759181,-1.729189069740936,1.4865015037689353,1.9165683689414923,0.4151364536456693,-0.9560905536316646,-0.9185991831277172,1.038729580766261,0.2080070603089678,-0.4191608953712844,0.9273598808510196,11.793122952631164,-1.2926101826299867,0.1091948321037424,-1.0654489600896848
1.24,-1.7252340094649137,1.4781639379473264,1.90902272920719,0.0433739923668845,0.1830454611647433,0.0124180702301426,0.390830704415625,-0.8769070804030797,-0.8045322050795627,-1.729189069740936,1.4865015037689353,1.9165683689414923,0.4151364536456693,-0.9560905536316646,-0.9185991831277172,0.7407441116408339,0.1900128949953949,-0.3067312791048993,0.6469256998177686,11.793122952631164,-1.2947642107059,0.1113675786590859,-1.0693741755041808
1.26,-1.7173602595201325,1.460574322669106,1.8929802022244289,0.0413818595574823,0.1858519980387768,0.0122188542958433,0.3967351021146922,-0.8818677752920577,-0.8003629134289303,-1.7250377052044794,1.4769405982326187,1.9073823771102152,0.4232876555494893,-0.9760905539296878,-0.9385991834257406,0.4383303515566639,0.2952198849533599,-0.2480347444488995,0.20846458253162,11.14183780818712,-1.292402007855697,0.1129801675349719,-1.0760113050723117
1.28,-1.709753681940347,1.4437808617628958,1.877757506623161,0.0400753710995197,0.1902128394098595,0.012148026720464,0.403910921952643,-0.8857167913527213,-0.8022487192335507,-1.716734976131566,1.4578187871599853,1.8890103934476608,0.4395900593571294,-1.0160905545257344,-0.978599184021787,0.4179221773091056,0.3587909918975368,-0.1924508030331784,-0.0942902902310194,10.647294376085483,-1.2875281098843128,0.114121103825645,-1.0837593876008471
1.3,-1.7015847791055787,1.426033646342357,1.86164855120758,0.039563800351409,0.1956549087719265,0.0121755414950882,0.4127950061752542,-0.8888700784751042,-0.8087665521574249,-1.7084322470586526,1.438696976087352,1.8706384097851063,0.4558924631647695,-1.0560905551217807,-1.0185991846178335,0.573045194932682,0.4442042111305611,-0.1576643561191471,-0.32589164619371,10.30484871956378,-1.281345292934294,0.1144161236749061,-1.0917266096187543
1.32,-1.6932236211853684,1.4082315010925746,1.8453664163698031,0.0402947763292122,0.2013394021332552,0.0123109581684384,0.4230460870407737,-0.8913701263663939,-0.819132864127299,-1.699314397795357,1.4175751649849164,1.8502664260927495,0.4721948669724096,-1.096090555717827,-1.05859918521388,0.7395865774656103,0.5125540432759756,-0.1250023945644829,-0.5183155984937071,10.052944536146242,-1.2747709143955184,0.1135547423440541,-1.0990609301483365
1.34,-1.685073179646959,1.3912755323080397,1.8296931715068845,0.0423846773512117,0.2064573481169332,0.0125412358766902,0.434458478885799,-0.893548357918271,-0.830179880551106,-1.6901965485320618,1.3964533538824808,1.829894442400393,0.4884972707800497,-1.1360905563138737,-1.0985991858099264,0.8015983286313894,0.5706195922512647,-0.1089115775938565,-0.5523508211903505,9.868703871576145,-1.2676325597140292,0.111174625604321,-1.1054862999199957
1.36,-1.6762424266265568,1.373361824770359,1.812958737132324,0.0456783273959316,0.2110852224378295,0.012847470472938,0.4480726214391019,-0.8980313134089751,-0.842735756894819,-1.6806711391735754,1.374331542765144,1.8085224586931352,0.5047996745876897,-1.17609055690992,-1.1385991864059728,0.9527483903842336,0.680707127665145,-0.2241477745352049,-0.6277938171856512,9.820419874752588,-1.2605396804184696,0.1076019186788687,-1.1106281747937203
1.38,-1.667125120469401,1.3553350284593777,1.7959652517708582,0.0489949670466378,0.2145655455292431,0.0131201741283133,0.4629646078894148,-0.9044438531428274,-0.8560052851464369,-1.670738169719898,1.351209731632906,1.7861504749709762,0.5211020783953298,-1.2160905575059664,-1.1785991870020192,1.0475832977561028,0.7445993225156433,-0.3206269866926126,-0.6634764125808934,9.78694511222966,-1.254988964069064,0.1040158420099104,-1.1138998232079824
1.4,-1.6577005209730202,1.3371678011982604,1.7786979122587732,0.0518528568549304,0.2166415181354412,0.013302895644846,0.4786185686085807,-0.9118694438539884,-0.8700439591820449,-1.6439768900749303,1.3101128358022365,1.7531649875135364,0.5292905927846441,-1.0044438546329435,-0.956005286636553,1.114977861086181,0.7826980359582986,-0.37127953555805,-0.7019337017803995,9.765608803364556,-1.25125844094441,0.1010354354366257,-1.1151654061761689
1.42,-1.6484207680628926,1.3196996753107972,1.7623676876316774,0.0524756168975619,0.2185989698117517,0.0133360059093906,0.4976790617028174,-0.925686717243287,-0.8482303808334362,-1.6439768900749303,1.3101128358022365,1.7531649875135364,0.5292905927846441,-1.0044438546329435,-0.956005286636553,1.6047208801540491,0.9530246547118316,-0.6908636694649306,1.0906789174304377,9.734697471461914,-1.245198292840288,0.1001497138681787,-1.1006219704018232
1.44,-1.638256743112229,1.3010600758884847,1.7455920159528455,0.0505440702521412,0.22164722731413,0.0132459742090071,0.5177966730582161,-0.9373380935145996,-0.8309914761832086,-1.6439768900749303,1.3101128358022365,1.7531649875135364,0.5292905927846441,-1.0044438546329435,-0.956005286636553,1.44711151021804,1.0058805677699345,-0.5825688135656371,0.8619452325113797,12.0907405574726,-1.244267822235925,0.1020387328952935,-1.1090159931950694
1.46,-1.6276904078643863,1.2822132039133196,1.7290771471239563,0.047049037311805,0.2250691919735967,0.013066405301469,0.5378836035471073,-0.9462770425254428,-0.8216611052703349,-1.6386839841470842,1.3000683972559068,1.743604934647171,0.5425557897636899,-1.024443854930967,-0.9760052869345762,1.1941999489781832,1.0043465244445604,-0.4469474505421511,0.4665185456436849,11.528317584322394,-1.2425381217231837,0.10554311088096,-1.1165693488297876
1.48,-1.616719223152137,1.2632223455359677,1.7126719884722847,0.0432872839862811,0.2281524766327557,0.0128522606655176,0.5582332744013515,-0.9523132988408978,-0.8192882894756756,-1.6280981722913912,1.279979520163248,1.72448482891444,0.5690861837217817,-1.0644438555270133,-1.0160052875306227,1.067913560379926,1.0174835427122109,-0.3018128157727506,0.1186407897329655,11.04615342532452,-1.2402754241760576,0.1091286934130884,-1.122123141775683
1.5,-1.6059194364353049,1.2450864416652716,1.6970805167890155,0.0400747690028059,0.2302878477752726,0.0126423554409327,0.577507346717766,-0.9565013696519216,-0.8220198219544542,-1.6175123604356982,1.2598906430705892,1.7053647231817088,0.5956165776798734,-1.1044438561230596,-1.056005288126669,0.9956041764415596,0.9637036158207268,-0.2094035405511951,-0.1365766239389332,10.664968733737624,-1.2383127839416594,0.1125346127801809,-1.1257515172976769
1.52,-1.5941608573278043,1.2259215963803347,1.680571129648942,0.0373190757084448,0.2315239569236084,0.0124315596121311,0.5972343644346926,-0.9598509360777177,-0.8289439406921639,-1.6056000288821008,1.237801765948128,1.6842446174191754,0.6221469716379652,-1.144443856719106,-1.0960052887227154,1.0586763475428358,0.9863508858463266,-0.167478321289799,-0.3462059368854853,10.3703185157774,-1.2383253130728926,0.1153561083012836,-1.1276171664379455
1.54,-1.5820109291666165,1.2066973886196068,1.6638969796908711,0.0353101603396121,0.2316678818228023,0.0122425043314667,0.6166564346066947,-0.9625895556965078,-0.8380896201985871,-1.5936876973285037,1.2157128888256667,1.663124511656642,0.6486773655960569,-1.1844438573151526,-1.136005289318762,1.082081675310149,0.9711035086001074,-0.1369309809395091,-0.4572839753211599,10.133853031353285,-1.2389312300183974,0.1172994252761426,-1.1272054732868515
1.56,-1.5701068935686406,1.1883788064604763,1.6478719515004887,0.0337907316359499,0.2305957364752064,0.0120585774330505,0.6353386588370117,-0.965528299996124,-0.84827235477838,-1.5811121059259536,1.1926240116883045,1.6410044058792077,0.6752077595541486,-1.224443857911199,-1.1760052899148083,1.0739527500929444,0.934111211515848,-0.1469372149808134,-0.5091367289896453,10.027204448929297,-1.2404714124687113,0.1188886026638946,-1.1250388532840545
1.58,-1.5571937332468784,1.169037908104563,1.6307785481049752,0.0323738491885295,0.2277556489800355,0.0118335340903064,0.6548955080050337,-0.9683719147154808,-0.8605781921349693,-1.5678732546744516,1.168535134536041,1.617884300086872,0.7017381535122403,-1.2644438585072453,-1.2160052905108547,1.1640340706995371,0.9778424584011014,-0.1421807359678284,-0.615291867829465,9.942341127323743,-1.2440581232455348,0.1202870330260213,-1.120583489315108
1.6,-1.5438942874180857,1.1496430163204374,1.6134217689779031,0.0311129589892905,0.222727527531571,0.0115647749697115,0.6737330267912608,-0.970940240242522,-0.8744890085743369,-1.5244489578466267,1.1206193123687889,1.5877496384982268,0.7220847916740286,-1.068371916205597,-0.9416626968585182,1.177878627070812,0.941875939311354,-0.1284162763520668,-0.6955408219683767,9.845610012481302,-1.249964970648147,0.1214771064090366,-1.113640425625863
1.62,-1.5301547283639128,1.1301577407114507,1.5962369294957768,0.029091592713493,0.216277294218199,0.0112192750881977,0.6989715531526525,-0.9768573630563608,-0.8432266275240139,-1.5244489578466267,1.1206193123687889,1.5877496384982268,0.7220847916740286,-1.068371916205597,-0.9416626968585182,2.030598448871852,1.261926318069584,-0.2958561406919413,1.563119052516149,9.745704192106132,-1.2503614858561691,0.1228490961897365,-1.087044077490092
1.64,-1.5166636784228809,1.111566892031911,1.580448808248051,0.02669680890056,0.209658424772391,0.010872518780179,0.7195752000325935,-0.9797579539001984,-0.8203200126623781,-1.5244489578466267,1.1206193123687889,1.5877496384982268,0.7220847916740286,-1.068371916205597,-0.9416626968585182,1.547285281077774,1.0301823439970492,-0.1450295421918768,1.1453307430817905,12.654422023859295,-1.2636769828537375,0.1257173190511641,-1.0863086976890723
1.66,-1.502078847251304,1.0919575448162302,1.5642154321288853,0.0245814081638859,0.2022610571940905,0.0105565010165144,0.7374613792428798,-0.981124125997602,-0.8045598044220842,-1.5172281099298863,1.109935593206733,1.5783330115296417,0.7355226484078276,-1.08837191650362,-0.957879597803228,1.193907446914994,0.8943089605143173,-0.0683086048701875,0.7880104120146947,11.94250352988729,-1.2762825269418536,0.1281285291307551,-1.0827491159139473
1.68,-1.4871759669295288,1.072332033538503,1.548216363779363,0.0232588425346685,0.1945748149050842,0.0103165528035593,0.7516054668966453,-0.98144320312321,-0.7964003998148195,-1.5027864140964058,1.088568154882621,1.5594997575924712,0.7623983618754255,-1.1283719170996664,-0.9903133996926476,0.8165979875595776,0.7072043826882757,-0.0159538562803873,0.407970230363236,11.3615528917353,-1.288148307108446,0.1297027030393744,-1.0768396364094492
1.7,-1.4720287048491492,1.0527115854397802,1.5323083246119755,0.0231286923334537,0.1868453938222203,0.0101767890766357,0.7621886040211664,-0.9807913995221412,-0.7947356933298944,-1.4883447182629252,1.0672007165585091,1.540666503655301,0.7892740753430235,-1.1683719176957128,-1.0227472015820671,0.5366537221797083,0.529156856226054,0.0325901800534378,0.0832353242462557,10.506705708102343,-1.297989795390746,0.1300307189401252,-1.0692559960719106
1.72,-1.4574731639297904,1.0340904995141296,1.5171804948344052,0.0244676543853439,0.1797505235347391,0.0101553136514752,0.769297068743927,-0.9795875754049528,-0.7977098331526709,-1.4725592367560647,1.043833278204595,1.5202115596236596,0.8161497888106215,-1.2083719182917592,-1.0551810034714866,0.3899518268494243,0.3554232361380305,0.0601912058594167,-0.148706991138825,10.216614474172276,-1.307268640970325,0.1288648086663036,-1.060624908610697
1.74,-1.4420306250091453,1.0145120620859098,1.5011750359999858,0.0276698248689645,0.1728441462741305,0.0102587245007989,0.7744247059700659,-0.9788600247867968,-0.8027468941292062,-1.4567737552492042,1.0204658398506807,1.499756615592018,0.8430255022782195,-1.2483719188878055,-1.0876148053609065,0.3612269947906694,0.2563818613069424,0.0363775309078051,-0.2518530488267667,10.095348688875674,-1.315003090530774,0.1258994862471357,-1.051751081176822
1.76,-1.4265026823586444,0.994913366632866,1.4850534642884914,0.031710265776307,0.1666415724240486,0.0104143148541724,0.7779899519747375,-0.9812149201975068,-0.8091972902420043,-1.4403163809056538,0.9960984014818652,1.4784908265131411,0.8699012157458174,-1.288371919483852,-1.1200486072503255,0.3868595400181143,0.1782623002335837,-0.1177447705354994,-0.3225198056399037,10.095348688875674,-1.3213068752599906,0.1221278510096913,-1.0433541218822595
1.78,-1.410919438549014,0.975247435748125,1.4687886195342894,0.0355953595879625,0.1611338371166914,0.0105551820308439,0.7800392411844889,-0.9852641658645764,-0.8169357351632688,-1.4231871137254135,0.9707309630981488,1.4564141923870288,0.8967769292134153,-1.3283719200798985,-1.1524824091397454,0.4485518546860889,0.1024644604875668,-0.2024622833534939,-0.386922246063226,10.010513384605474,-1.326377394075483,0.1186939169546708,-1.0357819612376509
1.8,-1.396092424775896,0.9564792383865092,1.4531818869679685,0.0388457205884572,0.1566671882654985,0.010666349953794,0.7805023151607543,-0.9900711324112624,-0.8254693916030779,-1.3719174764897897,0.9259842274548962,1.427941832776126,0.8680824466245333,-1.0852641673546928,-0.8323920707823608,0.4902669097571888,0.0231536988132718,-0.2403483273342888,-0.4266828219904539,9.935305398385026,-1.3306504682511595,0.1155245999454863,-1.0284869266843468
1.82,-1.3804431042172856,0.9365333710940472,1.4370629464675475,0.0396319401440507,0.1540660467547455,0.0106724740475762,0.7845624382510268,-1.0036414933183415,-0.7834024364409454,-1.3719174764897897,0.9259842274548962,1.427941832776126,0.8680824466245333,-1.0852641673546928,-0.8323920707823608,2.2193850563103137,0.2030061545136241,-0.6785180453539708,2.103347758106622,9.859079649983869,-1.323719404281637,0.114382893250298,-1.008562593636092
1.84,-1.364706289713242,0.9163366220955292,1.4218237267214673,0.0367112557283532,0.1547134370057897,0.010555847962573,0.7891936561532483,-1.014798114845163,-0.743297002172395,-1.3719174764897897,0.9259842274548962,1.427941832776126,0.8680824466245333,-1.0852641673546928,-0.8323920707823608,2.094256575147614,0.231560895111077,-0.5578310763410643,2.00527171342752,13.5242338030439,-1.3271587311000743,0.1173417512915538,-1.0178363522613527
1.86,-1.3488695963142956,0.8959709189373968,1.4072921776229774,0.0320274142266991,0.1573730978002374,0.0103963419229428,0.7945108415671716,-1.020855690327735,-0.7118426901884889,-1.3632366520235444,0.9151315857813492,1.4196179120683023,0.8856910877125421,-1.105264167652716,-0.8354833379061791,1.6235304307542229,0.2658592706961615,-0.302878774128601,1.5727155991953068,12.875065056923631,-1.328831378656401,0.1217920991000697,-1.0283139372463177
1.88,-1.3337180360696803,0.8765464344373465,1.3940046395661243,0.0276668915495876,0.160922098857964,0.0102833499784247,0.8003073620687045,-1.023571904685488,-0.6884295849065468,-1.3458750030910536,0.8934263024342554,1.402970070652655,0.92090836988856,-1.1452641682487623,-0.8416658721538159,1.2136216145336007,0.2898260250766449,-0.1358107178876411,1.1706552640971035,12.29386320235244,-1.3287014681951297,0.1264729702829214,-1.039571261596085
1.9,-1.3176407097337264,0.8560637134045578,1.3804476555736942,0.0238276316405972,0.1651353605286686,0.0102269924845567,0.8072545407830253,-1.0246567899548975,-0.6687378292270313,-1.328513354158563,0.8717210190871615,1.386322229237008,0.9561256520645776,-1.185264168844809,-0.8478484064014528,1.045472990897215,0.3473589357160411,-0.0542442634704931,0.9845877839757766,11.8528075544491,-1.3272741357849172,0.1304783060194708,-1.050142335333815
1.92,-1.3014149671271642,0.8355710300975083,1.367238625408723,0.0209683833730308,0.1694034307636188,0.0102388060576058,0.8150739172641803,-1.0247130193790916,-0.6533367356025895,-1.3093908411172714,0.8480157357102653,1.3693652611089788,0.9913429342405954,-1.2252641694408553,-0.8540309406490896,0.8636253457533051,0.3909688240577524,-0.002811471209696,0.7700546812220876,11.539417776494702,-1.325247224459867,0.1335918275704221,-1.0604275607507865
1.94,-1.285020150095022,0.8150857985660137,1.3543200556608206,0.0191732781836895,0.1733690772344095,0.0103203708288111,0.8240863918497685,-1.0240701604854423,-0.6393014552910549,-1.29026832807598,0.8243104523333691,1.3524082929809498,1.0265602164166132,-1.2652641700369018,-0.8602134748967264,0.8346062831305091,0.4506237292794091,0.0321429446824561,0.7017640155767335,11.293041870179875,-1.3227393102709877,0.1355819918229,-1.0687428293361672
1.96,-1.2692636522244978,0.7956329475500686,1.34230023272337,0.018227249080672,0.1765016321074105,0.0104434411615556,0.8340185101955874,-1.0236817910416385,-0.6266573727905769,-1.270265382980288,0.7996051689415719,1.3352967614967295,1.061777498592631,-1.3052641706329482,-0.8663960091443631,0.8041620295983983,0.4966059172909431,0.0194184721902024,0.6322041250238997,11.24666791499385,-1.3205202760512835,0.136915088448015,-1.0765151157411497
1.98,-1.2524651518885046,0.7751657013604795,1.3299004325084307,0.0178992042216809,0.1788180709934952,0.010608662473906,0.8452774352243968,-1.023094798042285,-0.614021124372913,-1.2493820058301954,0.7738998855348733,1.3180306666563189,1.0969947807686486,-1.3452641712289946,-0.8725785433919999,0.8467330270790107,0.5629462514404715,0.0293496499676693,0.6318124208831932,11.219459602217285,-1.319468850898961,0.1376006182936959,-1.0827103060058885
2.0,-1.2354363374730153,0.7547109372916628,1.3177437372182164,0.0182810215903947,0.1799665834044985,0.0108101751056215,0.8569553367198361,-1.0224560655923938,-0.6023167543864053,-1.2102012801272848,0.7240109614583652,1.299199376289785,0.9452774367145128,-1.1230947995324012,-0.5968174506525532,0.8273053234157131,0.5838950747719673,0.031936622494566,0.585218499325385,11.18933616220329,-1.3196885147185486,0.137618968270568,-1.0871435249118164
2.02,-1.2180874704456213,0.7342128138584578,1.3061209990199447,0.0177654510014342,0.179028160406088,0.0109183343942296,0.8770868113709892,-1.0267879329059368,-0.5605268726002612,-1.2102012801272848,0.7240109614583652,1.299199376289785,0.9452774367145128,-1.1230947995324012,-0.5968174506525532,2.3293966846331995,1.006573732557653,-0.2165933656771534,2.089494089307203,11.139997132052486,-1.3121980306559515,0.1376966435171124,-1.083488732040826
2.04,-1.2012397641924977,0.7146822316315952,1.295836417537242,0.0159452197834111,0.1753987690157151,0.0108923367398548,0.8951052603107992,-1.0287661444939076,-0.5242080414481132,-1.2102012801272848,0.7240109614583652,1.299199376289785,0.9452774367145128,-1.1230947995324012,-0.5968174506525532,2.029553719134801,0.9009224469904986,-0.0989105793985367,1.8159415576074036,12.90209483673152,-1.3212499322854472,0.1402744805165392,-1.088254098820209
2.06,-1.1831684277927967,0.6941097372763338,1.2857072839155623,0.0137798273046378,0.1689734917445395,0.0108290909565142,0.91049359113411,-1.0283560285111544,-0.490787957640642,-1.2007485057601397,0.7127800134630412,1.2932312017832597,0.965277437012536,-1.1430947998304244,-0.5933767159084813,1.8397492508120217,0.7694165411655352,0.02050579913766,1.6710041903735566,12.90209483673152,-1.334385908345767,0.1431917471251352,-1.0872494358897824
2.08,-1.164842410019299,0.6735665466195923,1.2761891319756336,0.0123992106666224,0.1610694210855501,0.0108253547657891,0.9209688629104412,-1.026227559776124,-0.4626359400985061,-1.1818429570258493,0.6903181174723931,1.2812948527702086,1.005277437608583,-1.183094800426471,-0.5864952464203373,1.5056541681580904,0.5237635888165615,0.1064234367515237,1.407600877106796,12.528864714652627,-1.3465968702883182,0.145132157973287,-1.082716285492682
2.1,-1.1472822898876809,0.6541009853236045,1.267627470787482,0.0123490166827072,0.153253707863777,0.0109205821949319,0.926729835943118,-1.023129833952733,-0.4399681461869377,-1.1629374082915591,0.6678562214817452,1.2693585037571575,1.045277438204629,-1.223094801022517,-0.5796137769321934,1.1796329899352909,0.2880486516338376,0.1548862911695425,1.133389695578421,11.868421064057657,-1.3589680479573207,0.1458444566534952,-1.0766599010715314
2.12,-1.1287187201163231,0.6336805364552747,1.2590493348880265,0.0141329813842183,0.1455787049660367,0.0111544220522445,0.9291116290907308,-1.0193002284044856,-0.4191676645869809,-1.1420318595274666,0.6433943254612948,1.2577662282185136,1.0852774388006754,-1.2630948016185637,-0.5727323074440495,1.0641884842960432,0.1190896573806443,0.1914802774123702,1.0400240799978393,11.868421064057657,-1.3703194613167418,0.1447120601643793,-1.071340393831972
2.14,-1.1101406429053475,0.6133275637142571,1.2508693686328494,0.0179371794041614,0.1391757948988372,0.0115269857910505,0.928395743768,-1.016873895801951,-0.3999221327745938,-1.121126310763374,0.6189324294408445,1.2461739526798696,1.125277439396722,-1.3030948022146105,-0.5658508379559055,0.9705540639694256,-0.0357942661365351,0.1213166301267332,0.9622765906193542,11.654482418804037,-1.3792947591638716,0.1415512643562769,-1.0670276943605048
2.16,-1.091602513254211,0.5929826168279739,1.2430635029309902,0.0224146356545544,0.1346947956372729,0.0119533757078936,0.9253764589138408,-1.0178872617640329,-0.3816227332025907,-1.09922076198438,0.5934705334054929,1.2347537138784297,1.1652774399927683,-1.3430948028106566,-0.5589693684677617,0.9287236083726512,-0.1509642427079627,-0.0506682981040951,0.9149699786001524,11.562835812138474,-1.3850570249001295,0.1378627410844455,-1.0646127112466746
2.18,-1.074063842497338,0.5736152370405534,1.2359823413997575,0.026388602517231,0.132684160357434,0.0123712802650958,0.9210493361157468,-1.02069252306199,-0.3646859847858661,-1.0763152131904854,0.5670086373552403,1.2235055118141926,1.2052774405888147,-1.383094803406703,-0.5520878989796177,0.8852216242148396,-0.2163561399046998,-0.1402630648978498,0.84683742083623,11.514387135457582,-1.3878182810045117,0.1341865593959026,-1.065211973381005
2.2,-1.055685436009444,0.5531593938297964,1.2288735982658667,0.0299923411588389,0.1328293592975019,0.0128230986139788,0.9172481721963608,-1.0247064567303643,-0.3471021588004456,-1.0280113756915508,0.5225806108874539,1.2177480421604645,1.021049337605863,-1.120692524552106,-0.3012939267709965,0.9216173920365563,-0.1900581959693004,-0.2006966834187329,0.8791912992710288,11.486889348631848,-1.3873766259491205,0.1310149854233714,-1.069361459853178
2.22,-1.0372941460044784,0.5325257834761563,1.2223465136768132,0.0302776715699753,0.1332689428367675,0.0130517770951229,0.9222086397493828,-1.037599662375868,-0.3052358714911056,-1.0280113756915508,0.5225806108874539,1.2177480421604645,1.021049337605863,-1.120692524552106,-0.3012939267709965,2.204329264895578,0.2480233776510965,-0.6446602822751779,2.093314365467,13.336937728546218,-1.381292889383054,0.1306682321385573,-1.0691031767033408
2.24,-1.0188033807156298,0.5116743160694829,1.216685826402545,0.0262282462217697,0.1325708215274534,0.012952728214671,0.926431111627445,-1.04591492406668,-0.2630366502248796,-1.0280113756915508,0.5225806108874539,1.2177480421604645,1.021049337605863,-1.120692524552106,-0.3012939267709965,2.160872000618967,0.2111235939031119,-0.415763084540599,2.109961063311297,13.336937728546218,-1.3871748413694232,0.1349862547882162,-1.0751315781446602
2.26,-1.0011778835016365,0.4917754913292027,1.2120527162195978,0.0213220785911658,0.1314337633107501,0.012788701514263,0.9286176390501856,-1.0482220788401644,-0.2267720589876717,-1.017800882315492,0.5113736856419329,1.2147351028927544,1.041049337903886,-1.1406925248501292,-0.2886155151680225,1.820181613823868,0.1093263711370307,-0.1153577386742155,1.8132295618603955,13.137922125566549,-1.3915111576175443,0.1405812763621872,-1.0805271416596696
2.28,-0.9825970137891092,0.4708172576612355,1.2078866946187954,0.0168441970557765,0.1302663021954968,0.0126836100863236,0.9292995151869547,-1.04762488861726,-0.1919007616817558,-0.9973798955633748,0.4889598351508907,1.2087092243573343,1.081049338499933,-1.1806925254461758,-0.2632586919620747,1.7441537826592337,0.0340938068384644,0.0298595111452248,1.743564865295795,12.83776414428121,-1.3956550360477975,0.1455751363322016,-1.0854519049823006
2.3000000000000003,-0.9640164229820256,0.4498882976760145,1.2043837505885189,0.0136684428743024,0.1295275318315236,0.0126924196193131,0.9287266553414631,-1.045556197012661,-0.160283914145998,-0.9769589088112576,0.4665459846598486,1.2026833458219146,1.121049339095979,-1.220692526042222,-0.2379018687561268,1.584481540959745,-0.0286429922745856,0.1034345802299441,1.5808423767878887,12.602994485698218,-1.398951811431199,0.1491802999074427,-1.090584436198296
2.32,-0.9454568650037698,0.4290114204464573,1.201484788099791,0.0119954842534415,0.1294725491916667,0.012826041264203,0.9273618227132404,-1.0426083768360266,-0.1312035351833974,-0.954537922029338,0.4421321341390041,1.197925308446792,1.1610493396920254,-1.2606925266382685,-0.2125450455501789,1.4630625862427238,-0.0682416314111311,0.1473910088317209,1.4540189481300314,12.389601226379456,-1.4013276219796045,0.1515602133156296,-1.096800959666513
2.34,-0.927851850649975,0.4092394759897821,1.1992636291367134,0.011952758419838,0.1301279262840024,0.0130753619872683,0.9259775726314124,-1.0390743014709662,-0.1040722863241831,-0.9321169352474185,0.4177182836181597,1.1931672710716694,1.201049340288072,-1.300692527234315,-0.187188222344231,1.369772336590631,-0.0692125040914037,0.176703768253017,1.3565624429607133,12.24086755591088,-1.4026947650170565,0.1522917837519259,-1.1030054508096927
2.36,-0.9093408036470748,0.3884929032441269,1.1974834881682062,0.0135719167017062,0.1313916068485482,0.0134648341339139,0.9252896311036032,-1.035919011878831,-0.0753736863667602,-0.9086959484505976,0.3923044330824141,1.1890431542766955,1.2410493408841183,-1.3406925278303614,-0.1618313991382831,1.4439864572357617,-0.0343970763904633,0.157764479606759,1.4349299978711447,12.220743633767595,-1.403153208812067,0.1513041449912452,-1.110635039456565
2.38,-0.8908341441033316,0.3677977619977176,1.1962790394675962,0.0166154696907523,0.1329050408827964,0.0139604680500099,0.9254688790476394,-1.0341641069232612,-0.0465322488846295,-0.8842749616388758,0.3658905825317673,1.1855529580618704,1.2810493414801647,-1.3806925284264078,-0.1364745759323353,1.4447667089050906,0.0089623972018115,0.0877452477784923,1.4420718741065353,12.24134649131247,-1.4032990619248142,0.1490058678265055,-1.1186343527301816
2.4,-0.8732414762471546,0.3481429614702128,1.195671109475391,0.0198917096836429,0.1343101889412728,0.014460225194307,0.9263987562931252,-1.0349163876280494,-0.0189215671680665,-0.8445607001509496,0.3160895566515545,1.1939524270233648,1.0254688805377556,-1.1341641084133771,0.0396737849412447,1.3818288088650983,0.0464938622742938,-0.0376140352394083,1.3805340858281496,12.258167662937922,-1.403553855309876,0.1461200398648414,-1.1273377375170022
2.42,-0.8546253848802705,0.3273559882676345,1.1956579501763789,0.0209234424439932,0.1335864808183616,0.0147738521376307,0.9352409194814132,-1.0430076101967614,0.0164958752567087,-0.8445607001509496,0.3160895566515545,1.1939524270233648,1.0254688805377556,-1.1341641084133771,0.0396737849412447,1.8695233085047516,0.4421081594143949,-0.4045611284355987,1.7708721212387648,12.28628549491259,-1.4023958519881852,0.1454293467386708,-1.1359571133270174
2.44,-0.835840626817713,0.3064411960477859,1.196368441754346,0.0187551740470671,0.1286437274561665,0.0147859021744545,0.9421642958386478,-1.047841472656326,0.0527883954521072,-0.8445607001509496,0.3160895566515545,1.1939524270233648,1.0254688805377556,-1.1341641084133771,0.0396737849412447,1.863093119381929,0.3461688178617306,-0.241693122978237,1.8146260097699265,12.822712514236628,-1.4115264771769764,0.1481839443902482,-1.133952471006907
2.46,-0.8169748432397721,0.285470014129035,1.1977881829688368,0.0153598590781507,0.121316886967056,0.01469634473893,0.9436610376361662,-1.0488270355112772,0.0874035963084444,-0.834306011345572,0.3047479155674207,1.194349164872777,1.0454688808357788,-1.1541641087114003,0.0569149917064196,1.7330779703132717,0.0748370898759176,-0.0492781427475552,1.7307600428168617,12.810264221944635,-1.4217165794130708,0.1522150700115808,-1.1258364491683703
2.48,-0.7990757031247635,0.2655611283591512,1.1997572149687532,0.0126453530249138,0.1139962531105943,0.0146741979120644,0.9402363190723028,-1.0470851835199535,0.118138486422148,-0.8137966337348169,0.2820646333991532,1.195142640571602,1.0854688814318254,-1.194164109307447,0.0913974052367693,1.5487060856589132,-0.1712359281931696,0.0870925995661742,1.536744505685178,12.658672823240522,-1.4321156004198263,0.1557392940275455,-1.1175915456592076
2.5,-0.7803489859880427,0.244653454970307,1.2024444246736252,0.0110152104956609,0.1074087389613655,0.0147754265609804,0.9323876641267144,-1.0440025702894289,0.1488881999042556,-0.7932872561240618,0.2593813512308857,1.195936116270427,1.1254688820278718,-1.2341641099034937,0.125879818767119,1.5942465054184916,-0.3924327472794198,0.1541306615262527,1.5374856741053815,12.491575920621472,-1.4413012844219537,0.1580094239044673,-1.11101534294804
2.52,-0.7618222349475917,0.2238164371168733,1.2057304321775737,0.0110644399291057,0.1034325024061142,0.0150328179042413,0.920500565744482,-1.0400526256818694,0.1781040861149873,-0.7707778784835044,0.2346980690328158,1.1984537126457693,1.165468882623918,-1.2741641104995398,0.1603622322974688,1.5893970377395334,-0.5943549191116226,0.1974972303779631,1.460794310536584,12.388285321967489,-1.4477567115561276,0.1586143263445601,-1.108122319672337
2.54,-0.743555819271739,0.2030642629776497,1.2095953184784176,0.0132740965270416,0.1032746700175449,0.0154830663118552,0.907318247569456,-1.035719201128544,0.2069058672960747,-0.7482685008429469,0.2100147868347459,1.2009713090211116,1.2054688832199647,-1.3141641110955864,0.1948446458278185,1.598510775714559,-0.6591159087512954,0.2166712276662763,1.4400890590543711,12.314536074157331,-1.4484732982526554,0.1571270881221798,-1.1132799765378787
2.56,-0.726425409724341,0.1834045961161583,1.2138054797679996,0.0169169001871626,0.1060525021237792,0.0160589432862306,0.8969203226298282,-1.03436911330669,0.234800765639393,-0.7247591231874884,0.1843315046217749,1.204350965734713,1.245468883816011,-1.3541641116916328,0.2293270593581682,1.4900209174378334,-0.5198962469813884,0.0675043910926986,1.3947449171659143,12.2876278892345,-1.4456445206386903,0.153871424528123,-1.1244603246087383
2.58,-0.7085756825122567,0.1627049523794176,1.2188231656156927,0.0209088222710907,0.1109307769990632,0.0167201193369431,0.8889402187352002,-1.0357192810049296,0.2655427515023972,-0.7002497455171286,0.1576482223939027,1.2085926827865727,1.2854688844120574,-1.3941641122876791,0.2638094728885179,1.589476883902038,-0.3990051947313999,-0.067508384911985,1.537099293150207,12.32152233477973,-1.4402523262850284,0.1503393633716312,-1.138895378324455
2.6,-0.6908518148344577,0.1419591298409031,1.2244691461018136,0.0243548756243265,0.116748815714134,0.0173784425878007,0.8841152981939542,-1.0387205676355866,0.2975426380241812,-0.6641286715754966,0.1109189883291711,1.2321003031908129,0.9889402202253164,-1.1117376665940524,0.3558495625370766,1.6250233206601612,-0.2412460270623029,-0.1500643315328509,1.5999943260891991,12.430016079300003,-1.433606312868311,0.1472835955158422,-1.1545837557533982
2.62,-0.6731282601719439,0.1209768837055419,1.230684584511173,0.0215488559105022,0.1203498727651478,0.0175550049426734,0.8879604922436743,-1.0562924837427785,0.3224646501106227,-0.6641286715754966,0.1109189883291711,1.2321003031908129,0.9889402202253164,-1.1117376665940524,0.3558495625370766,1.5367696959815822,0.1922597024860084,-0.8785958053595944,1.2461006043220757,12.529900989755332,-1.4273622048321626,0.1502099256343868,-1.1658946651540494
2.64,-0.6562321200854362,0.1008545379146817,1.2370659208826582,0.0135925042348691,0.1201642139944982,0.0172802925211162,0.8901424128469182,-1.0602358354797383,0.3480475213931399,-0.6641286715754966,0.1109189883291711,1.2321003031908129,0.9889402202253164,-1.1117376665940524,0.3558495625370766,1.2988399665644814,0.1090960301621923,-0.1971675868479905,1.279143564125862,12.087776254074925,-1.4283503087996157,0.1595477289618996,-1.1672414874537649
