t,x,y,z,roll,pitch,yaw,v_x,v_y,v_z,ref_x,ref_y,ref_z,ref_v_x,ref_v_y,ref_v_z,a_com,a_x,a_y,a_z,thrust,wind_x,wind_y,wind_z
0.0,-0.3249744334366116,0.8100246152398655,2.0252598050103074,0.0229805623554412,0.1500294672034804,0.0288438608885624,0.000883849727531,0.0050367710298677,-0.0034622596236372,-0.3249497453525388,0.8102368408032462,2.025158298043757,-0.0290093710631872,-0.0934689463502112,-0.1034043408947067,0.3087778102845187,0.0441924863765526,0.2518385514933896,-0.1731129811818622,10.659101138679944,-1.413121525313577,0.1683324332861879,-1.2809501893551298
0.02,-0.3249914768241732,0.8103315094439149,2.024978478679337,0.0314735049032871,0.1499218705949998,0.0294208500054539,-0.0025839390498193,0.0223353626413385,-0.0262281067067036,-0.3249497453525388,0.8102368408032462,2.025158298043757,-0.0290093710631872,-0.0934689463502112,-0.1034043408947067,1.4400960247100945,-0.1733894388675186,0.8649295805735396,-1.138292354153319,10.659902564583716,-1.4080723438748384,0.1578469392356473,-1.2779320834667494
0.04,-0.3250857585052655,0.8107880765117425,2.0241551635866304,0.0460259579499002,0.1496092822123071,0.0303849453334525,-0.0066744560162125,0.021760739504773,-0.0550051619905025,-0.3249497453525388,0.8102368408032462,2.025158298043757,-0.0290093710631872,-0.0934689463502112,-0.1034043408947067,1.4536002129267216,-0.2045258483196597,-0.0287311568282773,-1.438852764189944,9.233109103518018,-1.4057139377103585,0.1406407864991883,-1.2731248557286703
0.06,-0.325264532371246,0.8111592176930501,2.0227521818689773,0.0609118387777824,0.1493078540035081,0.0313355827577503,-0.010980011499768,0.0150375493764786,-0.0838270139583988,-0.3252398390631707,0.8093021513397441,2.0241242546348097,-0.0349789788932348,-0.1134689466482344,-0.1234043411927299,1.4953580209957231,-0.2152777741777778,-0.3361595064147204,-1.4410925983948146,9.037861315616285,-1.4045008524897304,0.1232498656861959,-1.2682700073388449
0.08,-0.3255298095914246,0.8113591578947811,2.020781147265318,0.0752171574670865,0.1492134714018301,0.0322205940408229,-0.0152808404572538,0.0049830660181976,-0.1118485391079799,-0.3258200264844344,0.8074327724127399,2.022056167816916,-0.04691819455333,-0.1534689472442809,-0.1634043417887764,1.5039910546875814,-0.215041447874287,-0.5027241679140506,-1.4010762574790565,9.061593551800796,-1.4031149710018684,0.1075085618148619,-1.2620889457068598
0.1,-0.325859881076348,0.8113364706025543,2.0183963406990078,0.0881602991690624,0.1493881007000932,0.0330034271824537,-0.01919443952933,-0.0071223648212016,-0.1377944007808059,-0.3264002139056982,0.8055633934857357,2.0199880809990214,-0.0588574102134252,-0.1934689478403273,-0.2034043423848228,1.4448576499519377,-0.1956799536038107,-0.6052715419699631,-1.2972930836412988,9.106768281006223,-1.4013962754866156,0.0919322128239694,-1.2545399271873232
0.12,-0.3262848310303087,0.8110384645223644,2.015355994670648,0.1011144372586552,0.1498487844885488,0.0337738384406241,-0.0230442830072403,-0.02232245425484,-0.1648800381055292,-0.3275773621099667,0.8016940145289292,2.015919994151325,-0.0707966258735204,-0.2334689484363738,-0.2434043429808693,1.5648448508410182,-0.1924921738955143,-0.7600044716819225,-1.3542818662361649,9.147468405828477,-1.400276857481623,0.0773131196704263,-1.24829141008547
0.14,-0.3267844256191527,0.8104117701883776,2.011770218879342,0.1134117150265111,0.1505560877410267,0.034493794266221,-0.0266745433658843,-0.0398471057830527,-0.1923801844130077,-0.3287545103142352,0.7978246355721226,2.0118519073036283,-0.0827358415336157,-0.2734689490324203,-0.2834043435769158,1.6405412585405748,-0.181513017932202,-0.8762325764106347,-1.3750073153739286,9.162849308110708,-1.3990358721894105,0.0641369985225821,-1.2438218862089037
0.16,-0.3273238853186476,0.8094707549755369,2.007851527257937,0.1245156664522488,0.1514289401378568,0.0351344716398305,-0.0298661626034759,-0.058547173518418,-0.2187559985247709,-0.3302301389100061,0.7929552566004149,2.0067838204410307,-0.0946750571937109,-0.3134689496284667,-0.3234043441729622,1.6244710960211768,-0.1595809618795818,-0.935003386768262,-1.3187907055881576,9.145600934094546,-1.3950497890375948,0.0508972999055661,-1.2383857047285751
0.18,-0.327953317517316,0.8080751634128657,2.0031815454018496,0.1356251763989293,0.1525173092595473,0.0357637665920006,-0.0328507022028147,-0.0802648922740658,-0.2468862520757639,-0.3320042478972793,0.787085877613806,2.000715733563532,-0.1066142728538061,-0.3534689502245131,-0.3634043447690086,1.783169894746848,-0.1492269799669397,-1.0858859377823926,-1.4065126775496497,9.141525631829609,-1.3906512280417704,0.0383739235509336,-1.233249738097005
0.2,-0.3286373928010951,0.8062030560661877,1.997945352568296,0.1454928402962289,0.153731290920518,0.0362970975149404,-0.0353552042778609,-0.1057211283976224,-0.2752920545756163,-0.3337783568845526,0.7812164986271971,1.9946476466860328,-0.1185534885139013,-0.3934689508205596,-0.4034043453650551,1.911270587778451,-0.1252251037523095,-1.2728118061778273,-1.420290124992618,9.130474271565618,-1.3868997347564034,0.0279130425247651,-1.2280359687161508
0.22,-0.3293198124028194,0.8037999079208963,1.9925748270034624,0.1495837326382488,0.1554828183565918,0.0364980558386501,-0.0361293954955783,-0.1443630360780984,-0.2874993161238665,-0.3295958526274567,0.8040619187991623,1.9908372327980612,-0.0523087539737403,-0.180264893764182,-0.34688625356588,2.026581873337102,-0.0387095608858668,-1.932095384023799,-0.6103630774125096,9.142182762906486,-1.382887178929506,0.0237445927071652,-1.21660748805178
0.24,-0.3300407877053819,0.800548552695044,1.9866955470555143,0.1476809026477578,0.1582345059153713,0.036386689696922,-0.0358035776883959,-0.1781210102476146,-0.299922875531712,-0.3295958526274567,0.8040619187991623,1.9908372327980612,-0.0523087539737403,-0.180264893764182,-0.34688625356588,1.7986465784260317,0.0162908903591163,-1.68789870847581,-0.6211779703922782,10.21130632483073,-1.378153118360386,0.0258496007163339,-1.2144806958813814
0.26,-0.3307448870396057,0.7966785763324529,1.980542520352636,0.142793874547595,0.1612913797659044,0.0360844815091702,-0.0345456852468813,-0.2065165259273147,-0.3147874495485467,-0.3295958526274567,0.8040619187991623,1.9908372327980612,-0.0523087539737403,-0.180264893764182,-0.34688625356588,1.6037792591348663,0.0628946220757323,-1.419775783985007,-0.7432287008417332,10.036489542650088,-1.3735711180008232,0.0308919309353954,-1.213100010981619
0.28,-0.3314164810727157,0.7922881459930872,1.9740646408030644,0.1371493477197694,0.1641739452658699,0.0356768594997646,-0.0326381310400155,-0.2309052773941119,-0.3322057629781245,-0.3301189401671941,0.8022592698615205,1.9873683702624028,-0.0562003643279254,-0.2002648940622052,-0.3668862538639033,1.501538880525863,0.0953777103432872,-1.2194375733398612,-0.870915671478889,9.85312901636189,-1.3691131595027004,0.0370237287087882,-1.2112812580306445
0.3,-0.3320149889599004,0.7876909272911576,1.9675670743547813,0.1319920541094968,0.1665084335619142,0.0352260750851644,-0.0304518341346463,-0.2517833301375727,-0.3508605989630192,-0.3311651152466689,0.7986539719862369,1.9804306451910847,-0.0639835850362956,-0.2402648946582516,-0.4068862544599497,1.4041686919138998,0.1093148452684622,-1.0439026371730358,-0.9327417992447352,9.693272250600783,-1.3646411961427365,0.0428704230155662,-1.208358075686451
0.32,-0.332598542177617,0.7824419811223582,1.9603246074950424,0.1271726895687916,0.1684366205486792,0.0347054270425743,-0.0280256137456894,-0.2720366520902544,-0.3724966709059819,-0.3322112903261437,0.7950486741109533,1.9734929201197675,-0.0717668057446658,-0.2802648952542981,-0.4468862550559961,1.4867777276847958,0.1213110194478469,-1.012666097634085,-1.0818035971481343,9.557203934412428,-1.3605956842868283,0.0479578567405308,-1.204493065418233
0.34,-0.3331317799678044,0.7767999131242566,1.952637017232786,0.1231119541604768,0.1697929381607803,0.0341502496456695,-0.0254429704346691,-0.2912693420127018,-0.3951671000069032,-0.333646626441037,0.7894433762058672,1.9645551950186475,-0.079550026453036,-0.3202648958503445,-0.4868862556520426,1.4920746996588934,0.1291321655510118,-0.9616344961223712,-1.1335214550460686,9.432008680614672,-1.35693899048069,0.0519531771871871,-1.1996410010907452
0.36,-0.333590070101148,0.7710818847962745,1.9449075910690643,0.1196291242876211,0.1705954120506783,0.0335787402417946,-0.0229540044213788,-0.3095781609537572,-0.4172930117696776,-0.3350819625559303,0.7838380783007813,1.955617469917528,-0.0873332471614062,-0.360264896446391,-0.5268862562480892,1.441322113690883,0.1244483006645168,-0.9154409470527702,-1.1062955881387198,9.376819816537136,-1.353452837361697,0.0556504857633249,-1.19360072115365
0.38,-0.3340228133660906,0.764693253187392,1.93631037304159,0.1161066210294847,0.1710168791752401,0.0329285862360354,-0.0204770741104099,-0.3282246766267213,-0.4412749999848364,-0.3367118791885329,0.7772327803807942,1.9456797448015064,-0.0951164678697764,-0.4002648970424374,-0.5668862568441355,1.5239451181551025,0.1238465155484447,-0.9323257836482052,-1.1990994107579394,9.340039079491362,-1.3502149310993612,0.0591011384787086,-1.1869491315932563
0.4,-0.3344076571605279,0.7579374079206326,1.9272276914208788,0.1126403820659129,0.1710967439226067,0.032237220120321,-0.0181553353261316,-0.3463070982909246,-0.4657878223124485,-0.3385363763388447,0.769627482445906,1.934742019670584,-0.1028996885781466,-0.4402648976384838,-0.606886257440182,1.5274512289182465,0.1160869392139135,-0.9041210832101632,-1.2256411163806018,9.290046510130196,-1.3471275162619194,0.0624142104189999,-1.179794974302344
0.42,-0.3347482183597435,0.7508271636299192,1.917649391522464,0.1091814529126641,0.170920521109452,0.0315145387798114,-0.0160411841577913,-0.3636925313055755,-0.4908138387879676,-0.335046667071611,0.748282019356056,1.9142466230423485,-1.823613931867252e-05,-0.4282246781168374,-0.5106722706643103,1.5272724191368616,0.1057075584170142,-0.8692716507325449,-1.2513008237759582,9.252492468672244,-1.34451597593746,0.0654832380490957,-1.173015872095454
0.44,-0.3350324396572888,0.7437118746225209,1.9084220207032847,0.1056428139028339,0.1723990664108198,0.0309863764512068,-0.0134302488724093,-0.3840671750854615,-0.4792464688461217,-0.335046667071611,0.748282019356056,1.9142466230423485,-1.823613931867252e-05,-0.4282246781168374,-0.5106722706643103,1.178714490019975,0.1305467642691006,-1.0187321889943006,0.5783684970922937,9.213364960618492,-1.341938985176602,0.0698459323100614,-1.1579046491185363
0.46,-0.3352509726687756,0.7358311154294249,1.898931442125154,0.1020099436882612,0.1766285237559685,0.0307098210243313,-0.0082564424073802,-0.4028753621285437,-0.4708484485139242,-0.335046667071611,0.748282019356056,1.9142466230423485,-1.823613931867252e-05,-0.4282246781168374,-0.5106722706643103,1.061888551926644,0.2586903232514551,-0.9404093521541118,0.4199010166098749,11.456616478079924,-1.336361230932921,0.0728582339408261,-1.1653030824457855
0.48,-0.3353478235217468,0.7275898012370894,1.88954161485308,0.0987892311818515,0.1822359506589434,0.0305858103403753,-0.0014008826119755,-0.4203041390165207,-0.4685555119747278,-0.3350468494330043,0.7439997725748876,1.9091399003357048,0.0040735314548995,-0.4482246784148607,-0.5245517248002051,0.9434226543443212,0.342777989770238,-0.8714388443988502,0.1146468269598244,10.703668925521924,-1.329758832286736,0.0754580903685374,-1.1729697656148874
0.5,-0.3352921788505918,0.7190124296021416,1.88014951715366,0.0959524440439464,0.1884390908391321,0.0305286705629739,0.0068583100717877,-0.4365741094534606,-0.4707889834058138,-0.3350472141557906,0.7354352790125509,1.898926454922419,0.012257066643336,-0.4882246790109071,-0.5523106330719947,0.9191226746739314,0.4129596341881641,-0.8134985218469948,-0.1116735715543021,10.703668925521924,-1.3219568932626011,0.077901218890804,-1.1805604046543088
0.52,-0.3350746043768819,0.7105719999114958,1.871151357595272,0.0936270055818188,0.1944842493202122,0.0304981656835607,0.0158085688769338,-0.4511172316908755,-0.4762936018116711,-0.335047578878577,0.7268707854502141,1.888713009509133,0.0204406018317725,-0.5282246796069536,-0.5800695413437842,0.8970930287400356,0.4475129402573023,-0.7271561118707442,-0.2752309202928626,10.452546405465,-1.3137914455006765,0.0799806848653086,-1.1874822116839645
0.54,-0.3346433810123402,0.7013979916226848,1.8615375184020972,0.0916124381224907,0.2005509015650409,0.0304533326019218,0.0269647581659433,-0.4655595487402009,-0.4849433555342164,-0.3346387668419415,0.716306291858075,1.877111618682257,0.0286241370202091,-0.5682246802030001,-0.6078284496155737,1.0097763622036962,0.5578094644504749,-0.722115852466268,-0.4324876861272697,10.260645675600244,-1.3054869840791044,0.0815710377989089,-1.1935697296241845
0.56,-0.3339686028862509,0.6919409295259178,1.8517372613405916,0.0900687287295809,0.2057336048056648,0.0303480190044144,0.0399650114710646,-0.4794926264864916,-0.4946511122992849,-0.3342299548053061,0.705741798265936,1.8655102278553808,0.0368076722086456,-0.6082246807990466,-0.6355873578873633,1.0693196235121116,0.6500126652560686,-0.6966538873145384,-0.4853878382534204,10.106799464880169,-1.2981556397712009,0.0826815808738171,-1.197547023106843
0.58,-0.3330177035710299,0.6821995533915128,1.8417363782206184,0.0886852599620119,0.2096352117479558,0.0301291481840637,0.0544028023419928,-0.493857308770038,-0.5049359371822002,-0.3336165543889597,0.6941773046588957,1.853214864321711,0.0449912073970821,-0.6482246813950929,-0.6633462661591528,1.140801828991477,0.721889543546407,-0.7182341141773158,-0.5142412441457661,10.0746649161365,-1.292751268234821,0.0835659396902753,-1.199585021691845
0.6,-0.3318385572612816,0.6726782625690864,1.8320398873165848,0.0871962690310624,0.211957083804657,0.0297794148865991,0.0688785578655807,-0.5075566651242976,-0.5152052409705097,-0.3327985655929024,0.6816128110369543,1.8402255280812456,0.0531747425855186,-0.6882246819911394,-0.6911051744309423,1.121024601420803,0.7237877761793954,-0.6849678177129837,-0.513465189415474,10.057822047419904,-1.2890906047422903,0.0846985044154113,-1.19940021486389
0.62,-0.3302988979710309,0.6623790908867431,1.8216162810870624,0.0853543950577695,0.2129314009431564,0.0292595563095629,0.0842260623171452,-0.5215067957571682,-0.5266135961993846,-0.3302975634539302,0.6575066879530109,1.8164895813615085,0.0927682595489573,-0.5938573102601541,-0.508209761877698,1.1835356000065491,0.7673752225782273,-0.6975065316435269,-0.5704177614437478,10.035145022053255,-1.2873134467823597,0.08612082254555,-1.196923858918952
0.64,-0.3283667068821291,0.6517393579947885,1.8113032570704029,0.0820204654593885,0.212145239945913,0.0284855502459367,0.1085285988851914,-0.5410928840170222,-0.5022274716095066,-0.3302975634539302,0.6575066879530109,1.8164895813615085,0.0927682595489573,-0.5938573102601541,-0.508209761877698,1.9804741916249904,1.2151268284023096,-0.9793044129926988,1.2193062294938994,9.996889125467533,-1.286745707827431,0.0892081449602212,-1.1882844370280758
0.66,-0.3259361715872886,0.6407475120883472,1.801520454279488,0.0774123688903718,0.2090033953923866,0.0274434924980909,0.1330477164837895,-0.5568287373457521,-0.4774174940566421,-0.3302975634539302,0.6575066879530109,1.8164895813615085,0.0927682595489573,-0.5938573102601541,-0.508209761877698,1.9133342585463369,1.2259558799299033,-0.7867926664364977,1.2404988776432258,12.493449279477318,-1.2922625134607235,0.0932124037346016,-1.187849475928213
0.68,-0.3231874498025271,0.6300415964925749,1.7926468044537684,0.0730670586009274,0.2034992109521143,0.0262890848320322,0.1545725940590212,-0.5693141501156442,-0.4578039562937066,-0.3293698808584406,0.6515681148504093,1.8114074837427316,0.1004413509903502,-0.6138573105581773,-0.5088645268167975,1.5842164863437982,1.076243878761586,-0.6242706384946062,0.9806768881467752,12.209555221817936,-1.3022150009254292,0.0975059220900255,-1.182703002611468
0.7000000000000001,-0.3198932757333546,0.6185342556222941,1.7836785471574883,0.0690271420714462,0.1955955260929196,0.0249983925340313,0.1732272500030459,-0.5807995831979714,-0.44014186293894,-0.3275145156674615,0.6396909686452062,1.8012432885051777,0.115787533873136,-0.6538573111542237,-0.5101740566949966,1.407001157738545,0.9327327972012328,-0.5742716541163595,0.8831046677383325,11.904367548101618,-1.3147430982329242,0.101219527345346,-1.173760219038835
0.72,-0.3162711060387819,0.6068094522583529,1.775029405515784,0.0657266191760052,0.1864747781300914,0.0237204053873733,0.1876576256542932,-0.5912416079408536,-0.425582080804951,-0.3256591504764823,0.6278138224400032,1.7910790932676235,0.1311337167559218,-0.6938573117502702,-0.5114835865731957,1.150281354665348,0.7215187825623678,-0.5221012371441069,0.7279891066994476,11.661803063243497,-1.32723088727618,0.1039548459494578,-1.163366055421341
0.74,-0.3126018897116087,0.5954845027491522,1.7670588496438562,0.063267501429097,0.1774647881895815,0.0225690627719364,0.1975902423510178,-0.6004755844230957,-0.4141110813761575,-0.3230364761413639,0.6139366762049978,1.7808494215361597,0.1464798996387076,-0.7338573123463167,-0.5127931164513948,0.8881258694774535,0.49663083483623,-0.4616988241121056,0.5735499714396741,11.256505643761557,-1.3402264584508934,0.1060525495100452,-1.1516686228918536
0.76,-0.3085706244096542,0.5833791507483533,1.7588983336104516,0.0614001430519826,0.1683014264143621,0.0214607452312915,0.2047540552859201,-0.6096678609148761,-0.4025468417741747,-0.3204138018062454,0.6000595299699923,1.7706197498046958,0.1618260825214934,-0.7738573129423632,-0.5141026463295939,0.8208985936759782,0.3581906467451143,-0.4596138245890224,0.5782119800991387,11.256505643761557,-1.35214635736963,0.1073531007215361,-1.139768294777207
0.78,-0.3044268707744394,0.5710849159582199,1.750961331393342,0.0600318896337789,0.1599724730865475,0.0204641086327396,0.209120333937425,-0.6192663455839932,-0.3917024033346226,-0.3174074728990574,0.5851823837200858,1.7603573398262768,0.1771722654042792,-0.8138573135384095,-0.515412176207793,0.7563020928754247,0.2183139325752411,-0.4799242334558529,0.5422219219776092,11.20471281809114,-1.3621892841516434,0.1080957268354433,-1.1294899890930057
0.8,-0.3004321574499194,0.5592265672133571,1.743615038226754,0.0588945961199671,0.1530934960267202,0.019610393708087,0.2110893973771562,-0.6284410140112032,-0.3821149780533162,-0.3140174894197997,0.5693052374552781,1.7500621916009031,0.192518448287065,-0.853857314134456,-0.5167217060859921,0.6707653745974874,0.0984531719865608,-0.4587334213605021,0.4793712640653175,11.146181218485252,-1.3711756775966206,0.1086984129319287,-1.119996843895317
0.8200000000000001,-0.296207636393122,0.5465577137383053,1.736072152140563,0.0577634355082812,0.147161332893399,0.0188120062792385,0.2110920473499277,-0.6379124480820473,-0.3726976301042141,-0.2939708540775682,0.5401215986790202,1.731376211226611,0.2340050104981845,-0.6945534417863667,-0.3757514087685396,0.6678220436148385,0.0001324986385789,-0.4735717035422027,0.4708673974551075,11.086432922655147,-1.3786522494743707,0.109268504394088,-1.1119213744635643
0.84,-0.2919776345201493,0.5335837947506383,1.7288377399626682,0.0530930184154926,0.1427840150129261,0.0178817648516207,0.2118663739549652,-0.6570635211753992,-0.3504048882590974,-0.2939708540775682,0.5401215986790202,1.731376211226611,0.2340050104981845,-0.6945534417863667,-0.3757514087685396,1.469974082502131,0.03871633025187,-0.9575536546675978,1.1146370922558324,11.974387251904773,-1.3828592919504774,0.1133461638496563,-1.103487648227379
0.86,-0.2877517474951503,0.520327267107477,1.7220591333456785,0.0451878124759918,0.1402666258213021,0.0168717563092846,0.2106263570576629,-0.6670855466375382,-0.3286193910520922,-0.2939708540775682,0.5401215986790202,1.731376211226611,0.2340050104981845,-0.6945534417863667,-0.3757514087685396,1.2006108079075697,-0.0620008448651121,-0.5011012731069464,1.0892748603502589,11.974387251904773,-1.3870711588418614,0.1203596534028788,-1.1018372097342826
0.88,-0.2837683955979801,0.5076014650410461,1.7159937589690109,0.0376962637163048,0.1397946365336883,0.0160380429212002,0.2089601579537892,-0.6719766805269014,-0.3109472518313568,-0.2916308039725863,0.5331760642611565,1.7276186971389256,0.2389819458103364,-0.7096108610268413,-0.372561209855323,0.9206029475491644,-0.0833099551936861,-0.244556694468162,0.883606961036773,11.79290135856354,-1.3886293331903643,0.1277777503786379,-1.1043078579535766
0.9,-0.2796024410420825,0.4941364902562157,1.709946171205987,0.0308517551083162,0.1407534281573503,0.0153124197349561,0.2078620803257699,-0.6743535366781199,-0.2948744793584609,-0.2869507037626226,0.5192849954254292,1.7201036689635547,0.2489358164346402,-0.7397256995077908,-0.3661808120288898,0.8142315926783673,-0.0549038814009639,-0.118842807560926,0.8036386236447923,11.56620346388172,-1.388632927258835,0.1342507511633854,-1.1085539646710283
0.92,-0.2754501204261365,0.4806435830810979,1.7041951623516307,0.025407232734686,0.1426481355657795,0.0147291228499874,0.207547024236411,-0.674995428231221,-0.2811429568820351,-0.2822706035526589,0.5053939265897018,1.7125886407881838,0.2588896870589441,-0.7698405379887402,-0.3598004142024567,0.6875063538360412,-0.015752804467943,-0.0320945776550563,0.6865761238212892,11.40061747953223,-1.387595580695921,0.1394125688907144,-1.1139303027182437
0.94,-0.2712950289656385,0.4671512247781935,1.698698104206946,0.0214339583552469,0.1450216722404251,0.0142728161152391,0.2080885083405708,-0.6745480209581931,-0.2692676474311373,-0.27709280981148,0.489997115829927,1.7053926325041346,0.2688435576832479,-0.7999553764696896,-0.3534200163760235,0.5948032297693058,0.0270742052079858,0.0223703636513972,0.593765472544891,11.165094429381496,-1.386044471058971,0.1430008331867079,-1.1194922584236329
0.96,-0.2673282323865026,0.4543472922779302,1.693688987606272,0.0188965666508186,0.1473855048364728,0.0139391841738793,0.2095042471359123,-0.6735672700892777,-0.2586199320842108,-0.2719150160703011,0.4746003050701522,1.6981966242200854,0.2787974283075518,-0.830070214950639,-0.3470396185495903,0.5393051796355363,0.0707869397670771,0.0490375434457679,0.5323857673463245,11.13615504103018,-1.384167340949644,0.1455181945921471,-1.1253035041305388
0.98,-0.2631138039573036,0.4408855403387519,1.6886311782578949,0.0171921745833909,0.1497021636459743,0.0136651785306256,0.21191351479858,-0.6727526586368676,-0.247744261536448,-0.2664883755635147,0.4584506233483537,1.6911601258816973,0.2887512989318556,-0.8601850534315884,-0.3406592207231571,0.5584540544043226,0.1204633831333831,0.0407305726205065,0.5437835273881433,11.13615504103018,-1.3823880423645931,0.1470506404963244,-1.1308242615306274
1.0,-0.2588430479610884,0.4274419029994971,1.6837869669819685,0.0162816925755407,0.1516109470260503,0.0134539995447353,0.2150551180695322,-0.6716964305019634,-0.2372430920055442,-0.2608128882911206,0.4415480706645314,1.6842831374889695,0.2987051695561594,-0.8902998919125378,-0.3342788228967239,0.550590252596709,0.1570801635476099,0.0528114067452123,0.5250584765451899,11.12557612288674,-1.3810579492132584,0.1477808602178435,-1.1355328756191905
1.02,-0.2547223723494079,0.4146933555118794,1.6793762009674995,0.0162227137989226,0.1529007696180709,0.0133149646170475,0.2185056662563133,-0.6703988950175558,-0.2275785789848545,-0.2525181282173746,0.4072479074069085,1.6762439651810723,0.2451158761140688,-0.6901683442160483,-0.2342805790413904,0.5171863615991702,0.1725274093390585,0.0648767742203793,0.4832256510344815,11.098111279581644,-1.38036701944874,0.147713455589955,-1.1397353935035788
1.04,-0.2503045007278711,0.4010992421690806,1.6749673270348868,0.01060304848986,0.1537001907656597,0.0127886935518929,0.2230775906353304,-0.6859778830612947,-0.213529552872896,-0.2525181282173746,0.4072479074069085,1.6762439651810723,0.2451158761140688,-0.6901683442160483,-0.2342805790413904,1.073525146059588,0.2285962189508536,-0.7789494021869459,0.7024513055979272,11.098111279581644,-1.3801663136382574,0.1533452254883907,-1.140432340126062
1.06,-0.2457988694871078,0.3873476153791939,1.6708376332387722,-0.0008211178421744,0.1540299917277726,0.0118803554293486,0.2272069890024776,-0.6874096018638391,-0.2001555571672484,-0.2525181282173746,0.4072479074069085,1.6762439651810723,0.2451158761140688,-0.6901683442160483,-0.2342805790413904,0.7035010851783313,0.206469918357359,-0.0715859401272223,0.668699785282377,11.3935206204942,-1.3803411358611188,0.165054166606217,-1.1409543912532365
1.08,-0.2412176250640949,0.3736609897034814,1.6669519628342644,-0.0125559405596866,0.154047587474196,0.0109874342887198,0.2306781414695455,-0.6811354257814258,-0.1890923851353397,-0.2500669694562339,0.400346223964748,1.6739011593906588,0.2517563483771666,-0.6936514813318845,-0.2315878425423788,0.6591812352653208,0.1735576233533931,0.3137088041206659,0.5531586015954354,11.286403914602488,-1.3816728568198562,0.1766699502707556,-1.1417439744195863
1.1,-0.2368072418914601,0.3608200532846158,1.6634457439285455,-0.0222816766446112,0.1539073948308584,0.010277428415097,0.233385215511938,-0.6711579337534188,-0.1805426975729934,-0.2451646519339525,0.386542857080427,1.669215547809831,0.2650372929033621,-0.7006177555635568,-0.2262023695443558,0.6707752128203585,0.1353537021196282,0.4988746014003509,0.4274843781173168,11.029254925869282,-1.3833957904877543,0.1874986897846624,-1.1426283209625316
1.12,-0.2321142583186441,0.3475320223147657,1.6599165260727435,-0.0305267329830278,0.1537253408988773,0.0097079082306733,0.2357532236595152,-0.6584207413437144,-0.172888132628957,-0.2402623344116712,0.3727394901961061,1.6645299362290031,0.2783182374295576,-0.707584029795229,-0.2208168965463328,0.7523893565689473,0.1184004073788602,0.6368596204852195,0.3827282472018189,10.957891139033563,-1.3851813461401463,0.1963068612007558,-1.1438197089728108
1.14,-0.2273781598261389,0.3345178778595751,1.65652791865691,-0.0366034038260761,0.1536118225218443,0.0093233862169852,0.2377500974937334,-0.644129727152004,-0.1663494267538722,-0.23469596966308,0.3585878096002015,1.6601135982980764,0.2915991819557532,-0.7145503040269013,-0.2154314235483098,0.7921099454279105,0.0998436917109102,0.7145507095855208,0.3269352937542422,10.957891139033563,-1.3869212149879049,0.2026892353842807,-1.145696531695834
1.16,-0.2226040593825763,0.3217977894687434,1.6532654933003834,-0.0407203419895401,0.1536214327371366,0.0091028908974935,0.2395795548373152,-0.6290773083950861,-0.1602136049268151,-0.2291296049144888,0.3444361290042969,1.6556972603671498,0.3048801264819487,-0.7215165782585736,-0.2100459505502867,0.817879169099856,0.091472867179089,0.7526209378458937,0.3067910913528537,10.905784650094574,-1.38846969749562,0.207485343152009,-1.1480764759635098
1.18,-0.2180338177636071,0.3099938492871877,1.6502784947857363,-0.0431036988349267,0.1537172591904199,0.0090226753675999,0.2414135106807468,-0.6145761678481471,-0.1545075117514274,-0.2232312165527428,0.3301102915526005,1.6514155592611737,0.3181610710081442,-0.7284828524902459,-0.2046604775522637,0.784547593400081,0.0916977921715814,0.7250570273469537,0.285304658769385,10.891526091072592,-1.3897755038937527,0.2106161451696874,-1.150922629138744
1.2,-0.2131843617856819,0.2978666754552092,1.6472518519391997,-0.0442526083936771,0.1538390374621418,0.009056986024373,0.243437538758243,-0.5990520171234278,-0.1484527135838432,-0.2170008045778419,0.3156102972451123,1.6472684949801482,0.3314420155343397,-0.7354491267219182,-0.1992750045542407,0.8392802366201565,0.1012014038748065,0.7762075362359622,0.3027399083792084,10.89027288410125,-1.3909377393407325,0.2123161364759112,-1.1539505328480657
1.22,-0.2082935014131963,0.2860566890186736,1.6443466905871154,-0.0438010254978482,0.1539287578866465,0.0092269030020342,0.2455432142219688,-0.5828936132712436,-0.1423606552827312,-0.2059631422295698,0.2792650408947803,1.642553119198165,0.2518819815447448,-0.6007660547757517,-0.1489558545776448,0.8698290903289106,0.1052837731862918,0.8079201926092128,0.3046029150556018,10.899756537237408,-1.3920576515695646,0.2124250592966383,-1.1571755574903748
1.24,-0.2033012597837008,0.2744666380551717,1.6415607666275491,-0.0448413707411874,0.1520986253475807,0.0093985681317549,0.2533425317998982,-0.5757838127480106,-0.1365616045742017,-0.2059631422295698,0.2792650408947803,1.642553119198165,0.2518819815447448,-0.6007660547757517,-0.1489558545776448,0.602095522491362,0.3899658788964699,0.3554900261616478,0.2899525354264742,10.891263051410531,-1.392806527900417,0.2139590455278013,-1.160705925326248
1.26,-0.1984232481579489,0.2636328148182123,1.6390172528086802,-0.0482148390706968,0.1469988160226216,0.0095811247497301,0.2592072519677829,-0.5645048413316017,-0.1314352620236106,-0.2059631422295698,0.2792650408947803,1.642553119198165,0.2518819815447448,-0.6007660547757517,-0.1489558545776448,0.6853640032963558,0.2932360083942348,0.5639485708204439,0.2563171275295553,10.891263051410531,-1.4011097132109551,0.2181834458189523,-1.153523776471434
1.28,-0.1932133024317301,0.2525007961142648,1.636440623437382,-0.0519651061047019,0.1394021629393904,0.0099205031928249,0.2610433046072342,-0.5493007371523542,-0.1264899663585772,-0.2034443224141223,0.2732573803470228,1.641063560652389,0.2539756757175444,-0.5980040321612726,-0.1478455231428883,0.8046611435922073,0.0918026319725651,0.7602052089623779,0.2472647832516716,10.859883236357746,-1.4126349763648869,0.2227698793381115,-1.1433660160685584
1.3,-0.1880132487644281,0.2416934407523488,1.6339556964124715,-0.0549368764993627,0.1311043142539565,0.0104070946309457,0.2586192554890359,-0.5324536889710136,-0.1222109345840299,-0.1984066827832274,0.2612420592515078,1.6380844435608355,0.2581630640631436,-0.5924799869323145,-0.1456248602733753,0.87750948638666,-0.1212024559099134,0.8423524090670265,0.2139515887273624,10.769878678523128,-1.4246017656362275,0.2265812601725075,-1.132563950552553
1.32,-0.183153667566993,0.2317458040110546,1.63166922515734,-0.0567927960523831,0.1236731827652897,0.0109551770198021,0.2529472862588058,-0.5157868002847997,-0.1186590789602296,-0.1933690431523325,0.2492267381559927,1.6351053264692827,0.2623504524087428,-0.5869559417033564,-0.1434041974038622,0.8980146042794135,-0.2835984615115083,0.8333444343106955,0.1775927811900134,10.769878678523128,-1.4350315144659986,0.2292114946163545,-1.1231347421924165
1.34,-0.178183966687702,0.2216197519514954,1.6293320870605177,-0.0576767572795217,0.1171311135249452,0.0115664415490344,0.2441684668772211,-0.4978049942024619,-0.1152472890438415,-0.1881220341041577,0.2374876193219256,1.6322372425212055,0.2665378407543419,-0.5814318964743983,-0.1411835345343492,1.0149548390825769,-0.4389409690792351,0.8990903041168896,0.1705894958194086,10.73246230566474,-1.4438044918101616,0.2308399957762866,-1.114923240586805
1.36,-0.1734188902863693,0.2118600578426807,1.6270602208760716,-0.0571604650778205,0.1127008627324137,0.012173986347773,0.2326357489681887,-0.4792170793567226,-0.1121118572898112,-0.1828750250559828,0.2257485004878584,1.6293691585731285,0.2707252290999411,-0.5759078512454402,-0.1389628716648362,1.104926573313756,-0.576635895451616,0.9293957422869648,0.1567715877015152,10.712728776506085,-1.4501323007191165,0.2310457969172197,-1.1097585817040967
1.38,-0.1689082055772096,0.2024758968656508,1.6248500303283404,-0.0548526719045517,0.1113050747030669,0.0127441567492134,0.2193191217614083,-0.4604115466637962,-0.1090575047648229,-0.177523331299168,0.2141474827845153,1.6265565911967887,0.2749126174455403,-0.570383806016482,-0.1367422087953231,1.162228128828409,-0.6658313603390239,0.9402766346463226,0.1527176262494142,10.705898854052066,-1.452094904321276,0.2296054692022058,-1.1102555694466485
1.4,-0.1648600644535057,0.1938936071241065,1.622808994146544,-0.051197191398056,0.1126474708760806,0.0132511647287184,0.2077973034961278,-0.4444212069798692,-0.1059282600386212,-0.1720669528337132,0.202684566211896,1.6237995403921872,0.2791000057911394,-0.5648597607875239,-0.1345215459258101,0.9977918519185036,-0.5760909132640254,0.7995169841963495,0.1564622363100835,10.701712816437066,-1.450726747859007,0.2265742092029282,-1.1161352319871272
1.42,-0.1608143426711789,0.1851607556673731,1.6207285994793716,-0.0468924255868441,0.116009725047364,0.0137342166600436,0.1976585912115117,-0.4298770796378497,-0.1022691899168219,-0.1579422494891392,0.1794553195324609,1.6193971550900992,0.229050987249401,-0.434095356525337,-0.0823738184637107,0.9051435260323984,-0.5069356142308009,0.7272063671009715,0.1829535060899646,10.703547969086683,-1.44678430646747,0.222964266868524,-1.124736975682154
1.44,-0.1569271183772293,0.1766582161363201,1.6187877779369464,-0.0441787261980124,0.1201438349686461,0.0140913858480564,0.1917748487958108,-0.420438721997961,-0.0917131495272093,-0.1579422494891392,0.1794553195324609,1.6193971550900992,0.229050987249401,-0.434095356525337,-0.0823738184637107,0.7666991073098666,-0.2941871207850485,0.471917881994438,0.5278020194806318,10.719446324211276,-1.4411923171941246,0.2208702255015917,-1.1330633164155175
1.46,-0.1531391570449558,0.1683647264510562,1.6170705653475093,-0.0435054712068349,0.1240959954521236,0.0143308347012111,0.1873891492846965,-0.4091908506342664,-0.080603284456616,-0.1579422494891392,0.1794553195324609,1.6193971550900992,0.229050987249401,-0.434095356525337,-0.0823738184637107,0.8203323599352832,-0.2192849755557127,0.5623935681847297,0.5554932535296618,11.164348185719064,-1.437040669816096,0.2209455027185786,-1.1424483298613577
1.48,-0.1496110408363002,0.1607048964238196,1.6156411761091118,-0.0438619662072119,0.1274952492193001,0.0145154422754336,0.1842539631404943,-0.3976271113326335,-0.0704330075503549,-0.1556517396166452,0.1751143659672075,1.618573416905462,0.2309973603469996,-0.4288321184976451,-0.0770370812034883,0.785786216386102,-0.1567593072101109,0.5781869650816424,0.5085138453130571,11.167812362281438,-1.433484613530577,0.2221988408911628,-1.1512029406188593
1.5,-0.1459527528537376,0.1528867859311789,1.6143420625282494,-0.044885673209841,0.1305687090258767,0.0146965061223492,0.1817832445882855,-0.3847637364564823,-0.0600385178852722,-0.1510707198716571,0.1664324588367008,1.6169259405361878,0.2348901065421967,-0.4183056424422615,-0.0663636066830434,0.8360865367384808,-0.1235359276104422,0.6431687438075623,0.5197244832541341,11.155502509127473,-1.4306985214884438,0.22422040375379,-1.1593823698026575
1.52,-0.1423369678459274,0.1453356593827131,1.6132467762660558,-0.0462207911454173,0.1330633796061678,0.0148914950616929,0.1799388894611321,-0.3709892681346172,-0.05003421920478,-0.1464897001266691,0.1577505517061941,1.6152784641669136,0.2387828527373938,-0.4077791663868778,-0.0556901321625985,0.8561886700278458,-0.0922177563576653,0.6887234160932565,0.5002149340246099,11.148800795979696,-1.4281481319999485,0.2265595839447755,-1.166407606949917
1.54,-0.138931737739133,0.1384274739446006,1.6123882167656858,-0.0473772011820528,0.1348841683607844,0.0151193130888241,0.1785848246317874,-0.3569532721116651,-0.040847670538772,-0.1417140430719213,0.1495949683784565,1.6141646615236616,0.2426755989325909,-0.3972526903314941,-0.0450166576421537,0.8414798754446338,-0.0677032414672373,0.7017998011476012,0.459327433300399,11.137057739823833,-1.4263904255801934,0.2286829115608196,-1.172077690343104
1.56,-0.135372437354325,0.1314514215796209,1.61167395431206,-0.0481308204164716,0.1362732160426137,0.0154269258039664,0.1774118931663378,-0.3414381572365345,-0.0310574686124264,-0.1369383860171734,0.1414393850507189,1.6130508588804096,0.246568345127788,-0.3867262142761104,-0.0343431831217088,0.9191607742524746,-0.0586465732724819,0.7757557437565316,0.4895100963172817,11.12920705662964,-1.424974242668219,0.2304019028477296,-1.1768405589147253
1.58,-0.1318347805741737,0.1247954167646636,1.6111559063294427,-0.047992800863419,0.1371845255864461,0.0158302863554367,0.1763977537933744,-0.325045983449079,-0.0212361918908715,-0.1320654103075456,0.133546963624366,1.6122038931001688,0.2504610913229851,-0.3761997382207267,-0.0236697086012639,0.956803684915688,-0.0507069686481689,0.8196086893727778,0.4910638360777449,11.14807340034804,-1.4238807380612537,0.2311790350815006,-1.1811163794905029
1.6,-0.1283168013417994,0.1184733560224741,1.6108348971447504,-0.0465086939368047,0.1376826768921726,0.0163563102961476,0.1754202014731817,-0.3082133817596015,-0.0113532081906098,-0.1270951159430378,0.1259177040993976,1.611623764182939,0.2543538375181822,-0.365673262165343,-0.0129962340808191,0.9771968263801188,-0.0488776160096349,0.8416300844738711,0.4941491850130841,11.158332652717943,-1.4232978376580536,0.2306366026900781,-1.1854844085050007
1.62,-0.1249934485359179,0.1127746937297061,1.6107141963820812,-0.0437351393396728,0.1378571775566624,0.0169704204680777,0.174441899049646,-0.2928542626734718,-0.0018282969452493,-0.123014892884505,0.1085431175922097,1.6100940967348991,0.1875972644496716,-0.2912922866199984,-0.025641391906625,0.9049634646849082,-0.0489151211767818,0.7679559543064846,0.4762455622680284,11.168665069153576,-1.4234571772456095,0.2285702581923453,-1.1902110379472433
1.64,-0.1215323272342527,0.1070387343951777,1.6106713505350874,-0.0407833881447417,0.1378354396596433,0.0176307001997096,0.1716181489757176,-0.2813929886350572,-0.003561465440092,-0.123014892884505,0.1085431175922097,1.6100940967348991,0.1875972644496716,-0.2912922866199984,-0.025641391906625,0.596527954280358,-0.1411875036964216,0.5730637019207313,-0.0866584247421393,11.179706500723114,-1.423633160461739,0.2265428318323233,-1.1967070086668496
1.66,-0.1181349384291738,0.1015273005269204,1.6105754595974964,-0.0386351953795848,0.1378128314760741,0.0182375010227624,0.1682893861468245,-0.2701764903546149,-0.0058829404589534,-0.123014892884505,0.1085431175922097,1.6100940967348991,0.1875972644496716,-0.2912922866199984,-0.025641391906625,0.5964053611206566,-0.1664381414446553,0.5608249140221178,-0.1160737509430697,10.403870554720015,-1.4238322602483016,0.2249583052151864,-1.1972945736918317
1.68,-0.114805079715538,0.0962409634689493,1.6104420560904469,-0.0370006673486813,0.1379711897904152,0.0188044299357084,0.1649005758617831,-0.2589770448421464,-0.0073493258433028,-0.1211389202400082,0.1056301947260097,1.609837682815833,0.189837166580931,-0.2845415472541823,-0.0265224319097757,0.5896225509387025,-0.1694405142520699,0.5599722756234216,-0.0733192692174685,10.44806360628536,-1.4237774311247946,0.2239908495000822,-1.198251351122238
1.7,-0.1117039457903991,0.0914244102839785,1.610294598221393,-0.0358387903613636,0.1383587882189582,0.0193100015699878,0.1617487997104726,-0.2485748933158733,-0.0081072871081203,-0.1173869749510148,0.0998043489936097,1.6093248549777004,0.1943169708434499,-0.27104006852255,-0.0282845119160771,0.5447773732509436,-0.1575888075655243,0.5201075763136553,-0.0378980632408727,10.4981052662788,-1.423389780020664,0.2234361185153813,-1.199804879388307
1.72,-0.1085022930816495,0.0865650194832305,1.6101285375981853,-0.0350676216822428,0.1390298577353352,0.0198047126885433,0.1586296471550811,-0.2379050889410641,-0.0084452357973754,-0.1136350296620214,0.0939785032612098,1.6088120271395678,0.1987967751059688,-0.2575385897909178,-0.0300465919223785,0.5560756409362693,-0.1559576277695748,0.5334902187404622,-0.0168974344627582,10.53695769387923,-1.422728262988817,0.2234185257877633,-1.2020481677546755
1.74,-0.1053602061897994,0.0819181149445642,1.6099595126102813,-0.0347916217803832,0.1399468650996768,0.0202600173427879,0.155785494174161,-0.2273066036356993,-0.0084345763285898,-0.109659094159902,0.0888277314653914,1.6082110953011202,0.2032765793684877,-0.2440371110592855,-0.0318086719286799,0.5486738798484612,-0.1422076490460069,0.5299242652682403,0.0005329734392801,10.565847353596835,-1.421940166235892,0.2240003217063381,-1.2051830988707313
1.76,-0.1022723447157493,0.0774840947802267,1.609788871136906,-0.0349745426754174,0.1410687433627884,0.0206799449334672,0.1532009269687666,-0.216610282276095,-0.0086421879211547,-0.1056831586577826,0.083676959669573,1.6076101634626727,0.2077563836310066,-0.2305356323276533,-0.0335707519349813,0.5503053262519222,-0.1292283602697175,0.5348160679802135,-0.0103805796282422,10.588514639192908,-1.420895773105624,0.2250230096756658,-1.2083930303568742
1.78,-0.0993832438722745,0.0734757294133911,1.6096204099090576,-0.0353859535141868,0.1422514242902976,0.0210615708982265,0.1510862988451876,-0.2058959443520154,-0.0090868314872161,-0.1015952280491003,0.0788637248420455,1.6069651796240676,0.2122361878935254,-0.2170341535960211,-0.0353328319412827,0.5465034244019926,-0.1057314061789521,0.5357168962039804,-0.0222321783030692,10.577011597243654,-1.419536029458942,0.2263837708453582,-1.2119040910473426
1.8,-0.0963816942293897,0.0694812400031917,1.6094321037756825,-0.0358105558279187,0.143532068652488,0.0214658919578068,0.1492194002604961,-0.1941416808934226,-0.0097324172822929,-0.0973953023338549,0.0743880269828088,1.6062761437853048,0.2167159921560443,-0.2035326748643889,-0.0370949119475841,0.5959546979392316,-0.093344929234572,0.5877131729296367,-0.0322792897538429,10.567100953896444,-1.4181065134094144,0.22774959477725,-1.215531628172856
1.82,-0.0934137536080053,0.0657279733579762,1.609229613386395,-0.0359551046363443,0.1447790323644268,0.0218939809506608,0.1477003419250981,-0.1818242658763046,-0.010491853375164,-0.0918289289300152,0.0631809321957904,1.6091660683346969,0.1551989182861902,-0.1763808381210412,-0.0170103293056264,0.6216972617549124,-0.0759529167699044,0.6158707508559014,-0.0379718046435546,10.56215987318501,-1.4168269927704322,0.2287820287091719,-1.2191021658617909
1.84,-0.0904469136090218,0.0622522131532102,1.6090258459638351,-0.0347206333976998,0.1451826114514325,0.0224503608194167,0.1490412727376136,-0.1666524787517735,-0.0097514935722928,-0.0918289289300152,0.0631809321957904,1.6091660683346969,0.1551989182861902,-0.1763808381210412,-0.0170103293056264,0.7624456581189074,0.0670465406257786,0.7585893562265563,0.0370179901435578,10.561842545153922,-1.4146651091778135,0.2283879341005046,-1.222976987790774
1.86,-0.0876060398698826,0.0592182620525772,1.6088463973935243,-0.0318087562167649,0.1441588576798343,0.0231456979563492,0.1498183370018796,-0.153907843933566,-0.0091633731248878,-0.0918289289300152,0.0631809321957904,1.6091660683346969,0.1551989182861902,-0.1763808381210412,-0.0170103293056264,0.6390919949055094,0.0388532132132968,0.6372317409103739,0.0294060223702547,10.675057647723406,-1.41723205500505,0.2260712037986217,-1.2248078019260706
1.88,-0.084610165701838,0.056255243419084,1.608667178642472,-0.0281563244940747,0.1420114049754845,0.0239411093860608,0.1496085421773177,-0.1432040620391493,-0.0087951760353055,-0.0902769397471533,0.06141712381458,1.6089959650416406,0.1560214421743907,-0.1704778168748463,-0.0185950288693085,0.5356083686062795,-0.0104897412280924,0.5351890947208338,0.0184098544791143,10.627959121490676,-1.420809447837646,0.2229690864546294,-1.2244815260803892
1.9,-0.0816328221114643,0.0534877100679049,1.6084919133833049,-0.0247076631314402,0.1392143800610698,0.0247241337792603,0.1480232521787543,-0.1340723159953981,-0.0087399739500425,-0.0871729613814295,0.0578895070521591,1.608655758455528,0.1576664899507918,-0.1586717743824567,-0.0217644279966727,0.4634246903686975,-0.0792644999281722,0.4565873021875624,0.0027601042631477,10.627959121490676,-1.425071337065752,0.2200360482739801,-1.222546736279549
1.92,-0.0787041129646269,0.0508918636092636,1.6083146364115906,-0.0217283292056535,0.1363043604346002,0.0254600483557005,0.1448258200444952,-0.1259035376685953,-0.0089841716255023,-0.0840689830157057,0.0543618902897383,1.6083155518694157,0.1593115377271928,-0.146865731890067,-0.0249338271240368,0.4387828167508838,-0.1598716067129524,0.4084389163401411,-0.0122098837729905,10.605094939912306,-1.4292987749829589,0.2177039527230705,-1.2199986451296605
1.94,-0.0759971628535297,0.048570676431042,1.6081388326109551,-0.0193878768347272,0.1339973316023609,0.0261011039291455,0.1402129532975836,-0.1187602260552549,-0.0095063909479876,-0.0808827522611618,0.051424575651937,1.6078168753269348,0.1609565855035938,-0.1350596893976773,-0.028103226251401,0.4259640637742319,-0.2306433373455804,0.3571655806670182,-0.0261109661242631,10.563704064232295,-1.433165294813,0.2157990561044652,-1.2177329494889333
1.96,-0.0732567610408701,0.0462696498555376,1.607940829792999,-0.0174163393643529,0.132642137596496,0.026709645241305,0.1340726059537034,-0.1116635726208963,-0.0102815110762317,-0.0776965215066179,0.0484872610141356,1.607318198784454,0.1626016332799949,-0.1232536469052876,-0.0312726253787652,0.4708162239242059,-0.307017367194011,0.3548326717179278,-0.0387560064122069,10.548497482925995,-1.435194457920218,0.2144246613509039,-1.2173394506155175
1.98,-0.0706414244468357,0.04410922935161,1.607724424410769,-0.0158452573942588,0.1326019291540256,0.0272592962795458,0.1279342413953235,-0.1047175125416457,-0.0113295367685249,-0.0744691645576641,0.045845097438644,1.6067402872637893,0.1642466810563959,-0.1114476044128979,-0.0344420245061293,0.4664376376533107,-0.3069182279189966,0.3473030039625305,-0.0524012846146598,10.548497482925995,-1.4350454438355544,0.2134819883735456,-1.2189032980785977
2.0,-0.0682650590375286,0.0421830719497935,1.6074972786297113,-0.0146626737165263,0.1335182349070944,0.0277393096642978,0.1226410184665745,-0.0983829163982322,-0.0125375805342442,-0.0712006814143002,0.0434980849254622,1.6060831407649403,0.165891728832797,-0.0996415619205083,-0.0376114236334935,0.4171471173743025,-0.2646611464374476,0.316729807170675,-0.0604021882859641,10.533007874347277,-1.4336699502604655,0.2128375149095485,-1.2220184231810742
2.02,-0.0658640853099267,0.0402827420705747,1.6072313725806442,-0.0137777274177369,0.1351792845084667,0.0282046735247162,0.1178454394089178,-0.091988214877655,-0.0140066014462758,-0.0642447123770695,0.0388733537245277,1.6071579475723428,0.1241086818816801,-0.0984529027912855,-0.0124015564563787,0.4063490140122599,-0.2397789528828346,0.3197350760288611,-0.0734510456015811,10.5131381911242,-1.4314239473333368,0.2125882056569973,-1.2260993703526994
2.04,-0.0635230888877117,0.0385847465028553,1.60697836883446,-0.0108916327376958,0.1365477962408315,0.0288080769048609,0.1165396949084726,-0.0792474480905112,-0.0109703539546249,-0.0642447123770695,0.0388733537245277,1.6071579475723428,0.1241086818816801,-0.0984529027912855,-0.0124015564563787,0.6581240495821954,-0.0652872250222584,0.6370383393571926,0.1518123745825461,10.5131381911242,-1.4285658530721022,0.2103794733189657,-1.233699203104038
2.06,-0.0613207549749699,0.0371564413571638,1.6067990251803888,-0.0060779791848385,0.136887052032417,0.0295272613130892,0.1152595432263618,-0.0721101151290327,-0.0080823986337717,-0.0642447123770695,0.0388733537245277,1.6071579475723428,0.1241086818816801,-0.0984529027912855,-0.0124015564563787,0.3902582352348969,-0.0640075841055444,0.3568666480739217,0.1443977660426625,10.821728587043252,-1.429289727014481,0.2055735127541539,-1.2377716970342385
2.08,-0.0590343301966506,0.0357631776352955,1.606663988348866,-0.0008529119868052,0.1365769922578985,0.0302838339057767,0.1133811834103798,-0.0676791315328713,-0.0055994960292527,-0.0630036255582527,0.0378888246966148,1.6070339320077789,0.1233435699789514,-0.0971999808412134,-0.0126159603939494,0.2707704589281965,-0.0939179907990993,0.2215491798080698,0.1241451302259497,10.786726282272866,-1.4302576577530357,0.2004191743727649,-1.2399923975369542
2.1,-0.0567917963375106,0.0344378499426105,1.6065727934620715,0.0038130153300859,0.135878760758659,0.0309824914441452,0.1109103902894713,-0.0650461671240662,-0.0036661286567647,-0.0605214519206191,0.0359197666407891,1.6067859008786514,0.121813346173494,-0.0946941369410693,-0.0130447682690909,0.2047878757480776,-0.1235396560454245,0.1316482204402544,0.0966683686243978,10.721685068075203,-1.4313522113172037,0.1957984173263937,-1.2407215859483145
2.12,-0.0546047982645339,0.0331527586627756,1.6065151683479344,0.0076909081784198,0.1350418930901562,0.0316058338151496,0.1078744821923358,-0.0635188363531437,-0.0022116284770195,-0.0580392782829855,0.0339507085849634,1.6065378697495238,0.1202831223680367,-0.0921882930409252,-0.0134735761442324,0.1848313287225542,-0.1517954048567721,0.0763665385461249,0.0727250089872579,10.694577962738547,-1.432451182582773,0.1921886609520661,-1.240795579296644
2.14,-0.0525883181801748,0.0319524206163719,1.606483044130177,0.0106063836239985,0.1342987734149044,0.0321275047205204,0.1045321906376588,-0.0627628763343846,-0.0012401290237652,-0.0556336158356248,0.0321069427241449,1.6062683982266392,0.1187528985625793,-0.0896824491407811,-0.0139023840193739,0.1780884581752936,-0.1671145777338525,0.0377980009379545,0.0485749726627185,10.694577962738547,-1.4334415236247615,0.1892566545001854,-1.2406338122987552
2.16,-0.0505375421491452,0.0307009702309615,1.60646766475072,0.0129750365933664,0.1336888350345862,0.0326131894337437,0.1007175880593375,-0.06233570237157,-0.0003537612652167,-0.0532279533882641,0.0302631768633264,1.6059989267037544,0.117222674757122,-0.087176605240637,-0.0143311918945154,0.196972829525014,-0.1907301289160619,0.0213586981407311,0.0443183879274254,10.67103470908387,-1.434183034419863,0.1871140911959661,-1.240562940379926
2.18,-0.0485657208635106,0.0294543790359767,1.6064685046260505,0.0147086506437473,0.1333360695008089,0.0330428259653244,0.0966807783637246,-0.0622366383094716,0.0003929243949008,-0.0508605465360398,0.0284820571000115,1.6057187349839912,0.1156924509516646,-0.0846707613404929,-0.0147599997696569,0.2053240468261018,-0.2018404847806451,0.0049532031049213,0.0373342830058755,10.663669433321957,-1.4345869566880072,0.1857232950544284,-1.2406575211425517
2.2,-0.0467681505901144,0.0282685462611822,1.606481763106001,0.0157915472181826,0.1332702631977419,0.0334030524739066,0.0927711456984609,-0.0625319606042597,0.0009638275015218,-0.0485313952789519,0.0267635834342002,1.6054278230673495,0.1141622271462073,-0.0821649174403488,-0.0151888076447984,0.1981058630647134,-0.1954816332631892,-0.0147661147394031,0.02854515533105,10.656097055691134,-1.434648988353919,0.1849002942814888,-1.2409875889832465
2.22,-0.044955631097318,0.0270110896634785,1.606506038465265,0.0162417348038616,0.1334733694905068,0.0337266422452346,0.0887166764204281,-0.0631590903057646,0.0014260810052854,-0.0437316819453244,0.0263425471205031,1.606488150845795,0.1022055957522294,-0.051184087561481,-0.0014487215257483,0.2064321383091946,-0.2027234639016356,-0.031356485075247,0.023112675188184,10.648159691946605,-1.4343160759084086,0.1848520654205073,-1.2415410902571136
2.24,-0.0432352096835192,0.0257136031288376,1.606553582164837,0.0150737038887726,0.1343931872514016,0.03393841006184,0.0836391953679132,-0.0662887207271658,0.0033782799511687,-0.0437316819453244,0.0263425471205031,1.606488150845795,0.1022055957522294,-0.051184087561481,-0.0014487215257483,0.3137932485631095,-0.2538740526257472,-0.1564815210700586,0.0976099472941642,10.64059960348186,-1.434561041238847,0.1867296877986127,-1.2419693934284004
2.26,-0.0416095856447362,0.0243664429215104,1.6066386966351671,0.011815718819234,0.1363115060588564,0.0340093935974763,0.0793281312186805,-0.06769909977969,0.0050233654345064,-0.0437316819453244,0.0263425471205031,1.606488150845795,0.1022055957522294,-0.051184087561481,-0.0014487215257483,0.2412506446524382,-0.2155532074616328,-0.0705189526262126,0.0822542741668861,10.743814285179724,-1.4314260419826614,0.1905580986293587,-1.244845339580443
2.28,-0.0401356274642653,0.0230946019393743,1.60674579754437,0.0080786584627795,0.1386670119464062,0.0340273081810649,0.0761454566335325,-0.0660034507548599,0.0061569010828767,-0.0427096259878021,0.0258307062448883,1.606473663630538,0.1033105592299303,-0.0489735774118829,-0.0018170507098782,0.1890075805125346,-0.1591337292574018,0.0847824512415065,0.0566767824185154,10.71168149938967,-1.4278063081845076,0.1954410080719001,-1.249066573582038
2.3000000000000003,-0.0386392583262956,0.021811054271055,1.6068779411274503,0.0044161710576193,0.1413644414691682,0.0340542123525848,0.0737548982932555,-0.0624452465447067,0.0069705808459169,-0.0406655140727575,0.0248070244936587,1.6064446892000228,0.1055204861853322,-0.0445525571126866,-0.0025537090781378,0.2181608416753628,-0.1195279170138521,0.1779102105076594,0.0406839881520077,10.686776878904311,-1.4242211852618696,0.2000714041490298,-1.2538316611877784
