t,x,y,z,roll,pitch,yaw,v_x,v_y,v_z,ref_x,ref_y,ref_z,ref_v_x,ref_v_y,ref_v_z,a_com,a_x,a_y,a_z,thrust,wind_x,wind_y,wind_z
0.0,-1.2801658300841738,1.505872288461822,2.1386868226651936,0.0243366775309855,0.1500871181860922,0.0289067895433302,0.0016449749110564,-0.0034985541376464,-0.0036909947295847,-1.2801215347421475,1.5058767445499013,2.1385768475957487,0.0039218183906396,-0.1008108959773738,-0.1036734467663798,0.2672511253758863,0.0822487455528231,-0.1749277068823244,-0.1845497364792381,10.66212191620616,-1.4128987143214342,0.1665702060876019,-1.279391091024812
0.02,-1.2802082287130323,1.506042504178524,2.1383990225726386,0.0314875959262388,0.1512208046602258,0.0294200506347371,-0.0057790516686495,0.0165626456365764,-0.0263435552618115,-1.2801215347421475,1.5058767445499013,2.1385768475957487,0.0039218183906396,-0.1008108959773738,-0.1036734467663798,1.5578080800468186,-0.3712013289853015,1.0030599887111464,-1.1326280266113389,10.662766841823212,-1.407474482198188,0.1578483392186241,-1.277196701286716
0.04,-1.2803992135908482,1.5063928249656462,2.137573396537801,0.045833955349829,0.1544867935295922,0.0305108663746569,-0.0126309565298431,0.0166854007921976,-0.0551525655055268,-1.2801215347421475,1.5058767445499013,2.1385768475957487,0.0039218183906396,-0.1008108959773738,-0.1036734467663798,1.4806440661732083,-0.3425952430596783,0.0061377577810613,-1.4404505121857654,9.234158057921832,-1.40078620997753,0.1417351563121988,-1.2793014614759897
0.06,-1.2806870263956631,1.506654344838028,2.1362506106666976,0.0600116182367281,0.1590021550636174,0.0316814772256671,-0.0170622659098251,0.0105494003916916,-0.0826614526512837,-1.2800823165582411,1.5048686355901275,2.137540113128085,0.0044020419774224,-0.120810896275397,-0.123673447064403,1.4265569351888077,-0.2215654689991011,-0.3068000200252991,-1.3754443572878434,9.058191136163714,-1.392568921697117,0.1241525820204582,-1.281894255195119
0.08,-1.2810566443772076,1.5067675523473398,2.1342975284849324,0.0744348826431912,0.1645176821334248,0.0329732710952499,-0.0194331703766094,0.000779912247693,-0.1112023902348605,-1.2800038801904283,1.5028524176705802,2.135466644192757,0.005362489150988,-0.1608108968714434,-0.1636734476604495,1.5129848022501524,-0.1185452233392121,-0.4884744071999307,-1.427046879178839,9.058191136163714,-1.383445851810733,0.1072301793248399,-1.2842018615582462
0.1,-1.281449523890864,1.506656004484756,2.13178094715435,0.0881821075547093,0.1702152080485417,0.034283617661906,-0.0195522591728145,-0.0117390695860415,-0.1390181324652555,-1.2799254438226155,1.5008361997510329,2.1333931752574298,0.0063229363245537,-0.2008108974674899,-0.2036734482564959,1.5251676990765146,-0.0059544398102587,-0.6259490916867322,-1.3907871115197503,9.096506697133009,-1.374577623960256,0.0912401411326088,-1.2852397077656266
0.12,-1.2818227860246565,1.5062671047290566,2.128715687896908,0.1012468464431814,0.1756148857212273,0.0355654865297998,-0.01766969841353,-0.026800839418857,-0.1661564453548238,-1.2797989850961244,1.496819981801683,2.1293197062923,0.0072833834981193,-0.2408108980635363,-0.2436734488525423,1.554741917490822,0.0941280379642249,-0.7530884916407733,-1.3569156444784138,9.152397978242334,-1.3674335868989371,0.0768999341125588,-1.2860093096555187
0.14,-1.2821281541620233,1.5055964927082224,2.1252981407232525,0.113043932292711,0.1801862580636042,0.0367148458994932,-0.0145235556545004,-0.0432649297584242,-0.1922578135040834,-1.2796725263696334,1.492803763852333,2.12524623732717,0.0082438306716849,-0.2808108986595828,-0.2836734494485888,1.5510044360291249,0.1573071379514815,-0.8232045169783585,-1.3050684074629824,9.2013012904099,-1.3607969622928024,0.0625351561160953,-1.286880308235084
0.16,-1.2823732901300329,1.5045303173817826,2.1211605675818657,0.1248374776536906,0.1842402361093882,0.0378134866012467,-0.0101063221900057,-0.062737350530276,-0.2201608513767265,-1.2795220564638032,1.487787545888082,2.120172768347139,0.0092042778452505,-0.3208108992556293,-0.3236734500446352,1.715565974189024,0.2208616732247329,-0.9736210385925907,-1.395151893632156,9.198956294097115,-1.3541864108832384,0.0488946892125363,-1.285940405225556
0.18,-1.2825188574467077,1.503052091202627,2.116464844845986,0.1360133229693059,0.1874025325051654,0.0387608858948575,-0.004688649431173,-0.0843499449762202,-0.2480367364084875,-1.279347575378634,1.48177132790893,2.114099299352207,0.0101647250188162,-0.3608108998516757,-0.3636734506406817,1.784320867382471,0.2708836379416373,-1.080629722297212,-1.3937942515880486,9.192788133654176,-1.348304923752987,0.0366166233556959,-1.2832348738206698
0.2,-1.2825483929375647,1.501097818244595,2.111210304854368,0.145877317742537,0.1896707448937306,0.0394825586732053,0.0014198926987462,-0.1097248308876696,-0.2759766150358654,-1.282753289918266,1.498834593953816,2.1040630080255625,-0.0095622311274747,-0.1843499464663364,-0.3480367378986037,1.9116981584998456,0.3054271064959669,-1.268744295572468,-1.3969939313688964,9.211585995057249,-1.3435916253318954,0.0252202494021814,-1.2788970955084684
0.22,-1.2824143823351344,1.4986045604705795,2.1058336439658243,0.149470596714215,0.1906816940598535,0.0395688318619394,0.0121896470447961,-0.1487103823572966,-0.2881711482756283,-1.282753289918266,1.498834593953816,2.1040630080255625,-0.0095622311274747,-0.1843499464663364,-0.3480367378986037,2.112207064305532,0.5384877173024939,-1.9492775734813488,-0.6097266619881442,9.235985876094674,-1.3398532660871083,0.0209866558698742,-1.2695691195582328
0.24,-1.2820557345735697,1.495272122587999,2.0999338680150545,0.1471733381064845,0.1902710825211102,0.0389824697325196,0.0229952640283933,-0.181894443200839,-0.301212044022032,-1.282753289918266,1.498834593953816,2.1040630080255625,-0.0095622311274747,-0.1843499464663364,-0.3480367378986037,1.862799113117606,0.5402808491798577,-1.6592030421771196,-0.6520447873201829,10.246321246715524,-1.3405053534983529,0.023810135760385,-1.262106392867972
0.26,-1.2814890436325133,1.491334026533664,2.093753488294237,0.1420253482077423,0.1883551236721219,0.0379594050704071,0.0330222001579104,-0.2096598681810791,-0.3161708406863566,-1.2828489122295408,1.496991094489153,2.1005826406465764,-0.010536947466735,-0.2043499467643596,-0.3680367381966269,1.6547083354199974,0.501346806475855,-1.3882712490120075,-0.7479398332162296,10.084558402853872,-1.342957882161646,0.0297202214623833,-1.2530360816082011
0.28,-1.28073318955214,1.4868853134087128,2.0872509327683604,0.1362137352381512,0.1848617828405309,0.0366688295292023,0.0419225318510141,-0.233649647725257,-0.3332532108955039,-1.2830401568520904,1.493304095559826,2.0936219058886043,-0.0124863801452557,-0.244349947360406,-0.4080367387926733,1.5382886585324989,0.4450165846551838,-1.1994889772088928,-0.854118510457369,9.918533115283026,-1.3465202344956078,0.0359138956203292,-1.2419111467442447
0.3,-1.2798662387762014,1.4822386588258822,2.080739790357657,0.1309425347258792,0.1801985005004042,0.035292270348983,0.048629967046708,-0.2542826339590373,-0.3512173757214435,-1.2832314014746398,1.4896170966304991,2.086661171130632,-0.0144358128237764,-0.2843499479564525,-0.4480367393887198,1.4083865109774774,0.3353717597846948,-1.0316493116890133,-0.89820824129698,9.76661738700841,-1.3522055088340947,0.0420856380977855,-1.2275965725690587
0.32,-1.2788447206907234,1.476941102293466,2.0735011272443558,0.1260378707106895,0.1745131102058685,0.0338094888939877,0.052933936442658,-0.274421196935897,-0.3717611979832225,-1.2835201177311153,1.4839300976713703,2.077700436342858,-0.0163852455022971,-0.3243499485524989,-0.4880367399847662,1.4544195615930304,0.2151984697974999,-1.006928148842989,-1.027191113088946,9.632190924879067,-1.3579392166865731,0.0473125778784564,-1.2122595498569904
0.34,-1.2777629368442427,1.4712508159257274,2.0658419568464708,0.1218961180547837,0.1687588630922339,0.0323944983733295,0.0548756154286513,-0.2936531217921924,-0.3931418694297386,-1.2838088339875908,1.4782430987122412,2.068739701555084,-0.0183346781808178,-0.3643499491485454,-0.5280367405808127,1.4411541923634574,0.0970839492996679,-0.9615962428147662,-1.069033572325806,9.43857034525172,-1.362543224805334,0.0513248939362372,-1.197773759578275
0.36,-1.276663980562595,1.465174556736497,2.0577470975787677,0.1181921716415043,0.1634864376767885,0.0310882111712919,0.0548439400543295,-0.312915350950575,-0.415224658026488,-1.284146286061029,1.471556099738211,2.058778966752408,-0.0202841108593384,-0.4043499497445919,-0.5680367411768591,1.4651655432818085,-0.0015837687160916,-0.963111457919133,-1.1041394298374696,9.43857034525172,-1.366474405362016,0.054963651299428,-1.183366383335369
0.38,-1.2756380766571915,1.4590488728164484,2.0496423191870385,0.1147805514421286,0.1593438804760599,0.0299724438961608,0.0530775756075207,-0.3308049736326935,-0.4367628717219191,-1.2845324739514308,1.4638691007492797,2.0478182319348317,-0.0222335435378591,-0.4443499503406383,-0.6080367417729056,1.4027235047021671,-0.0883182223404388,-0.8944811341059233,-1.0769106847715535,9.38767684753202,-1.3691752290061885,0.0584338542426337,-1.1700377558104684
0.4,-1.274611812795564,1.4522418617448871,2.0406613788778327,0.1112655896888759,0.1564018520822954,0.0289787797223409,0.0495471174870142,-0.3488454495109381,-0.4602116513285198,-1.2729841978768155,1.4425086241348135,2.0278041756009424,0.0544610821840513,-0.4308049751228096,-0.5367628732120352,1.4897719368187787,-0.176522906025326,-0.9020237939122294,-1.1724389803300372,9.27707243009536,-1.3699912049573664,0.0617711163262923,-1.1588415550128863
0.42,-1.273671934180086,1.4450666801231655,2.0314589832331937,0.108274735881853,0.1567555242104069,0.028393896375709,0.0452617028850622,-0.3679186406627043,-0.458912112352318,-1.2729841978768155,1.4425086241348135,2.0278041756009424,0.0544610821840513,-0.4308049751228096,-0.5367628732120352,0.9795920076403056,-0.2142707300976008,-0.9536595575883128,0.0649769488100887,9.27707243009536,-1.3672042877111936,0.0650152199504768,-1.1446703704258752
0.44,-1.272836778911107,1.437909793571684,2.022711958652694,0.1062661148249054,0.1605029857347117,0.0282621061315371,0.0432838539999769,-0.3846997921763259,-0.4620101718986488,-1.2729841978768155,1.4425086241348135,2.0278041756009424,0.0544610821840513,-0.4308049751228096,-0.5367628732120352,0.8589483472362678,-0.0988924442542612,-0.8390575756810764,-0.15490297731654,10.717380238672376,-1.360818508642121,0.066504649197203,-1.1499365222921936
0.46,-1.2719700978751791,1.4300340780252012,2.0133888992181763,0.104845168107746,0.1664860069119269,0.0283785308345337,0.0438040595436529,-0.4019846119247254,-0.470373211749095,-1.272439587054975,1.4382005743835855,2.022436546868822,0.0547377834993575,-0.4508049754208328,-0.5567628735100584,0.960437456426086,0.0260102771837994,-0.8642409874199758,-0.4181519925223087,10.34572115885112,-1.3517821669273653,0.0673533559593158,-1.1570055051303585
0.48,-1.271069254765522,1.4218184686712698,2.00385362476751,0.1039472148395627,0.1734059573501238,0.0286192670769196,0.0465005909538845,-0.4186948369654319,-0.4829103951313436,-1.271350365411294,1.4295844748811295,2.011701289404581,0.0552911861299697,-0.4908049760168793,-0.5967628741061048,1.0531902365165944,0.1348265705115765,-0.8355112520353286,-0.6268591691124287,10.052547330710697,-1.3417458541057852,0.0677643125931941,-1.1641970979373388
0.5,-1.2700905272088625,1.4132753622259622,1.9940297488940653,0.1035604438684272,0.1804038638558934,0.0288951268246511,0.0514050244879264,-0.4348068133717797,-0.4988550214000572,-1.270261143767613,1.4209683753786733,2.0009660319403406,0.055844588760582,-0.5308049766129257,-0.6367628747021513,1.1596123909064318,0.2452216767020957,-0.8055988203173853,-0.7972313134356812,9.837281788093604,-1.3313731073579755,0.0676771379615029,-1.1706355714776095
0.52,-1.268993646519021,1.404414764305436,1.9838603421600856,0.1037337142914501,0.1868243196243179,0.0291441072064592,0.0581225616566091,-0.4504922862874922,-0.5172990278549786,-1.2691442519924014,1.4103522758464146,1.9882307744462973,0.0563979913911942,-0.5708049772089722,-0.6767628752981978,1.2563247393800767,0.3358768584341348,-0.784273645785627,-0.9222003227460696,9.675896850480058,-1.3221072569197974,0.0670685083517663,-1.175433752285288
0.54,-1.2678114921575174,1.3957080318853374,1.973847532821656,0.1044644215192629,0.1920176086683133,0.029322480595523,0.0659925680688967,-0.4652783854262254,-0.5357625475020462,-1.2680273602171896,1.3997361763141565,1.9754955169522543,0.0569513940218065,-0.6108049778050186,-0.7167628758942443,1.246462280243116,0.3935003206143795,-0.7393049569366622,-0.9231759823533804,9.55442621658949,-1.313449069709946,0.0658173806912302,-1.178489844349918
0.56,-1.2663939167147746,1.386229818332062,1.9629198152556575,0.1055622234637192,0.1963264030704142,0.0294089355345275,0.0753624285461615,-0.481752934328536,-0.5560641231651322,-1.2668966333762128,1.3881200767669966,1.9617602594433103,0.0575047966524187,-0.650804978401065,-0.7567628764902906,1.3886675459789113,0.468493023863243,-0.8237274451155269,-1.0150787831542996,9.51554240328278,-1.3063843678833,0.0641961692703393,-1.1797398946014734
0.58,-1.264779329999283,1.3764103501176437,1.9515783176715231,0.1064256902643065,0.1993282270249999,0.0293357522524855,0.0855449614511386,-0.4992489985560714,-0.5770401052322033,-1.2657520714694706,1.3755039772049356,1.9470250019194648,0.058058199283031,-0.6908049789971115,-0.7967628770863371,1.4575562283262653,0.5091266452488551,-0.8748032113767734,-1.0487991033535538,9.456890802225644,-1.3011900221149657,0.0628157700597391,-1.1792539730377227
0.6,-1.2629572253386068,1.3662321947751053,1.9398109684343137,0.1065587843102249,0.2010385733755326,0.0290665607912594,0.0960466865812774,-0.5175272763898694,-0.5986052896814152,-1.260502081926726,1.3514479001898398,1.922726312409913,0.1001290650503293,-0.5992490000461876,-0.6770401067223194,1.5078451939829811,0.5250862565069369,-0.9139138916898965,-1.078259222460598,9.456890802225644,-1.2978594496048703,0.0622097536862862,-1.1771288934527449
0.62,-1.2610066251636785,1.3561704073716423,1.928484292249799,0.1049276311507276,0.2024535709408725,0.0286587062107962,0.1089230237779412,-0.5401994521333592,-0.5925600968372605,-1.260502081926726,1.3514479001898398,1.922726312409913,0.1001290650503293,-0.5992490000461876,-0.6770401067223194,1.3382562993209617,0.6438168598331906,-1.133608787174489,0.3022596422077361,9.430157130916996,-1.2960354996519008,0.0641380951643366,-1.1661218117096652
0.64,-1.2586838771326314,1.3451472271659377,1.916664480873104,0.101401550347836,0.2043835740650491,0.0281430677606719,0.1226956274494169,-0.5604182662218505,-0.5900585155364318,-1.260502081926726,1.3514479001898398,1.922726312409913,0.1001290650503293,-0.5992490000461876,-0.6770401067223194,1.2295761099268918,0.6886301835737872,-1.0109407044245675,0.1250790650414335,11.1206066410914,-1.293365365478721,0.0672343736222091,-1.1674826642497145
0.66,-1.2560835842180484,1.333752405732606,1.9048343523810565,0.0974344250770593,0.2061742306331814,0.0275770248716699,0.1366244648117911,-0.5778769821208802,-0.5932930620181055,-1.2595007912762228,1.345455410189378,1.9159559113426896,0.1030458857701675,-0.6192490003442108,-0.6970401070203426,1.1283633745968202,0.6964418681187072,-0.8729357949514849,-0.1617273240836825,10.734836753727905,-1.291000560933936,0.0707992964251979,-1.1688069479545091
0.68,-1.2532061565296106,1.3220295605125447,1.8928839842566243,0.0935323040811693,0.2073258356168484,0.026950272408743,0.1503507348808824,-0.593471279967937,-0.6015328912130581,-1.257498209975216,1.333470430188454,1.9024151092082435,0.1088795272098438,-0.6592490009402573,-0.737040107616389,1.1174607381406587,0.6863135034545678,-0.7797148923528396,-0.4119914597476293,10.394936335891543,-1.2894068569036037,0.0741569472465444,-1.16852513082791
0.7000000000000001,-1.2502226769932117,1.310617842717016,1.881342443570351,0.0901051602943728,0.2076473999802977,0.0263029886831394,0.1629207169307435,-0.606987799845316,-0.612924492502135,-1.2554956286742096,1.3214854501875304,1.888874307073797,0.1147131686495201,-0.6992490015363038,-0.7770401082124355,1.0845152583743454,0.628499102493052,-0.6758259938689504,-0.5695800644538451,10.124706081444856,-1.2886037758186466,0.0774005912050863,-1.1664024232487256
0.72,-1.246831463929592,1.2983402581790788,1.8689293124544972,0.0869369626499676,0.2071491186847306,0.0255816499388151,0.1754661091110145,-0.6200781678303503,-0.6279132024495289,-1.2532013653012193,1.3075004701568045,1.8733335049095483,0.1205468100891963,-0.7392490021323502,-0.817040108808482,1.176229170726861,0.6272696090135518,-0.6545183992517134,-0.7494354973696937,9.910849861193128,-1.2885145426434104,0.0801437557555047,-1.1627201661315776
0.74,-1.2431930130819504,1.2858083504078364,1.856198858658173,0.0842673769094492,0.2057191312935869,0.0248218374127374,0.1876918539938894,-0.6324958721544183,-0.6444170437738281,-1.250907101928229,1.2935154901260784,1.8577927027453,0.1263804515288726,-0.7792490027283967,-0.8570401094045285,1.200046871041675,0.6112872441437434,-0.6208852162033984,-0.8251920662149637,9.730043011117232,-1.289140758382813,0.0823319752062196,-1.1572887487072296
0.76,-1.2393118171038378,1.273025015476553,1.843125339028448,0.0817867764768793,0.2031491500049745,0.0239894760094952,0.1997155929232461,-0.6451000234972311,-0.6620607592998263,-1.2484669975192466,1.2785305100804512,1.8412519005661496,0.1322140929685489,-0.8192490033244431,-0.8970401100005748,1.239693133880525,0.6011869464678354,-0.6302075671406393,-0.8821857762999097,9.648931322687533,-1.290685999053806,0.0841753915262378,-1.150732694620594
0.78,-1.2354065855150334,1.2606499142594558,1.83036917855724,0.0793443787648698,0.1994504905383001,0.0231033502127526,0.2106434580246002,-0.6567764879570789,-0.6797633481250015,-1.2458810520742722,1.2625455300199226,1.8237110983720983,0.1380477344082252,-0.8592490039204895,-0.9370401105966212,1.1928324579217948,0.5463932550677078,-0.5838232229923912,-0.8851294412587585,9.58622529076274,-1.2933700582602767,0.0861328348753031,-1.1422454346194717
0.8,-1.2310845764918792,1.247390672208597,1.8165675740522855,0.0766732196293489,0.1942049384123753,0.0220760744379209,0.2206595791550515,-0.6684249153853628,-0.6994641325767377,-1.2248744126138034,1.227811089861602,1.79638101115099,0.2313527398118765,-0.756776489447195,-0.7797633496151176,1.249129148712853,0.5008060565225653,-0.5824213714141935,-0.9850392225868088,9.520679584607024,-1.297944796787986,0.0881845691523984,-1.1320890657924063
0.8200000000000001,-1.2265772469900815,1.233877519778492,1.8026650145437415,0.0738099091103043,0.1896240642848721,0.021109937553528,0.2295338055662644,-0.6822199928283483,-0.6882405698917855,-1.2248744126138034,1.227811089861602,1.79638101115099,0.2313527398118765,-0.756776489447195,-0.7797633496151176,0.9937610570435024,0.4437113205606413,-0.6897538721492791,0.5611781342476085,9.43990651468539,-1.305746148174204,0.0911348765792869,-1.111817912134031
0.84,-1.2219170044398937,1.220108934267571,1.788989539396546,0.0711449411591993,0.1880799394311741,0.0204033726365093,0.2361637257123728,-0.6939564737667221,-0.6804122399214797,-1.2248744126138034,1.227811089861602,1.79638101115099,0.2313527398118765,-0.756776489447195,-0.7797633496151176,0.7793965230942675,0.3314960073054221,-0.5868240469186881,0.3914164985152901,10.915162681779291,-1.3078339409800803,0.0930472223208743,-1.1114976181040026
0.86,-1.2173653936597968,1.2068213810681567,1.7760676735971883,0.069065701211237,0.1888869053399465,0.0199374846672972,0.2428516005931439,-0.7041966397174484,-0.6801597985521058,-1.2225608852156846,1.22024332496713,1.788583377654839,0.2354945961693318,-0.7767764897452182,-0.7997633499131408,0.6116624799761589,0.3343937440385525,-0.5120082975363149,0.0126220684686928,10.915162681779291,-1.3061773432556991,0.0945856705968159,-1.1134231513514474
0.88,-1.2124271758344225,1.1926331705192836,1.7624160905754378,0.0673196997065999,0.1909927012160795,0.0195719570308111,0.2507406908811462,-0.7141143756734976,-0.6852554920835,-1.217933830419447,1.205107795178186,1.7729881106625365,0.2437783088842423,-0.8167764903412646,-0.8397633505091873,0.6829445889529691,0.394454514400118,-0.4958867978024583,-0.2547846765697081,10.487647168954936,-1.3028848371289852,0.0957239904550525,-1.1160961389844295
0.9,-1.20732286262248,1.1782543279818878,1.7486144586568722,0.0660814183638409,0.1935906933176711,0.0192807473484955,0.2593734321916787,-0.7232797712215361,-0.6948295843382959,-1.2133067756232094,1.1899722653892422,1.7573928436702342,0.2520620215991528,-0.8567764909373111,-0.8797633511052337,0.790872841533203,0.4316370655266244,-0.4582697774019262,-0.4787046127397942,10.173934729321443,-1.2989597593137987,0.0963502376157615,-1.1187672195806115
0.92,-1.2020397676536505,1.1637010077342769,1.7345805544466282,0.0655277443171945,0.1961290943807694,0.0190392765446686,0.2685473927000605,-0.731675693775465,-0.7080712831450905,-1.2082655351912264,1.1728367355704958,1.7397975766481295,0.2603457343140633,-0.8967764915333576,-0.9197633517012802,0.9082891255415132,0.4586980254190881,-0.4197961276964479,-0.66208494033973,9.934941388077275,-1.2945984453581096,0.0963431888986943,-1.12134566032591
0.94,-1.1968444368585769,1.1497246341424414,1.720988737331716,0.0658249017768861,0.1981846048129023,0.0188501101432859,0.2778703390119775,-0.7392059188787956,-0.7219822051390211,-1.2032242947592433,1.1557012057517495,1.7222023096260248,0.2686294470289738,-0.936776492129404,-0.9597633522973268,0.918062319185004,0.4661473155958495,-0.3765112551665284,-0.6955460996965313,9.75215231477614,-1.290546710483885,0.0954689616384656,-1.1226144232245254
0.96,-1.1911787798388072,1.134850646365764,1.7063847268822994,0.0668850583873296,0.1997654189861127,0.0186711768307328,0.2881886632976765,-0.7478241975904553,-0.7377276734445587,-1.1979759615093877,1.1375656759181023,1.703607042589019,0.2769131597438843,-0.9767764927254504,-0.9997633528933731,1.035208090406683,0.5159162142849505,-0.4309139355829827,-0.787273415276879,9.68479543938065,-1.2870391326610846,0.0938075921558757,-1.122964876361371
0.98,-1.18530248699534,1.1197952374938254,1.6914547727468774,0.068311405737921,0.200571013911285,0.0184712253451825,0.2988414608732567,-0.7572588925264963,-0.7544587287548035,-1.192520535441659,1.1184301460695536,1.6840117755371122,0.2851968724587948,-1.0167764933214969,-1.0397633534894195,1.098207376269295,0.5326398787790121,-0.4717347468020494,-0.8365527655122384,9.628680898676976,-1.284310807880976,0.0917750384235386,-1.122065027956537
1.0,-1.1792123071224514,1.1045423707446542,1.67618065034723,0.0697353288711682,0.2005202633282969,0.0182160371842239,0.3095544291131281,-0.7675021844070703,-0.7720932168055622,-1.1703604139516772,1.0819322928675006,1.6537318363091371,0.3376726017192707,-0.8572588940166124,-0.8544587302449196,1.1518114926838925,0.5356484119935667,-0.5121645940287023,-0.8817244025379367,9.5829089519857,-1.282423242237497,0.0898310446324067,-1.1201396572350322
1.02,-1.1732150832480075,1.0898003588289438,1.6616532270561637,0.0697242529411348,0.2012466640181028,0.0179362518780334,0.321564967381795,-0.7832524831267659,-0.7562358436837319,-1.1703604139516772,1.0819322928675006,1.6537318363091371,0.3376726017192707,-0.8572588940166124,-0.8544587302449196,1.2686422088080076,0.6005269134333469,-0.7875149359847788,0.7928686560915166,9.535815385342175,-1.2803070191811332,0.0896605057137758,-1.1064487780723935
1.04,-1.1666454137362328,1.0739821347125484,1.6466551924757762,0.0678346704301163,0.2038760095713679,0.0176457930530899,0.3349274214986603,-0.79758199089943,-0.7448762116791712,-1.1703604139516772,1.0819322928675006,1.6537318363091371,0.3376726017192707,-0.8572588940166124,-0.8544587302449196,1.1323992364789153,0.6681227058432632,-0.7164753886332087,0.5679816002280347,11.151561006889096,-1.27876130501293,0.0910760782660558,-1.113061985072407
1.06,-1.15979809368364,1.0578958957640077,1.6318063956619848,0.0646865191544879,0.2073232328142228,0.0173251026041668,0.3492336620462936,-0.8098974021483184,-0.7408451905613119,-1.1669836879344846,1.0733597039273344,1.645187249006688,0.3454388298884736,-0.8772588943146356,-0.8744587305429428,0.965125644784942,0.7153120273816649,-0.6157705624444176,0.2015510558929623,11.151561006889096,-1.275557426172924,0.0937935535257757,-1.1195199122359716
1.08,-1.1526578899463278,1.0415939081647316,1.6169688695754625,0.061219008869732,0.2106542434566201,0.0169747429635693,0.3641099265643294,-0.8196045394251418,-0.7430787787278239,-1.160230235900099,1.0562145260470022,1.6280980744017897,0.3609712862268792,-0.917258894910682,-0.9144587311389892,0.8951545623791027,0.7438132259017932,-0.4853568638411687,-0.1116794083255989,10.720024562901015,-1.2719706370741846,0.0967086646221141,-1.1243746025900367
1.1,-1.1455961625531006,1.0259436313784285,1.6027862686643586,0.0581699259133202,0.2132339109431728,0.0166249239133274,0.3784627166711974,-0.8273430717163216,-0.7497026747790994,-1.1534767838657136,1.03906934816667,1.6110088997968912,0.3765037425652848,-0.9572588955067284,-0.9544587317350356,0.8800049215367238,0.7176395053433982,-0.3869266145589911,-0.3311948025637723,10.383957155589997,-1.2684534035384007,0.099545720025311,-1.1276837549412135
1.12,-1.1378696404930198,1.0093226902882173,1.5876834942613345,0.0554567808399243,0.2151243823475632,0.0162485190394352,0.3933784042067856,-0.8343992934004913,-0.7603864526603015,-1.145946709014408,1.0199241702565354,1.5919197251621906,0.3920361989036904,-0.997258896102775,-0.9944587323310822,0.9828671183460052,0.7457843767794098,-0.3528110842084875,-0.5341888940601058,10.122587662579464,-1.2655668911182727,0.1018716631914255,-1.129222333719197
1.14,-1.1298447806860843,0.9925681947269688,1.5723436253619982,0.0533536009313416,0.2160853012418961,0.0158715426735066,0.4082734331415183,-0.8408349899659346,-0.7730405455890292,-1.138416634163102,1.0007789923464008,1.5728305505274898,0.407568655242096,-1.0372588966988214,-1.0344587329271286,1.028841757873706,0.7447514467366384,-0.3217848282721647,-0.6327046464363884,9.910071805940788,-1.2634380501050548,0.1034933366437156,-1.1289856334825186
1.16,-1.1215202725310045,0.9756799884469252,1.556736403059792,0.0515323810780019,0.2160094164175845,0.0154695512228134,0.4233291838679002,-0.8476021680928455,-0.7870215375214304,-1.1304982479033363,0.980633814421365,1.552741375877888,0.4231011115805016,-1.0772588972948678,-1.074458733523175,1.0815942690655274,0.7527875363190939,-0.3383589063455428,-0.6990495966200605,9.818655905480227,-1.2620639319601137,0.1048920412132367,-1.127280416861161
1.18,-1.1133326815891338,0.9595121666823826,1.5416380512075925,0.0498076127119445,0.2147643579467811,0.0150395230339083,0.4376867272844403,-0.8538533073473662,-0.8015517337263895,-1.1221915502351103,0.959488636481428,1.5316522012133849,0.4386335679189072,-1.117258897890914,-1.1144587341192214,1.0681086048383026,0.7178771708270026,-0.3125569627260349,-0.726509810247955,9.74882346807317,-1.2621392792099224,0.1062784222681904,-1.1239997084045992
1.2,-1.1044222180985903,0.9423699620024064,1.5254324835379975,0.0479673076938119,0.2119455558169398,0.0145257357260414,0.4525078544603836,-0.8599716757342518,-0.8182808235053222,-1.0914483452249115,0.9168195013150144,1.501560464521273,0.4863040604581921,-0.9538533088374824,-0.8412893159331156,1.1586227678959125,0.7410563587971652,-0.305918419344281,-0.8364544889466308,9.674704098423716,-1.263904249179663,0.1076845730759173,-1.1186784858464474
1.22,-1.095113150913521,0.9250577973986076,1.509412593389499,0.0452202278507025,0.207577113248303,0.0138959823001623,0.4773796682103621,-0.8702204103217689,-0.7827974847233594,-1.0914483452249115,0.9168195013150144,1.501560464521273,0.4863040604581921,-0.9538533088374824,-0.8412893159331156,2.226382161138633,1.243590687498927,-0.5124367293758536,1.7741669390981374,9.58515984652422,-1.2637139444300058,0.1098148422909894,-1.092666031206288
1.24,-1.0858228143826,0.908449570139373,1.4948289416475695,0.0419561286112992,0.2020753040331164,0.0132221506039421,0.4989068954509819,-0.8773379832136105,-0.7541772208505385,-1.0914483452249115,0.9168195013150144,1.501560464521273,0.4863040604581921,-0.9538533088374824,-0.8412893159331156,1.8256511582787769,1.0763613620309864,-0.3558786445920781,1.4310131936410453,12.99041122669678,-1.2746170005658246,0.1130752312328325,-1.092309871246477
1.26,-1.0756401353748084,0.8908466779454356,1.4799925633710844,0.0387265676499953,0.1949815125846902,0.0125130730744381,0.5177991913942306,-0.8825934415449008,-0.7312491981273755,-1.0865853046203298,0.9072809682266396,1.4931475713619418,0.4960275270929425,-0.9738533091355056,-0.8492368323744608,1.5085033263744383,0.9446147971624352,-0.2627729165645187,1.1464011361581483,12.366309969842405,-1.2867472142346346,0.1161665484197779,-1.0889218456704617
1.28,-1.0651212474312,0.8731528488725128,1.4655430541627013,0.0361240177334226,0.1869405561998987,0.0118528037683441,0.5327491295915657,-0.8866135327399718,-0.7150793848328718,-1.076859223411166,0.8882039020498899,1.4763217850432797,0.5154744603624432,-1.013853309731552,-0.8651318652571512,1.1192906763883288,0.7474969098667572,-0.2010045597535481,0.8084906647251866,11.837858847604366,-1.2990681692298538,0.1186190546594427,-1.0826315737466223
1.3,-1.0543449292735378,0.8553884935240892,1.4513517732658276,0.034291745813126,0.1783869088670192,0.0112646291244763,0.5438238965908061,-0.889801055579583,-0.7047795825623072,-1.067133142202002,0.8691268358731402,1.4594959987246172,0.5349213936319439,-1.0538533103275984,-0.8810268981398417,0.772814163873234,0.5537383499620185,-0.1593761419805606,0.5149901135282298,11.38687579865018,-1.310158437576318,0.1201988131329694,-1.0745340429139607
1.32,-1.0439368589900386,0.8384607581335677,1.4380182582392205,0.0333820489225552,0.1702245199447609,0.0107892741275567,0.5509951153572374,-0.8920426603061914,-0.6992195552526702,-1.056434714329363,0.8480497696665882,1.4418754607618205,0.5543683269014447,-1.0938533109236448,-0.8969219310225321,0.467346429402963,0.3585609383215671,-0.1120802363304196,0.2780013654818503,11.027271115594884,-1.3208830064868515,0.1209844039114433,-1.0646951373350564
1.34,-1.0328634269995982,0.8206031809439581,1.4240813134921315,0.0336203729633486,0.1620249372260317,0.0104021620850053,0.5557504213779149,-0.8937184057280723,-0.6948047133758033,-1.0457362864567243,0.8269727034600363,1.4242549227990235,0.5738152601709454,-1.1338533115196914,-0.9128169639052226,0.3350816574619662,0.2377653010338709,-0.0837872710940434,0.2207420938433457,10.742429712622652,-1.330538086738123,0.1205812081387654,-1.0543781353002954
1.36,-1.0217188401084871,0.8027050887166112,1.4102197963470449,0.0350869009751838,0.1545055789219804,0.0101268854454208,0.5582997756144096,-0.8960906478045598,-0.6916008857974653,-1.034551685252348,0.8048956372385832,1.4062370090141594,0.5932621934404461,-1.1738533121157375,-0.9287119967879128,0.23659697084024,0.1274677118247358,-0.1186121038243781,0.1601913789169018,10.64423276278012,-1.3389753742524726,0.1190114334919964,-1.0448587785417187
1.38,-1.0105445531805073,0.7847505348385562,1.3964095632596638,0.0374573338082533,0.1478000891355601,0.0099365095375784,0.5589011228813446,-0.8994041497675078,-0.6895617538124696,-1.0228809107162342,0.7818185710022288,1.387821719407228,0.6127091267099468,-1.213853312711784,-0.9446070296706034,0.1968436755787611,0.0300673633467529,-0.1656750981473997,0.1019565992497806,10.56129204129411,-1.3458958055241017,0.1167401531962428,-1.0366691671470076
1.4,-0.9999348931762588,0.7676148571756604,1.3833175654894254,0.0399764832597175,0.1423004390106018,0.0097967477822673,0.5577750289630747,-0.9042268705483726,-0.6886295052750747,-0.98259949703644,0.7397803273501807,1.3619314755690404,0.6415562174453057,-0.999404151257624,-0.6886516653925554,0.251971280994602,-0.0563046959134949,-0.2411360390432382,0.0466124268697465,10.487051697569768,-1.3520463117037491,0.1140954767464948,-1.0289010425324177
1.42,-0.9888324305509032,0.7493965470323838,1.3698805844663289,0.0405512043112369,0.1399999891703278,0.0096422226813371,0.5526837505384604,-0.9168356608065076,-0.6534052525007648,-0.98259949703644,0.7397803273501807,1.3619314755690404,0.6415562174453057,-0.999404151257624,-0.6886516653925554,1.8878894904622088,-0.254563921230716,-0.6304395129067442,1.761212638715498,10.420984909183971,-1.354211977250044,0.1134816552409024,-1.0160809820088936
1.44,-0.9778066649234612,0.73094589821639,1.3571669458890934,0.0380450716201394,0.1429449581439791,0.0094947478453002,0.5507046322467222,-0.9272748513233038,-0.6202241967208886,-0.98259949703644,0.7397803273501807,1.3619314755690404,0.6415562174453057,-0.999404151257624,-0.6886516653925554,1.7420362155577571,-0.0989559145869123,-0.5219595258398158,1.659052788993809,12.926270243738143,-1.3527545065724862,0.1155187401263934,-1.0275556469884632
1.46,-0.9673360909874628,0.7132621681541642,1.3456492781752376,0.0342075702245541,0.1483407702742263,0.0093528156171638,0.5518723393940986,-0.9333251729719771,-0.5940575779716248,-0.976183934861987,0.7297862858376045,1.3550449589151148,0.6580872363580978,-1.0194041515556471,-0.6884696477085726,1.344118548346612,0.0583853573688231,-0.3025160824336736,1.3083309374631868,12.42156105635604,-1.3492796036128332,0.1192849822036619,-1.0422166671553827
1.48,-0.9562638207417988,0.6945588060989178,1.3340150222060114,0.0303105406239008,0.155340975809378,0.0092495893791064,0.5556010220678032,-0.9367172016365348,-0.5709459876539158,-0.9633528105130807,0.709798202812452,1.3412719256072638,0.6911492741836823,-1.0594041521516937,-0.6881056123406069,1.1827452599313029,0.186434133685226,-0.1696014332278728,1.155579515885452,11.765161550035373,-1.3439610117419265,0.1230369480850919,-1.0571692429063984
1.5,-0.9450939159125784,0.6758050899117215,1.3228044556902268,0.0271934277707751,0.1628829496428849,0.0092073564812332,0.5614592111316885,-0.9386087159415698,-0.5514415114322168,-0.9505216861641748,0.6898101197872996,1.3274988922994126,0.7242113120092667,-1.09940415274774,-0.6877415769726412,1.022644608548348,0.2929094531942677,-0.0945757152517545,0.975223811084952,11.765161550035373,-1.337555222351854,0.1261166381778094,-1.0720399406751633
1.52,-0.9337872187524586,0.6570241232513458,1.3119523278607166,0.0250593362457445,0.1705092437971845,0.009230932125373,0.5691635508992057,-0.9396589419239224,-0.5347861408595244,-0.9360374599239896,0.6678220367323447,1.3137440607599598,0.7572733498348511,-1.1394041533437864,-0.6873775416046755,0.919050045945626,0.3852169883758582,-0.0525112991176357,0.8327685286346198,11.560388785758732,-1.3310565290123983,0.1282079520407326,-1.0855685455747062
1.54,-0.9228843656457958,0.6391692688290024,1.3019447946176583,0.0240113865397448,0.1775973964269244,0.0093190903429861,0.5783080426953944,-0.939928435939606,-0.5195117967912581,-0.9215532336838042,0.6458339536773899,1.299989229220507,0.7903353876604355,-1.179404153939833,-0.6870135062367098,0.8902246120373655,0.4572245898094351,-0.0134747007841717,0.7637172034133111,11.417525984904389,-1.3242537030341293,0.1294544295696342,-1.0990637567456916
1.56,-0.911199797244878,0.6203664219943861,1.2917216288361275,0.0239383531254721,0.184713145895234,0.0094838029987909,0.5898586359343782,-0.9404012548839896,-0.5036460391356199,-0.9062424564979792,0.6228458706075339,1.286243498565253,0.8233974254860199,-1.2194041545358794,-0.6866494708687441,0.9815320014065632,0.5775296619491888,-0.0236409472191889,0.7932878827819123,11.42551728484068,-1.3176246824304343,0.1296665192590254,-1.1120655504547603
1.58,-0.8992533883785409,0.6015522775835078,1.2818113797753286,0.0248028340799491,0.190941385487692,0.0097065453174772,0.604227201621602,-0.94107046329171,-0.4882061419381073,-0.8901051283665146,0.5988577875227769,1.272506868794199,0.8564594633116043,-1.2594041551319255,-0.6862854355007784,1.0550994565333485,0.7184282843611944,-0.0334604203860167,0.7719948598756271,11.42551728484068,-1.3115023599285962,0.1289241604553216,-1.12430340172775
1.6,-0.8869966463110712,0.5827201597705598,1.2722058020555982,0.0264950366769611,0.1956302062365824,0.0099651524485252,0.6206390721923968,-0.9421873795123576,-0.4731395389691204,-0.8690420282974608,0.5544987544189223,1.2574010726784233,0.6816827148009043,-1.0410704647818263,-0.4308051032318047,1.1153469443423756,0.820593528539737,-0.0558458110323734,0.7533301484493465,11.427368505257618,-1.3071039221506584,0.1274181984484713,-1.133740664357913
1.62,-0.8748877919213431,0.5647345308919811,1.2636074911925446,0.02672198299168,0.1953400143704332,0.0099996541696314,0.652550345919201,-0.9502092305109512,-0.4326343734501094,-0.8690420282974608,0.5544987544189223,1.2574010726784233,0.6816827148009043,-1.0410704647818263,-0.4308051032318047,2.6092853035041688,1.5955636863402125,-0.4010925499296769,2.025258275950548,11.430781205959647,-1.2994054229057417,0.1266639974631317,-1.1362997300344075
1.64,-0.861520322725673,0.5456637556339126,1.2554034806359091,0.0245136537355698,0.187677894146378,0.0096879807220191,0.681427468384474,-0.956257747901947,-0.3899333843636047,-0.8690420282974608,0.5544987544189223,1.2574010726784233,0.6816827148009043,-1.0410704647818263,-0.4308051032318047,2.59511427179486,1.4438561232636482,-0.3024258695497939,2.135049454325236,13.601876088712745,-1.3141579736120037,0.1293778670320933,-1.13191764816422
1.66,-0.8476565662277554,0.5265067833841339,1.2480151206294834,0.0212388778059674,0.175197374448261,0.0092322546523273,0.7026071781241144,-0.958932108224164,-0.3508937783304869,-0.8622252011494518,0.544088049771104,1.2530930216461051,0.6971738174367647,-1.0610704650798497,-0.4193248954905442,2.2247601820249727,1.0589854869820226,-0.1337180161108508,1.9519803016558892,13.381503106200398,-1.3331584392106002,0.1330012080731697,-1.1220891495497554
1.68,-0.8341714364581369,0.5082866953604059,1.2416824608109651,0.018544495988664,0.1610772239489413,0.0088395752237194,0.7152263832623248,-0.95905977167683,-0.3175733929603379,-0.8485915468534336,0.5232666404754674,1.244476919581469,0.7281560227084856,-1.101070465675896,-0.3963644800080231,1.7815082917942218,0.6309602569105177,-0.0063831726333007,1.6660192685074542,13.024557968832596,-1.355694100959171,0.1364114061542561,-1.1085008383802106
1.7,-0.8197943497430462,0.4891180014824343,1.2356680896469694,0.0167385272852888,0.1457602380669462,0.0085433847566057,0.7212486060995845,-0.9579962927501456,-0.2857406926663263,-0.8349578925574156,0.502445231179831,1.235860817516833,0.7591382279802065,-1.1410704662719424,-0.373404064525502,1.6207397719386325,0.3011111418629864,0.0531739463342229,1.5916350147005764,12.676685600587009,-1.3765849345916463,0.1386337198323954,-1.0922404947816926
1.72,-0.8053698792283062,0.4699817605606493,1.2302500553841265,0.0163973971917169,0.1315865377513464,0.0084003418532109,0.7206589689528184,-0.9559600048075462,-0.2576208520339584,-0.8197751279978115,0.4796238218543921,1.228392736226323,0.7901204332519274,-1.1810704668679888,-0.350443649042981,1.4099818950431535,-0.0294818573383037,0.1018143971299678,1.4059920316183971,12.402953734061157,-1.3946094610816622,0.1393895278663363,-1.0777217672389288
1.74,-0.7910123715497921,0.4508921407393659,1.225376161060271,0.0179131506239752,0.1196822247096866,0.0084269001438531,0.7150722938301348,-0.9534171631084776,-0.2311697044065123,-0.8045923634382073,0.4568024125289532,1.220924654935813,0.8211026385236483,-1.2210704674640354,-0.3274832335604599,1.35770043975271,-0.2793337561341813,0.1271420849534354,1.3225573813723035,12.145956892399226,-1.4106485155057154,0.138443483768961,-1.0654518810220568
1.76,-0.7775097685709651,0.4327900083895332,1.221225941728734,0.0209534550339316,0.1110441747302919,0.0085918606199426,0.7065400877917228,-0.9526311338129936,-0.2070260500730509,-0.7886350437468101,0.4329810031886132,1.214030584032366,0.8520848437953691,-1.2610704680600815,-0.3045228180779389,1.2809492832553335,-0.4266103019205991,0.0393014647741885,1.207182716673069,12.03532916459335,-1.4230319775111897,0.1358119147400239,-1.0572957224624535
1.78,-0.7634989995375757,0.41371932552124,1.217349973136605,0.0246862442527498,0.1052097570374718,0.0088457467671175,0.6948449900769603,-0.9546129191825288,-0.1818553970958121,-0.77190316892362,0.4081595938333721,1.207710523515982,0.88306704906709,-1.301070468656128,-0.2815624025954178,1.3912804849394391,-0.5847548857381257,-0.0990892684767486,1.2585326488619415,11.970021185146834,-1.431616010572832,0.1326285253085357,-1.0527794704389444
1.8,-0.7497434659688021,0.3945884505951206,1.2139750289819695,0.028125476245596,0.1033306303867443,0.0091633240611533,0.6816527415998722,-0.9583544694307646,-0.1569189541564004,-0.7287567500337278,0.3659886795621135,1.2082572032818144,0.7937722718738925,-1.054612920672645,-0.0876109467650778,1.422902671137282,-0.6596124238544054,-0.1870775124117984,1.2468221469705858,11.975024171963923,-1.4348893894622747,0.1296573926706569,-1.0547319228370848
1.82,-0.7362487770425513,0.3752809453347373,1.2112211293925237,0.0281667300626163,0.1057259305067065,0.0093657723976958,0.6691597711646083,-0.9707748093302851,-0.1196984904288611,-0.7287567500337278,0.3659886795621135,1.2082572032818144,0.7937722718738925,-1.054612920672645,-0.0876109467650778,2.0589451629469573,-0.6246485217631936,-0.6210169949760314,1.8610231863769644,11.957362745881255,-1.4326532353631416,0.1297174711563553,-1.059297815141225
1.84,-0.7236270300961052,0.3567556913607948,1.209304038463019,0.0245423558015648,0.1113348715201829,0.0093962438350579,0.6605485035275818,-0.9779083274179976,-0.0840013019949146,-0.7287567500337278,0.3659886795621135,1.2082572032818144,0.7937722718738925,-1.054612920672645,-0.0876109467650778,1.870381159491896,-0.4305633818513288,-0.3566759043856171,1.784859421697322,12.88014169208327,-1.4284755942090843,0.1336857325287306,-1.074835649308474
1.86,-0.7104787934215059,0.3371738799117415,1.208014754962149,0.0198227927930291,0.1193162822305307,0.0093983133175374,0.6551692416316981,-0.9798146537306492,-0.0468674332434111,-0.7208190273149888,0.3554425503553871,1.2073810938141636,0.813557728233279,-1.074612920970668,-0.068762056698931,1.8784932439382809,-0.2689630947941834,-0.095316315632582,1.8566934375751776,12.821912427491952,-1.4224289918300967,0.1387881381002812,-1.095005660592521
1.88,-0.6973965696820217,0.3175876176274092,1.20745946503495,0.0159313937265739,0.1281946088599301,0.0094518730171214,0.6536770333387817,-0.9789109527360847,-0.0106007482193817,-0.7049435818775109,0.3343502919419342,1.2056288748788622,0.8531286409520519,-1.1146129215667149,-0.0310642765666373,1.815430943129744,-0.0746104146458204,0.0451850497282191,1.8133342512014683,12.78481784453561,-1.4152533256711566,0.1432281087590663,-1.1165419154096798
1.9,-0.6843071789745289,0.2980361539496647,1.2076230036081192,0.0134666535079626,0.1369807613482097,0.0095868810125329,0.6555783978787226,-0.9767178181202164,0.0250778998807369,-0.6890681364400331,0.3132580335284813,1.2038766559435603,0.8926995536708248,-1.154612922162761,0.0066335035656563,1.7898260787079048,0.095068226997047,0.109656730793417,1.783932405005933,12.740712185765004,-1.407129093187132,0.1461435947796395,-1.137077046297554
1.92,-0.6718073832122966,0.2795106429694514,1.208437174285476,0.0125747673757064,0.1446408669933959,0.0098029866571629,0.6602156490209365,-0.973740958655135,0.0587875624789762,-0.6712141453666165,0.2901657750852261,1.2040093260148736,0.9322704663895977,-1.1946129227588074,0.04433128369795,1.7078547529854098,0.2318625571106958,0.1488429732540763,1.685483129911964,12.73397050994936,-1.3993647421818651,0.147755693154536,-1.1584472855693588
1.94,-0.6585283334740585,0.260077597587704,1.2099932617114362,0.0135311372676234,0.1515594502469593,0.0101562789189474,0.6675796231022975,-0.9699412962830932,0.0950593477433298,-0.6533601542932,0.2670735166419709,1.2041419960861868,0.9718413791083704,-1.234612923354854,0.0820290638302438,1.8603144590873923,0.3681987040680456,0.1899831186020828,1.8135892632176824,12.858501083630472,-1.3915064146245613,0.147225537205311,-1.1762239906273784
1.96,-0.6450736431599807,0.2407108532464904,1.2122816906288114,0.0164807218607119,0.1568588953638124,0.0106442093042772,0.6774578888320377,-0.96731913440772,0.1319270318905739,-0.6345168904018141,0.2429812581838144,1.2052171106608074,1.011412291827143,-1.2746129239509003,0.1197268439625375,1.9129048598329288,0.4939132864870132,0.131108093768667,1.843384207362204,12.858501083630472,-1.3855812239646832,0.1446989827034108,-1.19116101573637
1.98,-0.6320923415223894,0.2223301382145489,1.2151444298683374,0.0201396838542955,0.1600918891721187,0.0111544244162588,0.6883613196185855,-0.967805499086339,0.1675490121735661,-0.614684353692459,0.2178889997107569,1.207234669738735,1.0509832045459162,-1.314612924546947,0.1574246240948311,1.862825027209701,0.5451715393273882,-0.0243182339309477,1.781099014149609,13.001923731444547,-1.3820976475149327,0.1409968055175114,-1.203900053702757
2.0,-0.6181978345351695,0.2029484690194396,1.218896334950426,0.0238053344909927,0.1615797596285913,0.0116495534719542,0.7003901998919554,-0.9703530268065088,0.2058017003134731,-0.5976742755414601,0.1739398632602319,1.2235218804770156,0.7883613211087016,-1.057167494544942,0.2605719845189183,2.009012200090559,0.6014440136684951,-0.1273763860084875,1.9126344069953505,13.08287419620865,-1.3811061716975326,0.137414806928365,-1.212630669672511
2.02,-0.6040017888463487,0.183391494299931,1.2233081432387165,0.0232104403509495,0.1588403475559992,0.0117510005373907,0.7184912840079103,-0.9840331456834448,0.2329969440184059,-0.5976742755414601,0.1739398632602319,1.2235218804770156,0.7883613211087016,-1.057167494544942,0.2605719845189183,1.7708586750716888,0.9050542057977452,-0.6840059438467994,1.3597621852466406,13.08287419620865,-1.3804715156233636,0.1381917049622961,-1.2153526808810406
2.04,-0.5894849433904108,0.1636423917243306,1.2282647451693938,0.0176223953264503,0.1502425564057761,0.0114095196047499,0.7313908568825889,-0.9892082170021598,0.2615713966082159,-0.5976742755414601,0.1739398632602319,1.2235218804770156,0.7883613211087016,-1.057167494544942,0.2605719845189183,1.5887728631794968,0.6449786437339289,-0.2587535659357542,1.4287226294905002,12.330756464755725,-1.3936403747190016,0.1445177505320877,-1.2039280339744267
2.06,-0.5755277175689563,0.144856199495872,1.2335075455078257,0.0119087530176434,0.1395954582083756,0.0110901068025287,0.7367075218744156,-0.9881756659258272,0.2889028979556862,-0.5897906623303731,0.1633681883147825,1.2261276003222048,0.8083613214067248,-1.0750398936366623,0.2791765789879887,1.3931475642114537,0.2658332495913351,0.0516275538166299,1.3665750673735155,12.411177545643111,-1.4092365409031071,0.151601121617179,-1.188668368497286
2.08,-0.5607957593322608,0.1251353180609679,1.23958350372988,0.0071664229388805,0.1282653942446591,0.010924005655233,0.7358426664999016,-0.9842556291072934,0.3172273799787848,-0.574023435908199,0.1422248384238837,1.2313390400125832,0.8483613220027713,-1.1107846918201036,0.3163857679261296,1.430376650881089,-0.0432427687256986,0.1960018409266906,1.416224101154928,12.354064803774236,-1.424615386712878,0.1572737818964736,-1.1741929846560135
2.1,-0.5461427497442155,0.1055090719400346,1.2462144251104648,0.0042827989066354,0.1187616396155972,0.0109598124630587,0.7295343281080653,-0.9791244094349624,0.3444398224522624,-0.5582562094860251,0.1210814885329848,1.2365504797029616,0.8883613225988177,-1.1465294900035448,0.3535949568642704,1.4200718062513262,-0.3154169195918155,0.2565609836165439,1.3606221236738825,12.22817605531054,-1.437635328634241,0.1609809277552431,-1.1633678358802428
2.12,-0.5316626031905385,0.0859912584493739,1.253383592797198,0.003264965015471,0.1124866691485086,0.0111690343202356,0.7187636704711092,-0.9733166328336184,0.3711041885554016,-0.5404889830340487,0.098150898732914,1.243622378840247,0.9283613231948642,-1.182274288186986,0.3908041458024113,1.466906400103528,-0.538532881847803,0.2903888300672064,1.333218305156958,12.22817605531054,-1.4471192945402038,0.1627149618303792,-1.156957301936152
2.14,-0.5181373683654557,0.0675616570751168,1.2606856955759616,0.0042765943791509,0.1108180755938516,0.0115283941119123,0.7060160364582241,-0.967264831873248,0.3961783027969973,-0.5227217565820723,0.075220308932843,1.2506942779775323,0.9683613237909108,-1.2180190863704272,0.4280133347405522,1.4386084185689627,-0.6373817006442573,0.3025900480185195,1.2537057120797834,12.222718644823544,-1.45076520068451,0.1623860184833986,-1.1596899583634523
2.16,-0.5041398758525855,0.0482735915499124,1.2688928279753824,0.0073637101768685,0.1132023195013862,0.0120704026426208,0.6948679173622513,-0.962274110669754,0.4232314408503801,-0.5039545301151948,0.0513960991781861,1.258696406838271,1.0083613243869571,-1.2537638845538683,0.465222523678693,1.4841328579716078,-0.5574059547986399,0.2495360601747043,1.3526569026691415,12.244827557378812,-1.4491431865497335,0.1598476179172717,-1.1697429153625645
2.18,-0.490330148961348,0.0290492017980954,1.2776548798543306,0.0113535793417834,0.1184394266854861,0.0127109328976993,0.6871087488778137,-0.9605960943395342,0.4515798034388857,-0.4841873036334161,0.0266782694689432,1.2676287654224638,1.0483613249830035,-1.2895086827373097,0.502431712616834,1.4719460722320636,-0.3879584242218792,0.0839008165109844,1.4174181294252823,12.244827557378812,-1.4439068481396522,0.1564379256202683,-1.1830430849703102
2.2,-0.4773169928230648,0.0107938899104311,1.2865182519019704,0.014886639693895,0.1247526047533798,0.0133377567083635,0.6833557881049079,-0.9610189380794968,0.4799492839354097,-0.4559747115174573,-0.0189806029188812,1.3002338700262748,0.7871087503679298,-0.994914425968572,0.5374728905279476,1.4309882381016013,-0.1876480386452883,-0.0211421869981298,1.4184740248261996,12.443948990404351,-1.436471682280189,0.1530437325788509,-1.199151247213204
2.22,-0.4636182475469556,-0.0086718603951653,1.2962996076145186,0.0104800411761233,0.1299064074333343,0.0134208373186899,0.6865496526239878,-0.9820658071324226,0.4960887750291065,-0.4559747115174573,-0.0189806029188812,1.3002338700262748,0.7871087503679298,-0.994914425968572,0.5374728905279476,1.335715763421211,0.159693225953994,-1.0523434526462927,0.8069745546848389,12.443948990404351,-1.427560627387456,0.1581925586876365,-1.205530339565558
2.24,-0.449860595240812,-0.0283587245373826,1.3064056880479955,-0.0019030369225378,0.1318886756353177,0.0129047847025052,0.6888416619313453,-0.984434842374831,0.5139425203041036,-0.4559747115174573,-0.0189806029188812,1.3002338700262748,0.7871087503679298,-0.994914425968572,0.5374728905279476,0.9077745521180716,0.1146004653678756,-0.1184517621204195,0.8926872637498529,11.503506961875246,-1.4260524541921242,0.1724326812173266,-1.208683374475782
2.26,-0.4360750944566414,-0.0479703547309027,1.3168772518389402,-0.014578753711874,0.1320103292420727,0.0123852687346649,0.6894462104694989,-0.9766283036771248,0.5322863809452285,-0.448103624013778,-0.0289297471785669,1.3056085989315542,0.807108750665953,-1.0017780922943795,0.5546515079457599,0.9972521604323302,0.0302274269076807,0.39032693488531,0.917193032056246,11.677825112895334,-1.4267034734419954,0.1863873190885664,-1.2090412054671231
2.28,-0.4229865075055953,-0.0663977814635728,1.327162829412393,-0.0243250119151652,0.1314257310311914,0.0120903288411345,0.6882423064761449,-0.9641682233248664,0.5494800565527008,-0.4323614490064194,-0.0488280356979383,1.3163580567421131,0.8471087512619995,-1.0155054249459947,0.5890087427813846,1.063397230700905,-0.0601951996677008,0.623004017612927,0.8596837803736157,11.692493530650609,-1.4284083162670491,0.198578016462952,-1.208936159105276
2.3000000000000003,-0.4092476452480579,-0.0855180297729109,1.3383457261898029,-0.0316423596588699,0.1309332674993347,0.0120115909579927,0.6857228810811457,-0.949031808790056,0.5679257330627859,-0.4166192739990608,-0.0687263242173098,1.327107514552672,0.8871087518580459,-1.02923275759761,0.6233659776170093,1.1996890547192696,-0.1259712697499637,0.7568207267405092,0.9222838255042554,11.693113245716631,-1.4299391499225942,0.2075417958624817,-1.2101003469418747
2.32,-0.3955678368513236,-0.1043223187724295,1.3499040126652049,-0.0360169731584071,0.1311388963057687,0.012137995396909,0.6825277616720283,-0.9329418341321198,0.5869830671627971,-0.3988770989618999,-0.089310979369262,1.3395748341050122,0.9271087524540924,-1.042960090249225,0.657723212452634,1.2572569899696315,-0.1597559704558659,0.8044987328968134,0.95286670500056,11.786303901700194,-1.4305955275917612,0.2131137720227779,-1.2129453276032722
2.34,-0.3819525453217546,-0.1228049439978222,1.361849223790815,-0.037953166571937,0.132282913837916,0.0124150104119126,0.6793410843863339,-0.9167103377493806,0.6065860436811923,-0.381134923924739,-0.1098956345212142,1.3520421536573524,0.9671087530501388,-1.0566874229008405,0.6920804472882587,1.282471320660612,-0.1593338642847219,0.8115748191369621,0.9801488259197576,11.83095970683098,-1.4302774209457416,0.2163838613219929,-1.2173317827028884
2.36,-0.3690675788102009,-0.140065466716021,1.3735680591382184,-0.0378339666198191,0.1341119153428037,0.0127966240505302,0.6772580885992234,-0.90130316314755,0.6259887344490525,-0.3623927488726769,-0.1308234729894568,1.3653684040805831,1.0071087536461854,-1.0704147555524552,0.7264376821238834,1.243165626227673,-0.1041497893555232,0.7703587300915249,0.9701345383930082,11.83095970683098,-1.4286830136331736,0.2173460645822876,-1.223797994611334
2.38,-0.355534359854899,-0.157922106549709,1.386314665222878,-0.0357133032902537,0.1364692139165512,0.0133314222304862,0.6762957153042495,-0.8853780146210068,0.6477043695797872,-0.3426505738057137,-0.1520944947739897,1.3795535853747043,1.0471087542422317,-1.0841420882040704,0.7607949169595081,1.347317081353292,-0.0481186647486975,0.7962574263271627,1.0857817565367356,11.893305756278096,-1.4264259900140823,0.2160957978940647,-1.2325245022912
2.4,-0.3420058560297246,-0.1754783817082945,1.3995110622872249,-0.0319158435792118,0.1389176395390248,0.013991306500416,0.6766771759632709,-0.8716205670585307,0.6708400397331015,-0.3217195740896865,-0.2021910072807593,1.4186998837018674,0.7762957167943656,-0.8331429477302903,0.71455088183784,1.345986728307173,0.0190730329510724,0.687872378123805,1.1567835076657151,11.993030974782414,-1.4245636843748644,0.213186983473282,-1.242007222624235
2.42,-0.3291016965558537,-0.1922062150755733,1.41228608338077,-0.0366251197532471,0.139230235250374,0.0141153771819071,0.6812718945541775,-0.8845107930860054,0.6726085306182833,-0.3217195740896865,-0.2021910072807593,1.4186998837018674,0.7762957167943656,-0.8331429477302903,0.71455088183784,0.6899219629421495,0.2297359295453271,-0.6445113013737347,0.0884245442590914,12.086035575760434,-1.418025614484377,0.2181458282407497,-1.2342751902723783
2.44,-0.3154477193230818,-0.2098366094674399,1.4257700240477276,-0.0498061155849956,0.1360527815187301,0.0138503865645551,0.6835825165013877,-0.8766983836709408,0.6758919845097983,-0.3217195740896865,-0.2021910072807593,1.4186998837018674,0.7762957167943656,-0.8331429477302903,0.71455088183784,0.439186133971763,0.1155310973605105,0.3906204707532335,0.1641726945757482,10.664036356285578,-1.423056430708686,0.2339609288534379,-1.2284962155838166
2.46,-0.3017880246389028,-0.2271909497526164,1.439334413924419,-0.0637022448930351,0.1310050065781446,0.0137268756247767,0.6819363887627085,-0.8589645962679748,0.6804154916494008,-0.3139566169217428,-0.2105224367580622,1.425845392520246,0.7962957170923888,-0.8226959343521469,0.7279201842894506,0.9187750935725214,-0.0823063869339613,0.886689370148297,0.2261753569801294,10.904495166398192,-1.431128873163227,0.2507227152071622,-1.220527708381679
2.48,-0.2882101367216111,-0.2441170998567199,1.4529965746044762,-0.075422834063195,0.1261389113252812,0.0138497595867355,0.6758306532286421,-0.8351719498394342,0.6855959589738618,-0.2984307025858556,-0.227185295712668,1.4401364101570029,0.8362957176884352,-0.8018019075958603,0.7546587891926717,1.255196470861549,-0.3052867767033174,1.189632321427031,0.259023366223049,10.904495166398192,-1.4393848121306438,0.2646819461078017,-1.2153903369734416
2.5,-0.2754627448802034,-0.2597263045611953,1.4660799857756692,-0.0837256105563313,0.1234526768606325,0.0140895075102893,0.6662789248847638,-0.8098207895363304,0.6913838054150668,-0.2829047882499682,-0.2438481546672738,1.4544274277937594,0.8762957182844817,-0.7809078808395737,0.7813973940958928,1.3851137223129764,-0.4775864171939148,1.2675580151551902,0.2893923220602501,10.97214286295548,-1.445880997523565,0.2762533893773077,-1.214024121352255
2.52,-0.2622562619634385,-0.2756294365775282,1.4799867966192333,-0.089726222902995,0.123985202576794,0.014288920450595,0.6553345576436335,-0.7822686946984443,0.6990853304484531,-0.2653788738842786,-0.2594663122840653,1.4700553756756771,0.9162957188805282,-0.7600138540832871,0.8081359989991139,1.5315111753628128,-0.5472183620565174,1.377604741894306,0.385076251669314,11.069774516889083,-1.4461836918657172,0.2847474322751016,-1.219389146717077
2.54,-0.2492501332293021,-0.2909759302973241,1.4940610867020718,-0.093381302348938,0.1275966676625242,0.0143893234167513,0.6462261122393622,-0.7541774597509995,0.7080211719582997,-0.2478529595185889,-0.2750844699008568,1.4856833235575952,0.9562957194765748,-0.7391198273270004,0.8348746039023351,1.542668566189958,-0.4554222702135624,1.4045617473722405,0.4467920754923304,11.18281891849074,-1.442508481243548,0.2907378347549157,-1.2301956011852078
2.56,-0.2363926075688736,-0.3057519923892738,1.508331583477667,-0.0949090303468389,0.1332727146949503,0.0144518401846224,0.640355929908988,-0.7253262607708311,0.7185867642309053,-0.2293270451379981,-0.2901802768487411,1.5019797365620935,0.996295720072621,-0.7182258005707138,0.8616132088055563,1.5640352164002338,-0.2935091165187087,1.4425599490084209,0.5282796136302781,11.26582186332871,-1.4358813037672862,0.2940289590361168,-1.242341352135849
2.58,-0.2242518481678196,-0.3192495884681851,1.5221024891247088,-0.0943773156715852,0.1394446294744541,0.0145865268203862,0.6381194197616128,-0.6972506012877778,0.7304479736735554,-0.2098011307425062,-0.3047537331277182,1.5189446146891723,1.0362957206686674,-0.6973317738144272,0.8883518137087774,1.5280158069291054,-0.1118255073687624,1.403782974152662,0.5930604721325061,11.374840940144168,-1.4276123151333446,0.295208092728408,-1.2572669598493456
2.6,-0.2114845596427314,-0.3328830509275367,1.53686225540129,-0.0916054090037713,0.1457862487408416,0.0149192664221999,0.6389241840180084,-0.6679093391913755,0.7450066435441864,-0.1923458771797389,-0.354112118532574,1.5586248878083866,0.7381194212517289,-0.5972505997976617,0.7601114861567946,1.6382247825925529,0.040238212819782,1.4670631048201157,0.7279334935315518,11.514817371553365,-1.4195283224323465,0.2937664311069241,-1.272515099573981
2.62,-0.1986532998474245,-0.3460841226538035,1.551620819653854,-0.0904315619249525,0.1492798363448973,0.015424700301644,0.643696017414638,-0.6523106232440623,0.729984997553717,-0.1923458771797389,-0.354112118532574,1.5586248878083866,0.7381194212517289,-0.5972505997976617,0.7601114861567946,1.1087607738294345,0.2385916698314782,0.7799357973656607,-0.75108229952347,11.670992947191737,-1.408099431779464,0.2917954030339587,-1.268262217573707
2.64,-0.1863904044348778,-0.3583179750738183,1.565379949085555,-0.0928673193529077,0.1488261281890749,0.0160136708854311,0.646668131195762,-0.6356706863257374,0.7191435940587968,-0.1923458771797389,-0.354112118532574,1.5586248878083866,0.7381194212517289,-0.5972505997976617,0.7601114861567946,1.0040629844704063,0.1486056890562026,0.8319968459162441,-0.5420701747460122,9.787661652854696,-1.4101783530836656,0.2962527261078938,-1.269177307092998
