t,x,y,z,roll,pitch,yaw,v_x,v_y,v_z,ref_x,ref_y,ref_z,ref_v_x,ref_v_y,ref_v_z,a_com,a_x,a_y,a_z,thrust,wind_x,wind_y,wind_z
0.0,0.7175459601839929,-2.458712970134993,2.876638609948992,0.0123618613959297,0.1498707817878887,0.0280712953734769,0.0006242225719522,0.0019010951324701,-0.0021674112936303,0.7175699114571733,-2.458763351981795,2.876573017693642,-0.0705877361088482,0.0992651190462766,-0.1021807798686703,0.1474914254947777,0.0312111285976104,0.0950547566235054,-0.1083705646815183,10.659991325681403,-1.4135185881944654,0.1806201798265269,-1.2785960556701648
0.02,0.717619088742261,-2.458929829171759,2.876361859699657,0.0039306549355521,0.1470702295495423,0.0274803285511965,0.0065895194188024,-0.0187851597380857,-0.0267726487093549,0.7175699114571733,-2.458763351981795,2.876573017693642,-0.0705877361088482,0.0992651190462766,-0.1021807798686703,1.6347198653934647,0.2982648423425104,-1.0343127435277943,-1.2302618707862292,10.65961909797079,-1.4073876006905488,0.1894170646880704,-1.2647173650512995
0.04,0.7177865919035294,-2.4593123900207647,2.875519666701679,-0.0120393293512474,0.1384929501759078,0.0264643341967498,0.0089767268503187,-0.0176297121182463,-0.0561320951805348,0.7175699114571733,-2.458763351981795,2.876573017693642,-0.0705877361088482,0.0992651190462766,-0.1021807798686703,1.4739495544432266,0.119360371575817,0.0577723809919715,-1.4679723235589923,9.19798890956281,-1.4175544484851283,0.2074093370286338,-1.241358095150744
0.06,0.7179314554971915,-2.459585795384563,2.8740917756170767,-0.0284913069005234,0.1264165624044996,0.0256795495462618,0.0047882099491963,-0.0094038449402437,-0.0851101025691339,0.7168640340960848,-2.4577707007913325,2.8755512098949554,-0.0848557976275173,0.1192651193442998,-0.1221807801666935,1.5206359499193374,-0.2094258450561219,0.4112933589001302,-1.4489003694299565,9.00139224114082,-1.4322758740436652,0.2246638532309178,-1.2128055540547773
0.08,0.7179279557456326,-2.4596554383562634,2.8720941576988013,-0.0442846441780156,0.1133421413449198,0.0252313378241677,-0.0052703958755397,0.0023605801825872,-0.1131747595442197,0.7154522793739079,-2.455785398410407,2.8735075942975823,-0.1133919206648556,0.1592651199403463,-0.16218078076274,1.602499782166397,-0.5029302912368022,0.5882212561415472,-1.4032328487542884,8.996184461707344,-1.448062679514854,0.2416574133809043,-1.1820274393166854
0.1,0.7176909542842006,-2.4594762323305246,2.8696840113951523,-0.0585545245516887,0.101623416607846,0.0250624844456342,-0.0192969156627448,0.0161914673811165,-0.1391224706276712,0.7140405246517308,-2.453800096029481,2.8714639787002088,-0.1419280437021938,0.1992651205363927,-0.2021807813587864,1.6288956446850522,-0.7013259893602554,0.691544359926468,-1.297385554172576,9.020563381578995,-1.4624955607782777,0.2574964937012932,-1.154108738810247
0.12,0.7171175666446049,-2.458976708455382,2.866616790399363,-0.0728295429721438,0.0910633422694982,0.0250514498071569,-0.0374203935019204,0.0333390487737774,-0.1662383724563933,0.711201963777687,-2.4498147936187538,2.867420363073033,-0.1704641667395321,0.2392651211324392,-0.2421807819548329,1.8423979812936149,-0.906173891958781,0.8573790696330437,-1.355795091436106,9.050653328135468,-1.4743952225499255,0.2723459163470663,-1.130700224715738
0.14,0.7161517762231814,-2.4580953558499457,2.863000784413061,-0.0859784467451876,0.0829270148750933,0.0251238484524494,-0.0582909819722917,0.0540020948380874,-0.1940407636777373,0.7083634029036431,-2.4458294912080256,2.8633767474458574,-0.1990002897768704,0.2792651217284857,-0.2821807825508794,2.0220756003300555,-1.043529423518566,1.0331523032155012,-1.3901195610672017,9.061465462097203,-1.4825477615244549,0.2857874939614802,-1.1116182554840592
0.16,0.7147378370295608,-2.456756161824169,2.858820531008356,-0.097088642039667,0.0779196233651014,0.0251951467614763,-0.0820109948031189,0.0784043331530331,-0.2225628065452375,0.7048114389536658,-2.4408441887823966,2.8583331318037803,-0.2275364128142086,0.3192651223245321,-0.3221807831469258,2.2201436737346114,-1.1860006415413582,1.220111915747285,-1.426102143375009,9.034867028467945,-1.4873754054910489,0.2965950717379745,-1.098759324588274
0.18,0.7129358422650931,-2.4550123821958514,2.854316761015059,-0.1054079853352381,0.0768482056436828,0.0251240698894514,-0.1060415139012804,0.1034378320262463,-0.250043352945937,0.700546071927755,-2.4348588863418668,2.852289516146802,-0.2560725358515469,0.3592651229205785,-0.3621807837429722,2.2132116620667253,-1.2015259549080746,1.2516749436606571,-1.374027320034972,9.026106525217529,-1.4864486866829074,0.3055510847921565,-1.0924745486964258
0.2,0.7105627793520004,-2.4526563781973394,2.849007887810424,-0.1120416815927453,0.0792486452753586,0.024848302404821,-0.1295972709296006,0.1305465044041527,-0.2793759843720654,0.7076337665700291,-2.4498404905945392,2.841814593367762,-0.1554008727484216,0.2034378335163624,-0.3500433544360531,2.3184893107641367,-1.1777878514160116,1.355433618895322,-1.466631571306423,9.019006923788766,-1.481405342893397,0.3123253890319946,-1.0923058669184609
0.22,0.7077165026335771,-2.449612485258529,2.843266013651121,-0.1129348400376193,0.0853935926875855,0.0245594416037408,-0.153188415956919,0.1710264175353631,-0.2922967446497788,0.7076337665700291,-2.4498404905945392,2.841814593367762,-0.1554008727484216,0.2034378335163624,-0.3500433544360531,2.4300779498631524,-1.179557251365919,2.0239956565605177,-0.6460380138856692,8.99603635671474,-1.4729788538586677,0.3143036000657551,-1.1049838783855035
0.24,0.7046216543074141,-2.4460402377597115,2.8375855197895565,-0.1078642635437206,0.0943497934603795,0.0243796319869448,-0.1708750643252689,0.2016924619880433,-0.3049720271485053,0.7076337665700291,-2.4498404905945392,2.841814593367762,-0.1554008727484216,0.2034378335163624,-0.3500433544360531,1.880084173183434,-0.8843324184174952,1.53330222263401,-0.6337641249363257,10.086940758435958,-1.460450115299326,0.3105880693930281,-1.1264833229122515
0.26,0.7010450783274389,-2.4417300648522797,2.831316250270365,-0.1008267500601958,0.1052657871544795,0.024220345965999,-0.1854223690923847,0.2273884188291245,-0.3214531859488697,0.7060797578425448,-2.4478061122593755,2.838314159823401,-0.1652727445178499,0.2234378338143856,-0.3700433547340763,1.6908096206912873,-0.7273652383557899,1.2847978420540598,-0.8240579400182191,9.865308615867434,-1.4454334863743086,0.3044302104603763,-1.1491150862320745
0.28,0.6972129815436299,-2.436945044239021,2.824683501842228,-0.0938326067014539,0.1166958939140883,0.0240925627240586,-0.1967119887856998,0.2497283007388741,-0.3411523947220539,0.7029717403875765,-2.4437373555890485,2.83131329273468,-0.1850164880567064,0.263437834410432,-0.4100433553301227,1.5926272812955495,-0.5644809846657523,1.1169940954874793,-0.9849604386592103,9.648934387468216,-1.4295710177359808,0.2979298701914205,-1.170693107931593
0.3,0.693183888106074,-2.431737926511906,2.8176245021463844,-0.0875319784639728,0.1280809373147348,0.0240033674660511,-0.2053205667469869,0.2699394387264884,-0.3637943477508891,0.699863722932608,-2.439668598918721,2.8243124256459597,-0.2047602315955629,0.3034378350064785,-0.4500433559261692,1.5773837122193226,-0.4304288980643556,1.0105568993807157,-1.1320976514417602,9.476744228196369,-1.414279864361923,0.2921147503397873,-1.1893003459436875
0.32,0.689219317632729,-2.4264309838384124,2.810476678062754,-0.0823547876463316,0.1385837699351656,0.0239564764689028,-0.2113331451444496,0.2877902878568668,-0.3875135962345851,0.6957685183006967,-2.4335998422185914,2.815311558527436,-0.2245039751344194,0.3434378356025249,-0.4900433565222156,1.5144360850597822,-0.300628919873136,0.8925424565189216,-1.185962424184797,9.338252161785022,-1.3982544720206307,0.2866472202688095,-1.20678549582564
0.34,0.6849450194608957,-2.420489156070593,2.802451389318867,-0.0777998891823911,0.1491628169634153,0.0239420502970425,-0.2155361274763616,0.3055453914170269,-0.4138584325304735,0.6916733136687855,-2.4275310855184618,2.806310691408912,-0.244247718673276,0.3834378361985714,-0.5300433571182621,1.6023101778147826,-0.2101491165956023,0.887755178008004,-1.3172418147944231,9.228261327507424,-1.382603010147533,0.2820291617647597,-1.2224030152655465
0.36,0.6806079163617316,-2.4141904022001888,2.7938886592534957,-0.0738360941182493,0.1591827483534653,0.0239782019676039,-0.2177363486459959,0.3233850622152072,-0.441147899869408,0.6870845154484029,-2.4204623288034317,2.796309824275488,-0.2639914622121325,0.4234378367946179,-0.5700433577143085,1.6338679988186948,-0.1100110584817112,0.8919835399090137,-1.3644733669467224,9.168710936344723,-1.3675145851939328,0.2779744591680059,-1.2365008221079192
0.38,0.6762500442712399,-2.4075381972908194,2.7847709153480684,-0.0700822225699597,0.1685037465836145,0.0240926933283017,-0.2177633745738252,0.3408363611040861,-0.4692830369695761,0.6820021236395487,-2.412393572073499,2.785308957127162,-0.283735205750989,0.4634378373906643,-0.6100433583103549,1.6553961028670892,-0.0013512963914677,0.872564944443946,-1.4067568550084064,9.13931664249867,-1.3538683613113285,0.2742780622119277,-1.248513455666515
0.4,0.6721319656579678,-2.400900544542025,2.775580098387522,-0.0665928184060651,0.1764199419896967,0.0242953917525936,-0.2156422832489162,0.3568822795537754,-0.4967761797837901,0.6653618755425487,-2.390496379235615,2.7613067634995896,-0.220222552321194,0.4408363625942022,-0.5692830384596923,1.5951829276805896,0.1060545662454504,0.8022959224844639,-1.3746571407106971,9.112055075684111,-1.3406551776636435,0.2704193174073402,-1.2592760182786218
0.42,0.6678781801125336,-2.393586659122364,2.765530510715276,-0.0632630530437644,0.1840082289285966,0.024564429103235,-0.2094978151316757,0.3737726486005864,-0.5057763522286896,0.6653618755425487,-2.390496379235615,2.7613067634995896,-0.220222552321194,0.4408363625942022,-0.5692830384596923,1.0050399979841436,0.3072234058620268,0.8445184523405536,-0.4500086222449739,9.084941344402978,-1.3271754751055518,0.2672683247345564,-1.2729756352483788
0.44,0.6637620863984653,-2.38595031885504,2.755298234357697,-0.0607622073037384,0.1912688626087157,0.0248200418928948,-0.2022585312633614,0.3892847112563689,-0.5171680929825979,0.6653618755425487,-2.390496379235615,2.7613067634995896,-0.220222552321194,0.4408363625942022,-0.5692830384596923,1.0281087930846784,0.3619641934157147,0.7756031327891239,-0.5695870376954182,10.303832653286008,-1.3191573676378696,0.2653152608361669,-1.2836536839229866
0.46,0.6599929863586309,-2.3784068268390386,2.745328324673619,-0.0590209374361861,0.1978428697036885,0.0250540731215314,-0.1947038477084267,0.4040688892089048,-0.5317491025443092,0.6631596500193367,-2.386088015609673,2.7556139331149927,-0.2207143878706678,0.4608363628922254,-0.5892830387577155,1.1048201224477268,0.377734177746733,0.7392088976267946,-0.7290504780855633,10.043377818925364,-1.310535669362769,0.2639272333216689,-1.2935639125374014
0.48,0.6561887737809436,-2.370166799597245,2.7345028009324404,-0.0576649245336991,0.2044129763427766,0.0253002007044052,-0.1859844984591857,0.4191632165306718,-0.5501903239673239,0.6587551989729128,-2.377271288357789,2.744228272345799,-0.2216980589696153,0.5008363634882719,-0.629283039353762,1.2688029951489128,0.435967462462053,0.754716366088351,-0.9220610711507372,9.84275628445448,-1.3020852304985884,0.2630271899986463,-1.3020973761311774
0.5,0.6525675048350704,-2.361629288730703,2.7232816441482197,-0.0568559902468357,0.2106229200806346,0.0255378951856829,-0.176453327482971,0.4338466513382178,-0.5711146610134752,0.654350747926489,-2.368454561105905,2.732842611576605,-0.2226817300685628,0.5408363640843183,-0.6692830399498084,1.364069608511813,0.4765585488107349,0.7341717403772985,-1.0462168523075632,9.68081807084218,-1.2937519534580864,0.262699406805319,-1.309384141090203
0.52,0.6491454161973756,-2.3528016791039006,2.7116202979984934,-0.0566702747705368,0.2164770151663181,0.0257576177101356,-0.1660960002929974,0.4482322617174011,-0.5939946828391144,0.6498971133251177,-2.3576378338242185,2.7194569507776087,-0.2236654011675104,0.5808363646803648,-0.7092830405458549,1.4471656878564028,0.5178663594986795,0.7192805189591644,-1.1440010912819598,9.562460793557875,-1.2853216319695513,0.26308225428953,-1.3163901175519312
0.54,0.6460962055291855,-2.3441497282958794,2.7001119439390933,-0.0571286918889507,0.221711887114448,0.0259423245012877,-0.1552842256889173,0.461840107065991,-0.616289169829486,0.6454434787237464,-2.3468211065425324,2.706071289978613,-0.2246490722664579,0.6208363652764113,-0.7492830411419014,1.4134285224980598,0.540588730204003,0.6803922674294943,-1.114724349518581,9.476253859230384,-1.2767102107940282,0.2642839378466741,-1.3231004504251878
0.56,0.6431181668876246,-2.33475284133906,2.6875349466374256,-0.0580285724251284,0.2268857526278257,0.0261263858212783,-0.1429742961855389,0.4771251520266071,-0.6402728588250504,0.6409652523449014,-2.335004379245945,2.6916856291647155,-0.2256327433654054,0.6608363658724576,-0.7892830417379477,1.5495033895269152,0.6154964751689224,0.7642522480308084,-1.1991844497782178,9.460356531781144,-1.2684838739621422,0.2660263341436018,-1.3292476888790603
0.58,0.6403961593325902,-2.3250391765637084,2.6744749879380527,-0.0588422411450881,0.2317284919297504,0.0263351592068977,-0.1297330322589925,0.4934279315901438,-0.6645434578738171,0.6364624341885828,-2.322187651934456,2.676299968335917,-0.2266164144643529,0.7008363664685041,-0.8292830423339942,1.6048159318561446,0.6620631963273185,0.8151389781768326,-1.2135299524383358,9.44656279328683,-1.260685392211287,0.2676872396057101,-1.3350578619281923
0.6,0.6379522789588923,-2.314988729750856,2.6609259802693868,-0.0590448070381562,0.2361238247192268,0.026614412485928,-0.1152549380914087,0.5106411197224343,-0.6891531463380752,0.6339095077196406,-2.3003677799842013,2.6412478150443617,-0.172281420501714,0.5934279330802599,-0.7645434593639332,1.6669926684833454,0.7239047083791874,0.8606594066145251,-1.2304844232129075,9.447230565987413,-1.253657557610031,0.2686151992508114,-1.3405703693240296
0.62,0.6360182817243671,-2.305073825992336,2.6477855412859044,-0.0574020763195645,0.2377489728905112,0.0271633803204226,-0.0893714873419904,0.5316205406694791,-0.6927562100638939,0.6339095077196406,-2.3003677799842013,2.6412478150443617,-0.172281420501714,0.5934279330802599,-0.7645434593639332,1.675612719412791,1.294172537470914,1.0489710473522371,-0.1801531862909322,9.445318827719348,-1.2457244627572226,0.2677729973027566,-1.3511604152892938
0.64,0.6345191363803431,-2.294241653489004,2.633862244496894,-0.0537331667573047,0.23444101404255,0.0281610027849336,-0.0624802276672624,0.5500028180718987,-0.6995429100145778,0.6339095077196406,-2.3003677799842013,2.6412478150443617,-0.172281420501714,0.5934279330802599,-0.7645434593639332,1.663661072464712,1.3445629837364026,0.91911387012098,-0.3393349975341964,10.790508438549296,-1.25368686325254,0.2646215492063065,-1.3502234761278489
0.66,0.6335172518669806,-2.283072118557258,2.619764033808971,-0.0496221767150244,0.2265590662052256,0.0294061810306782,-0.0397376260054398,0.5658592664771577,-0.7099758157914009,0.6321866935146234,-2.2944335006533985,2.6336023804507223,-0.1807910981502583,0.613427933378283,-0.7845434596619564,1.481129981909965,1.1371300830911293,0.7928224202629508,-0.5216452888411549,10.497311619039465,-1.2672462778503095,0.2607648409905142,-1.341635295085975
0.68,0.6329190012969914,-2.2716044592241627,2.605422439090297,-0.0456086591708618,0.2154148250124085,0.0307550691851866,-0.0218885100587339,0.5800343579147521,-0.7235067873050219,0.6287410651045892,-2.2825649419917933,2.618311511263444,-0.197810453447347,0.6534279339743295,-0.8245434602580028,1.3253408499755244,0.8924557973352955,0.7087545718797217,-0.6765485756810519,10.239660338486829,-1.282712609869518,0.2570624133756409,-1.328454145488534
0.7000000000000001,0.6326332789700907,-2.2604605716858077,2.5915250242231784,-0.0421125745504899,0.202949834590372,0.0320421897163788,-0.0095791202731831,0.5922860283228497,-0.7385976518652888,0.6252954366945549,-2.270696383330188,2.603020642076165,-0.2148298087444356,0.693427934570376,-0.8645434608540493,1.1503898229052567,0.6154694892775395,0.6125835204048802,-0.7545432280133435,9.842217250448812,-1.30026884737504,0.2534441146753947,-1.3109165653702837
0.72,0.6325352923790041,-2.248490743899233,2.576566269169691,-0.0389098643015688,0.1888771291315304,0.0333413804121445,-0.0013660397570518,0.6040597175578273,-0.75652487483928,0.6209988405196661,-2.2568278246387807,2.585729772859084,-0.2318491640415242,0.7334279351664225,-0.9045434614500958,1.1483246201809405,0.4106540258065672,0.5886844617488785,-0.8963611486995593,9.842217250448812,-1.317524353598312,0.2502872852976475,-1.291154094139731
0.74,0.6325551298770171,-2.236293737109208,2.561237717116582,-0.0362491614945771,0.1746745056921028,0.0345496274219091,0.0025332348170998,0.6150792787387036,-0.7754228570741112,0.6167022443447774,-2.242959265947373,2.568438903642003,-0.2488685193386129,0.7734279357624689,-0.9445434620461424,1.111045457409031,0.1949637287075813,0.5509780590438162,-0.9448991117415596,9.67789714369519,-1.3334003611151943,0.2478504773367024,-1.2716406449792983
0.76,0.6326070641755832,-2.224500874015366,2.546317981537278,-0.0339619804613984,0.1617117046702683,0.0356143652677058,0.0024989581063756,0.6256198122322029,-0.7940786330789135,0.6119801642874615,-2.2280907072410643,2.550148034410021,-0.2658878746357015,0.8134279363585153,-0.9845434626421888,1.0713799507665738,-0.0017138355362079,0.527026674674963,-0.932788800240114,9.595065409228482,-1.3487833466744186,0.2455991966087731,-1.2519341107703643
0.78,0.6326257414005503,-2.2118762032869315,2.530221233630919,-0.0315885806528691,0.1491227961124821,0.0366506504851702,-0.0008792714443251,0.636191156889449,-0.8146362142018149,0.6068326003477184,-2.2122221485198548,2.530857165163137,-0.2829072299327901,0.8534279369545618,-1.024543463238235,1.1680966402487718,-0.1689114775350383,0.5285672328623092,-1.02787905614507,9.531514713105024,-1.3617541458173836,0.2433380679817834,-1.2337590179752065
0.8,0.632545186050318,-2.199045553347725,2.513703707493848,-0.0291982499496544,0.1379592558247719,0.0375983771986002,-0.0071769686276008,0.6462340694817709,-0.8361076836126387,0.632581777828334,-2.180066645442459,2.4894894229208284,-0.1008792729344412,0.7361911583795652,-0.8742471845201323,1.226320800004221,-0.3148848591637881,0.5021456296160909,-1.0735734705411892,9.455090397258571,-1.3721910641300803,0.2409983869304269,-1.217296456977577
0.8200000000000001,0.6324099615674156,-2.185991618056667,2.497142708108651,-0.0263279116531323,0.1270666081147336,0.0385251054557964,-0.006591663230727,0.6581981794900736,-0.8188546708323758,0.632581777828334,-2.180066645442459,2.4894894229208284,-0.1008792729344412,0.7361911583795652,-0.8742471845201323,1.0501773191874455,0.0292652698436893,0.5982055004151388,0.8626506390131405,9.389305334399978,-1.3799223448336877,0.2385033334009879,-1.2107201653522917
0.84,0.6322618637828021,-2.1733960861915125,2.4817051085963664,-0.0235442150940015,0.1160549657140167,0.039377558068606,-0.0094584756866309,0.6670850967871359,-0.8070898278535148,0.632581777828334,-2.180066645442459,2.4894894229208284,-0.1008792729344412,0.7361911583795652,-0.8742471845201323,0.7510117226438715,-0.1433406227951952,0.4443458648531129,0.5882421489430523,11.752376154851843,-1.3961531634109274,0.2364986796254805,-1.1985459741611753
0.86,0.6320053191246031,-2.159970165741942,2.4656370560365453,-0.0211336203697213,0.1041564904531268,0.0401961403250021,-0.0164754538033091,0.6751020365851803,-0.8005742152281851,0.6315729850989896,-2.172704733858664,2.480746951075627,-0.1208792732324644,0.7561911586775883,-0.8861693785837957,0.6244247622787807,-0.3508489058339078,0.4008469899022204,0.3257806312664868,11.270887966912596,-1.4113370891637844,0.2346686301198224,-1.1834573706882323
0.88,0.6315665956183438,-2.146393227303522,2.449644749352464,-0.0194039092165928,0.0923819664697923,0.040922176789086,-0.0274075754720342,0.6822555923285066,-0.7991650179420268,0.6295553996403007,-2.157980910691072,2.4632620073852247,-0.1608792738285109,0.7961911592736348,-0.9100137667111228,0.6570207016221068,-0.5466060834362559,0.3576777871663161,0.0704598643079146,10.884849875084,-1.4250554345108015,0.2334241820879725,-1.1675409719346896
0.9,0.6308706750001438,-2.1326834288799983,2.433633408754398,-0.0185349637764047,0.0811849187987024,0.0415460264002826,-0.0418884126726366,0.6884893140509096,-0.801998915208785,0.6275378141816119,-2.1432570875234807,2.445777063694822,-0.2008792744245573,0.8361911598696813,-0.9338581548384496,0.8009133946021392,-0.7240418600301197,0.3116860861201498,-0.14169486333791,10.579341836865751,-1.4364565857890643,0.2329777259155641,-1.1524956031311562
0.92,0.6299117971927227,-2.1195515338592448,2.418340870894073,-0.0187711067369882,0.071424046729614,0.0420329569675096,-0.0584736713030931,0.6936550614271407,-0.8075812722996255,0.6235202286931207,-2.126533264326087,2.4270999005980527,-0.2408792750206037,0.8761911604657278,-0.9577025429657766,0.9123026642565328,-0.8292629315228238,0.258287368811555,-0.279117854542027,10.345536268551768,-1.446309967281448,0.2335301571696688,-1.137158724913782
0.94,0.6285383150141788,-2.10562738193177,2.402119476049084,-0.020461907115787,0.0622962138464573,0.042423294428958,-0.0781656446943024,0.6986423074915775,-0.8142861335552938,0.6195026432046297,-2.1098094411286934,2.408422737501284,-0.2808792756166502,0.9161911610617742,-0.9815469310931036,1.069581230908969,-0.9845986695604664,0.2493623032218395,-0.3352430627834135,10.170420146008835,-1.453881271132306,0.2354893646414053,-1.1230420805971677
0.96,0.6267446211046425,-2.0915889688934657,2.385759677505861,-0.0234449749157023,0.0546222794483315,0.0427087545774109,-0.1003169363096111,0.7053192272248955,-0.8213725512846729,0.6144850577012373,-2.0920856179163985,2.3891494647013314,-0.3208792762126967,0.9561911616578208,-1.005391319220431,1.2098329363871645,-1.1075645807654355,0.3338459866658982,-0.3543208864689562,10.123724676450363,-1.4593829194157344,0.2387209263607186,-1.1113424850219853
0.98,0.6244820848335145,-2.077391995280733,2.3692538004198727,-0.0266258209543098,0.0488886506323414,0.042952749619861,-0.124877136688306,0.7140639985967954,-0.8288617853432951,0.6084674721829438,-2.0733617946892027,2.369280082198196,-0.3608792768087431,0.9961911622538672,-1.0292357073477576,1.3562476689134553,-1.2280100189347456,0.4372385685949942,-0.3744617029311115,10.105987903535606,-1.4625352491560704,0.2419676795221404,-1.1031872866808332
1.0,0.6218553001117875,-2.0637318288114503,2.353429486512188,-0.029312971700721,0.0459016801858681,0.0431512901300819,-0.1503950964325972,0.7233381180640537,-0.8364831790777165,0.6182382279990992,-2.0416887953508933,2.327810711152708,-0.207221400480344,0.8140640000869115,-0.8666968096405325,1.4100187976223244,-1.2758979872145588,0.4637059733629156,-0.3810696867210694,10.081703988944357,-1.4627432764363508,0.2450263810802058,-1.0990673206082402
1.02,0.6185010167838053,-2.049092562802081,2.336857092618525,-0.0297631130332635,0.048008061875055,0.0433684352990132,-0.1828876209974869,0.739557185156661,-0.8190240657698392,0.6182382279990992,-2.0416887953508933,2.327810711152708,-0.207221400480344,0.8140640000869115,-0.8666968096405325,2.0147226406206378,-1.6246262282444857,0.8109533546303671,0.8729556653938653,11.880499219130796,-1.457404750594198,0.2461034108387776,-1.1100841837649833
1.04,0.6145494468602385,-2.034155980614112,2.320646889125191,-0.0271184579665571,0.0559980905542592,0.0436240239645007,-0.2098107161625549,0.7530198435729435,-0.8029893485467001,0.6182382279990992,-2.0416887953508933,2.327810711152708,-0.207221400480344,0.8140640000869115,-0.8666968096405325,1.705292043409897,-1.3461547582533984,0.6731329208141235,0.8017358611569547,11.880499219130796,-1.4477653975125246,0.2443364382024345,-1.129269905657704
1.06,0.6103535227432462,-2.019748908514261,2.305494858444427,-0.0233140142892717,0.0664937007051499,0.043895765146489,-0.2299901861330673,0.7625843409246461,-0.7927555991237535,0.6161660139942958,-2.033548155350024,2.319143743056302,-0.2236902532387516,0.8340640003849347,-0.87426381449998,1.2282306838835255,-1.0089734985256185,0.4782248675851308,0.5116874711473318,11.155592082712246,-1.434304461083669,0.2408729460660437,-1.1522526598772784
1.08,0.6055708491740861,-2.004415580835684,2.2897106584644176,-0.0193957933919,0.0788800902710014,0.0441769574092877,-0.2467341428744819,0.770265094178568,-0.7864217215488408,0.6120215859846889,-2.017266875348286,2.301809806863492,-0.2566279587555668,0.8740640009809811,-0.8893978242188749,0.9740021342892132,-0.83719783707073,0.3840376626960962,0.316693878745633,11.155592082712246,-1.4190309556015277,0.2372749842469485,-1.1754675846758016
1.1,0.6004936729361886,-1.988941871443536,2.2740093995313737,-0.0160920032600888,0.0916657213338869,0.0444394324272328,-0.2597467376496276,0.7768121080442342,-0.784209248276996,0.607877157975082,-2.000985595346548,2.284475870670681,-0.289565664272382,0.9140640015770276,-0.90453183393777,0.7366920172602668,-0.6506297387572829,0.327350693283307,0.1106236635922408,10.876088995149985,-1.403272576696019,0.2342053692880945,-1.1980586211340758
1.12,0.5951900953617882,-1.9733452035278576,2.2583135554300813,-0.0135512138668118,0.1043120763250743,0.0446744807871416,-0.2695989740239525,0.782718161121503,-0.7855116922023909,0.6020858446896343,-1.982704315315007,2.266385233991925,-0.3225033697891972,0.954064002173074,-0.9196658436566648,0.5780233228553313,-0.4926118187162487,0.295302653863444,-0.0651221962697456,10.65006706791246,-1.3879955320219826,0.2319201573823876,-1.2181152611553732
1.14,0.5900055691074594,-1.958422392819922,2.2433621700702315,-0.0118468928484103,0.1156696136559446,0.0448693980716776,-0.275452248286068,0.7879765741981799,-0.7882873920431372,0.5962945314041868,-1.9644230352834664,2.24829459731317,-0.3554410753060124,0.9940640027691204,-0.9347998533755598,0.4171817268242598,-0.292663713105773,0.2629206538338424,-0.1387849920373163,10.478255833601906,-1.3722079871193869,0.2302239489558835,-1.2375021348322022
1.16,0.5844581806495576,-1.9426004463683757,2.2275545002386195,-0.0105765100491367,0.1264148235487079,0.0450557495576592,-0.2787751078555793,0.7939401698552452,-0.792411317825772,0.5896797754808187,-1.945141755237025,2.2298256103914427,-0.3883787808228275,1.034064003365167,-0.9499338630944548,0.3987876400427321,-0.1661429784755669,0.2981797828532639,-0.2061962891317381,10.410239512536464,-1.3580573802454428,0.2290991445885352,-1.2542511160759957
1.18,0.5788705160553799,-1.92665745382538,2.211652318673049,-0.0096017344642716,0.1356425584791161,0.0452350645855985,-0.2796950691968762,0.8000361165491696,-0.797667166857454,0.5822415769195303,-1.924860475175682,2.2109782732267425,-0.4213164863396427,1.0740640039612133,-0.9650678728133496,0.4050643282507155,-0.0459980670648452,0.3047973346962218,-0.2627924515840985,10.362395771839148,-1.3463118161756678,0.2283135207101541,-1.267901845985893
1.2,0.5732859355675715,-1.9105918877839536,2.1956336149927647,-0.0087996129596813,0.1431665616463217,0.0454125609053393,-0.2787053901291633,0.8061706083259307,-0.8039635595433593,0.564885762595536,-1.886655647997921,2.171768960330176,-0.2933605339035952,0.9000361180392857,-0.7999573260885058,0.442312149028659,0.0494839533856483,0.3067245888380532,-0.3148196342952658,10.32023319565451,-1.336005328875734,0.2276528633824275,-1.2796825060968011
1.22,0.5680059121090667,-1.8951696506482396,2.1805370621146345,-0.0066999379476071,0.1499904012599466,0.0456730408930302,-0.2767139863893895,0.8160714170309346,-0.7848699112451043,0.564885762595536,-1.886655647997921,2.171768960330176,-0.2933605339035952,0.9000361180392857,-0.7999573260885058,1.0799989666723313,0.09957018698869,0.4950404352501936,0.9546824149127496,10.283067910734644,-1.3271422651239897,0.2256323592712295,-1.2943620271179046
1.24,0.5625144341860258,-1.878779310139284,2.165030709901338,-0.0032852235108848,0.1577842419928762,0.0460338750867829,-0.2722651771594477,0.8222944347568637,-0.7670636370703876,0.564885762595536,-1.886655647997921,2.171768960330176,-0.2933605339035952,0.9000361180392857,-0.7999573260885058,0.9689959406091776,0.2224404614970865,0.3111508862964574,0.8903137087358348,12.003954866069762,-1.321016363386421,0.2224028541793176,-1.3105721565966928
1.26,0.5571323479462247,-1.8622889841566737,2.1498388422082013,-0.0001257287442585,0.1657129125477101,0.0463865693367772,-0.2659405861787879,0.8264944669209592,-0.7532009927767064,0.5619521572565,-1.877655286817528,2.163769387069291,-0.2960936268449389,0.9200361183373088,-0.8004153579347162,0.7902746801986211,0.3162295490329925,0.2100016082047739,0.6931322146840613,11.750961822104728,-1.3139673397166047,0.2192923533986635,-1.325717338179199
1.28,0.5518938279771565,-1.8457269483336043,2.13488703840808,0.002285070066585,0.1735065005335096,0.0466929949480678,-0.2580087391361201,0.8297184455267347,-0.7427015744547815,0.5560849465784282,-1.8596545644567424,2.147770240547521,-0.3015598127276265,0.9600361189333554,-0.8013314216271369,0.6773957865560353,0.3965923521333875,0.161198930288775,0.5249709160962457,11.35163004430251,-1.3069138022243258,0.2170550094517745,-1.3390328981827295
1.3,0.5470788023390215,-1.8299391783423915,2.1208542567119806,0.0037504407491587,0.1806525076572704,0.0469256181476476,-0.2490609270521919,0.8321735515797951,-0.734989008961119,0.5502177359003563,-1.8416538420959567,2.131771094025751,-0.3070259986103141,1.000036119529402,-0.8022474853195576,0.6032714010192666,0.4473906041964112,0.1227553026530214,0.3856282746831252,11.229425626561351,-1.2990843436741228,0.2156102241633396,-1.351639433160188
1.32,0.5422092277147701,-1.8132761736234395,2.106223996967976,0.004187905235192,0.1878313761129237,0.047084810235118,-0.2381937660816704,0.8341164770532596,-0.7285393885686887,0.54407721592815,-1.8216531197053687,2.11572614431936,-0.3124921844930016,1.0400361201254482,-0.8031635490119783,0.6392725360930075,0.5433580485260727,0.0971462736732264,0.3224810196215122,11.229425626561351,-1.2912012794843384,0.2154813513638047,-1.3630439544577035
1.34,0.5375744250404182,-1.7965798381634153,2.091717503339381,0.0031035587397132,0.1945999283162395,0.0471203830978163,-0.2256749697744011,0.8356648068643582,-0.7224632894024366,0.5379366959559436,-1.8016523973147809,2.0996811946129683,-0.3179583703756892,1.0800361207214948,-0.804079612704399,0.7000652956420662,0.625939815363466,0.0774164905549268,0.3038049583126034,11.147396087751076,-1.28417937312341,0.2171063698346033,-1.3728450915391288
1.36,0.5334304149138216,-1.7806780265902888,2.0780483305064337,0.0007556832454412,0.2002000772248037,0.0470384821650491,-0.2111732437893133,0.8382911877029776,-0.7167211486509717,0.5316595213366702,-1.780651674909291,2.083613343314267,-0.3234245562583768,1.1200361213175412,-0.8049956763968198,0.7908383419917032,0.7250862992543933,0.1313190419309717,0.2871070375732476,11.179182476110327,-1.277770780046796,0.2205824994485863,-1.3821349936106098
1.38,0.5293854058855718,-1.7638619919213498,2.06377858834449,-0.0023964614648406,0.2045901676503948,0.0468804926778197,-0.1941159761633555,0.8433633699528933,-0.7105550126481445,0.5252456920703296,-1.7586509524889011,2.0675225904232546,-0.3288907421410644,1.1600361219135875,-0.8059117400892405,0.941672242403466,0.8528633812978886,0.253609112495784,0.3083068001413613,11.179182476110327,-1.274440522685092,0.2251291179600066,-1.3904767651932384
1.4,0.5256967385967344,-1.7469234194965462,2.0496345392589994,-0.0053546033333164,0.2070225318210845,0.0467230581718662,-0.175813948772203,0.8501799870375817,-0.7041556078493704,0.519679607077404,-1.7216938234237051,2.0282508377120827,-0.2291364318813959,0.9433633714430094,-0.6942002394545467,1.0275977531168676,0.9151013695576234,0.3408308542344196,0.319970239938705,11.210911063233652,-1.2740440833991251,0.229492938983195,-1.3968336107665345
1.42,0.5224328993791959,-1.7297669461364833,2.0357283329675115,-0.0055957918763587,0.2062802581266408,0.0467623418959687,-0.1517086298607333,0.8640012947994742,-0.6867650173723191,0.519679607077404,-1.7216938234237051,2.0282508377120827,-0.2291364318813959,0.9433633714430094,-0.6942002394545467,1.6389993785943888,1.205265945573487,0.6910653880946249,0.8695295238525635,11.243675458936195,-1.2781381563600538,0.230518511741292,-1.402778875394267
1.44,0.5196563515653998,-1.7123741333536404,2.0221691278426936,-0.0026872773618536,0.2009246266062385,0.0470265953234414,-0.1279366255043404,0.8742020852750645,-0.6699430467288997,0.519679607077404,-1.7216938234237051,2.0282508377120827,-0.2291364318813959,0.9433633714430094,-0.6942002394545467,1.5428407352796665,1.188600217819645,0.5100395237795152,0.8410985321709696,12.037285434112164,-1.290175924992253,0.2278296372458022,-1.402757080991199
1.46,0.5174235526167301,-1.6957018273336255,2.0095893873106814,0.0011977573940406,0.1921764384898025,0.0473218956714065,-0.1089358331649014,0.8800463658422784,-0.6549789505255312,0.5173882427585901,-1.712260189709275,2.021308835317537,-0.236140523025004,0.9633633717410326,-0.6909292848158272,1.2440959569688177,0.9500396169719488,0.2922140283606933,0.7482048101684236,11.94431639494178,-1.3076788880671495,0.2232371481698301,-1.3958109123105735
1.48,0.5154153280390685,-1.6780634389079971,1.9966473651652847,0.0049739990548114,0.1803237379410319,0.0475437154232931,-0.0935255144455273,0.883513165984452,-0.6399801561101545,0.5128055141209621,-1.6933929222804147,2.0074248305284463,-0.2501487053122203,1.0033633723370792,-0.684387375538388,1.0891056654122255,0.7705159359687026,0.1733400071086799,0.7499397207688385,11.73110212546635,-1.327427888853261,0.2188017423274098,-1.383426884740612
1.5,0.5136638627486478,-1.6603735650724134,1.9839955994010472,0.0078606960408095,0.1668407424349562,0.047630743818358,-0.0830062831256219,0.8855058837629348,-0.6258529266896192,0.5082227854833342,-1.6745256548515546,1.9935408257393556,-0.2641568875994364,1.0433633729331255,-0.6778454662609489,0.8862896857218825,0.5259615659952712,0.0996358889241433,0.7063614710267618,11.73110212546635,-1.348538671313297,0.2153927911427299,-1.3675865814346602
1.52,0.5120700962201641,-1.642654325150571,1.9716202734977972,0.0097328872574681,0.1527211265935094,0.0475896588636188,-0.0774110326092348,0.8865546069257154,-0.612315797818899,0.5029396477313455,-1.653658387392892,1.9799839164141364,-0.2781650698866526,1.083363373529172,-0.6713035569835097,0.734269205870315,0.2797625258193527,0.0524361581390298,0.6768564435360114,11.636895535391886,-1.3688312841340744,0.213286519459707,-1.3507113601807756
1.54,0.5106151421936191,-1.6258108410090124,1.960114121176576,0.0104189768627399,0.1394891653573955,0.047444423273421,-0.0763749114437473,0.8865725384427038,-0.5994902579512315,0.4976565099793568,-1.6327911199342295,1.9664270070889176,-0.2921732521738688,1.1233633741252185,-0.6647616477060706,0.6433668112088206,0.0518060582743791,0.0008965758494183,0.6412769933833773,11.535422085331447,-1.389386820343471,0.2124294170047563,-1.3322765600680346
1.56,0.5090607372447885,-1.6080795440097342,1.948267202987608,0.0099266670985241,0.1264306187188258,0.0472038686833776,-0.0794628424814371,0.8866308017531191,-0.5858537950876009,0.4920231676701876,-1.610923852460666,1.9530336454956343,-0.306181434461085,1.1633633747212648,-0.6582197384286316,0.6990919684455735,-0.1543965518844899,0.0029131655207681,0.6818231431815258,11.535422085331447,-1.4082691938433092,0.2130696672986281,-1.3147138555258109
1.58,0.5074036770565037,-1.5903453683590023,1.936693276573518,0.0082867899569288,0.1148313041544445,0.0469042839092607,-0.0863272763480187,0.8868753143487511,-0.5722121173876709,0.4860396208038381,-1.5880565849722013,1.939803831634288,-0.3201896167483012,1.2033633753173112,-0.6516778291511924,0.7636681366713964,-0.3432216933290814,0.0122256297815981,0.6820838849965039,11.523304765689318,-1.4248181984803685,0.2150565852570091,-1.299013069213643
1.6,0.505574244330442,-1.5725995915030058,1.9253916486727864,0.0056398290179758,0.1051333727396338,0.0465705238143654,-0.0963461225246025,0.8879946520590263,-0.5586218412888215,0.5030873132391027,-1.546001602641565,1.9080826707041345,-0.1690798245061875,0.9868753158388672,-0.5409725183981842,0.8460582132197627,-0.5009423088291893,0.0559668855137585,0.6795138049424665,11.509321659464147,-1.4379144288636692,0.218035363680271,-1.286812072999931
1.62,0.5036553473484073,-1.5556490321056722,1.9149839857916595,0.0044892771521578,0.0971507039902631,0.0463733110488713,-0.1053283268726576,0.895381840687084,-0.5376027204568584,0.5030873132391027,-1.546001602641565,1.9080826707041345,-0.1690798245061875,0.9868753158388672,-0.5409725183981842,1.2010974058391268,-0.4491102174027567,0.369359431402888,1.0509560415981556,11.49705389088558,-1.450499307362418,0.2197537892479883,-1.2799194658332886
1.64,0.5014317078303085,-1.5376916773144047,1.9044564107270336,0.0051311583577566,0.089449711516484,0.046291421459635,-0.1167686737456736,0.8998977537849787,-0.5163456566368426,0.5030873132391027,-1.546001602641565,1.9080826707041345,-0.1690798245061875,0.9868753158388672,-0.5409725183981842,1.2279431684028448,-0.572017343650797,0.2257956548947337,1.06285319100079,11.961803920210514,-1.4624571083190825,0.2191716078659992,-1.2725111188263571
1.66,0.4989558042655884,-1.5196629345757569,1.8943363351718965,0.0063467484356705,0.0826251818883072,0.0462365083353849,-0.1304145921108002,0.9027622874198112,-0.4967916668987117,0.5013965149940408,-1.5361328494831763,1.9026729455201528,-0.1856303341378212,1.0068753161368904,-0.5347245986002869,1.20080718232749,-0.6822959182563301,0.1432266817416261,0.9776994869065442,11.961803920210514,-1.4723574227019918,0.2179190076122383,-1.265946037972863
1.68,0.4961844842120184,-1.5015923894652723,1.8845912505303188,0.0074300390425155,0.0769364376664287,0.0461614667236635,-0.1462162647854387,0.9042063354465146,-0.4787515652916662,0.4980149185039171,-1.516395343166399,1.891853495152189,-0.2187313534010888,1.046875316732937,-0.5222287590044922,1.2012736990506885,-0.7900836337319264,0.0722024013351696,0.902005080352275,11.848273645955487,-1.4812139138578535,0.2166800880121674,-1.259988129535232
1.7,0.4932379669030183,-1.4844120738284177,1.875654523268488,0.0077256089335104,0.0730250719651675,0.046038131413584,-0.1632401291669284,0.9043672183195992,-0.4628513736259819,0.4946333220137933,-1.4966578368496215,1.881034044784225,-0.2518323726643563,1.0868753173289831,-0.5097329194086975,1.164746685747275,-0.8511932190744864,0.0080441436542344,0.7950095832842174,11.756734871381925,-1.48782351432244,0.2162814547200921,-1.256032425731196
1.72,0.489771043064845,-1.466332581411578,1.866566098559087,0.0067467584005056,0.0709661856358107,0.0458285276611507,-0.1825524378885731,0.9037483129831968,-0.4468586497401693,0.4895966745605062,-1.474920330503042,1.8708393863960515,-0.2849333919276238,1.1268753179250297,-0.4972370798129027,1.2541087764458276,-0.9656154360822358,-0.0309452668201259,0.799636194290626,11.688367949708663,-1.491218316535582,0.2173367893888969,-1.2553331290218923
1.74,0.4859194857714813,-1.4482677205904706,1.857794137389937,0.0040047259046269,0.0710143571013285,0.0455087331784092,-0.2014115614892502,0.9032981483191158,-0.4311285204841737,0.484560027107219,-1.4531828241564624,1.8606447280078773,-0.3180344111908914,1.1668753185210765,-0.4847412402171081,1.2281145687808714,-0.9429561800338534,-0.0225082332040493,0.7865064627997798,11.62493120891486,-1.4914352783794338,0.2201613498192366,-1.2571189582436857
1.76,0.481917822147161,-1.4310833772335467,1.8497524489021355,0.0005356296133924,0.0725205001035738,0.0451482510494464,-0.2186807163775036,0.9057851734505096,-0.4161578059561969,0.4786958541723503,-1.4304453177949816,1.8507624656095985,-0.3511354304541589,1.2068753191171226,-0.4722454006213134,1.1494904284473697,-0.8634577444126712,0.1243512565696824,0.7485357263988413,11.624727790963334,-1.4901419063551893,0.2242847318555375,-1.261718848649351
1.78,0.47736257726741,-1.412922265531039,1.841595880585828,-0.0030292478849103,0.0752324125491137,0.0447689730301865,-0.2357503237045324,0.9102455054780154,-0.40029211035947,0.4720041557558997,-1.4067078114185996,1.841192599201214,-0.3842364497174264,1.246875319713169,-0.4597495610255188,1.1863666727265976,-0.853480366351439,0.2230166013752976,0.7932847798363479,11.624727790963334,-1.487605258288038,0.2284031892888383,-1.268874378993253
1.8,0.4724784456588899,-1.3946573150281407,1.8337553496884555,-0.0061171442214566,0.0787229085651035,0.0444115409631222,-0.2516316102577073,0.9159912438807056,-0.3845751399862149,0.4655750610821834,-1.3674099902571382,1.8215812750678544,-0.2598960665828502,1.0102455069681315,-0.3686992085633674,1.1535292910129966,-0.794064327658743,0.2872869201345052,0.7858485186627545,11.634574090940076,-1.4842075400977284,0.2320376752124087,-1.277642162629542
1.82,0.4672204192260373,-1.376180378390309,1.826240319659618,-0.0056614326950722,0.0848115413439778,0.0442776930259415,-0.2724506983668369,0.9300173701876427,-0.3677184150556072,0.4655750610821834,-1.3674099902571382,1.8215812750678544,-0.2598960665828502,1.0102455069681315,-0.3686992085633674,1.5118827866769562,-1.0409544054564817,0.7013063153468668,0.8428362465303818,11.629876979702203,-1.4794919917565683,0.2318359460514944,-1.2891858665878388
1.84,0.4618879869069338,-1.3584220100545918,1.819404535437512,-0.0016197822563174,0.0935241565694573,0.0444009089714721,-0.2872977564552413,0.9378990562211614,-0.3527026154899555,0.4655750610821834,-1.3674099902571382,1.8215812750678544,-0.2598960665828502,1.0102455069681315,-0.3686992085633674,1.126976425227301,-0.7423529044202182,0.3940843016759288,0.7507899782825872,11.770777166550031,-1.4675026297977696,0.2268836461722988,-1.3108038764822674
1.86,0.4560176381560325,-1.3396252844519565,1.8125029223597864,0.0033103839857843,0.1040690527307643,0.0446150136105584,-0.2985082375722805,0.9413238013461502,-0.3383421281832991,0.4629761004163549,-1.3573075351874568,1.8178942829822209,-0.2647252151585138,1.0302455072661547,-0.3623806282041469,0.9268594307273192,-0.5605240558519631,0.1712372562494402,0.71802436533282,11.66401986350047,-1.453552607640787,0.2208396193258728,-1.3318571981786915
1.88,0.4499623375942465,-1.3207881916818494,1.8058703116476784,0.0074335020526228,0.1150627653048635,0.0448168722580061,-0.3060927349648636,0.942492692362563,-0.3256757060915696,0.4577781790846978,-1.3371026250480942,1.8105202988109537,-0.2743835123098409,1.0702455078622013,-0.3497434674857059,0.7404882772741944,-0.3792248696291522,0.0584445508206354,0.6333211045864734,11.57194396671457,-1.4399150169053847,0.2159326172053299,-1.3518691603841366
1.9,0.4440991549196545,-1.3028818475928423,1.79979174989278,0.0102316020778521,0.1254373483390302,0.0449600351503489,-0.3104279241199131,0.9426556464539764,-0.314842529411833,0.4525802577530409,-1.3168977149087315,1.8031463146396864,-0.2840418094611681,1.1102455084582477,-0.3371063067672649,0.5834769404619945,-0.2167594577524745,0.0081477045706657,0.54165883398683,11.488300727628484,-1.4256170976603788,0.2121251992108961,-1.3717846083068628
1.92,0.4378669192747159,-1.284034167900468,1.79360841594318,0.0119231190633965,0.1360140027694968,0.0450378324395419,-0.3122728120150506,0.9423124543321956,-0.3041170483058054,0.4468994215638175,-1.2946928047395665,1.796404188504341,-0.2937001066124952,1.150245509054294,-0.3244691460488239,0.5444201895912578,-0.092244394756874,-0.0171596060890344,0.5362740553013806,11.418716195937122,-1.411781323849388,0.2098966590526194,-1.3902841909806245
1.94,0.4316248315631856,-1.2651984534975445,1.7876344092315974,0.0121442889892085,0.1460981917685603,0.0450113512962116,-0.3115772609048011,0.9414431174408944,-0.2938660208174083,0.4412185853745941,-1.2724878945704017,1.7896620623689956,-0.3033584037638223,1.1902455096503406,-0.3118319853303829,0.5155654724315308,0.0347775555124746,-0.0434668445650654,0.5125513744198534,11.418716195937122,-1.3986047034876212,0.2095309724399524,-1.407345838202985
1.96,0.4254212558848964,-1.2463737866441598,1.7818634994367186,0.0108823845707027,0.1556265483684742,0.0448642622537498,-0.3085712343271271,0.9412251641835332,-0.2837833053306898,0.4352962917565876,-1.2492829843863351,1.7832358652516114,-0.3130167009151495,1.230245510246387,-0.2991948246119419,0.5261768975216183,0.1503013288837007,-0.0108976628680479,0.5041357743359259,11.41773638995346,-1.3867432173410803,0.2109762879029924,-1.4223526892679852
1.98,0.4196109424472687,-1.2284847981064833,1.7765681045772344,0.0085791691879986,0.1639267204538137,0.0446201561530436,-0.3030668532235114,0.9419846245639292,-0.2741680284501568,0.4291325407097979,-1.225078074187368,1.777125597152188,-0.3226749980664766,1.270245510842433,-0.2865576638935009,0.5552669198064696,0.2752190551807837,0.0379730190197991,0.480763844026652,11.433412545248755,-1.3750104774926772,0.2140349480645383,-1.4369829650528143
2.0,0.4136374994913281,-1.2096165242687702,1.7711931218993864,0.0055962869753702,0.1713435091856908,0.0442891334032943,-0.2944676035776696,0.9449670827899692,-0.2638468249275844,0.4044575997860932,-1.1813855668782869,1.7628597031547266,-0.2906836725530712,1.0419846260540453,-0.2562000257433907,0.6880577622844328,0.42996248229209,0.1491229113019909,0.5160601761286215,11.46203279536985,-1.3650289423925506,0.217912964881596,-1.4499872195091337
2.02,0.4078063467663369,-1.1906001161594817,1.7659593671675724,0.0051358472876616,0.1781151995381747,0.0441132917667321,-0.2887287588413045,0.9553738191864892,-0.2601081635144558,0.4044575997860932,-1.1813855668782869,1.7628597031547266,-0.2906836725530712,1.0419846260540453,-0.2562000257433907,0.6229207222768703,0.2869422368182522,0.5203368198260006,0.1869330706564254,11.504532421941803,-1.3565458446674137,0.2185379418507699,-1.461579117092768
2.04,0.4023929495328596,-1.1723839812271113,1.7610553874491943,0.0073962098165261,0.1846657974956674,0.0441385732898387,-0.2811844308560588,0.9614994088776226,-0.2563044332369917,0.4044575997860932,-1.1813855668782869,1.7628597031547266,-0.2906836725530712,1.0419846260540453,-0.2562000257433907,0.5217952132704471,0.3772163992622868,0.3062794845566763,0.1901865138732056,11.14763068938646,-1.3467081218482402,0.215208220292787,-1.4738400262641014
2.06,0.3968790665011154,-1.153115229467983,1.7559725136474609,0.0108009382837616,0.1911588097111214,0.0442469348905151,-0.2704312183250897,0.9648113924827818,-0.2522013085885747,0.4015507630605625,-1.1709657206177464,1.7602977028972928,-0.2882070364189831,1.0619846263520685,-0.2526064252020374,0.598824780335367,0.5376606265484529,0.1655991802579581,0.20515623242085,11.176529116019084,-1.337361019945254,0.2103485914545562,-1.485133868570212
2.08,0.3916064897722421,-1.133807736483647,1.75097103440659,0.0138188219579024,0.196614819000908,0.0443288265012679,-0.2573044347800914,0.9658926092383168,-0.2481629104845898,0.395737089609501,-1.1501260280966656,1.755173702382425,-0.2832537641508071,1.101984626948115,-0.245419224119331,0.6888217025398481,0.6563391772499177,0.0540608377767426,0.2019199051992465,11.176529116019084,-1.3295419650949858,0.2059451921910336,-1.4937626379339028
2.1,0.3866165311906443,-1.1144910225448763,1.746051842079802,0.0158827871125972,0.2005829338998275,0.0443276105861948,-0.2424511630734432,0.9660101390055904,-0.2439582532646296,0.3899234161584396,-1.1292863355755849,1.7500497018675572,-0.278300491882631,1.1419846275441614,-0.2382320230366245,0.7718688942674679,0.7426635853324078,0.0058764883636874,0.2102328609980094,11.196190702085005,-1.3243269216387228,0.2029579311993209,-1.4994119428643178
2.12,0.382161704483943,-1.0961446988407406,1.7414610054825967,0.0167874735739373,0.202813952103627,0.0442259737188801,-0.2273616278696962,0.965364199423566,-0.2394808561950469,0.3843574063207869,-1.1064466430247015,1.7452850614068247,-0.2733472196144549,1.1819846281402078,-0.2310448219539181,0.7876521997802299,0.7544767601873503,-0.032296979101215,0.2238698534791375,11.269172004088432,-1.3215449156293215,0.2013315293238083,-1.502809280453847
2.14,0.3777856083086615,-1.0768526990910616,1.736725737556896,0.0162662040040153,0.2035619312993367,0.0439841244457938,-0.2111516200754369,0.9640226619406422,-0.2342431057286551,0.3787913964831343,-1.0836069504738182,1.7405204209460925,-0.2683939473462788,1.2219846287362544,-0.2238576208712116,0.8543976027825484,0.8105003897129676,-0.0670768741461935,0.26188752331959,11.269172004088432,-1.321350940210022,0.2018008859329486,-1.5039252677602468
2.16,0.3737364445495952,-1.0575794434656531,1.7321027253761792,0.0142148422940559,0.202662834318951,0.0436064296829915,-0.1946511693303952,0.9634905685417646,-0.2282783733211836,0.3733492184521861,-1.0597672579080335,1.7359354605124273,-0.2634406750781027,1.2619846293323007,-0.2166704197885052,0.8776759522560361,0.8250225372520833,-0.0266046699438804,0.298236620373575,11.35204616223109,-1.3231859097056486,0.2041945986794037,-1.5029549454665172
2.18,0.3701979845196133,-1.0392647350617823,1.7278309951060205,0.0113086905854917,0.2000557561550233,0.0431615792661678,-0.1788058874574855,0.9646901418031498,-0.2216587554536137,0.3680308722279423,-1.0349275653273482,1.7315301801058305,-0.2584874028099267,1.301984629928347,-0.2094832187057987,0.8607137653628514,0.7922640936454824,0.05997866306926,0.3309808933784908,11.35204616223109,-1.3277886782559956,0.2081148751323896,-1.4992372536023166
2.2,0.3667929016916154,-1.0199382269631911,1.7234812182055714,0.0082062641594912,0.1952853991328861,0.0426831235756186,-0.1627741756289787,0.9679145771144032,-0.213581059261481,0.361257690146739,-0.9910302279716248,1.7167480573333398,-0.1969662026879743,1.0646901432932658,-0.1894696768245969,0.911951126707374,0.8015855914253411,0.1612217655626746,0.4038848096066361,11.410331554044204,-1.336011838655266,0.2121610944974676,-1.4927444164455912
2.22,0.3637252601351193,-1.0004657009057971,1.7192959166560189,0.0077418599591447,0.1873853278639411,0.0423785262017876,-0.1455965182602251,0.9780153776032277,-0.205248338116232,0.361257690146739,-0.9910302279716248,1.7167480573333398,-0.1969662026879743,1.0646901432932658,-0.1894696768245969,1.079967968133556,0.8588828684376826,0.5050400244412112,0.4166360572624511,11.472797293173244,-1.34623472836108,0.2125186650418389,-1.4839929339472877
2.24,0.3609530837972026,-0.9808383813801844,1.7152938084711364,0.0101880584322527,0.1765742223481587,0.0422363025484898,-0.1330856404691558,0.9840163826548826,-0.1952840053712462,0.361257690146739,-0.9910302279716248,1.7167480573333398,-0.1969662026879743,1.0646901432932658,-0.1894696768245969,0.8541399940669209,0.6255438895534634,0.3000502525827508,0.4982166372492908,11.481528828533555,-1.364328698151965,0.2091624104980188,-1.470133509097842
2.26,0.3585035242359423,-0.9621174527053936,1.7116845984678135,0.0134599234800539,0.1651451424576802,0.0421117493437022,-0.1257781248295556,0.9861554595845352,-0.1850764271770608,0.3592880281198592,-0.980383326538692,1.7148533605650935,-0.2005982657340721,1.084690143591289,-0.1830318610987935,0.6367300988731058,0.3653757819800082,0.106953846482638,0.5103789097092678,11.536336943123388,-1.3833737381017486,0.2042531538866421,-1.454012506810361
2.28,0.3560283254664828,-0.9423981835837308,1.708099394242762,0.0164026732541837,0.1531384595579961,0.0418948850074955,-0.1225053754251323,0.9857998940432144,-0.1739387214660537,0.3553487040660998,-0.9590895236728268,1.711063967028602,-0.2078623918262676,1.1246901441873356,-0.1701562296471867,0.5807017393277887,0.1636374702211639,-0.0177782770660495,0.5568852855503542,11.542225986441736,-1.401702822856542,0.1999753053038807,-1.4371683919273683
2.3000000000000003,0.3535739955535106,-0.922702400826419,1.704738218891083,0.0182023315819272,0.1421307763486487,0.0415767045519573,-0.1232859407654691,0.9841183475713352,-0.162703617597582,0.3514093800123403,-0.9377957208069616,1.70727457349211,-0.2151265179184631,1.164690144783382,-0.15728059819558,0.5693514725610456,-0.0390282670168364,-0.0840773235939618,0.5617551934235854,11.537379090469583,-1.417516533245219,0.1973349629639217,-1.4222755103782216
2.32,0.3511963131385702,-0.9040320169703154,1.7017543754596254,0.0185909426227946,0.1331855810997482,0.0411930802886025,-0.1270235777385458,0.9815186712239156,-0.1519300399090004,0.347106849653971,-0.914501917911294,1.7041289615281985,-0.2223906440106586,1.2046901453794283,-0.1444049667439732,0.5848038634143656,-0.1868818486538345,-0.1299838173709766,0.5386788844290835,11.522766662160391,-1.4316897151686645,0.1963642298247764,-1.4089286646158383
2.34,0.3485922490446009,-0.8844390928018516,1.6988372881278977,0.0171882241650945,0.1257082538724547,0.0407013878943339,-0.1333274511665868,0.9781173067366746,-0.1403226904650572,0.3428043192956017,-0.8912081150156261,1.7009833495642868,-0.2296547701028541,1.244690145975475,-0.1315293352923665,0.681979951475174,-0.3151936714020517,-0.1700682243620466,0.580367472197156,11.517040744176484,-1.4429657913059468,0.19780499192509,-1.3981202104118973
2.36,0.3458359251022098,-0.8649018390425758,1.6961565099797695,0.0139802230402195,0.1206674061019261,0.0401442965536839,-0.142143056278608,0.9762337674950168,-0.1283098445148794,0.3383201857849275,-0.8669143121050574,1.6981596283866651,-0.2369188961950496,1.2846901465715213,-0.1186537038407597,0.7509511991279173,-0.4407802556010601,-0.094176962082898,0.6006422975088895,11.529260280076414,-1.450532646897403,0.2013425550639968,-1.3904645274385272
2.38,0.3428804425536415,-0.8453695141101523,1.6937222026786354,0.0101860785224663,0.1187630296084428,0.0396101653342063,-0.1527046691807425,0.9772229656684184,-0.1157356078325591,0.3336544491219485,-0.8416205091795875,1.6956577979953342,-0.2441830222872451,1.3246901471675676,-0.105778072389153,0.8225533542935131,-0.5280806451067224,0.0494599086700853,0.6287118341160157,11.580879671425464,-1.4539189906749732,0.2058610096202848,-1.3885131454549544
2.4,0.3398859320856429,-0.8267765799639947,1.691645806385043,0.0068679790439336,0.1196391293248766,0.0391595585401046,-0.1616709932230612,0.9798321743708832,-0.1034811630936923,0.3352452090946044,-0.7965083658267313,1.687935422287007,-0.1755781769933617,1.0772229671585345,-0.0848939257263026,0.7703478966395972,-0.4483162021159378,0.1304604351232363,0.6127222369433388,11.580879671425464,-1.4530260770515302,0.2100543147033936,-1.3921252199948064
2.42,0.3365525622582769,-0.8070713091658523,1.689674027625609,0.0061887034682464,0.1227774726225724,0.0388983309110418,-0.1708879772961824,0.989789302067138,-0.0945738333436219,0.3352452090946044,-0.7965083658267313,1.687935422287007,-0.1755781769933617,1.0772229671585345,-0.0848939257263026,0.8115382163524223,-0.4608492036560579,0.4978563848127504,0.4453664875035241,11.593516637081848,-1.448789188834195,0.2106225231364144,-1.3988745241857632
2.44,0.3330634933312704,-0.7872103100463942,1.6878745412058154,0.0088520979581129,0.1274863676311083,0.0388857437132334,-0.1772709515945713,0.9955654810024154,-0.0858231009237477,0.3352452090946044,-0.7965083658267313,1.687935422287007,-0.1755781769933617,1.0772229671585345,-0.0848939257263026,0.6137628244494586,-0.3191487149194441,0.2888089467638632,0.4375366209937087,11.321011888755493,-1.4427091382631323,0.2071728689677704,-1.4095434751607991
2.46,0.3296566151726476,-0.7682744193381212,1.68632312809748,0.0123211763863258,0.1324822575206691,0.0389565863487212,-0.1808705981666012,0.9973231695705188,-0.077945525738553,0.3334894273246708,-0.785736136155146,1.6870864830297445,-0.1801528785558855,1.0972229674565577,-0.0787255893050513,0.4418798347525161,-0.1799823286014995,0.0878844284051716,0.3938787592597359,11.340705500889271,-1.435583600013552,0.2021464868296787,-1.4206757819697216
2.48,0.3260200349725358,-0.7483336094063083,1.684847117378316,0.0153863614090908,0.1375906538096743,0.0390024555484016,-0.1824675782333969,0.9968478614602934,-0.0700995849236117,0.3299778637848036,-0.7641916768119753,1.6853886045152182,-0.1893022816809332,1.1372229680526045,-0.0663889164625488,0.4010456657444065,-0.0798490033397825,-0.0237654055112723,0.3922970407470624,11.319620372252755,-1.4286175453473826,0.1978165975383517,-1.4304536770298195
2.5,0.3223713090333642,-0.7284140548139523,1.6835240584874631,0.0172865853237317,0.1420331140972142,0.0389660810899815,-0.1822649088608605,0.995355546452794,-0.0626173724148008,0.3264663002449363,-0.7426472174688046,1.683690726000692,-0.1984516848059809,1.1772229686486506,-0.0540522436200461,0.3816136232604226,0.0101334686268189,-0.0746157503749733,0.3741106254405463,11.306172141689784,-1.422645648619154,0.1949890593136819,-1.4385276851011088
2.52,0.3187423112646967,-0.7085338061097928,1.6823498339547087,0.0176817311223561,0.1454572680215222,0.0388104555926784,-0.1806958311540424,0.9930265986865447,-0.055182021585178,0.3224972665488167,-0.7191027580958316,1.6826096811282911,-0.2076010879310286,1.217222969244697,-0.0417155707775436,0.3973991837797433,0.078453885340908,-0.1164473883124517,0.3717675414811397,11.29878260348596,-1.4184229320499329,0.1941423639108651,-1.4443311884123644
2.54,0.3153322875674089,-0.689695358715376,1.681373465675866,0.0163323556651918,0.1476357520677851,0.0385231224482982,-0.1784174139612369,0.9903581843958056,-0.0479605575288726,0.3185282328526971,-0.6955582987228586,1.6815286362558903,-0.2167504910560763,1.2572229698407436,-0.0293788979350409,0.4014385471277114,0.1139208596402721,-0.1334207145369581,0.3610732028152694,11.310405519991946,-1.4156987616785184,0.1956478106041719,-1.4482008385702798
2.56,0.3117918276370119,-0.6699055637052738,1.680499512715637,0.0132183995469985,0.1488353774958098,0.0380852404967239,-0.1758232188771874,0.9891782005314584,-0.0397777257372907,0.3143304640784513,-0.6710138393349844,1.6807560082045518,-0.2258998941811239,1.29722297043679,-0.0170422250925384,0.4332463103811474,0.1297097542024769,-0.0589991932173628,0.4091415895790977,11.330475476540414,-1.4145724394343808,0.1994856782861168,-1.4497957559857744
2.58,0.3083030298899248,-0.6501058437460251,1.6797985978332208,0.0095698914352433,0.1490438732191039,0.037601824375776,-0.1733024769256091,0.9909322196377438,-0.0307224186725998,0.3099039602260792,-0.6454693799322091,1.680291796974276,-0.2350492973061716,1.3372229710328365,-0.0047055522500358,0.4780933722807209,0.1260370975789113,0.0877009553142682,0.4527653532345432,11.36975192866339,-1.41489955014969,0.2038446197832285,-1.4504651216359938
2.6,0.3048612775770459,-0.6302511377820716,1.679287025382811,0.0063133532352809,0.1484533739884326,0.0371471566725829,-0.1710982011761406,0.9943481099027272,-0.0208880017194205,0.2996379060436444,-0.6005592327641379,1.6782624768995908,-0.1967127171138502,1.0254837320877237,-0.0186036442063832,0.5320782242562706,0.1102137874734274,0.1707945132491672,0.4917208476589623,11.470609950898506,-1.4164327155680556,0.2079767811455271,-1.4504997431338853
2.62,0.3015990229660861,-0.611050100846797,1.678902304030932,0.0124586042041954,0.1475164539452406,0.0373577471078478,-0.1722358291934249,1.0209950151890268,-0.0201321556476344,0.2996379060436444,-0.6005592327641379,1.6782624768995908,-0.1967127171138502,1.0254837320877237,-0.0186036442063832,1.3340943202477935,-0.0568814008642157,1.3323452643149825,0.0377923035893052,10.88773615655191,-1.4175758073714375,0.1995990258606714,-1.4511671072513972
2.64,0.2981458523957416,-0.5905556533099844,1.6785029755099825,0.0271380840314756,0.1464515451382534,0.0381176713522833,-0.1730154428565118,1.0259693635095206,-0.0198177129069208,0.2996379060436444,-0.6005592327641379,1.6782624768995908,-0.1967127171138502,1.0254837320877237,-0.0186036442063832,0.2522439935581165,-0.0389806831543423,0.2487174160246907,0.0157221370356824,10.88773615655191,-1.4192232209714837,0.1795879597668714,-1.4546981281327311
