t,x,y,z,roll,pitch,yaw,v_x,v_y,v_z,ref_x,ref_y,ref_z,ref_v_x,ref_v_y,ref_v_z,a_com,a_x,a_y,a_z,thrust,wind_x,wind_y,wind_z
0.0,-1.068625127067886,1.7061540711244674,2.29803951243742,0.0214306947673682,0.136454619268922,0.026419825828876,0.0014439152071564,-0.0059250001368772,-0.0035607779751245,-1.068586038634116,1.70606710588168,2.297927831954081,-0.0239965325895551,-0.1035875456399378,-0.1035935846825672,0.3530922596701387,0.0721957603578207,-0.2962500068438645,-0.1780388987562297,10.545257775578648,-1.2839930026306363,0.1539500583838576,-1.1597994141228
0.02,-1.068630245058963,1.7062914528626307,2.2977448221535526,0.028092249235108,0.1362408524152882,0.026863585336048,-0.0020800948276747,0.0157452210681182,-0.0270738332016257,-1.068586038634116,1.70606710588168,2.297927831954081,-0.0239965325895551,-0.1035875456399378,-0.1035935846825672,1.6084782403591278,-0.1762005017415569,1.0835110602497746,-1.1756527613250558,10.545257775578648,-1.305188834969979,0.148607116849539,-1.1735920209109856
0.04,-1.0687163801068047,1.7066348857759068,2.2969002760018866,0.0424536657985763,0.1357190024668112,0.0278067334175617,-0.0063668747193869,0.0166625416601435,-0.0561998610216177,-1.068586038634116,1.70606710588168,2.297927831954081,-0.0239965325895551,-0.1035875456399378,-0.1035935846825672,1.4727045320425731,-0.2143389945856123,0.0458660296012672,-1.4563013909996032,8.919815632880272,-1.3071879686356578,0.1334635016041281,-1.153166000648135
0.06,-1.0688920584217767,1.7069109134405571,2.295473151258671,0.0574469016943235,0.135175769028112,0.0287533733384962,-0.0109698120849351,0.0105428880036844,-0.084993437958119,-1.0688260039600117,1.7050312304252808,2.2968918961072555,-0.0290570392016176,-0.123587545937961,-0.1235935849805904,1.489720834640162,-0.2301468682774113,-0.3059826828229569,-1.439678846825064,8.919815632880272,-1.30596731794514,0.1187026824278582,-1.1338479110235773
0.08,-1.069145389620958,1.7070248316153471,2.293594355586692,0.0711963833748895,0.1348709657285737,0.0295930520994604,-0.0154133165924052,0.00148465949937,-0.1113217004472114,-1.0693059346118026,1.702959479512482,2.294820024413604,-0.0391780524257425,-0.1635875465340074,-0.1635935855766368,1.409763846925106,-0.2221752253735035,-0.4529114252157197,-1.316413124454619,8.943856404673625,-1.3033297731469402,0.1040947361659809,-1.1150302951101552
0.1,-1.0695019099436642,1.7069303884436795,2.291082781697536,0.0849905959931833,0.1348717520088275,0.0304167483460881,-0.0199475462993014,-0.01075111567625,-0.1384147815573664,-1.0697858652635936,1.7008877285996833,2.2927481527199527,-0.0492990656498674,-0.2035875471300539,-0.2035935861726833,1.5035861109566184,-0.2267114853448105,-0.611788758781003,-1.3546540555077513,8.989394312227432,-1.2997763023189195,0.0906433148379441,-1.096269888505154
0.12,-1.0699459797448547,1.7065641317142417,2.288036694200203,0.098092338144556,0.1352193907735454,0.0311892981494566,-0.0241643438634005,-0.0255433637059442,-0.1648025864190977,-1.070771846576591,1.696815977657082,2.288676280996499,-0.0594200788739923,-0.2435875477261004,-0.2435935867687297,1.5271773218010676,-0.2108398782049547,-0.7396124014847085,-1.3193902430865645,9.012858394425166,-1.29567431909644,0.0788872426790538,-1.0789130771165565
0.14,-1.070443463906706,1.7059199761529973,2.284652052621937,0.1099253214335607,0.1358492959998414,0.0318834989690775,-0.0279238290111784,-0.0417509975329928,-0.1901584339366848,-1.0717578278895885,1.6927442267144812,2.284604409273045,-0.0695410920981172,-0.2835875483221469,-0.2835935873647762,1.516360879031753,-0.1879742573888938,-0.8103816913524301,-1.267792375879355,9.042207997398236,-1.2924798022480504,0.0673795171314541,-1.0649165028482053
0.16,-1.0710411350881344,1.7048870691607076,2.2805642360810072,0.1217667291731317,0.136776873119282,0.0325760148306283,-0.0315829683405131,-0.0609357959318808,-0.2173117134191964,-1.0729968345331888,1.687672475756979,2.2795325375346907,-0.0796621053222421,-0.3235875489181933,-0.3235935879608226,1.6723833119928304,-0.1829569664667331,-0.9592399199444012,-1.357663974125578,9.018477310181424,-1.2894752178442193,0.056745124710407,-1.0520652940622364
0.18,-1.071707709576032,1.7034482670088356,2.275931920635533,0.1330091612661038,0.1379211975426109,0.0332302226900044,-0.0348249960992182,-0.0822208524952037,-0.2445634385515504,-1.0744888665073924,1.6816007247845757,2.2734606657814345,-0.089783118546367,-0.3635875495142397,-0.3635935885568691,1.736534551615261,-0.162101387935257,-1.0642528281661474,-1.3625862566176996,8.992382963629552,-1.2860588040719043,0.0474351538570626,-1.0395070424317727
0.2,-1.0724337353222122,1.701543423117633,2.270752681136073,0.1430623300243167,0.1392239022912495,0.0338006640272259,-0.037554911925826,-0.1069911246702026,-0.2719509487775253,-1.0734489593809928,1.6993372243840754,2.263703748707956,-0.0579947799745644,-0.1822208539853199,-0.3445634400416665,1.851414689110577,-0.1364957913303915,-1.2385136087499435,-1.369375511298744,8.989788974229668,-1.2821978344539455,0.0389522474340101,-1.0261459866193825
0.22,-1.0731472656699896,1.69910349934624,2.2654712120684803,0.1469383166111309,0.1407691743943302,0.0339695877982125,-0.0373474291122522,-0.1458095730919532,-0.2822547614429904,-1.0734489593809928,1.6993372243840754,2.263703748707956,-0.0579947799745644,-0.1822208539853199,-0.3445634400416665,2.008160565315331,0.01037414067869,-1.940922421087528,-0.5151906332732548,10.042273301172829,-1.2663861417622997,0.0354399477511261,-1.008775749685998
0.24,-1.0738860782284492,1.6958317605308837,2.2597047583243817,0.1450433787025396,0.1426729269600285,0.0337499673753262,-0.0364998788435165,-0.1788021895683051,-0.2939599274710742,-1.0734489593809928,1.6993372243840754,2.263703748707956,-0.0579947799745644,-0.1822208539853199,-0.3445634400416665,1.7508869146511767,0.0423775134367886,-1.6496308238175938,-0.5852583014041901,10.042273301172829,-1.2617793054297155,0.0371219386059805,-1.005081659399538
0.26,-1.0746040303231492,1.691954581796009,2.253676661355906,0.1402136511355593,0.1444917701448234,0.0332936902006229,-0.0353261479008822,-0.2065992737456405,-0.3082951911497412,-1.0740289071807383,1.6975150158442225,2.260258114307539,-0.0626287367496336,-0.2022208542833431,-0.3645634403396897,1.564892422679974,0.0586865471317112,-1.3898542088667725,-0.7167631839333499,9.851457788269729,-1.2585775482562145,0.0411761303066886,-1.0022132440684968
0.28,-1.0752633990758889,1.687798927706408,2.2476580969060267,0.1349251799091602,0.1459157352928573,0.0327537451820615,-0.0341470454778096,-0.2292876713411567,-0.3244672611400167,-1.0751888027802297,1.6938705987645155,2.2533668455067057,-0.0718966502997721,-0.2422208548793895,-0.4045634409357361,1.3943542553335329,0.0589551211536296,-1.134419879775811,-0.808603499513777,9.661955612283236,-1.2563940979908643,0.0462696663339345,-0.9975304156187598
0.3,-1.075934480848943,1.6829868191891304,2.2409678917370703,0.1296225793851076,0.1470121291904912,0.0321378057416715,-0.0330463457266504,-0.250690812421884,-0.3438002151398997,-1.076348698379721,1.6902261816848094,2.246475576705872,-0.0811645638499106,-0.282220855475436,-0.4445634415317826,1.4431468206884828,0.055034987557961,-1.070157054036365,-0.9666476999941498,9.4952440166835,-1.2552614593514622,0.0512058841041781,-0.9913122207169578
0.32,-1.076586041853366,1.6777644259246771,2.2338671715549387,0.1249718432327163,0.1476907451202143,0.0315048031494465,-0.0321900057141937,-0.270560427008312,-0.3652783553417567,-1.0779719896567193,1.6845817645753007,2.2375843078752364,-0.090432477400049,-0.3222208560714824,-0.484563442127829,1.4635960923020657,0.0428170006228374,-0.9934807293213972,-1.0739070100928505,9.344558804787994,-1.2547812308583723,0.0555881071260125,-0.9835894381696872
0.34,-1.0772223261642098,1.6721552417046397,2.22632678961793,0.1210254335288304,0.1480042092645353,0.0308696046761613,-0.0315067996390384,-0.2894663477415624,-0.3876717723056836,-1.0795952809337177,1.678937347465792,2.2286930390446007,-0.0997003909501875,-0.3622208566675289,-0.5245634427238756,1.465747021686692,0.0341603037577631,-0.9452960366625184,-1.119670848196344,9.165729429470955,-1.2535869415259129,0.0589510005844929,-0.9764840519683984
0.36,-1.0778164030597277,1.666474842268759,2.218741769528676,0.1176393834835853,0.1480494216363374,0.0302572196818247,-0.0310790282324861,-0.3074405706372264,-0.4096002443877272,-1.081450270049469,1.672292930341382,2.218801770199064,-0.108968304500326,-0.4022208572635753,-0.5645634433199219,1.417844812499102,0.021388570327614,-0.8987111447832041,-1.096423604102181,9.122515574329556,-1.2522164812405454,0.0620432105055345,-0.9688038349659532
0.38,-1.0784358458787775,1.6601324818153642,2.210299640879108,0.1142186870515876,0.147934314838818,0.0296011664458105,-0.0309045552431893,-0.3257551418714774,-0.4334792795198333,-1.0835369570039743,1.664648513202071,2.207910501338626,-0.1182362180504645,-0.4422208578596218,-0.6045634439159684,1.5047111675989564,0.0087236494648396,-0.9157285617125503,-1.1939517566053048,9.122515574329556,-1.2499261304086322,0.0647044469696626,-0.962859220345693
0.4,-1.0790544733329237,1.6534292889642692,2.2013719769355364,0.1108489951405107,0.1477390177313119,0.0289385464922074,-0.0309708941004084,-0.3435170996687633,-0.4580602330687048,-1.079981073640937,1.6438447247217904,2.1886256769031163,-0.0393686625330997,-0.4257551433615936,-0.5334792810099495,1.5163400204178474,-0.0033169428609531,-0.8880978898642949,-1.2290476774435732,9.06717011145247,-1.2480789871831,0.0671265430622213,-0.957776933167922
0.42,-1.0796520744045974,1.646726052219603,2.1926604803821554,0.1080849188691992,0.1488748213507539,0.0284841194509719,-0.0314970536177594,-0.3613507916055647,-0.457755465978591,-1.079981073640937,1.6438447247217904,2.1886256769031163,-0.0393686625330997,-0.4257551433615936,-0.5334792810099495,0.8922027444948412,-0.026307975867551,-0.89168459684007,0.0152383545056894,10.445818049143782,-1.2377198767502875,0.0690504052838277,-0.9494720711598168
0.44,-1.0802762442754672,1.639317749952698,2.1834727195125976,0.1060815525043555,0.1522428289913138,0.0282983275203233,-0.0306401865292941,-0.3786849641446738,-0.461408705985891,-1.079981073640937,1.6438447247217904,2.1886256769031163,-0.0393686625330997,-0.4257551433615936,-0.5334792810099495,0.8867834027735231,0.042843354423267,-0.8667086269554536,-0.1826620003649998,10.445818049143782,-1.2352075070939357,0.0703811402824806,-0.952445376863175
0.46,-1.0808649663900736,1.6315642751168955,2.1741548769947228,0.1048469838382799,0.1567793598895733,0.0282819471004794,-0.028083317931607,-0.3957913106315368,-0.4704100250474805,-1.080374760266268,1.6395871732881746,2.183290884093017,-0.0410614839910817,-0.4457551436596168,-0.5534792813079726,0.9749210378320148,0.1278434298843545,-0.8553173243431467,-0.4500659530794759,10.101036181396012,-1.2301129671455455,0.0709056242475802,-0.9575942865348768
0.48,-1.0813861372076512,1.6234745989694457,2.16460846500963,0.1041467728181063,0.1615897196560122,0.0283237187212208,-0.0240332026295729,-0.4123413959073363,-0.4837689359788025,-1.08116213351693,1.6310720704209427,2.172621298472818,-0.0444471269070458,-0.4857551442556632,-0.5934792819040191,1.0825539915715527,0.2025057651017021,-0.8275042637899771,-0.6679455465660983,9.816555387073096,-1.2252322036363783,0.0710689982731474,-0.9618347910809916
0.5,-1.081794212246491,1.6154876987679052,2.15526136575202,0.1039619987445224,0.165871023379013,0.0283609101123195,-0.019075684060631,-0.4275856885042842,-0.4994654387807792,-1.081949506767592,1.6225569675537108,2.161951712852619,-0.04783276982301,-0.5257551448517097,-0.6334792825000656,1.121768299778556,0.2478759284470995,-0.7622146298473936,-0.7848251400988382,9.603505380805473,-1.2209252228324825,0.0709116903047962,-0.964955225491798
0.52,-1.0821137671126768,1.6067728910457486,2.145074465210532,0.1043715587203175,0.1697473309493663,0.0283719321554365,-0.0131129441808659,-0.4431290330331914,-0.5185118228876047,-1.082906162164052,1.6120418646566763,2.1492821272026177,-0.0512184127389741,-0.5657551454477562,-0.673479283096112,1.264826641839489,0.2981369939882527,-0.7771672264453633,-0.9523192053412703,9.44150707087556,-1.217456540090199,0.0702668145379363,-0.9666337102355936
0.54,-1.0823061163765235,1.5977473511781797,2.1344937617545314,0.1054672564592353,0.1727983954434162,0.0283408808166812,-0.0064184699573291,-0.4587034761676414,-0.5386325862865342,-1.0838628175605125,1.6015267617596425,2.136612541552616,-0.0546040556549382,-0.6057551460438027,-0.7134792836921585,1.3155078713499937,0.3347237111768409,-0.7787221567224972,-1.006038169946477,9.305635182521655,-1.214702889396391,0.0690594300114733,-0.9664741257551906
0.56,-1.0823588885335882,1.588397111377411,2.123503311064348,0.1068746288883848,0.174940383706985,0.028231474564218,0.0007772309267494,-0.4755237486314951,-0.5594121816454808,-1.0849041140298716,1.5900116588477071,2.122942955887713,-0.0579896985709024,-0.645755146639849,-0.7534792842882049,1.3842789280460794,0.3597850442039314,-0.8410136231926879,-1.038979767947329,9.261256676241828,-1.2130451522499317,0.0677070120924329,-0.9644882777703326
0.58,-1.0822730692237357,1.5791913297465103,2.1126711905030318,0.1078996324440288,0.1761204048058439,0.0280090600087873,0.0078209454170246,-0.4925436086757082,-0.5797409130087045,-1.08603005157213,1.5774965559208705,2.10827337020791,-0.0613753414868665,-0.6857551472358955,-0.7934792848842513,1.3716293856060626,0.352185724513757,-0.8509930022106538,-1.016436568161183,9.235075730563947,-1.2122796704527097,0.0665657493255075,-0.961023557978974
0.6,-1.0820398520895622,1.5691454452994855,2.1008442812606867,0.1082369651938001,0.1765515477989762,0.0276293329828073,0.0150601974985775,-0.5110642105287084,-0.6018883364165443,-1.0818820219528844,1.554564149312725,2.083684144852596,-0.012892298216484,-0.5925436101658244,-0.6797409144988206,1.4882269881504575,0.3619626040776437,-0.9260300926500098,-1.1073711703919908,9.207479712379609,-1.2123730759991098,0.0660752724639038,-0.9563789948826942
0.62,-1.0816053107672243,1.5586727251077666,2.088818491945725,0.1066533585651628,0.1759118814085407,0.0269947963319377,0.0282276800204823,-0.5350916182020832,-0.5982255938568733,-1.0818820219528844,1.554564149312725,2.083684144852596,-0.012892298216484,-0.5925436101658244,-0.6797409144988206,1.382131142950662,0.6583741260952413,-1.2013703836687373,0.1831371279835458,9.163918230266972,-1.204259231669891,0.0669121400220356,-0.9441579137221316
0.64,-1.0809026565957016,1.5477443275872165,2.076867847829392,0.1029241997971511,0.1736146360801342,0.0260387682769404,0.0412056015796108,-0.5559739062175793,-0.5970818787822048,-1.0818820219528844,1.554564149312725,2.083684144852596,-0.012892298216484,-0.5925436101658244,-0.6797409144988206,1.230654790070155,0.6488960779564238,-1.0441144007748038,0.0571857537334297,10.78102839960411,-1.2088746790632008,0.0694290361233678,-0.9420243721967284
0.66,-1.080005314663849,1.5370077369258806,2.065483410684478,0.0987741893835723,0.169519717761884,0.0249092890787546,0.0524263909142015,-0.5729705810760408,-0.6012673070957486,-1.0820109449350492,1.5486387132110666,2.076886735707608,-0.0170349469431857,-0.6125436104638475,-0.6997409147968437,1.0396043474602972,0.5610394667295386,-0.8498337429230785,-0.2092714156771924,10.422064694974324,-1.2160966845701586,0.0727214516143628,-0.9358857732822596
0.68,-1.0788572820030786,1.525380446906306,2.0533697995450577,0.0944542110011013,0.1632216786121,0.0235591005756851,0.0613388137851163,-0.5887829153752332,-0.6100183614727648,-1.0822687908993789,1.5367878410077502,2.063291917417632,-0.0253202443965892,-0.652543611059894,-0.7397409153928902,1.0075243795175814,0.4456211435457404,-0.7906167149596188,-0.4375527188508088,10.084465786920193,-1.225580506131996,0.0760553432564859,-0.9256276094560366
0.7000000000000001,-1.0775692870063762,1.5134523206488533,2.041036623071263,0.0904775136010241,0.1556900798659281,0.0221565096130703,0.0666956262806247,-0.6032348264676447,-0.6227829793348998,-1.0825266368637083,1.5249369688044336,2.049697099127655,-0.0336055418499927,-0.6925436116559405,-0.7797409159889367,1.0006106179495318,0.2678406247754186,-0.7225955546205753,-0.6382308931067504,9.80514244275946,-1.2340187544807797,0.0788309123201553,-0.9137667363146532
0.72,-1.0762780605538147,1.5018635294433786,2.029054156200528,0.087103599804128,0.1480975378077949,0.0208515039536511,0.0687468458597314,-0.6159471364570243,-0.6378463239395905,-1.0831987477007083,1.5110860965713149,2.0341022808078764,-0.0418908393033962,-0.7325436122519869,-0.8197409165849832,0.990851499604576,0.1025609789553336,-0.6356154994689778,-0.753167230234536,9.575500332512092,-1.2417040605894558,0.0812921601131929,-0.9000183873373767
0.74,-1.074904757301807,1.4894133101731089,2.016115562225904,0.0840680613330494,0.140227528245607,0.0195626296902073,0.0682680387383304,-0.6284490786016584,-0.6552702397966871,-1.0838708585377084,1.497235224338196,2.0185074624880976,-0.0501761367567996,-0.7725436128480334,-0.8597409171810296,1.0725211623115718,-0.0239403560700492,-0.6250971072317091,-0.8711957928548286,9.282953161602563,-1.24807223910797,0.0832341042096434,-0.8861415060819846
0.76,-1.0735661462990844,1.4767102864545554,2.002815210877257,0.081307757516886,0.1329388214900016,0.0183761583496272,0.0654757051883442,-0.641128640368438,-0.6739137254000341,-1.0847501018110433,1.482384352090176,2.0019126441534176,-0.0584614342102031,-0.8125436134440798,-0.899740917777076,1.1359445064506504,-0.1396166774993087,-0.6339780883389767,-0.9321742801673528,9.282953161602563,-1.252983896494792,0.0848886074993472,-0.8728308124789336
0.78,-1.0723048170149765,1.4637564225148774,1.9891284315339064,0.0785034156419696,0.1265806736935598,0.0172944588181658,0.0607573400097241,-0.6534642888085431,-0.6937965798330005,-1.0858364775207134,1.466533479827255,1.9843178258038363,-0.0667467316636066,-0.8525436140401262,-0.9397409183731223,1.193481349664934,-0.2359182589310088,-0.6167824220052576,-0.9941427216483169,9.207510808832922,-1.2559627327126397,0.0863466608941873,-0.8628346355639837
0.8,-1.071210583056268,1.4512271874851326,1.9757463023724784,0.0757449507640245,0.1216425643653943,0.0163750847945336,0.0546002653806341,-0.6646436093330096,-0.7138273405948549,-1.06926695001449,1.4310832080744502,1.9544386025422564,0.0686440133335342,-0.7534642902986592,-0.7937965813231166,1.1875585796873205,-0.3078537314544993,-0.5589660262233231,-1.0015380380927197,9.133500219511006,-1.258060060272067,0.0879625630455692,-0.8536496769820398
0.8200000000000001,-1.0702423073135132,1.4377971980439614,1.9615294645891312,0.072877001658034,0.1204138276265951,0.0157321554713267,0.0428689251653209,-0.6777850035225171,-0.7053473754924565,-1.06926695001449,1.4310832080744502,1.9544386025422564,0.0686440133335342,-0.7534642902986592,-0.7937965813231166,0.9775356676732312,-0.5865670107656571,-0.6570697094753775,0.4239982551199173,10.917092434887309,-1.2518444442131855,0.089658937429815,-0.8397146563378043
0.84,-1.0694764834882982,1.4241222272574334,1.9474691960471668,0.0704588755641909,0.1247577212346647,0.0155368329839901,0.0349689234528443,-0.6891786581518587,-0.7013026215404676,-1.06926695001449,1.4310832080744502,1.9544386025422564,0.0686440133335342,-0.7534642902986592,-0.7937965813231166,0.7221243442129288,-0.3950000856238318,-0.5696827314670805,0.2022376975994444,10.917092434887309,-1.244813151254108,0.0905156547723211,-0.8498838745377776
0.86,-1.068857837907683,1.410926060318502,1.934121654591273,0.0686297901860718,0.1315911819663825,0.0155742304920816,0.0309369388461578,-0.6993706869348729,-0.7039108597921996,-1.0685805098811547,1.4235485651714637,1.9465006367290247,0.0702213479982962,-0.7734642905966824,-0.8137965816211398,0.5633321785592932,-0.2015992303343233,-0.5096014391507087,-0.1304119125865976,10.021111824223226,-1.2366753836738862,0.091337956911062,-0.8617230154399086
0.88,-1.0682589909351634,1.3968344778429806,1.919966432240081,0.0671423468131337,0.1401303647361803,0.0157335549542668,0.0294900582725477,-0.7092651380229129,-0.711715008658239,-1.067207629614484,1.4084792793654903,1.930624705102563,0.0733760173278202,-0.8134642911927289,-0.8537965822171862,0.6342285969018003,-0.0723440286805075,-0.4947225544019995,-0.3902074433019709,10.021111824223226,-1.227869705889264,0.091969107810584,-0.8737299122391712
0.9,-1.0676641441724888,1.3825526600175142,1.9056101549976776,0.0661973242836153,0.1491867690682441,0.0159641854607833,0.0303387675036229,-0.7184314670822277,-0.7237022342694205,-1.0658347493478133,1.3934099935595172,1.9147487734761008,0.0765306866573443,-0.8534642917887754,-0.8937965828132327,0.7557040982354083,0.0424354615537619,-0.4583164529657402,-0.5993612805590742,9.74188490976212,-1.2185174783077846,0.0922678564391283,-0.8848254516023275
0.92,-1.0670319200929703,1.3680954731851525,1.8909766049595251,0.0659715665192552,0.1582737691613169,0.0162501128891967,0.0330983598357052,-0.7269109307861855,-0.7390697047078985,-1.0643041356146663,1.3763407077237415,1.896872841819836,0.0796853559868683,-0.8934642923848218,-0.9337965834092792,0.8883633859850361,0.1379796166041128,-0.42397318519789,-0.7683735219238985,9.534018451236989,-1.2101578781337,0.0921204171071748,-0.8945048298295986
0.94,-1.0663617023195373,1.3542081272145978,1.876777471873907,0.0665987443172926,0.1666870388829562,0.0165745149426021,0.0375083015613538,-0.7345949896029521,-0.7548321509736304,-1.0627735218815195,1.3592714218879662,1.8789969101635715,0.0828400253163923,-0.9334642929808684,-0.9737965840053256,0.9040838708372594,0.2204970862824298,-0.3842029408383296,-0.7881223132865989,9.331258928483294,-1.2018313300707846,0.0913320763712728,-0.9033465811894028
0.96,-1.0655478224870494,1.3394239238111727,1.861497448980048,0.068008909742589,0.1751733702980246,0.0169587689276032,0.0438450479865603,-0.7434501431438598,-0.7723999422649587,-1.0611640414151349,1.3412021360372894,1.860120978492405,0.0859946946459164,-0.9734642935769148,-1.013796584601372,1.0334352789919723,0.3168373212603256,-0.4427576770453856,-0.8783895645664119,9.331258928483294,-1.1942851240970247,0.0899707984566018,-0.9112253243966024
0.98,-1.0645902529425748,1.3244532575965435,1.845857867922024,0.0697870039080305,0.1832159802549923,0.0173569093863783,0.0517736610500941,-0.7531793726421459,-0.7907224076906983,-1.0594756942155117,1.3221328501717118,1.8402450468063385,0.0891493639754404,-1.013464294172961,-1.0537965851974185,1.1104430996442187,0.3964306531766912,-0.4864614749143015,-0.9161232712869838,9.293645343801472,-1.187447367437421,0.0883472632761648,-0.9181337892475404
1.0,-1.0634588523147503,1.309277940770523,1.8298438693036907,0.0715205330651425,0.1907933426961535,0.0177372820269506,0.061135974735117,-0.7638051438284605,-0.8097794078328756,-1.06200156989007,1.2867942889644362,1.8063217475374889,0.0557995846039483,-0.853179374132262,-0.8907224091808145,1.1871490905312052,0.4681156842511458,-0.5312885593157346,-0.952850007108863,9.247838115971716,-1.1817357501461097,0.0868747163396362,-0.9238532027586912
1.02,-1.0621199887806798,1.2946049019981511,1.814545988059372,0.0717304707350549,0.1968809327969125,0.017929294570085,0.0792616414402188,-0.7796778019986829,-0.7995506803753385,-1.06200156989007,1.2867942889644362,1.8063217475374889,0.0557995846039483,-0.853179374132262,-0.8907224091808145,1.3087283296140313,0.9062833352550872,-0.793632908511116,0.5114363728768556,11.06807005531391,-1.17048520806227,0.0863519024107127,-0.920904964175524
1.04,-1.0603300014031736,1.2788572657608084,1.7986281072610977,0.0700087654147887,0.2014482644507395,0.0178633772570243,0.0986575605586637,-0.7941113990762768,-0.7931535988008084,-1.06200156989007,1.2867942889644362,1.8063217475374889,0.0557995846039483,-0.853179374132262,-0.8907224091808145,1.2504529736447303,0.9697959559222472,-0.7216798538796976,0.3198540787265058,11.06807005531391,-1.1711219449057475,0.0877700326012162,-0.9271663839650386
1.06,-1.058154890568365,1.2628359952804662,1.7827706341271858,0.0669283630034836,0.2040278987371226,0.0175612223415182,0.1177124462761478,-0.8068808008826908,-0.7931217977539253,-1.0614435740440304,1.2782624952231136,1.7974145234456806,0.0566047693147192,-0.8731793744302851,-0.9107224094788376,1.1468950513305587,0.9527442858742048,-0.6384700903206975,0.0015900523441525,10.672691305486296,-1.172323399251678,0.0901271910579159,-0.9298577877697992
1.08,-1.0556053650634487,1.2465892473463185,1.7668522892522491,0.0633580606935325,0.204449403852275,0.0170841892610135,0.1361145227330906,-0.8170366651859367,-0.7986469156834706,-1.0603275823519516,1.2611989077404684,1.7796000752620644,0.0582151387362609,-0.9131793750263316,-0.950722410074884,1.086628876167589,0.9201038228471404,-0.5077932151622944,-0.2762558964772621,10.309512683214962,-1.1753459764909338,0.0930295302462671,-0.9293743571528342
1.1,-1.0528487491850285,1.2309836295836634,1.751586272117864,0.0601161175737888,0.2026570639599845,0.0165145769000438,0.1529930580250368,-0.8251631139914346,-0.8079815833949133,-1.0592115906598725,1.2441353202578231,1.7617856270784482,0.0598255081578026,-0.953179375622378,-0.9907224106709306,1.046494320425227,0.8439267645973081,-0.4063224402748977,-0.4667333855721378,10.010678236437345,-1.179933100637308,0.0957600927800867,-0.9255834021329842
1.12,-1.0496113880455618,1.2144022984811864,1.7352908202220585,0.0571296832632256,0.1981993965957755,0.0158115859282767,0.1695207918012265,-0.8325823036203928,-0.821172316274972,-1.0580150804967163,1.2250717327453755,1.7419711788650296,0.0614358775793442,-0.9931793762184246,-1.030722411266977,1.1204974257445914,0.8263866888094842,-0.3709594814479078,-0.6595366440029338,9.768102005827132,-1.187872016573188,0.0981825688946003,-0.9176868191586114
1.14,-1.0460714200112091,1.1976804070600704,1.718711703711013,0.0547022463608731,0.1914448165270411,0.0150436946239771,0.1832017928099081,-0.8393540841575541,-0.835987181278643,-1.0568185703335602,1.206008145232928,1.722156730651611,0.0630462470008859,-1.033179376814471,-1.0707224118630234,1.0636106257931297,0.6840500504340818,-0.338589026858066,-0.7407432501835509,9.462400596634325,-1.1973290449825815,0.1000416091742798,-0.9067838686546577
1.16,-1.0422904178389985,1.1808185848147157,1.7018253332097897,0.0525344933516741,0.1832603698768906,0.0142454558890398,0.1938395161674661,-0.8464122692350808,-0.8518310760357231,-1.0555818009348656,1.1859445577055794,1.701342282423291,0.0646566164224276,-1.0731793774105174,-1.1107224124590698,1.0173594938540458,0.5318861678778986,-0.3529092538763378,-0.7921947378540017,9.380838535425935,-1.2076229735867776,0.1017005313524907,-0.893546593845263
1.18,-1.0385302294030518,1.1646708220876487,1.6854792081576788,0.0504786050887452,0.174789857303963,0.013480759081868,0.2011617696320829,-0.8529035909081247,-0.867961565602159,-1.0543047723006325,1.1648809701633294,1.6795278341800703,0.0662669858439693,-1.1131793780065635,-1.150722413055116,0.9433256947045392,0.3661126732308409,-0.3245660836521946,-0.8065244783217962,9.293651948837578,-1.217597833195067,0.1032722362421842,-0.8795024101451515
1.2,-1.0344516688715495,1.147545276033389,1.6679285932819,0.0482993772159621,0.1656782634885654,0.0126984974664372,0.2060315681757001,-0.8592304256739497,-0.8862807001848433,-1.0284721409214477,1.1220256425422426,1.6420811298775708,0.2356520308589754,-0.9529035923982409,-0.963356705952024,0.9991677385053616,0.2434899271808593,-0.3163417382912481,-0.9159567291342152,9.293651948837578,-1.2266938923508064,0.1047819096555103,-0.8653294153556761
1.22,-1.030350745143038,1.1302710054990996,1.6503386692238384,0.0457964025155837,0.1600499491418561,0.012092902092404,0.2038112658611146,-0.8676805894407879,-0.870094914787674,-1.0284721409214477,1.1220256425422426,1.6420811298775708,0.2356520308589754,-0.9529035923982409,-0.963356705952024,0.9196665958076288,-0.1110151157292724,-0.4225081883419079,0.8092892698584653,11.423524174231716,-1.230489510753941,0.1065475635934423,-0.8450013058459652
1.24,-1.026283547931717,1.1128515587610444,1.6330581476215136,0.0432978396553948,0.1607633261246641,0.0118006997243596,0.2036987176608593,-0.8738862219398833,-0.8590090117316946,-1.0284721409214477,1.1220256425422426,1.6420811298775708,0.2356520308589754,-0.9529035923982409,-0.963356705952024,0.6352554375559929,-0.0056274100127651,-0.3102816249547724,0.554295152798967,10.795941493263854,-1.2276950591367204,0.1079388189896025,-0.8507850310265697
1.26,-1.0223910468509427,1.096199810925777,1.6167726319252025,0.0413566684809795,0.1647146930343581,0.0117033546759774,0.2063994797178585,-0.8787153422848405,-0.8558215420143728,-1.026115620612858,1.1124966066182602,1.6324475628180506,0.2425500831043539,-0.972903592696264,-0.9824357340219968,0.3192744986428209,0.1350381028499589,-0.2414560172478597,0.1593734858660933,10.795941493263854,-1.2236346235123656,0.1092727341593535,-0.8587853025313327
1.28,-1.0182139508260648,1.0785817949075922,1.5996379096687323,0.0399081040400689,0.1706269800545535,0.0117184420561417,0.2114440790348388,-0.8828852721115066,-0.8580831894107762,-1.0214025799956783,1.0934385347702953,1.61318042869901,0.2563461875951109,-1.0129035932923105,-1.020593790161943,0.3462345519075747,0.2522299658490129,-0.2084964913333042,-0.1130823698201721,10.345262509473288,-1.2189881286093591,0.1102655117457947,-0.8673886597940256
1.3,-1.013917803708566,1.0608897399632764,1.5824046973831354,0.0393102667946742,0.1773592689188623,0.0118302664089257,0.2181777275533114,-0.886235024104359,-0.8651333584979792,-1.016689539378499,1.0743804629223306,1.5939132945799697,0.2701422920858679,-1.0529035938883569,-1.058751846301889,0.5154312392116435,0.3366824259236317,-0.1674875996426184,-0.3525084543601509,10.027030025883503,-1.2144877944359087,0.1106755630985858,-0.8754995780368834
1.32,-1.00969750736236,1.0440267795264138,1.56586996600409,0.0397762479058543,0.183999892813943,0.0120268553176907,0.225915195017169,-0.8887932781474404,-0.87503229592688,-1.0112866935367817,1.0533223910445637,1.572738257653932,0.2839383965766248,-1.0929035944844032,-1.096909902441835,0.6410967725790132,0.3868733731928808,-0.1279127021540704,-0.49494687144504,9.624800215181494,-1.2098278689562647,0.1103110037099022,-0.8835317979231552
1.34,-1.0050803465314226,1.026227478520452,1.5482479866947003,0.0416581308495025,0.1909407112085959,0.0123448152186231,0.2355738708641737,-0.8911544544388386,-0.8867125225667153,-1.0058838476950642,1.0322643191667964,1.551563220727894,0.2977345010673818,-1.1329035950804498,-1.1350679585817811,0.7669629504651593,0.4829337923502319,-0.1180588145699101,-0.5840113319917628,9.624800215181494,-1.2051863774759135,0.1088356054430006,-0.8907267846558294
1.36,-1.000254322683655,1.0083649797383405,1.5303851326278848,0.0447500020451652,0.1976549324951387,0.0127614463156507,0.2467090962390062,-0.8953295718979436,-0.8990360828534847,-1.000136099241078,1.010206247274128,1.5294342323983576,0.3115306055581388,-1.1729035956764962,-1.173226014721727,0.8562928647479177,0.5567612687416276,-0.2087558729552519,-0.6161780143384699,9.572229120773954,-1.200791882494327,0.1064083123125873,-0.8969527505971447
1.38,-0.9951913954770804,0.9903946148978486,1.5122700083765177,0.0479769986271824,0.2040543861659062,0.0131989607844723,0.2591748767814192,-0.9015082985759564,-0.9118843083514034,-0.9940434481748228,0.9871481753665584,1.5063512926653224,0.3253267100488958,-1.2129035962725423,-1.211384070861673,0.9469018512213369,0.6232890271206478,-0.308936333900639,-0.6424112748959376,9.556287920378963,-1.196839356890281,0.103994609601996,-0.9023198331515496
1.4,-0.990139448331256,0.973197366596346,1.4948172544542335,0.0506950619920629,0.2098092188184437,0.0135955926574291,0.272102986940256,-0.9083455593220426,-0.924621565277248,-0.9822326516380095,0.9453191999690508,1.4666757929589476,0.311743182065204,-1.0015083000660725,-0.9463258241547404,0.9696930967888364,0.6464055079418385,-0.341863037304313,-0.6368628462922354,9.54509263228374,-1.193107418063112,0.1017508600968522,-0.90733417921978
1.42,-0.984428196593274,0.9548714223543012,1.4766148789332227,0.0512440736006975,0.2148828781434732,0.0138151509873491,0.2988989741647895,-0.9234246200877454,-0.8926440932537232,-0.9822326516380095,0.9453191999690508,1.4666757929589476,0.311743182065204,-1.0015083000660725,-0.9463258241547404,2.2180857298177417,1.339799361226676,-0.7539530382851378,1.5988736011762483,9.528023002326336,-1.1821665102431782,0.1010312967349597,-0.9001425890671984
1.44,-0.9781544623842654,0.9362582917025736,1.4590887868569271,0.0483863518375075,0.2181372822300848,0.0137044309969645,0.3269113172489319,-0.936587922365136,-0.8617832687805072,-0.9822326516380095,0.9453191999690508,1.4666757929589476,0.311743182065204,-1.0015083000660725,-0.9463258241547404,2.1853800465115385,1.4006171542071204,-0.6581651138695355,1.5430412236608015,12.66874351034494,-1.1845469468144014,0.103406980622764,-0.9062248096838688
1.46,-0.9713246913496052,0.9174293720543182,1.4421076883893675,0.0437687036477401,0.2192772764186781,0.0133705636110616,0.3544195285112984,-0.945240226471974,-0.8378068393752894,-0.9791152198173576,0.93530411696839,1.4572125347174,0.322256843121961,-1.0215083003640957,-0.953214127315408,1.875122142845353,1.375410563118326,-0.4326152053418908,1.1988214702608857,12.2271941567069,-1.1889448181322075,0.1073781107665825,-0.9097823296491216
1.48,-0.9643342021112936,0.8994145436799224,1.4263620770830825,0.0392835972070916,0.218041894277939,0.0129579144753086,0.3798769943014013,-0.9505974922530326,-0.8207782886350115,-0.9728803561760534,0.9152739509670688,1.4382860182343054,0.343284165235475,-1.0615083009601425,-0.9669907336367428,1.554633720058669,1.2728732895051442,-0.2678632890529331,0.8514275370138991,11.378501528428387,-1.195404082770786,0.1114775197559607,-0.9097835010129732
1.5,-0.9564633006310752,0.8803619793269823,1.4100899916657108,0.0350875208432005,0.2138024426406782,0.0124721212403412,0.4055859009399348,-0.9544116080597028,-0.8074908965594366,-0.9666454925347492,0.8952437849657472,1.4193595017512106,0.3643114873489889,-1.1015083015561886,-0.9807673399580776,1.4594949024453403,1.2854453319266768,-0.1907057903335063,0.6643696037787417,11.378501528428387,-1.2045389714049808,0.1151426895281813,-0.9073204656219506
1.52,-0.9481090690283924,0.8612468162332374,1.394036130756006,0.0316832148288632,0.2065421291569849,0.0119731929548883,0.4279475311351444,-0.9570776456625324,-0.7984401536479041,-0.9593592627877696,0.8732136189346235,1.399744154952049,0.3853388094625029,-1.141508302152235,-0.9945439462794124,1.2135343101223666,1.1180815097604797,-0.1333018801414842,0.4525371455766258,10.806598538551045,-1.215487857159369,0.1180113786949974,-0.901437624214482
1.54,-0.939349128301958,0.8420864515549982,1.378147955396765,0.0291158963541483,0.1972209183589396,0.0115078436040303,0.4464266185263402,-0.959027883401314,-0.7907406675172604,-0.9520730330407896,0.8511834529034996,1.3801288081528875,0.4063661315760168,-1.1815083027482816,-1.0083205526007473,1.0056865624104672,0.9239543695597874,-0.0975118869390778,0.3849743065321875,10.806598538551045,-1.2278023827849591,0.1203095462069478,-0.8914437451180085
1.56,-0.9307198859345936,0.8238441697426271,1.3631856367572222,0.0271820917227506,0.1872075866103122,0.0111018987751104,0.4605893757691942,-0.961131580522084,-0.7845557282396224,-0.944261120240972,0.8281532868574747,1.3601690461956926,0.4273934536895308,-1.221508303344328,-1.0220971589220822,0.7798440680097846,0.708137862142702,-0.1051848560385038,0.3092469638818984,10.698332743246285,-1.2403070978086712,0.122103684392297,-0.8796296808961324
1.58,-0.9213843167226088,0.8046003030364474,1.3475510956385517,0.0254231092708382,0.1760801940402335,0.0107119496202684,0.4718186016379139,-0.9631380081108282,-0.7792410989074675,-0.9359235243883166,0.8041231207965487,1.3398648690804642,0.4484207758030447,-1.2615083039403745,-1.035873765243417,0.6292188614023714,0.5614612934359858,-0.100321379437207,0.2657314666077437,10.59764692632325,-1.252555275419743,0.1236310858901907,-0.866742487195402
1.6,-0.9118631521233028,0.7853190567336716,1.332004553909381,0.0238686979796217,0.1649102071146302,0.0103676148553164,0.4794088678982456,-0.9648673434792202,-0.7756204810707578,-0.897793386640713,0.7564434026309059,1.3085890406931782,0.5419535244999669,-1.0631380096009444,-0.7598526225208012,0.4292773469407697,0.3795133130165856,-0.0864667684196018,0.1810308918354874,10.493289370524508,-1.264056733227748,0.1249645086734626,-0.8536351068413593
1.62,-0.9022221745643968,0.7659710101142455,1.3168814520756582,0.0216271867446779,0.155937070623781,0.010058830519121,0.4843158486190153,-0.9694002593524408,-0.735047753691289,-0.897793386640713,0.7564434026309059,1.3085890406931782,0.5419535244999669,-1.0631380096009444,-0.7598526225208012,2.0559498979282003,0.2453490360384835,-0.2266457936610344,2.0286363689734355,10.374247192288747,-1.2698715408472112,0.126373539854498,-0.8306652990295471
1.64,-0.8929940357019409,0.7475314761793554,1.303281324185919,0.0189409235068134,0.1514708291447351,0.0098458583699728,0.4869033402891338,-0.9712842860513378,-0.6988044362715984,-0.897793386640713,0.7564434026309059,1.3085890406931782,0.5419535244999669,-1.0631380096009444,-0.7598526225208012,1.819218738448968,0.1293745835059256,-0.0942013349448434,1.8121658709845332,13.019745205819165,-1.2742314094806713,0.128706900673885,-0.8370069243229402
1.66,-0.8832284809302702,0.7281069609623977,1.289652532568761,0.0165465783864094,0.1503853864308596,0.009743037839547,0.489810518003209,-0.9711915251696692,-0.6662609808129445,-0.8923738513957132,0.7458120225348965,1.30099051446797,0.5559805090723775,-1.0831380098989676,-0.7559749272434679,1.6336590678839429,0.1453588857037585,0.0046380440834326,1.6271727729326946,12.523928964285917,-1.274292900675961,0.130718085997331,-0.8472814092459561
1.68,-0.8733934510415545,0.7086986088770946,1.2766171381451377,0.0151550736525651,0.1517872992852628,0.0097644848086947,0.4938288859619607,-0.9698905430437402,-0.6389231495607243,-0.8815347809057139,0.7245492623428776,1.2857934620175542,0.5840344782171987,-1.1231380104950142,-0.7482195366888015,1.3831095881371596,0.2009183979375828,0.0650491062964442,1.3668915626110112,12.122424533137746,-1.2735473251032807,0.1320526071267523,-0.8592281949886275
1.7,-0.8639621366643366,0.6902940600163349,1.264705431592288,0.0151071794891668,0.1544820251924649,0.0099028802319104,0.4989281501882402,-0.9677231369384212,-0.6163311359389249,-0.8706957104157146,0.7032865021508587,1.270596409567138,0.6120884473620198,-1.1631380110910603,-0.7404641461341349,1.1630769797850429,0.2549632113139771,0.1083703052659534,1.1296006810899706,11.809306402137736,-1.2717251553937612,0.132465245759199,-0.8717573515247247
1.72,-0.8539148300306239,0.670971223220099,1.2526072774135997,0.0168413081330787,0.1580241814108291,0.0101938718616103,0.5056872306912849,-0.9648829186135064,-0.5947899116081515,-0.8584539414684742,0.6800237419290376,1.2557871266444554,0.640142416506841,-1.2031380116871069,-0.7327087555794684,1.1377349812769666,0.3379540251522317,0.1420109162457328,1.0770612165386662,11.598631275847763,-1.2695239556108937,0.1314546138136088,-0.8839352850144172
1.74,-0.8437146284715071,0.6516976856168237,1.2409345286986229,0.0205636833581523,0.1617156253214536,0.010640397936822,0.5141156630902479,-0.9632793785054934,-0.5735843429254004,-0.8462121725212338,0.6567609817072163,1.2409778437217729,0.6681963856516622,-1.2431380122831537,-0.7249533650248019,1.1437722202658764,0.4214216199481535,0.0801770054006556,1.060278434137557,11.47132433972547,-1.267678714039557,0.1288539358590105,-0.8951187650369649
1.76,-0.833326395418984,0.6324170758645917,1.2296867739513828,0.0249930273618753,0.1649986614414123,0.0111437195281281,0.5243432519620823,-0.9650191565220494,-0.5522621984473571,-0.8332690543453728,0.632498221470494,1.2263624455629567,0.6962503547964833,-1.2831380128791998,-0.7171979744701353,1.1856055908487368,0.5113794435917196,-0.0869889008278002,1.066107223902163,11.479230878582712,-1.2652178603990611,0.1257266020596802,-0.9052957791576012
1.78,-0.8232537759783599,0.6140478453373637,1.2193972719533843,0.0289588216856155,0.1672743684625102,0.0115952465841003,0.5353492401049873,-0.9684741434502064,-0.5319286890530726,-0.8196245869408914,0.6072354612188704,1.2119409321680072,0.7243043239413045,-1.3231380134752462,-0.7094425839154689,1.1688886965436012,0.5502994071452494,-0.1727493464078466,1.0166754697142288,11.50993327316337,-1.2634653064830226,0.1225685388137194,-0.9150683651575297
1.8,-0.8124184182018288,0.5946291348160248,1.2089825768616618,0.0325860983905095,0.1685613047812699,0.0120063353667547,0.5475383087304362,-0.9731925875156332,-0.5106199862909541,-0.7964863139731105,0.5656241381648534,1.1928008375007308,0.6177802212045929,-1.0684741449403226,-0.4385331504249712,1.2498979175904523,0.6094534312724442,-0.2359222032713381,1.0654351381059246,11.533899481915796,-1.26285630698481,0.1198136228510459,-0.923397745239769
1.82,-0.8012444826601987,0.5750127136479554,1.199259995585552,0.0327892742293108,0.1672587951234023,0.0120958616200799,0.5694887221203745,-0.9873380793606168,-0.4612628960956345,-0.7964863139731105,0.5656241381648534,1.1928008375007308,0.6177802212045929,-1.0684741449403226,-0.4385331504249712,2.791969707963624,1.0975206694969153,-0.7072745922491797,2.467854509765979,11.544548342351844,-1.2545793566391117,0.1191981942252715,-0.920859580551682
1.84,-0.7896253297690692,0.5551531718868721,1.1905650408996915,0.0284431616418842,0.1616559041928706,0.01174905203305,0.5905766056555571,-0.996804597595226,-0.4107737721550194,-0.7964863139731105,0.5656241381648534,1.1928008375007308,0.6177802212045929,-1.0684741449403226,-0.4385331504249712,2.7764480166979566,1.0543941767591325,-0.4733259117304655,2.524456197030753,13.787257092240909,-1.2601138726348582,0.1227927543564849,-0.9289557573652748
1.86,-0.778246349996474,0.5361781291610306,1.1832066371292729,0.0231905917238606,0.1534269418200571,0.0113100156523888,0.6056213718680447,-1.0000092756770351,-0.3662809568254782,-0.7903085117610646,0.5549393967154501,1.1884155059964812,0.634266417424514,-1.0884741452383455,-0.4198540426993509,2.3538402494355344,0.7522383106243757,-0.1602339040904676,2.224640766477062,13.597734957317698,-1.2711270087876323,0.127879315557982,-0.9346956150605032
1.88,-0.7660173839968011,0.5161751505185747,1.1763424955557067,0.0183118554815812,0.1433084989443888,0.0109281467746372,0.6159827587697768,-1.0002388782735545,-0.3226118130737652,-0.7779529073369728,0.5335699138166436,1.1796448429879818,0.6672388098643562,-1.1284741458343923,-0.3824958272481104,2.244106265246528,0.5180693450866081,-0.011480129825947,2.183457187585649,13.285320418765878,-1.283229942888908,0.1325194775249289,-0.9370888936607948
1.9,-0.7536372491366449,0.4961863544474496,1.1703149263758117,0.0147170394895722,0.1330535374165002,0.0106954857277261,0.6211464519456009,-0.9988643597156148,-0.2824738166293813,-0.7655973029128809,0.5122004309178372,1.1708741799794824,0.7002112023041984,-1.168474146430439,-0.3451376117968698,2.0246060030593265,0.2581846587912051,0.0687259278969731,2.0068998222191934,13.029989328756528,-1.2942801807413389,0.1359359892555256,-0.936292363973816
1.92,-0.7412036602803623,0.476235801028614,1.1650561394822372,0.0125818421582101,0.1237635455245659,0.0106218770365724,0.6218236117895678,-0.996660117170988,-0.2454090851331854,-0.7515930788667968,0.4888309479892284,1.1639714277435451,0.7331835947440406,-1.208474147026485,-0.3077793963456293,1.856819560118132,0.0338579921983439,0.1102121272313405,1.8532365748097923,12.576816442396192,-1.3045421465406992,0.1383599587716864,-0.9363314372283076
1.94,-0.7294135228240072,0.4573298204581834,1.160736917685572,0.0119607403217997,0.1165693194792448,0.0106918885128254,0.6191394483679625,-0.9938173883650828,-0.2111108811995623,-0.7375888548207129,0.4654614650606196,1.1570686755076076,0.7661559871838829,-1.2484741476225316,-0.2704211808943887,1.7260161017573157,-0.1342081710802634,0.1421364402952651,1.7149101966811562,12.576816442396192,-1.312430705012025,0.1394906117268479,-0.9378836971462742
1.96,-0.7170846951909908,0.437482751310245,1.1568918629178102,0.0128373394936869,0.1113784215581996,0.0109064361562873,0.6137271044276384,-0.99117231585712,-0.1752214461661654,-0.7227603209636329,0.4410919821171097,1.1510998786579514,0.7991283796237251,-1.288474148218578,-0.2330629654431482,1.8195751032295695,-0.2706171970162041,0.1322536253981376,1.7944717516698447,12.54147708702112,-1.3175632745199195,0.1392588730449284,-0.9420405239630836
1.98,-0.7048870747125751,0.4176826030776722,1.153761865345239,0.0151618025103452,0.109314348590579,0.0112593783080412,0.6066118781613956,-0.9891491527631212,-0.1396055282450714,-0.7071074772955568,0.4157224991586986,1.146065037194576,0.8321007720635673,-1.3284741488146243,-0.1957047499919077,1.818799908653269,-0.3557613133121418,0.1011581546999429,1.7807958960547,12.54147708702112,-1.3184049405277762,0.1376985132893295,-0.9508391699951828
2.0,-0.6928202057108619,0.3979014102693692,1.151345045525059,0.0184022815790864,0.1100512566577997,0.0117168111320826,0.6007663125514038,-0.9893466574009944,-0.1038997771616927,-0.6745564808045053,0.3682251454395161,1.1467815889329855,0.7066118796515117,-1.0891491542532372,-0.0396055267549553,1.8090814698424291,-0.2922782804995916,-0.0098752318936634,1.7852875541689337,12.52984992515485,-1.315130883361659,0.1353302157444656,-0.9635877522089092
2.02,-0.681454024602283,0.3790212076802345,1.1496754381615222,0.0193678929474664,0.1126294985228091,0.0120420411251534,0.5962439748302957,-0.9969391421825784,-0.0736422268296532,-0.6745564808045053,0.3682251454395161,1.1467815889329855,0.7066118796515117,-1.0891491542532372,-0.0396055267549553,1.5760843217593457,-0.2261168860554052,-0.3796242390791959,1.512877516601977,12.542044192011415,-1.310644768763063,0.1346580674836818,-0.9787653281714134
2.04,-0.6695620705440051,0.3590344697277451,1.1485505953854347,0.0176432779215917,0.1167352708470388,0.0122226055460356,0.5934690310061724,-1.0011733629094577,-0.0403699741017626,-0.6745564808045053,0.3682251454395161,1.1467815889329855,0.7066118796515117,-1.0891491542532372,-0.0396055267549553,1.6827594450630767,-0.1387471912061622,-0.21171103634397,1.6636126363945294,12.29429030360734,-1.3019775827989435,0.1363172660141893,-0.9934068663381508
2.06,-0.657703447975593,0.3389926369222073,1.1481007703674588,0.014780615186629,0.1217398002036647,0.012335770455858,0.5927845453968252,-1.0025457719194824,-0.0062847127467544,-0.6674903620079902,0.3573336538969837,1.146385533665436,0.7266118799495349,-1.1091491545512604,-0.0196055264569321,1.7059873011539486,-0.0342242804673598,-0.0686204505012333,1.7042630677504085,12.421613147163953,-1.2925454675554868,0.1391009628643346,-1.0105376418819434
2.08,-0.6458357270477572,0.3189574386298106,1.1483378549339236,0.0123007941990576,0.1271688342758504,0.0124749442703765,0.5942414572508699,-1.0011648108176407,0.0282260579575764,-0.6533581244149599,0.335550670811919,1.1455934231303369,0.7666118805455814,-1.149149155147307,0.0203944741391143,1.7284551920155165,0.0728455927022309,0.0690480550920802,1.7255385352165444,12.484210486816664,-1.284135143416851,0.1415938944715849,-1.028085670896263
2.1,-0.6345138459703881,0.2999643369414149,1.1492055546265751,0.0110213341752359,0.1323210343257711,0.0126781614580718,0.5976039263062974,-0.9984651666783606,0.0613306520074281,-0.6392258868219297,0.3137676877268542,1.144801312595238,0.8066118811416279,-1.1891491557433531,0.0603944747351608,1.6692127065123692,0.1681234527713793,0.1349822069640072,1.6552297024925888,12.531269031231204,-1.275899389693807,0.1433213558025119,-1.0476091640043652
2.12,-0.6225072696898682,0.2800361687930279,1.150805005216372,0.0112960453498265,0.1374089447738351,0.0130028277963159,0.603021265202473,-0.9946858425146006,0.0968649133312903,-0.6230936491990972,0.2899847046119872,1.146009202089941,0.8466118817376743,-1.2291491563393997,0.1003944753312072,1.80714870699904,0.2708669448087786,0.1889662081880017,1.7767130661931063,12.669198954859894,-1.2686553257523012,0.1435934831503331,-1.06914635268154
2.14,-0.6103735704905084,0.2601877585066649,1.1531200275651892,0.0137015157332346,0.1418837956622211,0.0134769376960837,0.6101713891618653,-0.9906098800513446,0.132838316594985,-0.6069614115762646,0.2662017214971201,1.1472170915846442,0.8866118823337208,-1.2691491569354465,0.1403944759272537,1.8451446318710023,0.3575061979696148,0.2037981231627961,1.7986701631847373,12.669198954859894,-1.2627190371489223,0.1418268396044263,-1.0912774507755827
2.16,-0.5986951446531182,0.2413805638180004,1.1559908265186547,0.0174862393064364,0.1452253484500525,0.014029892779543,0.6187389590320614,-0.9896938368824532,0.1674998179222749,-0.5898291739385308,0.2414187383673519,1.1494249810942485,0.9266118829297671,-1.3091491575314926,0.1803944765233001,1.7858205836741292,0.4283784935098067,0.0458021584445744,1.7330750663644936,12.800471241218474,-1.2576498244089112,0.1385343337803101,-1.1115962844692968
2.18,-0.5862137054600357,0.2215703146361988,1.159732646073765,0.0215693627688941,0.147522203642057,0.0146051198585835,0.6289210919494108,-0.9914401517383152,0.2048725048185603,-0.571696936285896,0.2156357552226825,1.152632870618754,0.9666118835258136,-1.349149158127539,0.2203944771193465,1.9387129572026367,0.5091066458674687,-0.0873157427930981,1.868634344814271,12.800471241218474,-1.2532505369172298,0.1347972134890389,-1.1315497574757134
2.2,-0.5735210875546685,0.2017056540298377,1.1642275379503273,0.0250823312336107,0.1484755478963904,0.0151128617833226,0.6397373158092429,-0.9948722784287904,0.2427420089894457,-0.5547676508625652,0.1719983070492831,1.1699762713146928,0.7289210934395269,-1.0883550838700824,0.3048725063086764,1.9766572403645133,0.5408111929916026,-0.1716063345237661,1.8934752085442708,12.97256755255694,-1.2504873401341772,0.1315175909255657,-1.1499940931061756
2.22,-0.5605534533515243,0.1816610502140813,1.169340248573004,0.0243915691192469,0.1456677068968945,0.0152318656447993,0.65605639872326,-1.0077210568080313,0.2666969274322946,-0.5547676508625652,0.1719983070492831,1.1699762713146928,0.7289210934395269,-1.0883550838700824,0.3048725063086764,1.5852773342517648,0.815954145700859,-0.6424389189620405,1.1977459221424416,12.97256755255694,-1.2522854642332206,0.1324132677775459,-1.1625515278383367
2.24,-0.5479694884445657,0.1624537876314645,1.1746560999088278,0.0197159955033651,0.1382643591225657,0.0149766465055274,0.6670470795604008,-1.0126847115090785,0.2917668208647156,-0.5547676508625652,0.1719983070492831,1.1699762713146928,0.7289210934395269,-1.0883550838700824,0.3048725063086764,1.3909821080517766,0.549534041857036,-0.2481827350523602,1.2534946716210498,12.057420523561632,-1.2637165877158083,0.1381645628447925,-1.162496171218284
2.26,-0.5345662136691345,0.1422024165242612,1.1807790375475906,0.0144402264042079,0.1282631423365264,0.0147016090491736,0.6721962708045565,-1.0122490464485296,0.3192372512602537,-0.5474784399281699,0.1611147562105822,1.1730249963777797,0.7489210937375501,-1.107738070296436,0.3248725066066997,1.397612715159296,0.2574595622077846,0.0217832530274408,1.3735215197769046,12.209294365042297,-1.2772809039011703,0.1444262141067709,-1.1612345848298875
2.28,-0.5211263862468726,0.1219928665688362,1.1874499601517636,0.0104830423422358,0.1183616988363282,0.0145819220081148,0.6713680570481582,-1.0091929201812948,0.3464554609206811,-0.5329000180593794,0.1393476545331806,1.1791224465039531,0.7889210943335966,-1.146504043149143,0.3648725072027461,1.3700883027259154,-0.0414106878199149,0.1528063133617418,1.3609104830213683,12.251383243695273,-1.2897460166099124,0.1493183122099825,-1.161328731968774
2.3000000000000003,-0.50775541653099,0.1018557845380613,1.1946615584865814,0.0082407117027527,0.1103002450721212,0.014640701833263,0.6657536794792226,-1.0051753666610337,0.373305046716796,-0.5183215961905888,0.1175805528557789,1.1852198966301266,0.828921094929643,-1.1852700160018497,0.4048725077987926,1.386147745730654,-0.2807188784467784,0.200877676013067,1.342479289805748,12.232050404232725,-1.2994496854102096,0.1523413063871001,-1.1649901695245628
2.32,-0.495196130872604,0.0828057554259975,1.2020100418023478,0.0078196215753765,0.1056945987837923,0.0148557888510531,0.6565481913055013,-1.0006210902358612,0.3988398916756437,-0.501743174291996,0.093875152535742,1.1933173467861025,0.8689210955256895,-1.2240359888545569,0.444872508394839,1.3761456621173795,-0.4602744086860622,0.2277138212586127,1.2767422479423862,12.232515772488114,-1.305646554775424,0.1536218655992761,-1.1723720198264993
2.34,-0.4821820804438185,0.0628498050413285,1.2102729835736024,0.009524140657835,0.105124238658471,0.0152666855408979,0.6458626639328005,-0.995458611236398,0.4261005273101855,-0.485164752393403,0.0701697522157049,1.2014147969420783,0.908921096121736,-1.2628019617072634,0.4848725089908855,1.4865849621295515,-0.5342763686350449,0.2581239499731602,1.3630317817270892,12.31708198319302,-1.302290591985781,0.1521874938901717,-1.1843230451972266
2.36,-0.4693552717137305,0.0429772668752823,1.219088962655851,0.0131859647965837,0.1081786868663565,0.015850203892468,0.6377864692375225,-0.9926191522018738,0.4541455787822158,-0.467586330479909,0.0454952025743503,1.2105122471129552,0.9489210967177824,-1.3015679345599704,0.5248725095869319,1.46612785973257,-0.4038097347638991,0.1419729517262102,1.4022525736015117,12.31708198319302,-1.2958895081565944,0.1485871131241976,-1.1978982229694235
2.38,-0.4566530327775741,0.0231220497745676,1.2284830327000382,0.0172359203276837,0.1135044711962656,0.0165024258106573,0.6332249807384486,-0.9930806780827786,0.4838145361761549,-0.4490079085515139,0.019851503611678,1.2206096972987337,0.9889210973138288,-1.3403339074126772,0.5648725101829783,1.5010556421309849,-0.2280744249536948,-0.0230762940452378,1.4834478696969575,12.369215820898717,-1.2872025168931456,0.1446488791545464,-1.2118879230329138
2.4,-0.4446337165686455,0.0042313960795501,1.237972703952466,0.0205877249071673,0.1194522991822454,0.0171184998595378,0.6324083231318124,-0.995247704693165,0.5135767583620465,-0.4249917837406517,-0.0265319841295713,1.252673759508846,0.7332249822285647,-1.0141123092395807,0.5838145376662711,1.492609127852112,-0.0408328803318092,-0.108351330519324,1.4881111092945791,12.48481008129238,-1.2768615420937863,0.1409740021582998,-1.226546886671519
2.42,-0.4319222148228904,-0.015997135666967,1.2484223982819018,0.0138668006913349,0.123780885960774,0.017018739236083,0.63860623859036,-1.022711046033321,0.529227521189394,-0.4249917837406517,-0.0265319841295713,1.252673759508846,0.7332249822285647,-1.0141123092395807,0.5838145376662711,1.610586578451395,0.3098957729273821,-1.3731670670078022,0.7825381413673727,12.614627000364637,-1.2704168477322753,0.1489224563913258,-1.2314953032793003
2.44,-0.4190932561252575,-0.0365036565906774,1.2591915376591694,-0.0021213676457181,0.1243694237808308,0.0162182538570447,0.643735088357931,-1.0254227608478044,0.5471582257616975,-0.4249917837406517,-0.0265319841295713,1.252673759508846,0.7332249822285647,-1.0141123092395807,0.5838145376662711,0.9422959508994864,0.2564424883785499,-0.1355857407241645,0.8965352286151751,11.73490095971647,-1.2695489477294826,0.1665350022922803,-1.2319997899713568
2.46,-0.4068314787096102,-0.0559145806389265,1.2697630093095846,-0.0175256152079617,0.1226384477208911,0.0154864809103602,0.6465376347710943,-1.0177379134687936,0.5646866954761819,-0.4176595339183661,-0.0366731072219671,1.258511904885509,0.7532249825265879,-1.0183186354709413,0.6038145379642943,0.967158720386964,0.1401273206581621,0.3842423689505381,0.8764234857242204,11.73490095971647,-1.2741531098859529,0.1858648067055955,-1.23329755829058
2.48,-0.3938959139189351,-0.0761141020109346,1.2812508902828073,-0.0312024896986678,0.1196281102831567,0.0149838875365255,0.6466445970728205,-1.003030907271229,0.5831634322313446,-0.4029950342737948,-0.0569553534067587,1.270188195638834,0.7932249831226343,-1.026731287933662,0.6438145385603408,1.1807807516096969,0.0053481150863121,0.7353503098782466,0.9238368377581352,11.774783971952274,-1.280932564595814,0.2025667357061581,-1.234594631201828
2.5,-0.3809938574050185,-0.0959745507444422,1.2931063593809673,-0.0410855529635943,0.1168629237809117,0.0148041186883928,0.6434570260444932,-0.9847410656848364,0.6014526241613146,-0.3883305346292235,-0.0772375995915503,1.2818644863921596,0.8332249837186808,-1.035143940396383,0.6838145391563872,1.303047826987981,-0.159378551416367,0.9144920793196176,0.9144595964985014,11.774783971952274,-1.2880043228456524,0.2154475527131322,-1.2408020338673098
2.52,-0.3688221154672827,-0.1144904917408001,1.304712937132306,-0.047138273067308,0.1157659076515497,0.0148425286054112,0.6381367340388526,-0.9660758631563966,0.6193833334934767,-0.3716660349548499,-0.097940478399478,1.2955407771752874,0.8732249843147273,-1.0435565928591035,0.7238145397524337,1.321179046919305,-0.2660146002820274,0.9332601264219864,0.896535466608106,11.800696712814895,-1.2913575635154195,0.2238610993863971,-1.2481767697593362
2.54,-0.3561184850297819,-0.1336017081035027,1.3173078436781454,-0.0506682294008253,0.1166878228626763,0.0150032635349911,0.6327530436949922,-0.9465595828955592,0.6392124419296275,-0.3550015352804762,-0.1186433572074057,1.3092170679584152,0.9132249849107738,-1.0519692453218246,0.7638145403484802,1.4169181859856546,-0.2691845171930218,0.9758140130418702,0.9914554218075357,11.870942151420422,-1.291245746229403,0.2293957028547694,-1.2580198378408718
2.56,-0.3435061354077942,-0.1523247993760222,1.330311320712502,-0.0518981213283988,0.1193044186753508,0.0152491363115274,0.6289903285861623,-0.9270082468802672,0.6601801601488326,-0.3373370355912015,-0.1395565523269013,1.323893358756444,0.95322498550682,-1.0603818977845456,0.8038145409445265,1.4457333539531592,-0.188135755441493,0.977566800764601,1.048385910960259,11.95234585902108,-1.2891148960428316,0.2323589167005707,-1.2708513421510823
2.58,-0.3315742334142543,-0.1697452864888888,1.3430687000090649,-0.0509598799423777,0.1227014953765611,0.0155915378733901,0.627356137776747,-0.90804043660535,0.6816281922758144,-0.3186725358870255,-0.160680063757965,1.339569649569374,0.9932249861028664,-1.0687945502472664,0.843814541540573,1.4339338272274589,-0.0817095404707646,0.9483905137458616,1.0724016063490882,12.041004820775017,-1.2860500677419813,0.23281443249462,-1.2857033619523772
2.6,-0.3190256977463583,-0.1877002830657117,1.356956668073286,-0.0478051758561913,0.1265779611457915,0.016101433658878,0.627746741768231,-0.888931056809058,0.7061231364523225,-0.300206426525417,-0.2151473083191563,1.3771501096228556,0.7273561392668632,-0.8409932280577578,0.770980822354607,1.5534825859076604,0.0195301995741969,0.9554689898145952,1.2247472088254052,12.16171534615387,-1.2820521860483882,0.230656172301951,-1.3021610736180975
2.62,-0.3064145865091182,-0.2055698389625204,1.3711186418072296,-0.0515522522197623,0.12832886874281,0.0162465413287942,0.6331340159853093,-0.8956447459056331,0.7074765011596111,-0.300206426525417,-0.2151473083191563,1.3771501096228556,0.7273561392668632,-0.8409932280577578,0.770980822354607,0.4356832014388508,0.2693637108539148,-0.3356844548287552,0.067668235364432,10.64273527514979,-1.2779048339212815,0.2352043549660938,-1.29716480009817
2.64,-0.2937111092206622,-0.2233903362618226,1.385294464640062,-0.0635080079602693,0.1262206913189699,0.0160527949185894,0.6366329232994666,-0.8847059316362537,0.7101133470136977,-0.300206426525417,-0.2151473083191563,1.3771501096228556,0.7273561392668632,-0.8409932280577578,0.770980822354607,0.5891794422568929,0.1749453657078681,0.5469407134689741,0.1318422927043261,10.64273527514979,-1.2841579713954343,0.2503848216973208,-1.2994037885894296
