t,x,y,z,roll,pitch,yaw,v_x,v_y,v_z,ref_x,ref_y,ref_z,ref_v_x,ref_v_y,ref_v_z,a_com,a_x,a_y,a_z,thrust,wind_x,wind_y,wind_z
0.0,1.0111615824141664,-0.6640986744235133,2.3908141111800068,0.0122998783837877,0.1498825308175232,0.0280577314384043,0.0002000378038785,0.0001113054859044,-0.0017690934887846,1.011172361114493,-0.6641971901417169,2.390760156040457,-0.0996824201341994,0.0976090878593367,-0.1017901875413675,0.0891921494055581,0.0100018901939288,0.0055652742952223,-0.0884546744392343,10.660267814886538,-1.413479993315964,0.1806452986437264,-1.2783396075859168
0.02,1.0112791615488286,-0.6643419960913334,2.3905393874614007,0.0036545190138495,0.1453929682771827,0.027439822466469,0.0110320760815713,-0.0198722367835096,-0.0268890339486249,1.011172361114493,-0.6641971901417169,2.390760156040457,-0.0996824201341994,0.0976090878593367,-0.1017901875413675,1.693876045928966,0.5416019138846396,-0.9991771134707044,-1.2559970229920114,10.659809477232557,-1.407821294875575,0.1896200699383964,-1.2637783164175809
0.04,1.0115702145175942,-0.6647430288786988,2.3896851630077203,-0.0123301590160939,0.1323455187061412,0.0264533682585915,0.0163060462208296,-0.0184520103202289,-0.057172452545031,1.011172361114493,-0.6641971901417169,2.390760156040457,-0.0996824201341994,0.0976090878593367,-0.1017901875413675,1.5386010253814573,0.2636985069629128,0.0710113231640337,-1.514170929820308,9.196911242552233,-1.4235968479821273,0.2074884414137954,-1.2318703207920294
0.06,1.0118655433477164,-0.6650319751052276,2.388229767408383,-0.0287416403518547,0.11413078436908,0.0258191454462558,0.0120774062520251,-0.0101590320969502,-0.0867345754966372,1.0101755369131509,-0.6632210992631234,2.389742254165044,-0.1196824204322226,0.1176090881573599,-0.1217901878393907,1.5496564112759212,-0.2114319984402229,0.4146489111639348,-1.4781061475803097,8.949877795123939,-1.445847728947352,0.224510027672243,-1.1936259289372757
0.08,1.011984304811849,-0.6651185188024501,2.3863115809037296,-0.043710564436691,0.0952898964491993,0.0256519471559222,8.314963367346789e-05,0.0009144377435907,-0.1136418062176891,1.008181888510467,-0.6612689175059367,2.3877064504142163,-0.1596824210282691,0.1576090887534064,-0.1617901884354372,1.5735969871699698,-0.599712830917585,0.5536734920270499,-1.3453615360525937,8.97245351945594,-1.4696658604004176,0.2410623343743214,-1.1513493127555672
0.1,1.0117889789522123,-0.6649538386385881,2.3837477519886985,-0.0586960071614439,0.0763213283544816,0.0258507370068689,-0.0193907847384847,0.0152840826060603,-0.1413127477874733,1.0061882401077828,-0.65931673574875,2.385670646663389,-0.1996824216243156,0.1976090893494528,-0.2017901890314836,1.8380708778247887,-0.9736967186079089,0.7184822431234833,-1.3835470784892103,8.97245351945594,-1.4914662061884758,0.2563713633521302,-1.1127976012741865
0.12,1.0111436762526065,-0.664474226125873,2.3806365221222694,-0.072925558450119,0.0598463462749433,0.0262808536753346,-0.0443289385358253,0.0322591346222786,-0.1684216981165051,1.0021945916752966,-0.655364553961761,2.381634842882759,-0.239682422220362,0.2376090899454993,-0.2417901896275301,2.0279047646000548,-1.2469076898670333,0.8487526008109118,-1.355447516451587,8.996091559600245,-1.5096506362511888,0.2705681655658914,-1.0795541787911775
0.14,1.0099564447636251,-0.6636220687969271,2.376978454669625,-0.0862160273584016,0.0468913270421686,0.026782483394015,-0.0729850830265519,0.0522353426516662,-0.196043724748217,0.9982009432428102,-0.6514123721747719,2.3775990391021296,-0.2796824228164085,0.2776090905415458,-0.2817901902235766,2.2266566077584664,-1.4328072245363306,0.99881040146938,-1.3811013315855991,9.03541998680339,-1.521390272204889,0.2828119327575426,-1.0537380136180012
0.16,1.0082688766215182,-0.6623983053755143,2.3729850355235325,-0.0971579891511964,0.0383491330250428,0.0272271166812163,-0.1030573951583057,0.0751677581634058,-0.2229062260608838,0.9932072947954228,-0.6464601903728817,2.372563235306598,-0.3196824234124549,0.3176090911375922,-0.321790190819623,2.3193930320914364,-1.503615606587687,1.1466207755869828,-1.343125065633337,9.023744814300244,-1.5296039379796305,0.2938697368505196,-1.03325924844253
0.18,1.0058535082878313,-0.6606209572311036,2.368223966875931,-0.1064651165757513,0.0339304271600457,0.0275102345032527,-0.1368793885041729,0.1010666798965261,-0.2517775304743381,0.987213646333134,-0.6405080085560904,2.366527431496167,-0.3596824240085013,0.3576090917336386,-0.3617901914156695,2.5730495522630927,-1.691099667293361,1.2949460866560103,-1.443565220672717,9.024611124351395,-1.5327011647826507,0.3027277445704203,-1.0211140356551305
0.2,1.002759549321029,-0.6583100718169924,2.362883819786044,-0.1135431693430195,0.0344478176986498,0.0274681494989742,-0.1702931352525039,0.128396561217626,-0.2807210960751784,0.9990095388626228,-0.6555676232362773,2.355635090352214,-0.236879389994289,0.2010666813866422,-0.3517775319644542,2.598620246629521,-1.6706873374165474,1.3664940660549976,-1.4471782800420134,9.018288476591806,-1.5272875921393023,0.3094016261833151,-1.0185974388075878
0.22,0.9991830395727334,-0.6554646678939823,2.357424414555288,-0.1145736715044416,0.0398926881474462,0.0272719108155857,-0.203559546192335,0.1674285742966433,-0.2922170021958718,0.9990095388626228,-0.6555676232362773,2.355635090352214,-0.236879389994289,0.2010666813866422,-0.3517775319644542,2.6278831782225818,-1.6633205469915562,1.9516006539508637,-0.57479530603467,9.018288476591806,-1.5179217872176596,0.3117014040299173,-1.0330561066793795
0.24,0.9947937474875582,-0.6517632723549854,2.3514454873912767,-0.1097766875319466,0.0501697634579707,0.0269861372945336,-0.2329280058270804,0.1994890850616423,-0.3051191254038434,0.9990095388626228,-0.6555676232362773,2.355635090352214,-0.236879389994289,0.2010666813866422,-0.3517775319644542,2.267624062264275,-1.4684229817372731,1.6030255382499523,-0.6451061603985814,10.0892346704577,-1.5033817646877543,0.308839281996528,-1.0583525755849308
0.26,0.9898731546512366,-0.6474935404121809,2.3451740935611887,-0.1031853845070093,0.0628445070260231,0.026635634920631,-0.2570914215826987,0.2255201841505752,-0.3213298356166112,0.9966407449626796,-0.6535569564224109,2.3521173150325696,-0.2568793902923122,0.2210666816846654,-0.3717775322624775,1.9520988104851629,-1.2081707877809142,1.3015549544466418,-0.8105355106383882,9.865810851846618,-1.4870315282408697,0.3039676523035356,-1.0833511027022722
0.28,0.9845222245041912,-0.6427422028024664,2.3385449216352385,-0.0965757492250734,0.0762574616030248,0.0263020352937642,-0.2763952362378233,0.2482501174222882,-0.340792364928081,0.991903157162794,-0.649535622794678,2.34508176439328,-0.2968793908883587,0.2610666822807118,-0.4117775328585239,1.780503562181042,-0.9651907327562298,1.1364966635856495,-0.9731264655734928,9.644349692016476,-1.4687636457598512,0.2983928653928907,-1.1090001576929522
0.3,0.9791220241095188,-0.6378287029100519,2.3318574678844435,-0.0908761483836647,0.0885785902690357,0.0260669761098888,-0.2908673847580266,0.2678908058952772,-0.3622102117048147,0.9871655693629082,-0.6455142891669452,2.3380462137539912,-0.3368793914844051,0.3010666828767583,-0.4517775334545704,1.6232096961232911,-0.7236074260101644,0.9820344236494528,-1.070892338836682,9.45729175167162,-1.4507813170893804,0.2930997160632781,-1.1323043110209714
0.32,0.973175031539028,-0.6322688477499261,2.324350437402785,-0.0857095292187588,0.1003248373192218,0.0259436036301179,-0.3028757923895309,0.2871224748705474,-0.387523685696049,0.98042798153322,-0.63949295550941,2.3290106630849,-0.3768793920804515,0.3410666834728047,-0.4917775340506168,1.6991401582297685,-0.6004203815752146,0.961583448763506,-1.2656736995617146,9.297932034573932,-1.433969685651289,0.2883881358670275,-1.1518951963717745
0.34,0.9670176062520024,-0.626334680020132,2.3163171008256818,-0.0814370184468873,0.1102963766353694,0.0259641839146301,-0.3122310557266785,0.3054719812715276,-0.4145732352591892,0.973690393703532,-0.6334716218518749,2.319975112415809,-0.4168793926764981,0.3810666840688512,-0.5317775346466633,1.6999290197209522,-0.4677631668573795,0.9174753200490132,-1.352477478157013,9.157892229613026,-1.419549504132123,0.2845813621049218,-1.1667231440584274
0.36,0.9610092590143302,-0.6203548201923459,2.30817351735408,-0.0778329074667053,0.118060150220403,0.0261267663252721,-0.3197420603299734,0.3229992467300144,-0.4413032320564721,0.9659528058589428,-0.6264502881794385,2.309939561731816,-0.4568793932725445,0.4210666846648976,-0.5717775352427097,1.6417315199094935,-0.3755502301647423,0.8763632729243409,-1.336499839864144,9.050223092715896,-1.406642816393975,0.2809861332062781,-1.1787141019227727
0.38,0.9545408767341964,-0.613705619261497,2.299042003888258,-0.0742309978369539,0.1246189452201918,0.0264372766572888,-0.3266635437905985,0.3409091185384126,-0.4704908248194504,0.9572152179994524,-0.618428954492101,2.298904011032922,-0.4968793938685909,0.4610666852609441,-0.6117775358387562,1.7468443067331612,-0.346074173031255,0.8954935904199074,-1.4593796381489137,9.050223092715896,-1.3956547401845256,0.27751813486176,-1.187596985991297
0.4,0.9479419446389924,-0.6067037375605836,2.289318397313242,-0.0707215841176849,0.1297424538432227,0.0268682006330886,-0.3328638098968329,0.3582734230770709,-0.5004331194107023,0.9382076995446664,-0.5966601633345764,2.2755174626472856,-0.4266635452807146,0.4409091200285287,-0.5704908263095665,1.7581974983549944,-0.3100133053117238,0.8682152269329169,-1.4971147295625955,9.000924421194213,-1.3862330396376197,0.2740086737760504,-1.193216528657276
0.42,0.9412516344414932,-0.5993587326052779,2.2791986620072704,-0.0676634942027807,0.1337003547912766,0.0273638872936398,-0.3357008367992572,0.3755416119352836,-0.5089963239808667,0.9382076995446664,-0.5966601633345764,2.2755174626472856,-0.4266635452807146,0.4409091200285287,-0.5704908263095665,0.974124659115125,-0.1418513451212133,0.8634094429106343,-0.4281602285082175,10.253880958068294,-1.3757700395916252,0.2715242515388985,-1.203102546083171
0.44,0.93485740606583,-0.5920739986540638,2.2694259376849217,-0.0656830900894082,0.1363032552433485,0.0278553484121643,-0.3373629504804656,0.3906925410053036,-0.5194254315374853,0.9382076995446664,-0.5966601633345764,2.2755174626472856,-0.4266635452807146,0.4409091200285287,-0.5704908263095665,0.9234169670327128,-0.0831056840604194,0.7575464535010012,-0.5214553778309317,10.253880958068294,-1.3719312147675675,0.2701385533088263,-1.2089800585772734
0.46,0.928090308543285,-0.5840933570765618,2.258879581809996,-0.0644618170783816,0.1376617462779542,0.028405632666695,-0.3393758098594259,0.406601230001362,-0.5348537528905987,0.9339410640918592,-0.5922510721342911,2.26981255438419,-0.4466635455787378,0.4609091203265519,-0.5904908266075897,1.1126220025549012,-0.100642968948017,0.7954344498029203,-0.771416067655667,9.72818016581823,-1.3696159664692866,0.2696017482846989,-1.2113828248733165
0.48,0.9212785537184356,-0.575797255936002,2.2479862768770644,-0.0639646275389455,0.1376679546782535,0.0289929562817677,-0.3417714899755857,0.4222321494586478,-0.553831521331382,0.925407793186245,-0.5834328897337205,2.2584027378579985,-0.4866635461747842,0.5009091209225983,-0.6304908272036361,1.2351322007088064,-0.1197840058079907,0.7815459728642893,-0.948888422039168,9.72818016581823,-1.3680136535978245,0.2696631855938503,-1.2103536037949667
0.5,0.9144159307786548,-0.5671915203465215,2.2366821711303664,-0.0641827898214133,0.1362599955294597,0.0296212904648864,-0.3444678553748788,0.4376164594977145,-0.5756016287764042,0.9168745222806308,-0.5746147073331499,2.2469929213318074,-0.5266635467708307,0.5409091215186448,-0.6704908277996826,1.3396687649494212,-0.1348182699646538,0.7692155019533353,-1.0885053722511084,9.54287977288459,-1.367538049940877,0.2703461661538315,-1.2066529581411496
0.52,0.9078423744493556,-0.5587315080747239,2.2255216979680537,-0.0650608851966051,0.1335155936242537,0.0302643268914975,-0.3474546291406614,0.4522001866308527,-0.5980763122806664,0.906341251345214,-0.563796524902777,2.2335831047758137,-0.5666635473668772,0.5809091221146913,-0.7104908283957291,1.347884743995711,-0.1493386882891273,0.7291863566569107,-1.1237341752131091,9.402048267751525,-1.3684807681232136,0.2718471014024693,-1.2008021608807131
0.54,0.9008549792402216,-0.5495263329470598,2.2133051633012504,-0.0667322454848383,0.1290638434780585,0.0309984669663095,-0.3513305416708391,0.4676248107697667,-0.6224049707018128,0.8958079804097975,-0.5529783424724041,2.22017328821982,-0.6066635479629237,0.6209091227107377,-0.7504908289917755,1.453293972619763,-0.1937956265088886,0.7712312069456967,-1.21643292105732,9.29817877190635,-1.371174438765759,0.2742579774746418,-1.1933399387363512
0.56,0.8937659400782318,-0.5399951406941511,2.200600975737561,-0.0687429906050468,0.1234570717057126,0.031799790410163,-0.3576244652845664,0.4847239170427768,-0.6467709068108097,0.8842747094594797,-0.5411601600271301,2.205763471648925,-0.64666354855897,0.6609091233067841,-0.7904908295878219,1.5212591431597462,-0.3146961806863635,0.8549553136505073,-1.2182968054498478,9.256883525793455,-1.3749529978858797,0.2769198176323582,-1.1848984071421067
0.58,0.8868913633406132,-0.5306094321632346,2.188080708287916,-0.0702210817658561,0.1178793691882356,0.0326215118138107,-0.365813851228205,0.502210034676978,-0.6699079478688401,0.8717414384942608,-0.5283419775669548,2.190353655063129,-0.6866635491550165,0.7009091239028306,-0.8304908301838684,1.5067788664664516,-0.4094692971819302,0.874305881710058,-1.1568520529015192,9.254187327052932,-1.3788243904393018,0.2792347619912951,-1.176014295249233
0.6,0.8794671342405597,-0.5203651767533027,2.174423207946794,-0.0709472129252396,0.1123302739806099,0.0335296133051831,-0.3762881717298446,0.5212065300292819,-0.6946285718423773,0.868600670779203,-0.5054989304293858,2.1545853108944737,-0.4658138527183211,0.6022100361670941,-0.7699079493589562,1.6444508774072482,-0.5237160250819772,0.9498247676151929,-1.2360311986768568,9.251311549432105,-1.3818856910741464,0.2805954213887569,-1.1678434083463054
0.62,0.8717720431929289,-0.5096936794612648,2.160486944063629,-0.0696049747511997,0.1096413499614913,0.0343776703442462,-0.392838007848168,0.5447153043772447,-0.6966029635991905,0.868600670779203,-0.5054989304293858,2.1545853108944737,-0.4658138527183211,0.6022100361670941,-0.7699079493589562,1.4408832097850357,-0.8274918059161723,1.1754387173981418,-0.0987195878406621,10.69044387314898,-1.3833383853432366,0.2806006908149181,-1.171254269532224
0.64,0.8637517009280239,-0.4985770863547272,2.14651221052082,-0.0659277744058644,0.1120466896470684,0.0350279577541216,-0.4076741124646234,0.5652324248953761,-0.7008767575894951,0.868600670779203,-0.5054989304293858,2.1545853108944737,-0.4658138527183211,0.6022100361670941,-0.7699079493589562,1.283868713710148,-0.7418052308227702,1.0258560259065683,-0.2136896995152293,10.351426410882596,-1.378074276825679,0.2777229148555739,-1.1779767647810224
0.66,0.8558907783983338,-0.4876681341371583,2.13310481924144,-0.0617239663789091,0.1171900334745983,0.0355120251192637,-0.4186673920186335,0.5818691970383223,-0.7102057180585719,0.8639425322520198,-0.4994768300677148,2.146886231400884,-0.4858138530163443,0.6222100364651173,-0.7899079496569794,1.100754157523976,-0.5496639777005069,0.8318386071473116,-0.4664480234538415,10.018688607028707,-1.3686095001635954,0.2736636649673579,-1.188442617015424
0.68,0.8474229955577969,-0.4758659752199759,2.1187526516570125,-0.0573657766136815,0.1240744913886277,0.035942187939003,-0.4272315989888275,0.5974019366331711,-0.7247435401097518,0.8546262551976533,-0.4874326293443729,2.1314880724137053,-0.5258138536123907,0.6622100370611638,-0.8299079502530259,1.146690793480827,-0.4282103485096972,0.77663697974244,-0.7268911025589964,10.018688607028707,-1.35692414375997,0.2694684108330314,-1.2000470049652352
0.7000000000000001,0.8388118058079228,-0.4637663879680115,2.1040651351711888,-0.0533626537704597,0.1313437306242581,0.0363443090059978,-0.4332480081131576,0.6117469924811201,-0.7434571788064936,0.8453099781432869,-0.475388428621031,2.116089913426526,-0.5658138542084372,0.7022100376572102,-0.8699079508490724,1.216735467659559,-0.3008204562165051,0.7172527923974492,-0.9356819348370904,9.746362372542537,-1.3451063471410358,0.2656973977739217,-1.2107328491625946
0.72,0.8301034331230798,-0.4513906186883573,2.0889638204157284,-0.0497994413858575,0.1382124208302436,0.0367529518331152,-0.4371763188129254,0.6251428177899265,-0.7657425127287776,0.8339937010591182,-0.4613442278678868,2.0986917544095447,-0.6058138548044837,0.7422100382532567,-0.9099079514451188,1.314834465518064,-0.1964155349883922,0.6697912654403226,-1.1142666961141967,9.5321929375732,-1.3329405456394814,0.26211435614723,-1.2210537899806064
0.74,0.8217754796255425,-0.4393924028987735,2.0741876133055603,-0.0468457591899313,0.1439098871569044,0.0371619176359285,-0.4392248139150552,0.6372067406855727,-0.7885425286405284,0.8226774239749495,-0.4473000271147426,2.0812935953925638,-0.6458138554005302,0.7822100388493032,-0.9499079520411652,1.2938076493355162,-0.1024247551064894,0.6031961447823087,-1.1400007955875424,9.286751475063284,-1.3214426957774268,0.2589473623201416,-1.2297060159122235
0.76,0.8129769070980777,-0.4265133395688136,2.058152403731434,-0.0439538502082149,0.1488711935925276,0.0376303000015178,-0.4404774664665345,0.649967205340902,-0.8138354221791654,0.8103611468758796,-0.4322558263466972,2.0628954363606806,-0.6858138559965765,0.8222100394453495,-0.9899079526372117,1.417858473359964,-0.0626326275739636,0.6380232327664659,-1.2646446769318476,9.286751475063284,-1.3113038821080891,0.2559913689932053,-1.2365600746476697
0.78,0.8041610836616572,-0.4133813997924783,2.041600554034976,-0.0410136376136806,0.1528177772371121,0.0381471613195492,-0.4410162918525833,0.6624475186091942,-0.8401200124185246,0.7970448697619085,-0.4162116255637507,2.0434972773138966,-0.725813856592623,0.862210040041396,-1.029907953233258,1.4551015738792763,-0.0269412693024412,0.6240156634146066,-1.3142295119679626,9.180951711477974,-1.3026227221548516,0.252995096300441,-1.242362001120226
0.8,0.7953404068442207,-0.400005039583288,2.024512757348361,-0.0379262373467483,0.1558093391300423,0.0387103747159641,-0.4410370788938293,0.6743859907507627,-0.8673365403061477,0.782110269069028,-0.3802590238620186,1.9995945534140496,-0.5410162933426994,0.7624475200993103,-0.9401200139086408,1.4859903595194148,-0.0010393520623014,0.5969236070784256,-1.3608263943811538,9.180951711477974,-1.2953933075483293,0.2499342779876153,-1.246425507325215
0.8200000000000001,0.7869709663730784,-0.3870741183584525,2.0080146597364905,-0.0349070023553963,0.1588566506734735,0.0392396306127002,-0.4396615538222403,0.6860379748343531,-0.8679663130303509,0.782110269069028,-0.3802590238620186,1.9995945534140496,-0.5410162933426994,0.7624475200993103,-0.9401200139086408,0.5874891828599188,0.0687762535794528,0.5825992041795236,-0.0314886362101585,9.1380767721721,-1.2872728555940507,0.2468850444036048,-1.255616961491053
0.84,0.7782123006319895,-0.3732460914038629,1.990609986603628,-0.0321786647789248,0.1626650116096536,0.0397399327994526,-0.436178627930147,0.696279914362002,-0.872844045534013,0.782110269069028,-0.3802590238620186,1.9995945534140496,-0.5410162933426994,0.7624475200993103,-0.9401200139086408,0.5933387995806254,0.1741462946046629,0.5120969763824423,-0.243886625183104,10.691209262382472,-1.2823138859104766,0.2444603889287131,-1.262760185440862
0.86,0.7695370054050812,-0.3592155742790558,1.9730458416189929,-0.0300898232020196,0.1660406362941909,0.0402037079163641,-0.4315219993246733,0.7063096502705083,-0.8835597386927243,0.776700106135601,-0.3726345486610255,1.9901933532749636,-0.5610162936407226,0.7824475203973335,-0.960120014206664,0.7699121252379232,0.2328314302736861,0.5014867954253155,-0.5357846579355674,10.33172595218366,-1.2772596317106766,0.2426004396088106,-1.267968820508309
0.88,0.7609626425225265,-0.3449887382953893,1.9552137025128944,-0.0284797921261507,0.1683308359625403,0.0406579749688345,-0.4262535406832627,0.7159242826593434,-0.8990881412395058,0.765879780268747,-0.3573855982590393,1.9713909529967903,-0.601016294236769,0.8224475209933799,-1.0001200148027105,0.9504329251498748,0.2634229320705283,0.4807316194417543,-0.7764201273390725,10.016935676888352,-1.2732161619651876,0.241223066822461,-1.2706101038022766
0.9,0.7529168619327817,-0.3313000883944462,1.937952774676118,-0.027426010674436,0.1692174146820201,0.041082478303632,-0.4210623171366819,0.7245451796000375,-0.9170539903890892,0.755059454401893,-0.3421366478570531,1.9525885527186175,-0.6410162948328155,0.8624475215894264,-1.0401200153987569,1.0296120648552989,0.2595611773290429,0.4310448470347061,-0.8982924574791773,9.7778544839166,-1.2701743620056505,0.2402498716346073,-1.270940327905704
0.92,0.744554373667969,-0.316720472381041,1.919387937258412,-0.0270132532045946,0.1685810594421362,0.0415112865862384,-0.4155191662395196,0.7330068662973949,-0.9385878464732108,0.7422391285052368,-0.3248876974252646,1.9317861524106423,-0.681016295428862,0.9024475221854728,-1.0801200159948032,1.1895730552225474,0.2771575448581143,0.4230843348678681,-1.0766928042060753,9.599257717527507,-1.2685554069167722,0.2400003581717102,-1.268477436246941
0.94,0.7363067920573486,-0.3019747740001652,1.900381224690426,-0.0275260762785188,0.1659257039097896,0.0419188750164728,-0.4095963430538606,0.7412128383811769,-0.9610057160015062,0.7294188026085804,-0.307638746993476,1.9109837521026676,-0.7210162960249085,0.9424475227815192,-1.1201200165908498,1.229815724525492,0.2961411592829477,0.4102986041891021,-1.120893476414769,9.451939822816712,-1.2690205214320436,0.2407628822327385,-1.2630433107747738
0.96,0.7281729901467822,-0.2870547241754834,1.8809246296587876,-0.0287569013770653,0.1609254056276683,0.0423352236463772,-0.4044984362864304,0.7503575850713032,-0.9834759479974332,0.715598476697023,-0.2893897965467863,1.889181351779791,-0.7610162966209548,0.9824475233775656,-1.1601200171868962,1.23948212107594,0.2548953383715108,0.4572373345063163,-1.1235115997963452,9.411775293854587,-1.2731861798380033,0.2423893850003581,-1.255565997990596
0.98,0.7205169668387607,-0.2727037057395421,1.8620268168171952,-0.0301927588257353,0.1545240051217568,0.0427597764908219,-0.4019700649500964,0.7597698648278864,-1.004600790480786,0.7007781507705644,-0.2701408460851955,1.8663789514420135,-0.8010162972170013,1.0224475239736122,-1.2001200177829423,1.163231105345202,0.1264185668167022,0.4706139878291604,-1.056242124167639,9.40228946579191,-1.2796313949270235,0.2444188036296796,-1.245473283239639
1.0,0.71248349040145,-0.2573985388862693,1.8417002463602687,-0.0317004484700573,0.1467976626269896,0.043240314653801,-0.4018098273751176,0.770236490234009,-1.026921142883926,0.7004184635912558,-0.2347152124981478,1.811796777293156,-0.5019700664402125,0.8597698663180026,-1.0733530718485649,1.2326536971843387,0.0080118787489369,0.5233312703061266,-1.116017620157006,9.397906019079528,-1.2881375379743232,0.246457882739119,-1.233328162201794
1.02,0.7044034246704342,-0.2418283070424547,1.8212549648443597,-0.0316658172555428,0.1408365821230878,0.0437706418785463,-0.4062987138005151,0.7859667155332211,-1.0147804032374046,0.7004184635912558,-0.2347152124981478,1.811796777293156,-0.5019700664402125,0.8597698663180026,-1.0733530718485649,1.0185622814397577,-0.2244443212698704,0.7865112649606043,0.6070369823260702,9.374519430713915,-1.294714127960787,0.2469889759516111,-1.2272685275619504
1.04,0.6962252988291017,-0.2259592600370134,1.8010718361090603,-0.0293168893926976,0.1391688388491725,0.0443090369347527,-0.4108466133546972,0.7999632325188742,-1.0043510216054392,0.7004184635912558,-0.2347152124981478,1.811796777293156,-0.5019700664402125,0.8597698663180026,-1.0733530718485649,0.9018839716252098,-0.2273949777091055,0.6998258492826592,0.5214690815982692,11.626496447102909,-1.29680207690105,0.2452909112532346,-1.230153179479215
1.06,0.688392720589263,-0.2106452939958245,1.782029772642974,-0.0257987076372379,0.1400008253992274,0.044821682905892,-0.4132052998122679,0.8109404987188246,-1.0005863884146906,0.6953987629268537,-0.2261175138349678,1.80106324657467,-0.5219700667382356,0.8797698666160257,-1.0871035281221204,0.5921069119901097,-0.1179343228785378,0.548863309997516,0.18823165953743,11.22884899222663,-1.2962249105667512,0.2418417296784714,-1.235453866543621
1.08,0.6801181546412415,-0.1943287711002989,1.7620091204516497,-0.0219376833915786,0.1419186890655571,0.0453316034434447,-0.4140215583501122,0.8200680293210906,-1.0019153977300976,0.6853593615980494,-0.2089221165086077,1.779596185137699,-0.5619700673342821,0.9197698672120722,-1.114604440669232,0.4629912489895053,-0.0408129268922141,0.4563765301133005,-0.0664504657703513,10.821732476862053,-1.2934783111699903,0.2379603826026174,-1.2408747897878007
1.1,0.6718400461902782,-0.1778440247315373,1.7419124148649576,-0.0184235013220279,0.1439103354820129,0.0458033853503345,-0.4137241510061158,0.8279438750851689,-1.0078685708314556,0.6753199602692452,-0.1917267191822477,1.7581291237007275,-0.6019700679303286,0.9597698678081188,-1.1421053532163434,0.4938564254987109,0.0148703671998179,0.3937922882039146,-0.2976586550679005,10.244844420102709,-1.2907107172726364,0.2345282006018358,-1.245077453935313
1.12,0.6639887180349986,-0.1620469107470998,1.7226716811128924,-0.0155623222464338,0.1452794959874748,0.0462152935801041,-0.41281130026133,0.8345871693817645,-1.0171521892669098,0.6632805589106386,-0.1725313218260853,1.7352870166364005,-0.6419700685263751,0.9997698684041652,-1.169606265763455,0.572608563611607,0.0456425372392904,0.3321647148297801,-0.4641809217727055,10.244844420102709,-1.288562783725148,0.2314146927477694,-1.2479798871248673
1.14,0.6557477260782324,-0.145289194618963,1.702212455781685,-0.0131259049421486,0.1458373044029028,0.0466066853607074,-0.4114166075556784,0.8409099068194908,-1.028328515607652,0.651241157552032,-0.1533359244699229,1.7124449095720735,-0.6819700691224215,1.0397698690002115,-1.1971071783105665,0.6458181766650625,0.0697346352825811,0.3161368718863189,-0.5588163170371141,10.049228746758672,-1.2874715759659423,0.228908046512905,-1.2489661560854493
1.16,0.6475329521752,-0.1284009112585797,1.6815212528655634,-0.0110194196546399,0.1454066049446825,0.0469696204018093,-0.4101884196333586,0.8475395317041364,-1.040248957635673,0.6382017561785244,-0.1331405270988594,1.688915279694069,-0.7219700697184679,1.079769869596258,-1.224608090857678,0.6847578218374978,0.0614093961159911,0.331481244232279,-0.5960221014010503,9.975724600108151,-1.2875140971660866,0.2267356872152386,-1.2484333373410774
1.18,0.6393417021009596,-0.1113813492109881,1.6605841828593264,-0.0089341144822946,0.1439540520564018,0.0473214615712712,-0.4090822202792184,0.8539735442541191,-1.0528440727399904,0.6241623547901154,-0.1119451297128947,1.6646981270023866,-0.7619700703145144,1.1197698701923045,-1.2521090034047897,0.709325593425609,0.0553099677070095,0.321700627499133,-0.6297557552158661,9.93718926127167,-1.288719615269302,0.2246655053018757,-1.2465611641863663
1.2,0.6315782407714142,-0.0950973622297418,1.6404545386413156,-0.0069140784352205,0.141524539479191,0.0476459382286984,-0.4082692086502522,0.8597072260572431,-1.0654177201040906,0.6188875910869988,-0.0686826719982822,1.6079419792223268,-0.5090822217693345,0.923292606189067,-1.0479991278158742,0.6921573212880435,0.0406505814483121,0.2866840901562029,-0.6286823682050136,9.898855448665016,-1.291324334427766,0.2224083375426772,-1.2429435835422988
1.22,0.6234405676307776,-0.0777361903507048,1.6193951302161969,-0.0013934806948639,0.1386530864243217,0.0481955764790594,-0.4054535048519294,0.8741723473032825,-1.0377937996414983,0.6188875910869988,-0.0686826719982822,1.6079419792223268,-0.5090822217693345,0.923292606189067,-1.0479991278158742,1.5654463439113266,0.1407851899161372,0.723256062301969,1.381196023129616,9.858314283826983,-1.2925341905835146,0.2162191961189842,-1.243304505895559
1.24,0.6153614298609342,-0.0601794976503821,1.5989279090697726,0.0073429960926706,0.136402916154704,0.0489169551393478,-0.4026921042431796,0.8800847240572451,-1.0105415699517253,0.6188875910869988,-0.0686826719982822,1.6079419792223268,-0.5090822217693345,0.923292606189067,-1.0479991278158742,1.4011295044239738,0.1380700304374899,0.2956188376981306,1.3626114844886517,12.65972618307751,-1.2985159548830825,0.207491830113055,-1.249332010354979
1.26,0.6077377463547291,-0.0434439520871484,1.5799304167431534,0.0158534405101732,0.1342938047597738,0.049564512089595,-0.4000161465820877,0.8811202196349961,-0.9905507155649408,0.6137967688693055,-0.0594497459363915,1.597461987944168,-0.5290822220673577,0.9371564185760568,-1.047030138831051,1.0097861897564246,0.1337978830545955,0.0517747788875477,0.9995427193392248,12.292962715809152,-1.3034040526778845,0.1976770941618456,-1.254278136190314
1.28,0.5997694373248895,-0.0258393287253695,1.5602947666089375,0.0240105745597012,0.1313133543877669,0.0501199316135565,-0.3970347623461726,0.8792638380421426,-0.9742673619242098,0.6036151244339187,-0.0409838938126102,1.576502005387851,-0.5690822226634041,0.964884043350036,-1.0450921608614046,0.8328901643817672,0.1490692117957548,-0.0928190796426753,0.8141676820365484,11.878153892649609,-1.3085857519283193,0.1885549555572166,-1.2560768647771343
1.3,0.5918618608439281,-0.0082957073564565,1.5409376168292117,0.0309109275684235,0.1266900672681211,0.0504830192092378,-0.3940632098725589,0.8753612579500162,-0.962215912185104,0.593433479998532,-0.0225180416888288,1.555542022831533,-0.6090822232594506,0.992611668124015,-1.043154182891758,0.650572240979228,0.1485776236806874,-0.1951290046063203,0.6025724869552884,11.56763296839199,-1.31509581863218,0.1810998096193559,-1.2535283202051242
1.32,0.5840003645633254,0.0091530020278173,1.521792155339157,0.03645078266658,0.1199646592430739,0.0506159917505732,-0.3927731285222172,0.8699304577413624,-0.9528788402434224,0.581251835533343,-0.0026658083263485,1.534678939173698,-0.6490822238554971,1.0203392928979942,-1.0412162049221116,0.5439182228077873,0.0645040675170849,-0.2715400104326915,0.4668535970840826,11.323187751373553,-1.3244628381273742,0.1747145923968826,-1.24634430845487
1.34,0.5765303666598627,0.0256157638590867,1.5037749318568785,0.040420575616679,0.1120671057730142,0.0505329252757251,-0.3940107649752486,0.8635395139924696,-0.944089346631519,0.569070191068154,0.0171864250361317,1.5138158555158627,-0.6890822244515435,1.0480669176719732,-1.0392782269524652,0.546880023279955,-0.0618818226515716,-0.3195471874446354,0.4394746805951699,11.15492383863966,-1.334880618943514,0.1698035308058622,-1.2352984855589657
1.36,0.568608344197008,0.0428115527418936,1.4849942944318868,0.0434798980098523,0.1028522629095484,0.0502708813634056,-0.3984982696872237,0.856489136018772,-0.9343907936425488,0.5558885465880639,0.0377318490179615,1.4930012213072688,-0.7290822250475899,1.0757945424459523,-1.0373402489828187,0.6401317407219086,-0.224375235598756,-0.3525188986848837,0.4849276494485133,11.146746107892795,-1.346429169831374,0.1662164352624356,-1.2220789703408614
1.38,0.560562562718027,0.0598597945686329,1.4664112715453168,0.0456024676912669,0.0934388055929654,0.0498835400070413,-0.4061591236824001,0.848886194053828,-0.9243630432179348,0.5417069020930726,0.0589704636191407,1.4722350365479158,-0.7690822256436364,1.1035221672199316,-1.0354022710131725,0.7366294676363079,-0.3830426997588204,-0.3801470982471966,0.5013875212306951,11.17089014328758,-1.3577959523793977,0.1638202768626222,-1.2086230918520156
1.4,0.5527487616568358,0.0759084704383797,1.4489449188111831,0.0467974416066243,0.0848499068745518,0.0494372604548286,-0.4161554577282714,0.8409674247873511,-0.9146778832435334,0.540254606533907,0.1023041042713243,1.4201931193844202,-0.5061591251725163,0.8399679794644707,-0.8428781964471714,0.800680842755235,-0.4998167022935651,-0.3959384633238472,0.4842579987200723,11.17089014328758,-1.3689164226172603,0.1622137284949336,-1.1944579261685462
1.42,0.5442602992088437,0.0928476266927147,1.4310250584994553,0.0543503026225458,0.0779731267065189,0.0494584708941332,-0.4322024127734903,0.84954685756222,-0.8766404204100751,0.540254606533907,0.1023041042713243,1.4201931193844202,-0.5061591251725163,0.8399679794644707,-0.8428781964471714,2.108293155474645,-0.8023477522609429,0.4289716387434472,1.901873141672916,11.17376622590018,-1.3772175338725423,0.1537759085897681,-1.185185896664001
1.44,0.535439272000553,0.1097573974398865,1.4138939077059298,0.0676932831528955,0.0751694779039939,0.0500080086816388,-0.4487979536726503,0.8402560215741738,-0.8386848198937269,0.540254606533907,0.1023041042713243,1.4201931193844202,-0.5061591251725163,0.8399679794644707,-0.8428781964471714,2.122710073025211,-0.8297770449580022,-0.4645417994023126,1.897780025817408,13.238739878619526,-1.385130774752733,0.1393953954119805,-1.186418357382502
1.46,0.5263056700739704,0.1264058118616434,1.3974778829807724,0.0814103508063537,0.0754788802922423,0.0507285991842473,-0.463415459565298,0.8246491266338183,-0.8048326980294815,0.5351930152821819,0.110703784065969,1.4117643374199484,-0.5261591254705394,0.8381843365465992,-0.8265812270930187,2.0020069948133306,-0.7308752946323827,-0.7803447470177749,1.6926060932122675,13.017409279561434,-1.3882235169744477,0.1252878729814424,-1.1879525139181766
1.48,0.5173798756415283,0.1418787352164897,1.382477421116367,0.0933553615112201,0.0773697586845782,0.0514388307836861,-0.4752469236814606,0.8049848981447414,-0.7758447996920669,0.5250698327787315,0.1275031436552585,1.394906773491005,-0.5661591260665859,0.8346170507108562,-0.7939872883847134,1.8486235928542591,-0.5915732058081324,-0.9832114244538448,1.4493949168707332,12.731679708814228,-1.3887552647388628,0.1115773132549562,-1.190219362499526
1.5,0.5077628510942459,0.1577245990083841,1.367260344863078,0.1039352744364308,0.0800408116221555,0.0520962878274504,-0.4857106246079363,0.7808415992540626,-0.7474503343591767,0.5149466502752812,0.1443025032445479,1.3780492095620616,-0.6061591266626324,0.8310497648751133,-0.761393349676408,1.9356094517903657,-0.5231850463237847,-1.2071649445339394,1.419723266644507,12.520548092848912,-1.3879470763448172,0.1000570955230679,-1.1919642314973424
1.52,0.4979546391778566,0.1730570443680013,1.3525902059329855,0.1119867689919177,0.0826724929131051,0.0525586532525806,-0.4945794452422809,0.7541936909261137,-0.7209200519796329,0.5028234677420286,0.1609234985420501,1.3628213425685334,-0.6461591272586789,0.8274824790393703,-0.7287994109681026,1.931723893855744,-0.4434410317172288,-1.3323954163974472,1.32651411897719,12.29701829066198,-1.3871791551135555,0.0916684995871797,-1.1927743938705078
1.54,0.4884858784226488,0.1871126747965184,1.339145083711321,0.1172523333136979,0.0846925839328304,0.0527590308763152,-0.5017497202264063,0.7272962192565037,-0.6956129356964491,0.4907002852087759,0.1775444938395524,1.3475934755750052,-0.6861591278547253,0.8239151932036274,-0.6962054722597972,1.8810482185048008,-0.3585137492062684,-1.3448735834804992,1.2653558141591914,12.32597942682878,-1.386955049469664,0.0854714918791823,-1.19301431377023
1.56,0.4783761262074912,0.2013515292490408,1.3255191379025768,0.1205071832266211,0.0861537800291786,0.052707234197054,-0.5088873851757325,0.6984514853857138,-0.6682205277394815,0.4775771026606221,0.1940763069911611,1.3331804570491848,-0.7261591284507717,0.8203479073678844,-0.6636115335514919,2.0207108567818883,-0.3568832474663108,-1.4422366935394948,1.3696203978483812,12.32597942682878,-1.3883419678881554,0.0818527555300415,-1.1924792522238872
1.58,0.4681263004514371,0.2150004322844176,1.3124477135829682,0.1213452770435335,0.086995453748049,0.052384668226738,-0.5158178885315254,0.6684268998190481,-0.6402266667656041,0.4634539200975671,0.2105189379968762,1.3195822869910718,-0.7661591290468182,0.8167806215321415,-0.6310175948431866,2.081564236001052,-0.3465251677896463,-1.5012292783332826,1.3996930486938677,12.389140960476652,-1.390256053710435,0.0807594186177921,-1.1912223558425166
1.6,0.4582611836460589,0.2273995074595463,1.300554442217316,0.1193966755885035,0.0873104226661958,0.0518047906535595,-0.5223462463451912,0.6387619868899769,-0.6130256735903807,0.4423354060248608,0.24842177727537,1.280436380244688,-0.6158178900216416,0.5784744681998808,-0.540226665275488,2.0387009004211354,-0.3264178906832893,-1.4832456464535626,1.36004965876117,12.43890909829952,-1.39259657669998,0.0826503790245138,-1.1890956819307863
1.62,0.4477131846953002,0.2401129520150308,1.2885738896651393,0.1223847795216339,0.0875181176338053,0.0515102293007917,-0.5320342069842103,0.6316400296486971,-0.5870621354250666,0.4423354060248608,0.24842177727537,1.280436380244688,-0.6158178900216416,0.5784744681998808,-0.540226665275488,1.4306328759953804,-0.4843980319509555,-0.3560978620639865,1.298176908265708,12.494964294484816,-1.3980268197406551,0.0792436645927093,-1.1893504594186783
1.64,0.4369857009782698,0.2525185597210516,1.277093978653273,0.1320704468085488,0.0877246588661198,0.0516488226466733,-0.5402214813007332,0.6084008891626066,-0.5622990152815133,0.4423354060248608,0.24842177727537,1.280436380244688,-0.6158178900216416,0.5784744681998808,-0.540226665275488,1.7466405114607182,-0.4093637158261443,-1.1619570243045274,1.2381560071776654,12.094651248971786,-1.3991078785818916,0.0686491906112434,-1.190228509687409
1.66,0.4261053573770728,0.2643800937715954,1.266117289600202,0.1424260186773309,0.0875453725462771,0.0517399888907813,-0.5474844368475789,0.5786287579058239,-0.5366538631929797,0.4361772271246444,0.2542065219573688,1.2750341135919332,-0.6358178903196647,0.5604839818760473,-0.5202266649774648,1.9980015944003715,-0.363147777342282,-1.4886065628391345,1.282257604426679,12.1597945217909,-1.400986048893798,0.0567980548563587,-1.1895294649395314
1.68,0.4156403586051181,0.2750414350681081,1.2561735536715322,0.151151269259791,0.0868065026816578,0.0516220022212594,-0.5538661931074246,0.5454066599164009,-0.5113000857390351,0.4238608693242116,0.2657760113213664,1.2642295802864234,-0.6758178909157112,0.5245030092283804,-0.4802266643814183,2.1137931775383407,-0.3190878129922858,-1.6611048994711497,1.2676888726972313,12.271364042694586,-1.4040954407059687,0.0462582538174696,-1.187039624593885
1.7,0.4044963507057898,0.2855518266885667,1.2462426528950408,0.1583604690106477,0.0852657162151272,0.0511923755801614,-0.5602778192413103,0.5076484050687196,-0.482985582020427,0.4115445115237787,0.277345500685364,1.2534250469809136,-0.7158178915117577,0.4885220365807134,-0.4402266637853719,2.3814417270081627,-0.3205813066942842,-1.887912742384068,1.4157251859304023,12.392664100963884,-1.408505478718903,0.037980074600133,-1.1827028758521538
1.72,0.3932265476183611,0.2952801331181299,1.2368968913708738,0.1631965347774982,0.0826693054596468,0.0503766116294391,-0.5665602431023231,0.4677118470165874,-0.452900146739795,0.3972281536935436,0.2871159414169783,1.2446205137052062,-0.7558178921078041,0.4525410639330465,-0.4002266631893255,2.519687944292825,-0.3141211930506427,-1.9968279026066071,1.5042717640316006,12.538501007670677,-1.4141827000929474,0.0325893074924692,-1.176351916683496
1.74,0.3824007165920631,0.3037703411690008,1.2285915460829842,0.1656088906396816,0.079022489011398,0.0492123147852329,-0.5728761420292026,0.4286051395005204,-0.4227343997383514,0.3829117958633084,0.2968863821485926,1.2358159804294988,-0.7958178927038506,0.4165600912853796,-0.3602266625932789,2.48957699426874,-0.3157949463439724,-1.9553353758033487,1.5082873500721794,12.790776414585707,-1.4218889874728715,0.0294689723681653,-1.1668251589687837
1.76,0.3708605125337189,0.3118918065985688,1.2204856417810117,0.1656838319362816,0.0740011237873295,0.0475840874826738,-0.5810461730075995,0.3859036627056596,-0.3892844926788051,0.3675954380181721,0.3057572985640152,1.2280114471686925,-0.835817893299897,0.3805791186377126,-0.3202266619972325,2.7427457998064133,-0.4085015489198484,-2.13507383974304,1.6724953529773157,12.790776414585707,-1.430736559803706,0.0290787113452167,-1.154581321500181
1.78,0.3591325519611646,0.3191407770956961,1.2130660821773958,0.1623352405012578,0.068275715786217,0.0455886561772955,-0.5916694380406068,0.3418430558094159,-0.3541232901009205,0.3512790801581347,0.3137286906632461,1.2212069139227872,-0.8758178938959434,0.3445981459900458,-0.2802266614011861,2.868144437938001,-0.5311632516503628,-2.2030303448121877,1.7580601288942317,12.926350605211155,-1.440552922258157,0.032269973182778,-1.140122939492963
1.8,0.3471587300976665,0.3255350539942341,1.2063758726319345,0.155877294147563,0.0627113223224358,0.0434242380779604,-0.6054164792874355,0.3008737403575703,-0.3164587203133021,0.3295490800591343,0.3362329298861669,1.1953599176723495,-0.6916694395307229,0.2418430543192997,-0.2541232886108043,2.8662195349105803,-0.6873520623414342,-2.048465772592276,1.883228489380917,13.050566692239954,-1.4522073921192402,0.0388291529253417,-1.1250925363097375
1.82,0.3354408986981388,0.3309409691549904,1.2005494928008522,0.1492189169223632,0.0597703619124375,0.0417279376812029,-0.6273174341258986,0.2702152831905458,-0.2987293023631798,0.3295490800591343,0.3362329298861669,1.1953599176723495,-0.6916694395307229,0.2418430543192997,-0.2541232886108043,2.0820213012531834,-1.0950477419231552,-1.532922858351229,0.8864708975061142,13.17425319988888,-1.4634333905146368,0.0461514761006186,-1.1138030058052242
1.84,0.3226641396486965,0.3360176371909296,1.194803824090208,0.1426955696247458,0.0607049056819865,0.0405913439108831,-0.6486983996445194,0.2391781498780462,-0.2764593992359205,0.3295490800591343,0.3362329298861669,1.1953599176723495,-0.6916694395307229,0.2418430543192997,-0.2541232886108043,2.1888341166382586,-1.0690482759310391,-1.551856665624976,1.1134951563629674,11.77806404894909,-1.4630431915186453,0.0518783811064252,-1.1116707750954815
1.86,0.3094925054619888,0.3404836130136467,1.1895503602991395,0.1366323140493405,0.0641967443979282,0.0398419266511153,-0.6670605423486684,0.2091165501896292,-0.2500057535611384,0.322632385663827,0.3386513604293599,1.1928186847862416,-0.7116694398287461,0.2218430540212765,-0.2341232883127811,2.202648082423224,-0.918107135207452,-1.503079984420851,1.3226822837391017,12.060093779083218,-1.4602960449838012,0.0569622117708791,-1.1154539334464908
1.88,0.2959858030261785,0.3443606569304664,1.184855135458495,0.1309874139661177,0.0689722871964289,0.0392751139130493,-0.6824556971599637,0.1802169272311871,-0.2208414670709801,0.3087989968732126,0.3434882215157459,1.1877362190140257,-0.7516694404247926,0.18184305342523,-0.1941232877167346,2.192461291154244,-0.7697577405647638,-1.4449811479221073,1.4582143245079142,12.284753782771077,-1.4567675764218442,0.0613127429009359,-1.1223879810492237
1.9,0.2828955670256581,0.3475202086807937,1.1809530558196517,0.1260073122702743,0.0737808933835748,0.0387755730895177,-0.6945772213542403,0.153896985125597,-0.1913713384512236,0.2949656080825981,0.3483250826021319,1.1826537532418095,-0.791669441020839,0.1418430528291836,-0.1541232871206882,2.066494121754911,-0.6060762097138295,-1.3159971052795052,1.4735064309878267,12.442374595715592,-1.4533648742387035,0.0655689129100222,-1.1304237454889878
1.92,0.2688910849884068,0.3503187962790588,1.1774660353993214,0.1212076828698695,0.0784088514849164,0.0382038430144814,-0.7051311014539478,0.1274131707641268,-0.1588252967748888,0.2791322192621813,0.3511619436587155,1.1795712874993958,-0.8316694416168855,0.1018430522331372,-0.1141232865246417,2.1633432674274897,-0.527694004985374,-1.324190718073509,1.627302083816741,12.554596923847384,-1.4508265683555674,0.0694510130337292,-1.1376978740065486
1.94,0.2546934608681241,0.3525993825244404,1.1746331702337829,0.1168617485177142,0.082083402698541,0.037531334242754,-0.7141395240298289,0.1020188914270016,-0.1261063642070946,0.2632988304417645,0.3539988047152992,1.176488821756982,-0.871669442212932,0.0618430516370907,-0.0741232859285953,2.1192862293313808,-0.4504211287940596,-1.269713966856257,1.6359466283897088,12.656946269122272,-1.450005806697734,0.0727453462310937,-1.143772201170682
1.96,0.2403202383999546,0.3543761477892543,1.1724530787438272,0.1127029479298307,0.0847634861795563,0.0367452407293636,-0.7223313938667402,0.0783341183553615,-0.0951562679369503,0.2464654416064466,0.3558356657569818,1.1744063560294695,-0.9116694428089784,0.0218430510410442,-0.0341232853325488,1.9912205214460728,-0.4095934918455612,-1.1842386535820086,1.547504813507216,12.656603704659574,-1.45051161809159,0.0760901738877663,-1.1483316851270178
1.98,0.2265078250067207,0.3556123220217678,1.1709895908087486,0.1088037977702495,0.0865670500091173,0.0359137041171292,-0.7307748439852966,0.0543939279203038,-0.0621435972898972,0.2286320527562275,0.3566725267837631,1.173323890316858,-0.9516694434050248,-0.0181569495550021,0.0058767152634975,2.082222965499959,-0.4221725059278203,-1.1970095217528824,1.6506335323526549,12.651642849353266,-1.45222265499559,0.0794281982395813,-1.151536908433282
2.0,0.2118035496040932,0.3564559937588314,1.1700955007572953,0.1047234248016777,0.0878726885880446,0.0349750305992699,-0.7392548899323679,0.0313423435122227,-0.0288961819129405,0.1899690828074559,0.358332018417783,1.1678824109442538,-0.8023116829936279,-0.0456060735698122,0.0378564042002188,2.0668075335134763,-0.4240022973535651,-1.1525792204040566,1.662370768847833,12.683734735264808,-1.4547876593964846,0.0827748624222443,-1.1536935539069777
2.02,0.1968612991068794,0.3568568246682074,1.1697068786909173,0.1004193823644943,0.0903928191955915,0.0341462743562944,-0.7543891323652776,0.0102745023512062,-0.0124364234590435,0.1899690828074559,0.358332018417783,1.1678824109442538,-0.8023116829936279,-0.0456060735698122,0.0378564042002188,1.5360850184515666,-0.7567121216454864,-1.0533920580508245,0.8229879226948504,12.696455056424384,-1.4597201086324365,0.086915981363089,-1.1518352619649668
2.04,0.1824083603263905,0.356874856799514,1.1696428463585733,0.096529618009072,0.0948675124635257,0.0335759507342774,-0.7659009647103645,-0.0074094198593996,0.0049438971817405,0.1899690828074559,0.358332018417783,1.1678824109442538,-0.8023116829936279,-0.0456060735698122,0.0378564042002188,1.3668567356060168,-0.5755916172543452,-0.8841961105302931,0.8690160320392057,11.697280371505258,-1.4539952747069391,0.0899739926311167,-1.158712126125771
2.06,0.166992616692085,0.3565432589593054,1.1699620338766448,0.0931900872431448,0.1004022960456136,0.033097017672739,-0.7748131909322337,-0.0249318929504274,0.0261511806234613,0.1819459659775196,0.3578759576820848,1.168260974986256,-0.8166190507952942,-0.0656060738678354,0.0578564044982421,1.4458680009193865,-0.4456113110934578,-0.8761236545513914,1.060364172086037,11.697280371505258,-1.4479386495770377,0.0922302843983312,-1.1685940285739018
2.08,0.1514292634437307,0.3558672652198824,1.170727993083701,0.0907116282069148,0.1058499992879144,0.0326611663272663,-0.7809154749739082,-0.0419217909738135,0.0494267137741105,0.165899732317647,0.3569638362106886,1.1690181030702604,-0.8452337863986267,-0.1056060744638819,0.0978564050942885,1.4727906748901076,-0.3051142020837283,-0.8494949011693023,1.1637766575324604,11.88489125369233,-1.4429775219287653,0.0936775724032646,-1.1789911011919667
2.1,0.1357695617651526,0.3548551953716167,1.1719772579714536,0.0890465183686031,0.1105151292237731,0.032206905589211,-0.7847395937293119,-0.0585863484445828,0.07428716244916,0.1498534986577745,0.3560517147392923,1.1697752311542648,-0.8738485220019592,-0.1456060750599284,0.137856405690335,1.5086196242565406,-0.1912059377701835,-0.8332278735384689,1.2430224337524771,12.01964442823828,-1.4395480045269358,0.0942969085216888,-1.1881284550474978
2.12,0.1208379390833535,0.3535879990140769,1.173636458703331,0.0882081573345989,0.1138494941438085,0.0317297159277858,-0.7868785993595562,-0.0740655652142492,0.0990930604867733,0.1323765282177353,0.3531395932380938,1.1725323592680714,-0.9024632576052916,-0.1856060756559748,0.1778564062863814,1.4658735231432871,-0.1069502815122136,-0.7739608384833191,1.2402949018806655,12.125997920642476,-1.4376698330174722,0.0941521847062915,-1.196268427617622
2.14,0.1050854472565434,0.3519394129966279,1.1758992059329043,0.0882496852363701,0.1160345312631624,0.0311781368364995,-0.7883144314892928,-0.0900587497957229,0.1258886821821827,0.1148995577776961,0.3502274717368952,1.1752894873818782,-0.9310779932086244,-0.2256060762520213,0.2178564068824279,1.561929022879531,-0.0717916064868318,-0.7996592290736827,1.3397810847704672,12.219228017048408,-1.4377276976486932,0.093001209812505,-1.2025406632012192
2.16,0.089303922745864,0.3499604174135942,1.1787018876387303,0.0890401352868587,0.1169869484543592,0.0305739146793051,-0.7898773145249907,-0.1070372588657141,0.1530296067695399,0.0967072189475736,0.3463153502207955,1.179046615510586,-0.9596927288119568,-0.2656060768480677,0.2578564074784744,1.6026089362970457,-0.0781441517848924,-0.8489254534995618,1.3570462293678611,12.274814725027682,-1.439470666986761,0.091037388827471,-1.2070674011346936
2.18,0.0742784896515657,0.3477545575485006,1.1818723018187547,0.090005523807995,0.1170948041141722,0.0299467241136486,-0.7917482719723052,-0.1242426848934872,0.179342758757439,0.0777995117273678,0.3414032286897946,1.183803743654195,-0.9883074644152892,-0.3056060774441141,0.2978564080745208,1.5747294482744594,-0.093547872365729,-0.8602713013886564,1.315657599394955,12.360011860783745,-1.4420128638447327,0.0889222194557819,-1.2101202790435177
2.2,0.0584190102955866,0.3450696552751112,1.1857585273895674,0.0908246169770945,0.1166908455646767,0.0292286255852863,-0.7941640316995263,-0.1433036010219325,0.2079424534556289,0.0346910760529505,0.3415424233038263,1.1908394397566266,-0.8256394543651409,-0.2242426863836034,0.2793427602475551,1.722713670016697,-0.1207879863610539,-0.9530458064222598,1.4299847349094963,12.43680523524199,-1.4453106335813009,0.0869009074504877,-1.2125582800224677
2.22,0.042417723430745,0.3419445527859062,1.1900234613666705,0.0889497569846268,0.1181096806381156,0.0284916303248404,-0.8056977651265008,-0.1675191632524925,0.2161871275988511,0.0346910760529505,0.3415424233038263,1.1908394397566266,-0.8256394543651409,-0.2242426863836034,0.2793427602475551,1.403028075836822,-0.5766866713487251,-1.2107781115280003,0.4122337071611096,12.43680523524199,-1.4485010251920998,0.0884356658695081,-1.2106569740859237
2.24,0.0262109563144566,0.3383927782045681,1.1944622020198528,0.083995881924998,0.122754731674987,0.0278251833971816,-0.8139439416910109,-0.1858296984892657,0.2274247162718622,0.0346910760529505,0.3415424233038263,1.1908394397566266,-0.8256394543651409,-0.2242426863836034,0.2793427602475551,1.150606935245457,-0.4123088282255049,-0.9155267618386628,0.5618794336505541,11.04897337066177,-1.442723784992109,0.0925695000497468,-1.2155230597071875
2.26,0.0106988593910581,0.3347259469437249,1.198925197780414,0.0792380064287866,0.128618977690202,0.0272979066814827,-0.8182313273589157,-0.1993548354849544,0.2417502656222356,0.0264346815092991,0.3392999964399902,1.193632867359102,-0.832417690843708,-0.2442426866816266,0.2993427605455784,1.008132395580415,-0.2143692833952382,-0.6762568497844318,0.7162774675186667,11.325365857890574,-1.4351792947765465,0.0970074966044792,-1.2253390164851108
2.28,-0.0056809911402018,0.3306099675246706,1.2039439846482876,0.075232444569361,0.1351645318788872,0.0268273695649853,-0.8192792590735919,-0.2117310570765946,0.2594377708896078,0.0099218924219962,0.3348151427123181,1.1992197225640533,-0.8459741638008422,-0.284242687277673,0.3393427611416248,1.0806443267182415,-0.0523965857338104,-0.6188110795820142,0.8843752633686127,11.71451543430794,-1.427414098055256,0.1003635322423773,-1.236962056869756
2.3000000000000003,-0.0220476616166579,0.3262566380177752,1.2093386825996124,0.0725522642316138,0.1411506455303267,0.0263986311840043,-0.8172665851751337,-0.223337924690633,0.2790723374805581,-0.0065908966653065,0.3303302889846461,1.2048065777690045,-0.8595306367579765,-0.3242426878737195,0.3793427617376713,1.1448650982166089,0.100633694922908,-0.5803433807019198,0.9817283295475154,11.71451543430794,-1.420931706880581,0.1022239940139913,-1.2478836513294775
2.32,-0.0383484967497637,0.3216746383195121,1.2151422184589296,0.0711180837336823,0.1459567859463659,0.0259711509496174,-0.8129450877348858,-0.2345339634583499,0.3002517887041472,-0.023781509400466,0.3238454352271717,1.212393433003758,-0.8730871097151107,-0.3642426884697659,0.4193427623337177,1.217164510601049,0.216074872012395,-0.559801938385844,1.0589725611794525,11.843814911138908,-1.4155254860825282,0.1028693390561807,-1.257335875816885
2.34,-0.0537398048473771,0.3171178591845771,1.2210548199179363,0.0709979255916525,0.1491251955627485,0.0255581069687537,-0.8075006669465915,-0.2447585263847674,0.3210379118055791,-0.0409721221356256,0.3173605814696973,1.2199802882385111,-0.886643582672245,-0.4042426890658124,0.4593427629297642,1.1897965354884903,0.2722210394147162,-0.5112281463208745,1.039306155071598,12.01918882816244,-1.4121762997609852,0.1020193616971435,-1.264597780233688
2.36,-0.0698245614827663,0.3121028050020903,1.2277136109422615,0.0720744299128412,0.151004363100461,0.0251125240885635,-0.8013295124302204,-0.256296775556801,0.3437802975282185,-0.0585016466947134,0.3098757276973218,1.228567143488166,-0.9002000556293792,-0.4442426896618588,0.4993427635258106,1.3118979098792036,0.3085577258185534,-0.5769124586016791,1.1371192861319657,12.01918882816244,-1.4107825365424036,0.0996952483976906,-1.270880616668446
2.38,-0.0857850601409177,0.3068442338691994,1.2348373841301443,0.073983229021489,0.1516222726798162,0.0246416846722588,-0.7951175938173037,-0.2690406190147068,0.3674984636507131,-0.0763700830777297,0.301390873910045,1.2381539987527217,-0.9137565285865136,-0.4842426902579052,0.539342764121857,1.381615796040419,0.310595930645835,-0.6371921728952901,1.1859083061247304,12.095878911443831,-1.4109386686868155,0.0965666736482356,-1.275310923403019
2.4,-0.1008343108862535,0.3015958883838707,1.2420559951155163,0.0760308948788736,0.1512980012020775,0.0241476632308235,-0.7894340095102595,-0.2828126336601228,0.3911600867984477,-0.1255409398317829,0.2933922029184641,1.2532123073126802,-0.7781470375879508,-0.3690406205048229,0.4674984651408292,1.398073610324437,0.2841792153522093,-0.6886007322707999,1.183081157386731,12.174450162205176,-1.412420492577888,0.0929412916010001,-1.2788759138546846
2.42,-0.1166727312215249,0.2957208954516327,1.2499116392302263,0.07559971180732,0.1526103262667516,0.0235784599912652,-0.7946346841053449,-0.3032008956249008,0.3920129211704128,-0.1255409398317829,0.2933922029184641,1.2532123073126802,-0.7781470375879508,-0.3690406205048229,0.4674984651408292,1.0529192379456085,-0.2600337297542665,-1.0194130982388998,0.0426417185982547,12.26505131034719,-1.414718380418114,0.0930728836030434,-1.2727473964851057
2.44,-0.1325924987692237,0.2894795910917366,1.2577872065702702,0.0716947729815779,0.157272608874733,0.0230228567221366,-0.7965662522851178,-0.3192760578990982,0.3959272104443866,-0.1255409398317829,0.2933922029184641,1.2532123073126802,-0.7781470375879508,-0.3690406205048229,0.4674984651408292,0.8328617206584145,-0.0965784089886456,-0.8037581137098709,0.1957144636986929,10.969238010301524,-1.4076100156308555,0.0965966208508183,-1.2786988397930272
2.46,-0.1485055049891833,0.2829716036924577,1.2658000899108706,0.0671828948618402,0.1636644425555271,0.0225400078733097,-0.7943109462724308,-0.3307648636051448,0.4050869478832002,-0.1333224102076624,0.2897017967134159,1.2578872919640884,-0.7747529263420802,-0.3890406208028462,0.4874984654388524,0.7432695535775605,0.1127653006343487,-0.57444028530233,0.4579868719406799,10.969238010301524,-1.3993511293831968,0.1006492272969328,-1.2893547318631875
2.48,-0.1635435773064111,0.276600775690436,1.27361532917243,0.0637522851593962,0.1702249697271484,0.0221627886436532,-0.7885721335268188,-0.3395871150715858,0.4170386067887394,-0.1488853509594214,0.2823209843033195,1.2672372612669052,-0.767964703850339,-0.4290406213988926,0.5274984660348988,0.7962541102887218,0.2869406372806027,-0.44111257332205,0.5975829452769588,11.254168549507996,-1.3903293594637411,0.1039774398458164,-1.3023761957015083
2.5,-0.1792203905588516,0.269721590032919,1.282113885530449,0.0614249456544705,0.1767387777961864,0.0218247399844753,-0.779226476557934,-0.3481419566266868,0.4322586681210418,-0.1644482917111804,0.274940171893223,1.2765872305697217,-0.7611764813585978,-0.469040621994939,0.5674984666309453,0.9901728197289515,0.4672828484442393,-0.42774207775505,0.761003066615118,11.475560301172663,-1.3820576903022972,0.1058065982297325,-1.3157015113790995
2.52,-0.1946780685476752,0.2626772176737678,1.2909435086158687,0.0605498968150251,0.182126046295873,0.0215218884347691,-0.7670246870452749,-0.3561338574154301,0.4498811875964664,-0.1796718213383524,0.2655593594533242,1.2879371999023406,-0.7543882588668567,-0.5090406225909855,0.6074984672269917,1.1437955872773662,0.6100894756329522,-0.3995950394371617,0.8811259737712296,11.675067514282093,-1.3758180239875657,0.1059696393202722,-1.3274692269693196
2.54,-0.2091187495799407,0.2558400997317293,1.2996694706043044,0.0612509358794733,0.1858235503348014,0.0212644606873111,-0.7537426127707368,-0.3633958574092482,0.467726691451967,-0.1948953509655244,0.2561785470134254,1.2992871692349597,-0.7476000363751155,-0.549040623187032,0.6474984678230382,1.1700557132047702,0.6641037137269046,-0.3630999996909051,0.8922751927750328,11.845700174097146,-1.3715132930097482,0.1042333435274082,-1.3375966705703235
2.56,-0.224036881981372,0.2484814109672535,1.3092337007976913,0.0634636026536437,0.1881236977704771,0.0210109906676788,-0.7388332358413676,-0.3722177014630005,0.4878125190810637,-0.2099491750304028,0.2457977345586254,1.3116371385824797,-0.7408118138833742,-0.5890406237830783,0.6874984684190846,1.3262304894667771,0.7454688464684611,-0.4410922026876152,1.004291381454833,11.94129316024464,-1.3694069741739925,0.1006118045422856,-1.3454710802174144
2.58,-0.2386513765632833,0.2409202565964771,1.319215157555287,0.0664150391631105,0.1888892807986593,0.0207208308440322,-0.7234661994916156,-0.3836631577044701,0.5093895811721164,-0.2248332935329877,0.2344169220889244,1.3249871079449007,-0.7340235913916331,-0.6290406243791248,0.727498469015131,1.4428391137191452,0.7683518174876003,-0.5722728120734821,1.078853104552635,12.054201778814786,-1.3693981587751671,0.0960740994584697,-1.3501944149399254
2.6,-0.2529564215220254,0.233102890058514,1.3296474420897058,0.0689139310326352,0.1882844060149494,0.0203121280411061,-0.7079528733194451,-0.3973074846308626,0.5327717278556277,-0.274824686537864,0.2217370987112536,1.344684636613893,-0.6706952384155944,-0.4836631591945862,0.5693359878047782,1.5600927293975713,0.7756663086085247,-0.6822163463196251,1.169107334175562,12.30566502687634,-1.370947093415063,0.0922428029961372,-1.3525816989042712
2.62,-0.2663916437873539,0.2253715442505479,1.3396245947601455,0.0683432186425522,0.1884095289353146,0.0197713853664023,-0.7066791228586221,-0.4147173160575541,0.5163367364456186,-0.274824686537864,0.2217370987112536,1.344684636613893,-0.6706952384155944,-0.4836631591945862,0.5693359878047782,1.1987843980354962,0.0636875230411504,-0.8704915713345723,-0.8217495705004518,12.30566502687634,-1.3767989079753753,0.0929857754400211,-1.3337151839099846
2.64,-0.2804951540925603,0.2169353246585375,1.34981183770792,0.0645278617106903,0.19081707800044,0.019141852468928,-0.7033685245268474,-0.4274979952575861,0.5037063836854119,-0.274824686537864,0.2217370987112536,1.344684636613893,-0.6706952384155944,-0.4836631591945862,0.5693359878047782,0.9135529992503773,0.1655299165887358,-0.6390339600016032,-0.6315176380103371,9.687223032464315,-1.372088488004923,0.0967408632189094,-1.3365314502394146
