t,x,y,z,roll,pitch,yaw,v_x,v_y,v_z,ref_x,ref_y,ref_z,ref_v_x,ref_v_y,ref_v_z,a_com,a_x,a_y,a_z,thrust,wind_x,wind_y,wind_z
0.0,-2.353204172064705,2.218821971753479,2.6403546734314776,0.0224514707989291,0.1500703755324534,0.0287625070920854,0.0020337747313068,-0.0069071462466212,-0.0029946212225008,-2.353147869163944,2.218709764684798,2.64026419459228,0.0168374268860746,-0.1045843974299232,-0.1030117296051446,0.3899123786062997,0.1016887365653426,-0.3453573123310631,-0.1497310611250425,10.66306489361159,-1.4129504500719252,0.1687472888671475,-1.2785410425847816
0.02,-2.353270517725738,2.2189401655238687,2.6400797704222505,0.0289516083184924,0.1521594295952029,0.0292554864862444,-0.0084199109098843,0.0148720866552252,-0.025763265788413,-2.353147869163944,2.218709764684798,2.64026419459228,0.0168374268860746,-0.1045843974299232,-0.1030117296051446,1.6598386251730668,-0.5226842820595582,1.0889616450923276,-1.138432228295612,9.229983902846016,-1.4078996037113107,0.1616232276870433,-1.276742491312865
0.04,-2.3535070110757124,2.2192516885174767,2.639313035815969,0.0425484667764341,0.1572732156396254,0.0303593436201277,-0.0154990598824373,0.0160941817019785,-0.0537173430475666,-2.353147869163944,2.218709764684798,2.64026419459228,0.0168374268860746,-0.1045843974299232,-0.1030117296051446,1.4431201456303164,-0.3539574486276534,0.0611047523376627,-1.39770386295768,9.229983902846016,-1.397046721909512,0.1446589476036762,-1.2832489659781177
0.06,-2.353863361277555,2.2195204444963093,2.6379271796057338,0.0576048873092197,0.1642715422054543,0.0317119524826278,-0.0194226916350008,0.0103505773742367,-0.0834154726741734,-2.352979494895082,2.217663920710499,2.639234077296228,0.0198212184534598,-0.1245843977279464,-0.1230117299031678,1.5250924399213592,-0.1961815876281756,-0.2871802163870877,-1.4849064813303356,9.006928915153367,-1.3855288464886224,0.1268275779575785,-1.2893825951615394
0.08,-2.3542659821022,2.219634974248703,2.635956790349524,0.0721813338193956,0.1719254410716791,0.0331562792185598,-0.0203765934272125,0.001081037101857,-0.1121860708052149,-2.352642746357361,2.2155722327619007,2.637173842704125,0.0257888015882302,-0.1645843983239929,-0.1630117304992143,1.512102528194056,-0.0476950896105837,-0.4634770136189858,-1.4385299065520745,9.022178757663823,-1.3743321896470613,0.1104731463445738,-1.2946034205215335
0.1,-2.3546421641543995,2.2195452007888754,2.6335611329735222,0.0854072998461951,0.1792924968714254,0.0345726485071465,-0.0189774185561732,-0.0103204137569138,-0.1385933767493697,-2.35230599781964,2.213480544813302,2.635113608112022,0.0317563847230006,-0.2045843989200393,-0.2030117310952607,1.4398754974240917,0.0699587435519673,-0.5700725429385466,-1.32036529720774,9.091012921111542,-1.3629168179819406,0.0941265952362571,-1.298922071290488
0.12,-2.3549880918332717,2.219190663655584,2.630502597227355,0.0986674242361475,0.1868652859170164,0.0360790302765801,-0.0154803125375965,-0.0248164112207802,-0.1658790865972136,-2.35167087012518,2.2093888568349014,2.631053373490117,0.0377239678577709,-0.2445843995160858,-0.2430117316913072,1.5547296025984,0.1748553009288353,-0.7247998731933198,-1.3642854923921948,9.16190214865128,-1.3525594246794752,0.0787168816517603,-1.3021288385382015
0.14,-2.355245745867636,2.218521092838055,2.6268970425794933,0.1112708840799742,0.1941104732358452,0.0375754517975893,-0.0102831196029219,-0.0416778895790385,-0.1933606072173436,-2.35103574243072,2.2052971688565006,2.626993138868212,0.0436915509925413,-0.2845844001121323,-0.2830117322873537,1.6329071027012494,0.2598596467337259,-0.8430739179129161,-1.3740760310065006,9.209183319760086,-1.3429951716906274,0.064039606029242,-1.306278994915679
0.16,-2.3553798909304344,2.21749037153148,2.6227415386091684,0.1232425051531419,0.2008802295397007,0.039030010970182,-0.0032564485968108,-0.0608003398515548,-0.2208632725436635,-2.3502514251578908,2.2002054808631986,2.621932904231405,0.0496591341273117,-0.3245844007081787,-0.3230117328834001,1.7113144143497891,0.3513335503055578,-0.9561225136258144,-1.375133266315999,9.216800654408871,-1.3338783169806412,0.0507627518732322,-1.3090834203625556
0.18,-2.355355638025197,2.2161364991049166,2.6182845422109917,0.1340458973334811,0.2065530998070045,0.0403152349903498,0.0054917387477744,-0.0809645918157711,-0.2469516162556711,-2.349317918306692,2.194113792854995,2.615872669579698,0.0556267172620821,-0.3645844013042251,-0.3630117334794465,1.7056739992802028,0.4374093672292658,-1.0082125982108163,-1.3044171856003774,9.24007493802037,-1.3239629395034067,0.0374011606965376,-1.3104718228464107
0.2,-2.3551343704673573,2.214266395091768,2.613054987750162,0.1444934105801418,0.2114111321952293,0.041473514043347,0.0162117978817708,-0.1050355697944738,-0.2746279517950845,-2.355081051087809,2.212088269514128,2.6059369613982075,0.025341989081322,-0.1809645933058873,-0.3469516177457872,1.910700916926669,0.5360029566998178,-1.2035488989351348,-1.38381677697067,9.268794794154928,-1.3161475629951198,0.0252437503290904,-1.3097579704135598
0.22,-2.3546386031414173,2.2117359155833825,2.6073924089250418,0.1492196092677807,0.2145877387848997,0.041976868961486,0.03290098843357,-0.1448607004362302,-0.2891774320486636,-2.355081051087809,2.212088269514128,2.6059369613982075,0.025341989081322,-0.1809645933058873,-0.3469516177457872,2.278298426214461,0.8344595275899608,-1.99125653208782,-0.7274740126789553,9.287286151085029,-1.3100052286788648,0.0201412247504662,-1.3042020404842294
0.24,-2.353853606241837,2.208657681097278,2.6017678270360167,0.1476406836116943,0.2157385613116744,0.0417181179854037,0.0487206117197562,-0.1765546794842767,-0.3021100076480681,-2.355081051087809,2.212088269514128,2.6059369613982075,0.025341989081322,-0.1809645933058873,-0.3469516177457872,1.8854842219236163,0.7909811643093084,-1.5846989524023205,-0.6466287799702264,10.250324193979395,-1.3091139392545554,0.0223044274091103,-1.2987398024812564
0.26,-2.3527106866426344,2.204821725635456,2.595567142282952,0.1429273682609443,0.2152244714600509,0.0409493091390838,0.0646350645883229,-0.2046616147927773,-0.3172526314153127,-2.354827631196996,2.210278623581069,2.602467445220749,0.0293120391480315,-0.2009645936039105,-0.3669516180438105,1.7836540283210705,0.7957226434283357,-1.4053467654250331,-0.7571311883622284,10.135901307211498,-1.3096122735706586,0.0280394536543672,-1.2905435278024924
0.28,-2.351257262321275,2.2004706130256446,2.5890447460215604,0.1373898668769769,0.2129121890485874,0.0398539307208472,0.0797783650651754,-0.2288551603085056,-0.3341459011657591,-2.354320791415369,2.206659331714951,2.595528412865834,0.0372521392814506,-0.240964594199957,-0.4069516186398569,1.658334825069414,0.757165023842623,-1.2096772757864138,-0.844663487522318,9.98392939453879,-1.3120738953799425,0.0341763366999978,-1.2811150261770476
0.3,-2.3496069562625923,2.195912931714201,2.582520811776378,0.1322933411103746,0.2090476053329934,0.0385987027118969,0.0930269271768435,-0.2496879924473252,-0.3516888603916028,-2.353813951633742,2.2030400398488337,2.588589380510918,0.0451922394148696,-0.2809645947960034,-0.4469516192359034,1.5143370755470698,0.6624281055834069,-1.0416416069409808,-0.8771479612921879,9.8515681042918,-1.3165271765842597,0.0402372958336735,-1.2690359449123054
0.32,-2.34762223054149,2.1907048464999463,2.575279651337252,0.1275067300031492,0.2035886352309666,0.0371475927788278,0.1044266361076342,-0.270056703055657,-0.3715350911591023,-2.352910106845445,2.197420747952913,2.5796503481262003,0.0531323395482886,-0.3209645953920498,-0.4869516198319498,1.5319192302709357,0.5699854465395365,-1.0184355304165864,-0.9923115383749735,9.73213830928671,-1.323299869386508,0.0455517758685104,-1.2546927146960152
0.34,-2.345439150631058,2.185099872956861,2.5676331921889046,0.123459592618326,0.1975540029610256,0.0356929123424257,0.1131283234896882,-0.2895295027671004,-0.3920718979191986,-2.352006262057148,2.1918014560569934,2.570711315741482,0.0610724396817077,-0.3609645959880964,-0.5269516204279963,1.4804304473687098,0.4350843691026971,-0.9736399855721722,-1.0268403380048168,9.614988936353257,-1.329565844243103,0.0496440821938699,-1.2403749363368828
0.36,-2.3432247994467734,2.1794118336141035,2.5599834660236365,0.119975047538915,0.1918659905331685,0.0343577224799169,0.1194169115681198,-0.3081391133254156,-0.4120835307646769,-2.350903914765515,2.185182164146172,2.560772283341863,0.0690125398151267,-0.4009645965841428,-0.5669516210240426,1.4020782737552242,0.3144294039215817,-0.9304805279157584,-1.0005816422739122,9.503483729780784,-1.3352712934834254,0.0533627159414785,-1.2254850553431518
0.38,-2.340783806723508,2.173048062990192,2.551513994975657,0.1164327506736676,0.1863081105988764,0.033028864049529,0.1242324981672273,-0.3271508135593102,-0.4338111066063785,-2.3496030649705464,2.1775628722204496,2.5498332509273425,0.0769526399485458,-0.4409645971801892,-0.6069516216200891,1.4634908370347492,0.2407793299553755,-0.9505850116947324,-1.0863787920850798,9.503483729780784,-1.3399029670775149,0.0568418291113578,-1.2111804738275145
0.4,-2.3382645511648064,2.166309832200957,2.5426035692260287,0.1129359515902833,0.181508879218705,0.0318072210658792,0.1273210715374192,-0.345593308363618,-0.4561335968988958,-2.334572181815146,2.156690522312226,2.529823439645338,0.1588674943727956,-0.4271508150494263,-0.5338111080964947,1.455986326283241,0.1544286685095965,-0.9221247402153882,-1.1161245146258658,9.440754593453676,-1.3435058945028258,0.0602426403920505,-1.1976629767579838
0.42,-2.33571160511009,2.159196525021612,2.533470014814244,0.1098575285993081,0.1795092616851779,0.0309418368313922,0.127884525917854,-0.3650052989864752,-0.4549643424468806,-2.334572181815146,2.156690522312226,2.529823439645338,0.1588674943727956,-0.4271508150494263,-0.5338111080964947,0.972766694478029,0.0281727190217392,-0.97059953114286,0.0584627226007605,9.38870771760594,-1.3460333315388695,0.0639212378820845,-1.1790109163060138
0.44,-2.3332646720750283,2.1520914190868137,2.5248085726299263,0.1077550250822386,0.1815383001112746,0.0306100547634514,0.1301061064658735,-0.3821288921941982,-0.4570155387116933,-2.334572181815146,2.156690522312226,2.529823439645338,0.1588674943727956,-0.4271508150494263,-0.5338111080964947,0.8694254864444961,0.1110790274009745,-0.8561796603861527,-0.102559813240638,10.847749123075118,-1.341070447249809,0.0654454157009576,-1.1823154525238029
0.46,-2.330617412096532,2.144263272599654,2.515597335765599,0.1062119199367289,0.1859386316694016,0.0305432551538872,0.1347850062524548,-0.3997825603647625,-0.4642382870255235,-2.332983506871418,2.152419014161732,2.524485328564373,0.1657944936139093,-0.4471508153474495,-0.5538111083945179,0.9819778463567796,0.2339449893290657,-0.882683408528212,-0.3611374156915065,10.456441163512864,-1.333884708385438,0.0664367766410352,-1.1871761576044015
0.48,-2.327857526182634,2.136088210565713,2.506194638700049,0.1051462303786284,0.191476752253097,0.0306198771105556,0.1412284508887713,-0.4168490218467754,-0.4756730338834855,-2.3298061569839623,2.143875997860744,2.513809106402443,0.1796484920961366,-0.487150815943496,-0.5938111089905643,1.076493755211775,0.3221722318158218,-0.8533230741006481,-0.5717373428981015,10.163104385596853,-1.3258997360169529,0.0670197919588722,-1.1919464581336978
0.5,-2.324952678585784,2.1275780868622443,2.4965312705349567,0.1045346780751805,0.1974719790167481,0.0307660798073744,0.1491470293903769,-0.4333250385436047,-0.4901088625073784,-2.3266288070965064,2.135332981559755,2.503132884240513,0.193502490578364,-0.5271508165395424,-0.6338111095866108,1.1646417472110184,0.3959289250802827,-0.8238008348414622,-0.7217914311946461,9.953307710669833,-1.3169460507625657,0.0672312740992773,-1.19656880350758
0.52,-2.3220340618476656,2.119192945670334,2.4870614561034765,0.1044341916835137,0.2032457766992776,0.0309390133203732,0.1578400374199267,-0.4485290707862922,-0.5060075660299833,-2.322758757284939,2.124789965228964,2.4904566620487807,0.2073564890605913,-0.5671508171355889,-0.6738111101826573,1.1826873622582876,0.4346504014774877,-0.7602016121343758,-0.7949351761302431,9.798718908952653,-1.3078577459930836,0.066922964972038,-1.20061872610692
0.54,-2.318769854656243,2.110058311578511,2.4767561475287385,0.1049568962170915,0.2092033504336558,0.0311468549030973,0.1682797653732997,-0.4641806103704002,-0.523743956854505,-2.318888707473372,2.114246948898173,2.4777804398570487,0.2212104875428186,-0.6071508177316354,-0.7138111107787037,1.2928052546434805,0.5219863976686528,-0.7825769792054016,-0.886819541226086,9.682856710866872,-1.2987963508565528,0.0659329434845861,-1.203909112709786
0.56,-2.315283432311261,2.100598390306772,2.466088301537034,0.1058206577175088,0.2149271020181575,0.0313504193591441,0.1799861012448367,-0.4809489245015735,-0.5421599249233265,-2.3146723076997486,2.102703932552481,2.4641042176504158,0.2350644860250459,-0.6471508183276817,-0.7538111113747501,1.3760110267098091,0.5853167935768496,-0.838415706558665,-0.9207984034410754,9.620419642370509,-1.2903102787767151,0.0645731338468949,-1.2069963634291867
0.58,-2.3115438278410605,2.09079334203992,2.4550451915579825,0.1064320891274329,0.220149307752912,0.0314785315847779,0.1934518278375687,-0.4985865674513974,-0.5612239385488693,-2.3101095579640702,2.090160916191888,2.4494279954288807,0.2489184845072732,-0.6871508189237282,-0.7938111119707966,1.4627447291056654,0.6732863296365993,-0.8818821474911948,-0.9532006812771388,9.620419642370509,-1.2825730032220002,0.0634984559786203,-1.2092521700569
0.6,-2.3077257490637835,2.081145015141907,2.444194615756579,0.1063401332712276,0.224250318181006,0.031454113781458,0.2077538873545554,-0.51598811468996,-0.5799656778931978,-2.3018712364491822,2.06586401366735,2.426983994630539,0.2276302673653187,-0.5985865689415135,-0.6612239400389854,1.4651071175635089,0.7151029758493355,-0.870077361928126,-0.9370869672164216,9.60289617710805,-1.2755631738920523,0.0631224514806012,-1.2100975258739872
0.62,-2.3033348225357333,2.070581624330346,2.432631366631341,0.10446082298587,0.2271014019392636,0.0311359796979185,0.2308277712394246,-0.5392502877069895,-0.574024784104158,-2.3018712364491822,2.06586401366735,2.426983994630539,0.2276302673653187,-0.5985865689415135,-0.6612239400389854,1.6649527245685476,1.1536941942434598,-1.1631086508514743,0.2970446894519862,9.582422128203689,-1.2704207181952487,0.0650581164700749,-1.2030761405592103
0.64,-2.2984770887082333,2.0595832600481154,2.421191392870886,0.1007964507609343,0.2281118269872487,0.0304896043396165,0.2535691415991135,-0.5589878141604557,-0.5703442202607805,-2.3018712364491822,2.06586401366735,2.426983994630539,0.2276302673653187,-0.5985865689415135,-0.6612239400389854,1.516811150525167,1.1370685179844409,-0.9868763226733136,0.184028192168878,11.274914683935094,-1.270007404738094,0.0682354411634323,-1.2041163403612305
0.66,-2.293450172369435,2.0487967437892864,2.410339878250419,0.0969767701404274,0.2273386372876106,0.0296754993561143,0.2743285534573439,-0.5753254422441939,-0.572052991081948,-2.2995949337755293,2.0598781479779347,2.4203717552301494,0.2344659552708687,-0.6185865692395367,-0.6812239403370086,1.323623029624997,1.0379705929115215,-0.8168814041869088,-0.0854385410583746,10.918837110154527,-1.271322990177988,0.0719032470177643,-1.2028010879601958
0.68,-2.2877433314906392,2.037127394538049,2.398837555447872,0.0930899463613379,0.2244055716293813,0.0286310740259621,0.2951093086366464,-0.5906915345745058,-0.5782538347812063,-2.295042328428223,2.0479064165991043,2.4071472764293693,0.2481373310819687,-0.6585865698355832,-0.7212239409330551,1.3289159509807336,1.039037758965125,-0.7683046165155971,-0.3100421849629164,10.58047438086578,-1.2750169583929705,0.0754132102241345,-1.1975902603340596
0.7000000000000001,-2.281637924337925,2.0251642155554186,2.387170080761553,0.0895456346502338,0.2191110673363366,0.0274093927998203,0.3139456784990589,-0.6048409173500813,-0.5882604028278184,-2.2904897230809165,2.035934685220274,2.3939227976285897,0.2618087068930688,-0.6985865704316296,-0.7612239415291016,1.2797902822287268,0.9418184931206276,-0.7074691387787713,-0.5003284023306076,10.300582757791744,-1.2817530359794154,0.0784629153216105,-1.188290569678773
0.72,-2.275193447488576,2.012928886119357,2.375267387666129,0.0864250863792314,0.2120626136256554,0.0260866624449926,0.3291963307172377,-0.6180355112431926,-0.6014132894375436,-2.285253548943055,2.021962953811641,2.3786983187980075,0.2754800827041688,-0.7385865710276761,-0.801223942125148,1.2038252855504592,0.7625326109089392,-0.6597296946555642,-0.6576443304862567,10.065713879309442,-1.2900735449565102,0.0811552957998451,-1.1752729426187196
0.74,-2.268820541793616,2.0010677205057656,2.363701902567789,0.0838923919617585,0.2045721182008039,0.0248188910754242,0.340630872578031,-0.629919135735844,-0.6152900077824568,-2.280017374805194,2.007991222403009,2.3634738399674258,0.2891514585152688,-0.7785865716237226,-0.8412239427211945,1.077650906686193,0.5717270930396617,-0.5941812246325728,-0.693835917245661,9.86702773660636,-1.298756349957919,0.0832979380011455,-1.160446331575918
0.76,-2.2619063033897717,1.9883360238433696,2.3512295001615398,0.0814519687195384,0.1964910127209365,0.0235119854279257,0.3499384724356301,-0.6425424591253955,-0.6312396675121751,-2.274439416272055,1.993019490979475,2.3472493611219427,0.3028228343263688,-0.8185865722197689,-0.8812239433172409,1.1184490980819988,0.4653799928799551,-0.6311661694775761,-0.7974829864859145,9.756879195072544,-1.3065810301890328,0.0850117406677528,-1.1465179179034866
0.78,-2.255190198071924,1.9760085836062249,2.3390705910190386,0.0790889448676006,0.1890273186331545,0.0223121963950972,0.3564068714535354,-0.6543154838899448,-0.6477890390165082,-2.2685196733436386,1.97704775954104,2.3300248822615583,0.3164942101374688,-0.8585865728158154,-0.9212239439132872,1.0657462117572376,0.3234199508952678,-0.5886512382274611,-0.8274685752166555,9.554604340874905,-1.3139760421147295,0.0867975684447954,-1.1324292990540743
0.8,-2.2480110307120347,1.9627970657769749,2.325917927573908,0.076516447725729,0.1817010809420888,0.0211152336194028,0.3610066906345989,-0.6660996854349881,-0.6666426843144361,-2.237369854499247,1.9432928094117277,2.306681139068213,0.3837529758370041,-0.7543154853800609,-0.7477890405066243,1.135215490086309,0.2299909590531751,-0.5892100772521669,-0.942682264896394,9.554604340874905,-1.3203401869612534,0.0886522790984812,-1.1189096683116797
0.8200000000000001,-2.240732121288048,1.9493251166646683,2.3126882503202397,0.0736360292203836,0.1760510701126111,0.0200550011639904,0.366689679241735,-0.6803608079642429,-0.653762457431694,-2.237369854499247,1.9432928094117277,2.306681139068213,0.3837529758370041,-0.7543154853800609,-0.7477890405066243,1.001968337641176,0.2841494303568032,-0.7130561264627411,0.644011344137102,9.44989496373637,-1.3268192535404064,0.0913143344706994,-1.0988574873721664
0.84,-2.2333638469896826,1.9355909099355757,2.299717011341021,0.0708221515675868,0.173536146830229,0.0192566259915318,0.3698319649568141,-0.6923304597401377,-0.6445624742427016,-2.237369854499247,1.9432928094117277,2.306681139068213,0.3837529758370041,-0.7543154853800609,-0.7477890405066243,0.7710159107131234,0.1571142857539537,-0.5984825887947409,0.45999915944962,11.491464866255228,-1.3304496488094406,0.0933269638172756,-1.0975357730003084
0.86,-2.226311056859978,1.9223334022985388,2.2874860848605816,0.0685677646160855,0.173796859173131,0.0187306892832323,0.3726977280360832,-0.7026400214707403,-0.6433459566862791,-2.233532324740877,1.935749654557927,2.299203248663147,0.3892221967136978,-0.7743154856780841,-0.7677890408046475,0.5384690707661215,0.1432881539634584,-0.51547808653013,0.0608258778211245,10.974549617686534,-1.3296667193743612,0.0949906733123917,-1.0990790440079328
0.88,-2.218818677830157,1.908176317384513,2.274579133198806,0.0666388808796967,0.1757745474772893,0.0183343810926559,0.3765520910883656,-0.7125622658035983,-0.6476695413801719,-2.225857265224137,1.9206633448503256,2.2842474678530147,0.4001606384670853,-0.8143154862741305,-0.807789041400694,0.5744572041174917,0.1927181526141186,-0.4961122166428966,-0.2161792346946356,10.520477443066738,-1.3266238300744797,0.0962650304146163,-1.101822238165617
0.9,-2.211240650426014,1.8938291772904825,2.2615312213204275,0.0652121432340596,0.1786754418957213,0.0180417029438668,0.3812197363532539,-0.7217143848909926,-0.6568951195365684,-2.218182205707397,1.9055770351427244,2.269291687042882,0.4110990802204727,-0.854315486870177,-0.8477890419967404,0.6903975094618736,0.2333822632444138,-0.4576059543697164,-0.4612789078198287,10.189778636480696,-1.3224850735278286,0.0970478255687262,-1.1047985176399848
0.92,-2.203947057404684,1.8800373253030087,2.2489305940939426,0.0644351030832577,0.1817440040316275,0.0178305922822072,0.3863890260048358,-0.7296694765394959,-0.6690278430674803,-2.2099602241029874,1.8884907254053207,2.2523359062029478,0.4220375219738601,-0.8943154874662235,-0.8877890425927869,0.7700779488395662,0.258464482579096,-0.3977545824251638,-0.6066361765455941,9.938464920230215,-1.317535104905943,0.0973008836069775,-1.10767620023662
0.94,-2.1961544083641344,1.8653632190757925,2.235401168594087,0.0644744042197174,0.1849363700051763,0.0176732135766004,0.3926814290422984,-0.7373929294933298,-0.6833454014658158,-2.201738242498578,1.8714044156679173,2.235380125363013,0.4329759637272476,-0.93431548806227,-0.9277890431888334,0.8721217518295568,0.3146201518731323,-0.386172647691696,-0.7158779199167742,9.749847414284886,-1.3124663375736516,0.0967011614978201,-1.1098583461494818
0.96,-2.1882248504765838,1.8505270321,2.2215733949396377,0.065287057378362,0.1877767513446894,0.0175558377129173,0.4000004790794841,-0.7458567449311622,-0.6987530787677381,-2.193242799850334,1.8533181059156123,2.2174243445081765,0.443914405480635,-0.9743154886583164,-0.9677890437848796,0.952104491446039,0.3659525018592846,-0.4231907718916183,-0.7703838650961137,9.623115674469773,-1.3075893209419172,0.0953296317139927,-1.1113077551749513
0.98,-2.1801404113404823,1.8355138037635537,2.20742619555115,0.0664484741894498,0.1899735538739941,0.0174292682041748,0.4080476425385632,-0.7550109363118508,-0.7151846545719821,-2.1844738961582557,1.8342317961484067,2.198468563638439,0.4548528472340225,-1.0143154892543629,-1.007789044380926,1.0229280802945393,0.402358172953951,-0.4577095690344313,-0.8215787902122018,9.623115674469773,-1.30356660796308,0.0937029367838745,-1.1118016765116334
1.0,-2.172307121209532,1.8210748674623924,2.193672626164632,0.0675739551520522,0.1913412792200577,0.0172695252429668,0.4160521502384854,-0.7643675741518438,-0.7317226675157655,-2.159738029213554,1.7977632569479614,2.1716669628225507,0.4469242617285408,-0.8550109378019669,-0.8151846560620982,1.0309276008959731,0.4002253849961112,-0.4678318919996482,-0.8269006471891716,9.57658778575933,-1.30014329959873,0.0919549377028874,-1.1114265662801095
1.02,-2.1638591257202293,1.8056242900304915,2.179164611714236,0.0674504263812922,0.1928070787817275,0.0170181725633713,0.4287141423700709,-0.7800056065386984,-0.7165727642064207,-2.159738029213554,1.7977632569479614,2.1716669628225507,0.4469242617285408,-0.8550109378019669,-0.8151846560620982,1.259358638310734,0.6330996065792738,-0.7819016193427342,0.7574951654672424,9.528147864652963,-1.2960133197997694,0.0917820966569006,-1.101805709266381
1.04,-2.155149723777181,1.789877164350064,2.1649566931275053,0.0654340974037145,0.194869712829564,0.0166812875074588,0.4416669466099969,-0.7937617143257343,-0.70516375811129,-2.159738029213554,1.7977632569479614,2.1716669628225507,0.4469242617285408,-0.8550109378019669,-0.8151846560620982,1.1035975933340962,0.6476402119963004,-0.6878053893517921,0.5704503047565368,11.654269171608576,-1.2953374464824736,0.0932103432080502,-1.1076546992744805
1.06,-2.14663519014869,1.7746811154090074,2.1516011496138776,0.0624464058536885,0.1968209107555816,0.0162913589628364,0.4539623982620893,-0.8047820639090387,-0.7012149378838334,-2.155268786596269,1.7892131475699418,2.1635151162619297,0.4546995855665363,-0.8750109380999901,-0.8351846563601214,0.8488513083219457,0.6147725826046224,-0.5510174791652223,0.1974410113728286,11.166506634351208,-1.2937640389289322,0.0958799181905517,-1.1121301604682727
1.08,-2.137423101946195,1.7584880743239404,2.1375661188948483,0.0591526253568245,0.1984400786298914,0.0158502667029184,0.4665521015555476,-0.8138840047484187,-0.7027435080727407,-2.146330301361698,1.7721129288139024,2.147211423140688,0.4702502332425274,-0.9150109386960366,-0.8751846569561679,0.7805166283995886,0.629485164672916,-0.4550970419689992,-0.0764285094453642,10.730757940267722,-1.2919422856115597,0.0987402038614645,-1.1146024618376316
1.1,-2.127964301183943,1.7421286270969294,2.1234467559114933,0.0562104711192921,0.1994150787727071,0.0154050795537797,0.4786267495202094,-0.8216181101652725,-0.7093053835579336,-2.1373918161271277,1.755012710057863,2.130907730019446,0.4858008809185185,-0.955010939292083,-0.9151846575522145,0.7884664227991788,0.6037323982330867,-0.386705270842691,-0.3280937742596468,10.3848388153001,-1.2904683097496756,0.101260160862302,-1.1153713210670488
1.12,-2.118271391981461,1.7256256438325,2.1091486680550977,0.053795858826155,0.1996664276419385,0.0149678335499996,0.4899805444206287,-0.8284050834901198,-0.7201426574344754,-2.127675798508757,1.7359124912720212,2.1126040368684014,0.5013515285945095,-0.9950109398881294,-0.9551846581482608,0.8550119452793504,0.5676897450209689,-0.3393486662423617,-0.5418636938270882,9.880422025258667,-1.2895651486403106,0.1031660669421483,-1.1145905272231722
1.14,-2.1088575232146463,1.7098281591480655,2.0953460207178383,0.0520416597946242,0.1992761320341681,0.0145685154688575,0.5003216604332833,-0.8342730265987423,-0.7322087888638155,-2.1179597808903865,1.7168122724861796,2.0943003437173573,0.5169021762705006,-1.035010940484176,-0.9951846587443074,0.8469990619583339,0.5170558006327264,-0.2933971554311243,-0.603306571467005,9.880422025258667,-1.2890711206843737,0.1046096910379436,-1.1120935833621814
1.16,-2.0987384704386525,1.6930750736741218,2.080553938398216,0.0505431418266526,0.19816850485502,0.0141496645343428,0.5109902210172999,-0.8406932114220907,-0.7464161086023394,-2.1078549970801164,1.6967120536854368,2.074996650551412,0.5324528239464916,-1.0750109410802222,-1.0351846593403538,0.944569865406258,0.5334280292008275,-0.3210092411674248,-0.710365986926198,9.69077226860827,-1.2890586446024643,0.1056734373005628,-1.1084519612247694
1.18,-2.0884074390780016,1.6761936495526442,2.065460913369664,0.0491343556666429,0.1961174119496914,0.0137040971341696,0.5214965093908953,-0.8470602697629916,-0.7621408411772835,-2.0973614470779465,1.6756118348697928,2.054692957370565,0.5480034716224828,-1.1150109416762686,-1.0751846599364,0.9977333584920012,0.5253144186797731,-0.318352917045045,-0.7862366287472056,9.69077226860827,-1.2895889324614669,0.106578488027402,-1.1035746905200516
1.2,-2.078401928116055,1.6600401338046824,2.0508176704425347,0.0477678492382606,0.1930721505890483,0.0132401979022198,0.5310933083627342,-0.8529245145412699,-0.7784327455526341,-2.062332613608457,1.6338406360644946,2.0273538713108,0.568468262630527,-0.9470602712531078,-0.8397185066254723,0.9898409790226634,0.4798399485919424,-0.2932122389139147,-0.8145952187675276,9.522983613890574,-1.2912890106998456,0.107550480020457,-1.0969072221232463
1.22,-2.067633503847192,1.6428772263107354,2.0354526537450672,0.0454963422978067,0.1895199295644007,0.0126962989331252,0.5453168176137764,-0.8626577642972,-0.7551533174701143,-2.062332613608457,1.6338406360644946,2.0273538713108,0.568468262630527,-0.9470602712531078,-0.8397185066254723,1.4482542405211591,0.7111754625521105,-0.486662487796502,1.1639714041259908,9.522983613890574,-1.292892926364374,0.1094395550626472,-1.079009763854074
1.24,-2.0565958490034357,1.625549208132084,2.0205677753410787,0.0426445620104382,0.1868931797854918,0.0121790124399526,0.5575462876912504,-0.8695473618802825,-0.735108918458235,-2.062332613608457,1.6338406360644946,2.0273538713108,0.568468262630527,-0.9470602712531078,-0.8397185066254723,1.22352403427566,0.6114735038736996,-0.3444798791541248,1.0022199505939633,12.196052910313483,-1.2990565004242476,0.1120616000484243,-1.0808218050423473
1.26,-2.04533582080425,1.6081042612344971,2.005989562770188,0.0401047868742027,0.1851597354410838,0.0117449811837347,0.5678131048375911,-0.874690997645891,-0.7236703137903253,-2.056647930982152,1.6243700333519635,2.0189566862445454,0.5778626132784533,-0.967060271551131,-0.85523403971511,0.8104106982795325,0.513340857317035,-0.257181788280425,0.5719302333954845,11.10213591556203,-1.3027526848096311,0.1142490311563226,-1.08205326690394
1.28,-2.034458997440871,1.5914468967369046,1.9922891174895416,0.038231340676204,0.1840959072402857,0.0114120601459744,0.5766239448474694,-0.8786025389126962,-0.7190392786133282,-2.045278565729541,1.6054288279269011,2.002162316112036,0.596651314574306,-1.0070602721471775,-0.8862651058943856,0.5347371867847276,0.4405420004939153,-0.1955770633402631,0.2315517588498572,11.10213591556203,-1.3049270036819705,0.1159841544777721,-1.0828453660026915
1.3,-2.0228360761601523,1.5738412058741302,1.977912461771843,0.0369858050447604,0.1832500718659304,0.0111392113119041,0.5851602370241773,-0.8818187152465209,-0.7190821981116735,-2.0339092004769306,1.5864876225018392,1.9853679459795264,0.6154400158701586,-1.047060272743224,-0.9172961720736612,0.456108310655805,0.4268146088353963,-0.1608088166912324,-0.0021459749172669,10.709348990608303,-1.3063302218655517,0.1169938242279676,-1.0829329807172776
1.32,-2.011049731267153,1.5561799424817342,1.9634902550683195,0.0367881592391249,0.1824817130260746,0.0109564433817434,0.5930004542911835,-0.8842371701773838,-0.7232931703652093,-2.021600400159528,1.5655464170469746,1.9670220225380532,0.6342287171660113,-1.0870602733392702,-0.9483272382529366,0.461113376423105,0.3920108633503116,-0.120922746543145,-0.2105486126767919,10.411792162764868,-1.3071985469078389,0.1169734064827906,-1.0824055534630224
1.34,-1.999110685044749,1.538476892496324,1.9489627603064672,0.0379897587833273,0.1816690439345684,0.0108802549807339,0.6004809296437802,-0.8861605140941162,-0.7292238702394778,-2.009291599842125,1.54460521159211,1.94867609909658,0.653017418461864,-1.1270602739353168,-0.9793583044322122,0.4869033895997368,0.374023767629833,-0.0961671958366217,-0.2965349937134209,10.097677941163056,-1.307672001886667,0.1156807605607729,-1.0810774436350072
1.36,-1.9876296996827691,1.5216133772940872,1.9350423731126776,0.0403246343761032,0.1807174410370918,0.0108899142520765,0.6076173545911332,-0.8889894040230697,-0.7357741391045125,-1.996513081992325,1.5226640061223444,1.929554399000625,0.6718061197577166,-1.1670602745313632,-1.0103893706114877,0.5045720995645224,0.3568212473676502,-0.1414444964476735,-0.3275134432517368,10.097677941163056,-1.3081034648364038,0.1130846918558133,-1.079270968439431
1.38,-1.9753994758101563,1.503784152926338,1.92024499983741,0.0433589708453152,0.1793454327617744,0.0109269448767916,0.6149858115305001,-0.8939426394479104,-0.7436576442661702,-1.9832648466101293,1.4997228006376777,1.909656922250188,0.6905948210535693,-1.2070602751274095,-1.0414204367907631,0.5936715263407144,0.368422846968347,-0.2476617712420359,-0.394175258082885,10.044212572829563,-1.3092090251949149,0.1099292295427135,-1.0768002924441908
1.4,-1.963022930867405,1.4858386339135674,1.9052787776120688,0.0461894701671867,0.1773862770991611,0.0109230889131653,0.622227349345172,-0.9003127594382875,-0.7525473649834376,-1.9446501852336315,1.4590870209539426,1.8830621176241016,0.6543043842603261,-0.9939426409380264,-0.7852272497358739,0.6558304526402692,0.3620768907335925,-0.3185059995188533,-0.4444860358633673,9.933353618020192,-1.310747833797215,0.1069753761009132,-1.0732351369566442
1.42,-1.9504134222827256,1.4676823054029564,1.8905115663917624,0.0466848874959786,0.1740167003450895,0.010691002266913,0.6386369727933667,-0.9144882623551034,-0.7216887178940808,-1.9446501852336315,1.4590870209539426,1.8830621176241016,0.6543043842603261,-0.9939426409380264,-0.7852272497358739,1.885786788612158,0.8204811724097372,-0.7087751458407954,1.5429323544678353,9.933353618020192,-1.3062665134489184,0.1059293974032477,-1.056802108263543
1.44,-1.938129586625064,1.4501890915245594,1.8770720232841596,0.0440547704320813,0.1685700662601991,0.0101670247503258,0.6531134541370829,-0.9258072899917326,-0.6946982800980104,-1.9446501852336315,1.4590870209539426,1.8830621176241016,0.6543043842603261,-0.9939426409380264,-0.7852272497358739,1.6326149508972454,0.7238240671858076,-0.5659513818314588,1.3495218898035233,12.692819080691152,-1.316773813099499,0.1085115927921465,-1.0554406196334951
1.46,-1.9249463124414177,1.4315882164699567,1.8634099908497563,0.0397141918221413,0.1609171652925514,0.0094653847818948,0.6639579416192445,-0.9333167274472346,-0.673193390331991,-1.938107141391028,1.4491475945445624,1.875209845126743,0.6621680988062913,-1.0139426412360495,-0.7935411708298146,1.2614028336513894,0.5422243741080801,-0.3754718727751016,1.0752444883009693,12.174198275188246,-1.3297955088256226,0.1127214763485788,-1.0503482265568531
1.48,-1.9115963486021896,1.4128728686093237,1.850097728916298,0.0354350896992404,0.1522028499774065,0.0087848212898911,0.6701365227836992,-0.937871550479818,-0.659026711599514,-1.9250210537058217,1.429268741725802,1.8595053001320252,0.6778955278982217,-1.0539426418320963,-0.8101690130176961,0.8056302879936951,0.3089290582227344,-0.2277411516291627,0.7083339366238506,11.661885743791572,-1.342222380348731,0.116806158059468,-1.0418584551901922
1.5,-1.898168679350624,1.3940856563610875,1.8370068259250312,0.0318260117402667,0.1432558555202855,0.0082007015065668,0.672059839340435,-0.9407736510664432,-0.6507269293858352,-1.911934966020615,1.4093898889070413,1.843800755137308,0.6936229569901521,-1.0939426424281429,-0.8267968552055776,0.4500214416747359,0.0961658278367916,-0.1451050293312605,0.4149891106839387,11.201810276236756,-1.3531030966491542,0.1200546826001869,-1.031960312478003
1.52,-1.885412959468126,1.3761944483673718,1.8246781019503515,0.0292012076604168,0.1351772109891615,0.0077607651474385,0.6704137489190883,-0.9425643164698548,-0.6474193244016929,-1.898062506880812,1.3875110360584784,1.8272648180331963,0.7093503860820825,-1.133942643024189,-0.843424697393459,0.2052824090938359,-0.0823045210673334,-0.0895332701705831,0.1653802492071143,10.831381957030317,-1.363222421276803,0.1226600298835666,-1.0210195686777634
1.54,-1.872048450463731,1.3573313207715652,1.811746747145223,0.0273502104318318,0.1276187675343303,0.0074252793173484,0.6659792471441316,-0.9438037588787316,-0.6459639609466953,-1.884190047741009,1.3656321832099156,1.810728880929085,0.7250778151740129,-1.1739426436202356,-0.8600525395813405,0.2414493024589201,-0.2217250887478372,-0.0619721204438428,0.0727681727498819,10.53721868977209,-1.3715316505133983,0.1243706782650211,-1.0106244394731096
1.56,-1.858795618360341,1.338439576018129,1.798826776882,0.0262365023051195,0.1213539963233083,0.0072028550293294,0.6593882122500138,-0.945324457002045,-0.6461602329537968,-1.8699244028739077,1.3427533303464516,1.7937772477702765,0.7408052442659433,-1.213942644216282,-0.8766803817692219,0.3383518378053367,-0.3295517447058915,-0.0760349061656728,-0.0098136003550741,10.41230156666552,-1.3780032289918205,0.1253993901553219,-1.001518938901461
1.58,-1.8456979306546792,1.319518264950411,1.7858868939069052,0.0256569129563159,0.1167804603271495,0.0070810614863247,0.6506424576683113,-0.9467502874743974,-0.647801064097068,-1.855265572279508,1.3188744774680865,1.7764099185567706,0.7565326733578737,-1.2539426448123283,-0.8933082239571034,0.4505927833975668,-0.4372877290851229,-0.071291523617617,-0.0820415571635591,10.314539826456894,-1.3824455555744968,0.1259432060125445,-0.99470214206609
1.6,-1.833435218704209,1.3015174377128074,1.7735525428389465,0.0255730171759241,0.114502915655883,0.0070640942228181,0.6406024014935829,-0.9480233051197314,-0.6504629786533073,-1.813165807771264,1.272180750576691,1.753496840702052,0.7047202282292911,-1.0467502889645135,-0.6568891696191641,0.5232329572517191,-0.5020028087364181,-0.0636508822667025,-0.133095727811966,10.235653896253098,-1.3846505203180517,0.1260831885982995,-0.9904554627284992
1.62,-1.8207229138225327,1.2824948256360509,1.76081566501069,0.0246806905558737,0.1152689922085134,0.0070826707754516,0.6317317505094786,-0.95389756026467,-0.6215058969189368,-1.813165807771264,1.272180750576691,1.753496840702052,0.7047202282292911,-1.0467502889645135,-0.6568891696191641,1.542488172532162,-0.4435325492052167,-0.2937127572469333,1.4478540867185252,12.3534577790424,-1.3813519927070452,0.1267874534981117,-0.98539845234053
1.64,-1.8081640956670624,1.2633753657205715,1.7486733555820406,0.0224344768241007,0.1191648991553374,0.0070936695529966,0.6250201827257867,-0.9575199768889956,-0.5943756838693609,-1.813165807771264,1.272180750576691,1.753496840702052,0.7047202282292911,-1.0467502889645135,-0.6568891696191641,1.409091466540282,-0.3355783891845931,-0.1811208312162804,1.3565106524787929,12.3534577790424,-1.3804597555146276,0.1289889608322912,-0.9972030254074606
1.66,-1.7963368028273967,1.2451722369125473,1.7375910528384038,0.0202551432478259,0.1246660294958483,0.0071445073672843,0.6206146816324448,-0.9585251091717868,-0.5735593937600215,-1.8061186054889704,1.261713247687046,1.7469279490058602,0.7155357823414871,-1.066750289262537,-0.6587067907235833,1.0650547693728316,-0.2202750546670961,-0.0502566141395488,1.0408145054669693,11.968044940244,-1.377237363420149,0.1314207793583295,-1.0115270598354924
1.68,-1.7839539097436818,1.2260058396423388,1.7263137012450431,0.0186794604427692,0.1314691767154907,0.0072700558894586,0.6181857646091599,-0.9581915462494538,-0.555462645871444,-1.792024200924385,1.2407782419077558,1.733790165613477,0.737166890565879,-1.1067502898585833,-0.6623420329324218,0.9131034802692044,-0.121445851164248,0.0166781461166443,0.9048373944288756,11.634755636004227,-1.3718315065222375,0.1331774018945432,-1.0258234211601267
1.7,-1.7715958179602755,1.2068566815822777,1.7153636047642349,0.018280153989445,0.1386049025593058,0.0074892232360512,0.6179709571550348,-0.9568647054976888,-0.5406015865989359,-1.777929796359799,1.2198432361284657,1.7206523822210935,0.758797998790271,-1.1467502904546296,-0.6659772751412603,0.746086005973662,-0.0107403727062527,0.0663420375882573,0.7430529636254068,11.400245947416806,-1.365549901551993,0.1338539838419955,-1.039773421256387
1.72,-1.759219715503188,1.187743447821942,1.704683064757295,0.0195544608440093,0.1454998539839145,0.0078339509615683,0.6198109305708215,-0.9548076170675792,-0.5282196877769658,-1.7627538363839936,1.1969082303193728,1.7073328367182683,0.780429107014663,-1.186750291050676,-0.6696125173500987,0.634288052499799,0.0919986707893338,0.1028544215054716,0.6190949410985025,11.222166085349272,-1.3595929930580586,0.1330453467108198,-1.052316722819861
1.74,-1.7474082077882347,1.1696231345875276,1.694762227850801,0.0225849675613158,0.1514379511599823,0.0082969989089954,0.6234933424001874,-0.9532400785557326,-0.5167282503060074,-1.7475778764081882,1.1739732245102803,1.6940132912154433,0.8020602152390549,-1.2267502916467226,-0.6732477595589372,0.6084210487321314,0.1841205914682953,0.0783769255923327,0.5745718735479188,11.101193026283,-1.3537484854902777,0.130355442897632,-1.0643147010552227
1.76,-1.734879498493325,1.1505450643159971,1.6845551099353242,0.0267253029507138,0.1566971237839013,0.0088542351123953,0.6292529190493702,-0.954864582935419,-0.5046011266622404,-1.731861138726773,1.1500382186862863,1.6806028646573972,0.8236913234634468,-1.266750292242769,-0.6768830017677756,0.6761635629206976,0.2879788324591403,-0.081225218984321,0.6063561821883501,11.107427204946362,-1.3487460398029778,0.1266487466942149,-1.0746957754007336
1.78,-1.7222180981892323,1.1314103028203375,1.6745903353172948,0.0307264010548016,0.1606098561811149,0.009387694268401,0.6365267643156365,-0.958524001602548,-0.4924994095349292,-1.715603623339748,1.1251032128473917,1.66710155704413,0.8453224316878387,-1.3067502928388153,-0.6805182439766141,0.7293005679559953,0.3636922633133144,-0.1829709333564522,0.6050858563655614,11.132944842566758,-1.3451673251505765,0.123032752218408,-1.082884735569606
1.8,-1.7094028040503622,1.1121890324793269,1.6648646836392298,0.0341941569753508,0.163068094659802,0.0098530107595027,0.6445786158645993,-0.9633797199393986,-0.4806828301346429,-1.6903917599734508,1.0834841027402102,1.6499653648405483,0.6999315032186821,-1.058524003092664,-0.4980618011327068,0.7550527508999476,0.4025925774481409,-0.2427859168425306,0.5908289700143121,11.14936327315263,-1.3430654299022604,0.1200373619901386,-1.088496952991193
1.82,-1.6970333959320132,1.0937528194734738,1.6559852152316323,0.0344999391005046,0.1635164155816221,0.0100284971297567,0.6568330276470553,-0.9758049985539649,-0.4545445295894692,-1.6903917599734508,1.0834841027402102,1.6499653648405483,0.6999315032186821,-1.058524003092664,-0.4980618011327068,1.5714395567229298,0.6127205891228005,-0.6212639307283108,1.3069150272586871,12.247984913653454,-1.33934173600754,0.1196085808283506,-1.0886533824531583
1.84,-1.6837713369866545,1.0741408883849786,1.6471621550094735,0.0312194431854256,0.161683818276286,0.0098940410198836,0.6685283732844761,-0.9841961525939074,-0.4293169646802072,-1.6903917599734508,1.0834841027402102,1.6499653648405483,0.6999315032186821,-1.058524003092664,-0.4980618011327068,1.452259108210214,0.5847672818710403,-0.4195577019971253,1.2613782454631015,12.247984913653454,-1.3442347916402235,0.123239645846478,-1.090747956935706
1.86,-1.670294646675743,1.0544148849970922,1.638798761044188,0.0267805607088196,0.1577722295451674,0.0096407759344472,0.6783401691520292,-0.9878083680569664,-0.4084529574256542,-1.683392444941264,1.0728988627092837,1.6449847468292214,0.7126124509992913,-1.078524003390687,-0.4991742794522623,1.1668614285939611,0.4905897933776548,-0.180610773152956,1.0432003627276505,11.992984734770287,-1.3508298073688032,0.127793351493645,-1.0897382045939787
1.88,-1.657335267721696,1.0356383295526896,1.6311968842974016,0.0230259373944059,0.1524439897541261,0.0094231732797183,0.6849817483138962,-0.9886765874207902,-0.3927386177164096,-1.6693938148768903,1.0517283826474304,1.6350235108065672,0.7379743465605095,-1.118524003986734,-0.5013992360913734,0.8541148212105408,0.3320789580933514,-0.0434109681911876,0.7857169854622287,11.415607184878354,-1.360047563839761,0.1321782384825881,-1.0851675908919935
1.9,-1.643595529088247,1.0158699403040583,1.6234862768902685,0.0200840633885444,0.1460434504990559,0.0092817732061009,0.6883553526761295,-0.9883163380841496,-0.3792755003318244,-1.6553951848125168,1.0305579025855771,1.625062274783913,0.7633362421217278,-1.1585240045827805,-0.5036241927304844,0.6942019081084196,0.1686802181116609,0.0180124668320291,0.6731558692292583,11.415607184878354,-1.3692095370884734,0.135497722645698,-1.078412009837496
1.92,-1.629824811120076,0.9961181374904748,1.6160109916437402,0.018376363930176,0.1397782833350919,0.009257108485441,0.6884261960699121,-0.9871863044159106,-0.3689015626859985,-1.6401284599700825,1.0073874224939214,1.6149897909293032,0.788698137682946,-1.1985240051788266,-0.5058491493695955,0.5217771966013849,0.0035421696891302,0.0565016834119525,0.5186968822912946,11.017501645851551,-1.3772847915332538,0.1375128515094121,-1.0718198772898568
1.94,-1.6167683434934788,0.9773812574421278,1.6090860388422026,0.0180364520113068,0.1346337606077325,0.0093531188646733,0.6858279705544321,-0.98540132804415,-0.360547682812385,-1.6248617351276478,0.984216942402266,1.6049173070746936,0.8140600332441643,-1.2385240057748732,-0.5080741060087065,0.4464421166842349,-0.1299112757739973,0.0892488185880335,0.4176939936806761,11.017501645851551,-1.3846078120683851,0.1383336824999613,-1.0652778053766672
1.96,-1.6031007394274777,0.9576897694324216,1.6019585221889507,0.0190609833577317,0.1307530618827301,0.0095831164528208,0.6809293644972793,-0.9839512019110253,-0.3526812652644939,-1.6089609628961827,0.9600464622957092,1.594789199304106,0.8394219288053826,-1.2785240063709196,-0.5102990626478175,0.468987558851287,-0.2449303028576432,0.0725063066562392,0.3933208773945568,10.922445690209315,-1.3898940926473455,0.1377797840757726,-1.0609832895590596
1.98,-1.5895499667767077,0.9380207664508632,1.594980611143244,0.0213284197284696,0.1290565990777574,0.0099404148956064,0.6744554122968035,-0.983137487199527,-0.345537753090119,-1.5924261432756874,0.9348759821742512,1.5846054676175407,0.8647838243666008,-1.318524006966966,-0.5125240192869286,0.4837456845058033,-0.3236976100237876,0.0406857355749079,0.3571756087187433,10.866096394659507,-1.3922606571490024,0.1360177344557328,-1.0602962785643124
2.0,-1.576124843250319,0.9183498945482,1.588140531944911,0.0243701208669274,0.129534792015701,0.0103973797606012,0.6686463416741181,-0.9842220973805564,-0.3388440356948658,-1.5558271961618673,0.8888638920908867,1.577703723488738,0.7355955286009627,-1.0831374886896432,-0.3484014533589091,0.446451378404342,-0.2904535311342715,-0.0542305090514672,0.3346858697626603,10.821277212116913,-1.3917725834981614,0.1336122543685198,-1.0629902559142843
2.02,-1.5634284398286276,0.8995660424557251,1.5819056581970636,0.025409208244311,0.1308114383701104,0.0107249289864302,0.6680979387039336,-0.9920330724694636,-0.3177835079172281,-1.5558271961618673,0.8888638920908867,1.577703723488738,0.7355955286009627,-1.0831374886896432,-0.3484014533589091,1.1234521662379373,-0.0274201485092218,-0.3905487544453578,1.0530263888818865,10.796449277523609,-1.387751829045526,0.1326627575160332,-1.0646187010978436
2.04,-1.550073411897571,0.8796707336509069,1.5757674219915576,0.0241254745743123,0.1322271613923762,0.0109105986457533,0.6674550262951998,-0.996955251908618,-0.2973292592137159,-1.5558271961618673,0.8888638920908867,1.577703723488738,0.7355955286009627,-1.0831374886896432,-0.3484014533589091,1.0523990175091251,-0.032145620436691,-0.2461089719577203,1.02271243517561,11.8185355102396,-1.3883061949521278,0.1344219019303616,-1.0702452555963855
2.06,-1.5367337265627676,0.8596996841773277,1.570000004140485,0.0217683570084038,0.1337823817720266,0.0110297426708768,0.6666163762606194,-0.9998591427044856,-0.2804322356478758,-1.5484712408758576,0.8780325172039902,1.5742197089551488,0.7478235518617945,-1.1031374889876664,-0.3489741934126671,0.8582617913832883,-0.0419325017290195,-0.1451945397933807,0.8448511782920026,11.634211702171342,-1.3887517169890564,0.1370890950626451,-1.0752087612355206
2.08,-1.5234117788804056,0.8396968155674581,1.564538977134397,0.0193467702848682,0.1354691063537066,0.0111519594946839,0.665694209959372,-1.0003739897928694,-0.2665232869479909,-1.5337593303038384,0.8563697674301974,1.5672516798879703,0.7722795983834582,-1.143137489583713,-0.3501196735201832,0.6974494823060757,-0.0461083150623709,-0.0257423544191948,0.695447434994248,11.419901724360898,-1.3886200620339748,0.1399942762493974,-1.0800866519736787
2.1,-1.5107727971368603,0.8207001383386223,1.5595849437622544,0.0177651747894388,0.1371865328466012,0.0113245423837221,0.6648396455500831,-0.9994827305063704,-0.2556595271353974,-1.5190474197318191,0.8347070176564045,1.5602836508207925,0.7967356449051218,-1.183137490179759,-0.3512651536276993,0.5466852401316383,-0.0427282204644441,0.0445629643249512,0.5431879906296733,11.239483623286104,-1.388027865347212,0.1421758676209339,-1.0849843392099638
2.12,-1.4974844851666786,0.8007315637031045,1.5545756930056482,0.0172859550388409,0.1391070263963005,0.0115951385282843,0.6640968398541056,-0.9975549312703974,-0.2459214370297206,-1.503112706833717,0.8110442678528094,1.5532583477482385,0.8211916914267855,-1.2231374907758057,-0.3524106337352153,0.4977413211259316,-0.0371402847988755,0.0963899617986485,0.4869045052838402,11.094937099375784,-1.38710668152662,0.1431705623618395,-1.089808140730672
2.14,-1.4842072531012274,0.780810507961184,1.5497514372029124,0.0185427698439688,0.1411161366035174,0.0119928218352101,0.6637408923564808,-0.994939532157309,-0.2370005581596751,-1.4871779939356142,0.7873815180492141,1.5462330446756845,0.8456477379484492,-1.2631374913718525,-0.3535561138427314,0.4651588195332649,-0.0177973748812398,0.1307699556544195,0.4460439435022723,10.960884761672787,-1.3858198019373813,0.142443770697941,-1.0947824426487127
2.16,-1.470928353430862,0.7609296225255465,1.54510231202994,0.0214631936571234,0.1430467219064443,0.012509589298752,0.6642024015793594,-0.9936267895403168,-0.2283729369603184,-1.4706318798744702,0.7627187682307178,1.5391791046004426,0.8701037844701128,-1.3031374919678986,-0.3547015939502474,0.4369557514807977,0.0230754611439287,0.0656371308496162,0.4313810599678364,10.960884761672787,-1.3842618839100536,0.1401844559253936,-1.09982794381774
2.18,-1.4582977616192676,0.7420402488343939,1.540844749656262,0.0248652500215943,0.1446112414235544,0.0130418278212488,0.6653108067626812,-0.9949131826238906,-0.2202323925216316,-1.4534743646502846,0.7370560183973204,1.532096527522513,0.8945598309917765,-1.343137492563945,-0.3558470740577635,0.4157879055904455,0.055420259166089,-0.0643196541786961,0.407027221934339,10.950579222011584,-1.382820049540111,0.1370914581280365,-1.1043696818226705
2.2,-1.444974880358355,0.7221122917291476,1.5365299691670062,0.0282447487540027,0.1458629182644085,0.0135796260675034,0.6669186962032779,-0.9978239497842598,-0.2116765360411066,-1.4250322212811335,0.6922945897031993,1.5298331300301804,0.7395656250233509,-1.071556806035546,-0.2056719519664167,0.4589677386004601,0.0803944720298377,-0.1455383580184599,0.4277928240262504,10.956503890879503,-1.381969738242196,0.1341771845546036,-1.1080613088346616
2.22,-1.431580000303562,0.701965297260161,1.5325273772109138,0.0264146665055967,0.1462855548099752,0.0137319857343478,0.6725084672996939,-1.015127590740052,-0.188184523677492,-1.4250322212811335,0.6922945897031993,1.5298331300301804,0.7395656250233509,-1.071556806035546,-0.2056719519664167,1.485375521652281,0.2794885548208004,-0.8651820477896033,1.174600618180731,10.963536027016744,-1.3765707551698088,0.1360827455675463,-1.106002377078912
2.24,-1.41808073910563,0.6815802234120708,1.5290059881830496,0.0186116358960975,0.1457298105209244,0.0134553631171087,0.676993796276682,-1.0213661454753755,-0.1651775652805797,-1.4250322212811335,0.6922945897031993,1.5298331300301804,0.7395656250233509,-1.071556806035546,-0.2056719519664167,1.2128044730032694,0.2242664488494028,-0.3119277367661932,1.1503479198456166,11.86137344679446,-1.3814171955652752,0.1441703901053283,-1.1077183734591716
2.26,-1.4051906547368938,0.6621795657595526,1.5260493688743764,0.0105324052813854,0.1447799173269269,0.0131615070174432,0.6795844608278903,-1.020490346515312,-0.147197634174705,-1.4176365650309,0.6815790216428439,1.5277764105105165,0.7544165886754848,-1.086885530717877,-0.2027598638553737,0.9093355942765772,0.1295332275604133,0.0437899480031811,0.8989965552937323,11.584862985379914,-1.3860472348361248,0.1534659182857209,-1.1097534655782266
2.28,-1.3915846454147702,0.6418172594396868,1.523272029020719,0.0031598421941854,0.1437679271717412,0.0129576028741248,0.680828816889596,-1.0159509051351223,-0.1316434461204215,-1.402845252530433,0.660147885522133,1.5236629714711878,0.7841185159797527,-1.1175429800825394,-0.1969356876332878,0.812538793043902,0.0622178030852849,0.2269720690094789,0.7777094027141745,11.584862985379914,-1.389428189244764,0.1615994848493014,-1.1113074051622056
2.3000000000000003,-1.377967286505129,0.6215706140796083,1.520770108140769,-0.0023769205128264,0.1430961500129709,0.0129054657437432,0.6808959115075842,-1.009404300162357,-0.1193250693835753,-1.3880539400299658,0.6387167494014221,1.5195495324318595,0.8138204432840206,-1.1482004294472017,-0.1911115114112019,0.6975043795347726,0.003354730899413,0.3273302486382801,0.6159188368423086,11.368392273380778,-1.391321916968351,0.1676032089252983,-1.113285182641405
2.32,-1.36503644616946,0.6024670964194202,1.5186010541204698,-0.0059204147988932,0.1429565046883324,0.0129893974356415,0.6803168215355792,-1.0022687330144848,-0.109617230153829,-1.3717775311642857,0.6157527408124781,1.5157273022036355,0.8435223705882885,-1.1788578788118635,-0.1852873351891159,0.6031040669487961,-0.0289544986002532,0.3567783573936056,0.4853919614873185,11.187298146794092,-1.392519629131584,0.172141297597909,-1.1158756682733626
2.34,-1.351438453274049,0.5825069587991065,1.5165106618330524,-0.0080080511108402,0.1434162131054395,0.0131989768722727,0.6795842693095951,-0.994415645283172,-0.0999589616526991,-1.355501122298605,0.592788732223534,1.5119050719754117,0.8732242978925564,-1.209515328176526,-0.1794631589670299,0.6234776862875828,-0.0366276112992003,0.3926543865656384,0.4829134250564942,11.06801452390755,-1.3928881704593223,0.1749773698129943,-1.1191435410471533
2.36,-1.337849816901338,0.5627010984775576,1.5146100553666504,-0.0086614422265629,0.1443766827061066,0.0135117217451037,0.6793863031619448,-0.986683703472599,-0.0906027480263066,-1.338482165250318,0.5690582874004735,1.5082284461527395,0.9029262251968242,-1.240172777541188,-0.173638982744944,0.606961382998116,-0.0098983073825165,0.3865970905286509,0.467810681319622,11.043266434829093,-1.392562552953668,0.176378866462988,-1.1234247550848964
2.38,-1.3242585422316937,0.5430520488794066,1.5128956697439184,-0.0079044693610869,0.1455673257599507,0.0139261545029515,0.6798003994365732,-0.9787999327625304,-0.0813134950639359,-1.320720660019424,0.5445614063432963,1.50469742473562,0.932628152501092,-1.2708302269058502,-0.167814806522858,0.6095398611504284,0.0207048137314203,0.3941885355034369,0.4644626481185396,11.031912027407088,-1.392017931181023,0.1763896565192332,-1.1279827574346215
2.4,-1.3113334011589242,0.5245292228725057,1.5114399222779142,-0.0058413749320415,0.1467111700513917,0.0144172285006593,0.6807416175496478,-0.9715367888514864,-0.0723945813129348,-1.290268522259865,0.4941120522412801,1.5088299949907216,0.7597189851542513,-0.9991758960629968,-0.0783159488400123,0.5770315708579298,0.0470609056537285,0.3631571955521884,0.445945687550054,11.046926083731703,-1.391417136037039,0.17495704512274,-1.133038751335152
2.42,-1.2976822967678256,0.5049515566729301,1.510119487721346,-0.0094348197409593,0.1473609885730535,0.0145403984795573,0.6842497975843287,-0.9840699965067,-0.0599563005136193,-1.290268522259865,0.4941120522412801,1.5088299949907216,0.7597189851542513,-0.9991758960629968,-0.0783159488400123,0.900138115134364,0.1754090017340448,-0.6266603827606798,0.6219140399657735,11.268894294701568,-1.3895194926492973,0.1792311338929473,-1.1352710122265697
2.44,-1.2839734749942449,0.4852725285957571,1.5090411504632937,-0.0201101351182573,0.1473035324863402,0.0141942080407203,0.6863628756328676,-0.982058528792326,-0.0485939639899241,-1.290268522259865,0.4941120522412801,1.5088299949907216,0.7597189851542513,-0.9991758960629968,-0.0783159488400123,0.5865445261932045,0.1056539024269442,0.1005733857187107,0.5681168261847592,11.268894294701568,-1.391018378928852,0.1909797791653535,-1.134811445785927
2.46,-1.270238204750627,0.4657374780581885,1.5081559780733138,-0.0314878600416204,0.1471475432285303,0.0138289217732165,0.6870765488653975,-0.9715086304763368,-0.0405033776032718,-1.2826713324083223,0.4841202932806501,1.5080468355023215,0.7757027022977869,-1.00325108872309,-0.0777164395952276,0.6657087802493352,0.0356836616264955,0.5274949157994535,0.4045293193326176,11.150156577613416,-1.392320172052833,0.2029887523036399,-1.135793777162072
2.48,-1.257186817890122,0.447423062032173,1.5074379857808684,-0.0408384404078679,0.1472532131674938,0.0136010475940063,0.6867831736624058,-0.9572314737441528,-0.0354785721821169,-1.2674769527052376,0.4641367753593902,1.5064805165255213,0.8076701365848581,-1.0114014740432768,-0.0765174211056581,0.7569213018629279,-0.0146687601495831,0.7138578366092052,0.2512402710577444,10.96207164021598,-1.3933928776863214,0.2141671537054196,-1.1371231594744269
2.5,-1.2434600960601931,0.4284605932454016,1.5067672809370634,-0.0485426781355185,0.1478697946365101,0.0135106600635376,0.6859669031534009,-0.9400878691032384,-0.0319264229788904,-1.2522825730021525,0.4441532574381302,1.504914197548721,0.8396375708719294,-1.0195518593634634,-0.0753184026160887,0.8763378937228455,-0.040813525450245,0.8571802320457234,0.1776074601613213,10.813045205247365,-1.3936378214977756,0.2231281268317215,-1.1393080647229412
2.52,-1.2297517230859882,0.4098579518110195,1.5061537471456985,-0.0539302615141652,0.1491313591328051,0.0135658697427314,0.6850520145657771,-0.9216111840325611,-0.0295926649448972,-1.235489821584714,0.4237622202508609,1.5034078294963993,0.8716050051590006,-1.02770224468365,-0.0741193841265193,0.9322973491461444,-0.0457444293811892,0.9238342535338506,0.1166879016996629,10.670283525229024,-1.3929562020034625,0.2297162581644138,-1.1424069936279184
2.54,-1.2160577742607357,0.3916301036571887,1.5055835868279408,-0.0572676870671742,0.1510095370250087,0.0137418494283295,0.6845345014505637,-0.9026368841790838,-0.0275329084159183,-1.2186970701672757,0.4033711830635916,1.5019014614440775,0.9035724394460718,-1.0358526300038366,-0.0729203656369499,0.9546392927603106,-0.0258756557606709,0.9487149926738714,0.1029878264489421,10.670283525229024,-1.391588129487528,0.2340309525924637,-1.146452416430508
2.56,-1.2030478812600491,0.3746653213092035,1.5050814912186727,-0.0588388266886496,0.1531465170061459,0.0140092334542552,0.6850372300627263,-0.8844228724538147,-0.0254201040594629,-1.20110513289266,0.3827763862433178,1.5004250688539948,0.9355398737331432,-1.0440030153240232,-0.0717213471473804,0.9171517069634476,0.0251364306081303,0.9107005862634576,0.1056402178227723,10.666022522427738,-1.3899305784548046,0.2369026096838831,-1.1517638246655624
2.58,-1.1893327467499455,0.3571828867052498,1.5045998533476732,-0.0588990248698744,0.1554518433335242,0.0144080952549602,0.6865234182063841,-0.8649413376796067,-0.0228377720274003,-1.182714009760868,0.3619778297900392,1.4989786517261516,0.9675073080202142,-1.05215340064421,-0.070522328657811,0.9854026982417402,0.0743094071828875,0.9740767387104,0.1291166016031292,10.685627396508607,-1.3883301594398485,0.2380883975596679,-1.157442696189377
2.6,-1.1755781174121642,0.3400945046139306,1.5041745759660516,-0.05706847131062,0.1575680482558471,0.0149603726627665,0.6889108725907049,-0.845079300340589,-0.0197943545057139,-1.1550065758396262,0.3139358198212695,1.503457964746303,0.7768444971029066,-0.8395401980477393,-0.0265162445072057,1.0117594278101074,0.1193727192160432,0.9931018669508852,0.1521708760843227,10.755218091806457,-1.3870319994167064,0.2373211372056178,-1.1634397548003914
2.62,-1.161750309282639,0.3232431573820073,1.5038328174546116,-0.0582227837988464,0.158911934296231,0.0153581060113718,0.6936938716928507,-0.8399376743343315,-0.0145099275132442,-1.1550065758396262,0.3139358198212695,1.503457964746303,0.7768444971029066,-0.8395401980477393,-0.0265162445072057,0.4394273746539106,0.2391499551072873,0.2570813003128724,0.2642213496234804,10.755218091806457,-1.384671871313654,0.2394461023945144,-1.1692492408869248
2.64,-1.1485348300091465,0.3073963404271351,1.5036018002785227,-0.0641277883485463,0.1593904102084833,0.0154587268701515,0.6971131852171377,-0.8274379615727843,-0.0101300633754893,-1.1550065758396262,0.3139358198212695,1.503457964746303,0.7768444971029066,-0.8395401980477393,-0.0265162445072057,0.6839549216939508,0.1709656762143518,0.6249856380773633,0.2189932068877451,10.87260104775305,-1.3857927098811866,0.2469222230787628,-1.1682191867216372
2.66,-1.134564482886411,0.2910449237350488,1.503434111078638,-0.0710860364083878,0.1596796885288178,0.0155448805917619,0.6997249959980618,-0.8082686880015073,-0.0069374057710338,-1.147238130868597,0.3055404178407921,1.503192802301231,0.7949087128822111,-0.8344599701213657,-0.0272519390031667,0.980402554292236,0.1305905390462047,0.9584636785638478,0.1596328802227763,10.827975720315408,-1.386365400781232,0.2554476184338057,-1.168555859547766
