t,x,y,z,roll,pitch,yaw,v_x,v_y,v_z,ref_x,ref_y,ref_z,ref_v_x,ref_v_y,ref_v_z,a_com,a_x,a_y,a_z,thrust,wind_x,wind_y,wind_z
0.0,-2.014150712804226,-1.1060373543716768,1.7316451141334328,0.0247339249987389,0.15008935481464,0.0289399353778318,0.0018693733137121,-0.0004537369425376,-0.0032145908781874,-2.0140993367391253,-1.1059444170246175,1.7315500851588184,0.101753403855093,0.1021689661010972,-0.0653027756297689,0.1873100925815828,0.0934686656856058,-0.0226868471268813,-0.160729543909373,10.661826634697718,-1.4129740935280108,0.1661290790091242,-1.2802433468730496
0.02,-2.014200501534882,-1.1063517122622222,1.7314287019963932,0.0150256977329764,0.1524137321008409,0.0283015574408435,-0.0062530526539705,-0.024406804768232,-0.0182202713378311,-2.0140993367391253,-1.1059444170246175,1.7315500851588184,0.101753403855093,0.1021689661010972,-0.0653027756297689,1.4704537632307026,-0.4061212983841314,-1.19765339128472,-0.7502840229821851,10.6626045072544,-1.4099432500759697,0.1763606099206392,-1.2710847483307233
0.04,-2.014380136017035,-1.1068412475873062,1.7308809139951828,-0.0008010224108781,0.1576185141246213,0.0272448927710267,-0.0118805004720308,-0.025336481764344,-0.0386740756036888,-2.0140993367391253,-1.1059444170246175,1.7315500851588184,0.101753403855093,0.1021689661010972,-0.0653027756297689,1.0617092083147224,-0.2813723909030179,-0.0464838498056025,-1.0226902132928837,9.407668773505977,-1.3995186376440754,0.1952601705416658,-1.272518868845732
0.06,-2.014650788958096,-1.1072899184587175,1.7298890241211602,-0.0179304581239594,0.1646039200502488,0.0260172051850945,-0.0145662950125734,-0.0190405485212508,-0.0593967802936012,-2.0130818027005746,-1.1049227273636066,1.7308970574025206,0.1217534041531162,0.1221689663991204,-0.0777271984303098,1.0911951674434934,-0.1342897270271264,0.3147966621546606,-1.036135234495622,9.407668773505977,-1.3893073316390483,0.2149843967453649,-1.2758312832656515
0.08,-2.014944303613378,-1.1075675515820085,1.72850054472241,-0.0344444610386481,0.1721763747768199,0.0247227690783999,-0.0143901046956977,-0.008652229286578,-0.0783742718583222,-2.0110467346234726,-1.1028793480415846,1.7295910018899254,0.1617534047491627,0.1621689669951669,-0.1025760440313916,1.0817733191827763,0.0088095158437825,0.5194159617336402,-0.9488745782360476,9.481232107441429,-1.378998547637914,0.2341230665963109,-1.2804866667782449
0.1,-2.015207663313489,-1.1076009489199063,1.726753594781315,-0.0501836640272181,0.1798037507321223,0.0233826797798107,-0.0117513827369051,0.0051556044692553,-0.0954390007651731,-2.00901166654637,-1.1008359687195626,1.72828494637733,0.2017534053452092,0.2021689675912133,-0.1274248896324735,1.1054683388375048,0.1319360979396308,0.6903916877916693,-0.8532364453425478,9.596106918282205,-1.369661568387176,0.2516249208602831,-1.285608633692474
0.12,-2.0153887360876,-1.1073446688582833,1.7247924900320288,-0.0643639544138427,0.1868474057458705,0.0220916347656651,-0.0072851314983781,0.0213916229373157,-0.110197488778664,-2.0049765984394665,-1.0967925893677384,1.7257364485846804,0.2417534059412556,0.2421689681872597,-0.1522737352335553,1.1195631561743138,0.2233125619263501,0.8118009234030197,-0.7379244006745445,9.827070695003384,-1.360291055844992,0.2692652962004417,-1.2913516341253348
0.14,-2.0154707709704542,-1.1066924295163254,1.7224290216140157,-0.077856017840816,0.1939256869749488,0.0207823209643889,-0.0009720268082943,0.042949600603956,-0.125382801483981,-2.0009415303325624,-1.0927492100159142,1.723187950792031,0.2817534065373021,0.2821689687833063,-0.1771225808346372,1.3557243579186555,0.3156552345041881,1.077898883332016,-0.7592656352658468,9.827070695003384,-1.3512835750017933,0.2853703038914509,-1.2975167743359577
0.16,-2.015410455512487,-1.1055649661154603,1.7197652120072904,-0.0889870759258997,0.200615535095438,0.0196145097504914,0.006863457535611,0.0683882644662054,-0.1402215189836897,-1.995906462210757,-1.087705830649189,1.7200182318593544,0.3217534071333485,0.3221689693793527,-0.201971426435719,1.523735517598331,0.391774217195269,1.271933193112468,-0.7419358749854388,9.942337324137045,-1.3432284706354318,0.2982602534858886,-1.303894970126455
0.18,-2.015194018914816,-1.1039973848097706,1.716964629832754,-0.09694776614405,0.2066038113991402,0.01869194054512,0.0156729908784246,0.0947377188415386,-0.1538280870088269,-1.9898713940740504,-1.081662451267562,1.716227291786651,0.3617534077293949,0.3621689699753991,-0.2268202720368009,1.5468034110857432,0.4404766671406839,1.3174727187666602,-0.6803284012568563,10.002945131929664,-1.3352734273201603,0.3089027551568079,-1.3122694249393634
0.2,-2.01477134452329,-1.1018000560541743,1.7137413404488633,-0.1029010046395489,0.2125273525361162,0.0179169001579607,0.026288366844028,0.1232294712113673,-0.1677540258136316,-2.0144103693708946,-1.0992604988676935,1.7092732254823129,0.1156729923685408,0.1947377203316547,-0.1999778735705544,1.672122851041394,0.53076879828017,1.424587618491438,-0.6962969402402375,10.002945131929664,-1.3277543100821965,0.3167485942889921,-1.3214238876920104
0.22,-2.014110179028316,-1.098883918698017,1.7103077644398776,-0.1023496992597358,0.2180687293850508,0.0176497214612506,0.0395790474816686,0.165281206247571,-0.1743392618473689,-2.0144103693708946,-1.0992604988676935,1.7092732254823129,0.1156729923685408,0.1947377203316547,-0.1999778735705544,2.2295492509624344,0.6645340318820254,2.102586751810182,-0.3292618016868615,10.053068015682584,-1.3221158474898531,0.3176616434968706,-1.3373907018829485
0.24,-2.013163413147132,-1.0952290584272475,1.706771635454582,-0.0949713697508092,0.223225674223394,0.0179487258754578,0.0545904193316492,0.1967138505989688,-0.1788857789468196,-2.0144103693708946,-1.0992604988676935,1.7092732254823129,0.1156729923685408,0.1947377203316547,-0.1999778735705544,1.756433341658212,0.7505685924990335,1.5716322175698931,-0.2273258549725348,10.649851047753144,-1.3159887631129823,0.3102222099513027,-1.351668273033526
0.26,-2.011974836516759,-1.0912515466708903,1.703328656136898,-0.0865270847016261,0.227780427540894,0.0184187936383508,0.0698738637690499,0.220120958562981,-0.1833166615886474,-2.013253639447209,-1.0973131216643772,1.7072734467466073,0.135672992666564,0.2147377206296779,-0.2092078308828999,1.41519353631905,0.7641722218700314,1.1703553982006107,-0.2215441320913919,10.646481038480488,-1.3099490763143429,0.3002293423699745,-1.365710702188308
0.28,-2.0104007483784927,-1.0866281020575506,1.6996082030148083,-0.0780122164333676,0.2322428014973935,0.018966678654243,0.0868250595921293,0.2409333658587405,-0.188559497439861,-2.0109401795998383,-1.093418367257744,1.7032738892751962,0.1756729932626105,0.2547377212257243,-0.2276677455075909,1.3674672437025128,0.8475597911539727,1.040620364787974,-0.2621417925606786,10.615119791053983,-1.3043423427508798,0.2905317858893047,-1.3788307009892415
0.3,-2.0084793461430213,-1.0816149880880022,1.695775606628462,-0.0705794049255862,0.2363960027218649,0.0195065786464571,0.1045553668812536,0.2594696980082832,-0.194485127063757,-2.0086267197524674,-1.089523612851111,1.699274331803785,0.2156729938586569,0.2947377218217708,-0.2461276601322819,1.3163135004288833,0.8865153644562147,0.9268166074771308,-0.2962814811948031,10.579064705345443,-1.2992060369235945,0.2824794742892517,-1.390538771357475
0.32,-2.006318449158314,-1.0765242672768465,1.6920195965479956,-0.0646282566376692,0.2400797725149379,0.0199934775034672,0.1220914802472866,0.2756331915055023,-0.200628479332784,-2.0043132598752944,-1.0836288584146756,1.6943517786011395,0.2556729944547034,0.3347377224178172,-0.264587574756973,1.231375827197331,0.8768056683016473,0.8081746748609592,-0.3071676134513465,10.551728229027503,-1.2938269140763026,0.275254317260751,-1.400942027484175
0.34,-2.003675801750303,-1.0708449117982033,1.6879380172217904,-0.0595087172644723,0.2437015513168383,0.0204708041876142,0.1413318298110805,0.2915695021288108,-0.2072394919152818,-1.9999997999981207,-1.0777341039782402,1.6894292253984935,0.2956729950507498,0.3747377230138637,-0.2830474893816639,1.292151824463271,0.9620174781896952,0.7968155311654235,-0.3305506291248941,10.532928740281022,-1.2881584196979383,0.2693158081661539,-1.4092647265112677
0.36,-2.000640125187607,-1.0648464514730287,1.6837243835969713,-0.0552047486695131,0.2470774728372407,0.0209296733865741,0.1613556910609604,0.3074576652415125,-0.2138061052068531,-1.9946863401060468,-1.0708393495269035,1.684045174330231,0.3356729956467962,0.4147377236099102,-0.3015074040063549,1.3195729958695923,1.001193062493999,0.7944081556350846,-0.3283306645785647,10.556851287059544,-1.2828191982065125,0.2644398998292782,-1.4173459143538352
0.38,-1.9971958862419903,-1.0585344741737752,1.6793808862951556,-0.0513270296304331,0.2502225740777575,0.0213918784597338,0.182140353412247,0.322891244882164,-0.220240153387862,-1.9883728801990717,-1.0629445950606655,1.6781996253963507,0.3756729962428426,0.4547377242059566,-0.3199673186310459,1.3337864761430738,1.039233117564328,0.7716789820325726,-0.3217024090504422,10.556851287059544,-1.2780565429993738,0.2602966943195907,-1.4244996690878595
0.4,-1.9935321526410352,-1.052257771288785,1.6751361239825129,-0.0478965392199263,0.2530098574536219,0.0218399127852159,0.2025365156175386,0.3369824775614717,-0.2262747005039566,-1.9880888685713785,-1.0423899119296671,1.6683688786257624,0.2821403549023631,0.4228912463722801,-0.2740301452732857,1.2757174746229274,1.0198081102645775,0.7045616339653865,-0.3017273558047317,10.591887221989056,-1.2733550895016332,0.2562649499298125,-1.4316095757273333
0.42,-1.9892344760936085,-1.0453671268230738,1.6705969653920612,-0.0445594623707355,0.2556710684174797,0.0223201100933874,0.2262852112439411,0.3513142741684171,-0.2270608116370317,-1.9880888685713785,-1.0423899119296671,1.6683688786257624,0.2821403549023631,0.4228912463722801,-0.2740301452732857,1.3874607279594495,1.1874347813201265,0.7165898303472695,-0.0393055566537542,10.591887221989056,-1.2699915966642443,0.2526764174356861,-1.438521171108633
0.44,-1.984454625324248,-1.0382101961461736,1.6660387669941583,-0.0419571940082503,0.2579451304409873,0.0227781314680599,0.2505113111016689,0.3639385871702811,-0.2287738292561017,-1.9880888685713785,-1.0423899119296671,1.6683688786257624,0.2821403549023631,0.4228912463722801,-0.2740301452732857,1.3685865175874683,1.2113049928863917,0.6312156500932004,-0.0856508809534986,10.977764162103083,-1.2670301609031858,0.2499653945501678,-1.442374851912359
0.46,-1.979459880288648,-1.0311788134708644,1.6616637271878156,-0.0402688332351857,0.2596055620480742,0.0231877945077397,0.2740033023889927,0.3757074350777735,-0.2316711286297902,-1.9852674650223543,-1.0381609994659444,1.6656285771730297,0.3021403552003864,0.4428912466703033,-0.2847881436503704,1.3217164780827235,1.1745995643661882,0.5884423953746193,-0.1448649686844272,10.885256266741637,-1.2646417036348288,0.2481920410920557,-1.4453422623785686
0.48,-1.9737186941415377,-1.0235401380623506,1.6569896183244686,-0.0392990068188193,0.2607093968878594,0.0235953744423604,0.2988393682257372,0.3875966979539271,-0.2356229287648571,-1.9796246579243075,-1.0297031745384988,1.6601479742675638,0.3421403557964328,0.4828912472663497,-0.3063041404045398,1.3908643556192908,1.2418032918372237,0.5944631438076831,-0.1975900067533439,10.81568262363453,-1.2631432301349128,0.2475066013338954,-1.4469237817595575
0.5,-1.9674800294153825,-1.015667217144579,1.652228990998304,-0.0393112811889715,0.2611285723480972,0.0239673873898583,0.3237248949355164,0.3991733490832408,-0.2402591011490625,-1.97398185082626,-1.0212453496110532,1.654667371362098,0.3821403563924793,0.5228912478623962,-0.3278201371587093,1.3917636162159903,1.2442763354889612,0.578832556465686,-0.2318086192102678,10.764202916479915,-1.2626929406902077,0.2480679270192752,-1.4471458178294117
0.52,-1.9610934387947496,-1.0079745222036904,1.647615541618574,-0.0403454061470177,0.260884788087165,0.0242811123248367,0.3472141196577623,0.4101233688981196,-0.2451186807886816,-1.9663390436984105,-1.0107875246538052,1.648110968618924,0.4221403569885257,0.5628912484584426,-0.3493361339128787,1.318391184618782,1.1744612361122952,0.5475009907439377,-0.2429789819809555,10.726924577210411,-1.2633465050171864,0.2500963815001994,-1.445989550163564
0.54,-1.9538927734118472,-0.9996489679429448,1.6426582502378309,-0.0425497106963186,0.2600523241342908,0.0245662646306841,0.3715519658334555,0.4220267142812655,-0.2503541188549984,-1.958696236570561,-1.0003296996965574,1.6415545658757498,0.4621403575845722,0.6028912490544891,-0.3708521306670482,1.3797012353480778,1.2168923087846617,0.5951672691572929,-0.2617719033158411,10.69973303527422,-1.264410356600664,0.2536480330321277,-1.443907592347129
0.56,-1.94620250837652,-0.991058088771564,1.6375941104310212,-0.0451912228240277,0.2584820960413166,0.0248670802912697,0.396222461726309,0.4365197699646742,-0.2557922042354606,-1.9500534294278105,-0.9888718747244084,1.6344602632137213,0.5021403581806186,0.6428912496505355,-0.3923681274212177,1.4562407109119004,1.2335247946426708,0.7246527841704348,-0.2719042690231099,10.68838727484126,-1.2657802485975205,0.2576745297335722,-1.4422905383215243
0.58,-1.9380159340431813,-0.9821590476214204,1.6324196947858391,-0.0472670532569285,0.2556903942446043,0.0252807989152688,0.4211310877004875,0.4525144985432407,-0.2613523473993927,-1.9404106222701585,-0.976414049737358,1.6268280606328387,0.542140358776665,0.6828912502465819,-0.4138841241753871,1.5059765786915111,1.2454312987089269,0.7997364289283271,-0.2780071581966054,10.680910522743034,-1.2694043328175764,0.2613008326468698,-1.4394819344427148
0.6,-1.9297782283295324,-0.9733988900797746,1.627399067298308,-0.0483260000132908,0.2514841394206402,0.0258274213082073,0.4445993456229284,0.4686072716686721,-0.2668090226632381,-1.916959379658157,-0.9595333226942584,1.6193520774158696,0.5211310891906036,0.5525145000333569,-0.2829775663123518,1.4487164851307888,1.1734128961220474,0.8046386562715724,-0.2728337631922678,10.680910522743034,-1.276313263892557,0.2637862871996909,-1.4351612850102804
0.62,-1.9205729645780312,-0.9637657865612528,1.6222119377973387,-0.0461220519357561,0.2448512828169995,0.026747595642859,0.4745007015467287,0.4932391512468552,-0.2503774842960483,-1.916959379658157,-0.9595333226942584,1.6193520774158696,0.5211310891906036,0.5525145000333569,-0.2829775663123518,2.104053249533105,1.4950677961900138,1.231593978909154,0.8215769183594873,10.667025582067254,-1.28793244227543,0.2623216080756083,-1.432334348494008
0.64,-1.910803187603295,-0.9536944354085988,1.6173796827311162,-0.0401177311466512,0.2363945630588051,0.0279776470007456,0.5005528380807203,0.5117137482156159,-0.2336643471735536,-1.916959379658157,-0.9595333226942584,1.6193520774158696,0.5211310891906036,0.5525145000333569,-0.2829775663123518,1.8023273174004677,1.302606826699576,0.923729848438032,0.8356568561247348,12.265252538951245,-1.3004161832551917,0.2560699994815198,-1.4274928312337642
0.66,-1.901082619549897,-0.943842120105666,1.6130680929181735,-0.0338736908336708,0.2277582097852055,0.0291399584100396,0.5210916017671773,0.5243613233062289,-0.2209621205421949,-1.911748068766251,-0.9540081776939248,1.616522301752746,0.5411310894886268,0.5725145003313801,-0.2873026100949436,1.3630375369328764,1.0269381843228509,0.6323787545306492,0.6351113315679335,12.027583023046644,-1.3133277727275356,0.248491957290639,-1.4204414214304435
0.68,-1.8904715249084816,-0.9332446753777924,1.6087610536486106,-0.027994153906327,0.2188929561516723,0.0302332521084224,0.5386472307109621,0.534761590023212,-0.2105288947905556,-1.901325446982439,-0.9429578876932576,1.610862750426499,0.5811310900846732,0.6125145009274265,-0.2959526976601273,1.1458815983566026,0.8777814471892409,0.5200133358491565,0.5216612875819676,11.748092566324884,-1.325754767519301,0.2417219312914169,-1.412445087215955
0.7000000000000001,-1.8795495867435628,-0.922460038721324,1.604627574515753,-0.0232901631989355,0.2109646265079767,0.0311554566642495,0.552566246856157,0.5434189272204444,-0.2033125583295784,-1.8909028251986268,-0.9319075976925906,1.605203199100252,0.6211310906807197,0.652514501523473,-0.3046027852253109,0.8954942904826456,0.6959508072597431,0.4328668598616192,0.3608168230488567,11.292556382979456,-1.336178735566947,0.2366492571942858,-1.405123231140408
0.72,-1.868381322041516,-0.9115135461357162,1.6006119393250422,-0.0197778936344205,0.2044623186150561,0.031916337669077,0.563476880049637,0.5510579055291801,-0.1985979300244997,-1.8784802033850123,-0.9188573076621211,1.599111143395746,0.6611310912767662,0.6925145021195195,-0.3132528727904946,0.7064411269508837,0.5455316596740034,0.3819489154367861,0.2357314152539383,11.292556382979456,-1.3452911758825856,0.2327524083178572,-1.398193956700303
0.74,-1.8575938652706296,-0.9009788975372582,1.5968739399291454,-0.0174700673267835,0.2001215655618358,0.0325042839236227,0.5714348615987407,0.557718003604568,-0.1951045090148913,-1.866057581571398,-0.9058070176316516,1.5930190876912396,0.7011310918728126,0.732514502715566,-0.3219029603556782,0.5474722985230235,0.3978990774551827,0.333004903769396,0.1746710504804169,11.121783791915732,-1.351853532977607,0.2302479848490476,-1.3930376793415769
0.76,-1.846090606073612,-0.8897486126095404,1.5930041236540162,-0.0157840004964729,0.1979698453134986,0.0330130475260623,0.5784934995337154,0.5649930144987099,-0.1921015812443572,-1.8526349597428824,-0.891756727586281,1.586710779797604,0.741131092468859,0.7725145033116123,-0.3305530479208618,0.5286012868930424,0.3529318967487371,0.3637505447070921,0.1501463885267076,11.002408198984083,-1.3546931275508385,0.2287686984650232,-1.3924031724433985
0.78,-1.8344408231756264,-0.8783732610154074,1.5891859223733205,-0.014605348955531,0.1980690993039238,0.0334411593474553,0.5863742439078691,0.5721974383805635,-0.1898986123947174,-1.8382123378994657,-0.8767064375260093,1.5801862197148384,0.7811310930649055,0.8125145039076588,-0.3392031354860454,0.545121378943855,0.3940372187076824,0.3602211940926803,0.1101484424819873,11.002408198984083,-1.354320432759646,0.2279886104993459,-1.395602257055334
0.8,-1.8232124546591693,-0.8674341770346516,1.5855941160380649,-0.0138891323417051,0.1993856108178536,0.0337958390117442,0.5952875490711118,0.578932053619157,-0.1883147184382522,-1.805122110980233,-0.8497633890963792,1.5796909917535846,0.6863742453979852,0.6721974398706796,-0.2037550699410708,0.5641603748277454,0.4456652581621367,0.3367307619296766,0.0791946978232607,10.932496139075738,-1.3523191446125886,0.2276740676533452,-1.4000110270396655
0.8200000000000001,-1.811152226709652,-0.8557319718489687,1.5819840720902694,-0.0120532952042277,0.2008040311000863,0.0342389333045304,0.6104517720790756,0.5904642778503446,-0.1720332253510647,-1.805122110980233,-0.8497633890963792,1.5796909917535846,0.6863742453979852,0.6721974398706796,-0.2037550699410708,1.253029201876183,0.7582111503981914,0.5766112115593802,0.8140746543593771,10.932496139075738,-1.3514744419442526,0.2261364481661302,-1.4060745332078506
0.84,-1.798783915568922,-0.8438405163767686,1.5787082980533664,-0.0090779970513744,0.2015461500321822,0.0347625312134308,0.6255376088040003,0.5979845326209672,-0.1565674699898294,-1.805122110980233,-0.8497633890963792,1.5796909917535846,0.6863742453979852,0.6721974398706796,-0.2037550699410708,1.1438162990617604,0.7542918362462347,0.3760127385311285,0.7732877680617658,11.983924949073298,-1.3505458361427067,0.2231873751027321,-1.4118007922488904
0.86,-1.7861202824095992,-0.8318239398747205,1.5757085959921806,-0.0065624932002827,0.201815597792081,0.0352482649231034,0.6400211865946593,0.6034981910450552,-0.1441661625655793,-1.7982583685262528,-0.8430414146976724,1.5776534410541738,0.7063742456960084,0.6921974401687028,-0.2065263614503414,0.99242994798921,0.7241788895329504,0.2756829212044009,0.6200653712125012,11.807596768227995,-1.349998334373254,0.2205217960911358,-1.4160279740932034
0.88,-1.773827580395395,-0.8203168621075677,1.5730656049846754,-0.0050295919903561,0.2017372385166939,0.0356420638557442,0.6531813590339619,0.6077071624269285,-0.1346572417259874,-1.7845308836182932,-0.8295974659002588,1.5735783396553524,0.7463742462920548,0.7321974407647492,-0.2120689444688828,0.8386375174341296,0.6580086219651282,0.210448569093663,0.475446041979595,11.622252526532066,-1.3501030302615395,0.2189838972343872,-1.4188043116379043
0.9,-1.7606246378045494,-0.8081256521016197,1.5704610655990163,-0.0046433259593744,0.2014525568228164,0.035962377191578,0.6663741360534512,0.6113194952863527,-0.1263713635328028,-1.770803398710333,-0.8161535171028452,1.569503238256531,0.7863742468881013,0.7721974413607957,-0.2176115274874241,0.7996156758179723,0.6596388509744644,0.1806166429712097,0.4142939096592316,11.363675969183532,-1.3507331851460829,0.2190568678059044,-1.420336957005375
0.92,-1.7471637704061824,-0.7958685066996483,1.5680048023155635,-0.0059233168807638,0.2010926262022604,0.0361597378567565,0.6790301784807736,0.614474217649648,-0.1196599128862583,-1.755075913772571,-0.8007095682756293,1.5651510077067825,0.8263742474841478,0.8121974419568422,-0.2231541105059654,0.7334358405693446,0.6328021213661217,0.1577361181647696,0.335572532327226,11.363675969183532,-1.3514489212367944,0.2211221132155371,-1.4210849668688317
0.94,-1.7341445331014402,-0.7841616871277199,1.5657912695634335,-0.0088005995305195,0.2007493149826862,0.0362286362118903,0.6907603613477291,0.6181529962995176,-0.1136766051156684,-1.7393484288348091,-0.7852656194484133,1.5607987771570342,0.8663742480801943,0.8521974425528887,-0.2286966935245068,0.6836127820713876,0.5865091433477743,0.183938932493477,0.2991653885294931,11.248412325017853,-1.352077432346921,0.2255467491830359,-1.4211603570298426
0.96,-1.7201982805445382,-0.7717271861915627,1.5635821961728325,-0.0125289516475171,0.2003043923078717,0.0362544432390363,0.7032153312265791,0.6252389248211639,-0.1075507771562558,-1.7226209438821465,-0.7688216706062964,1.5563079820318222,0.9063742486762406,0.892197443148935,-0.2342392765430481,0.7792021975797795,0.6227484939424988,0.3542964260823178,0.3062913979706316,11.248412325017853,-1.3525669971607923,0.2309409220582512,-1.4211353504880313
0.98,-1.706002183786332,-0.7591282816780434,1.561493765636908,-0.0159059848533776,0.1995740460232383,0.0363117807460909,0.715717364234689,0.634242830192672,-0.1015978360660044,-1.704893458914582,-0.7513777217492781,1.5516786223311465,0.9463742492722872,0.9321974437449816,-0.2397818595615894,0.8258460039543465,0.6251016504054963,0.450195268575404,0.2976470545125668,11.23210495046078,-1.353449232873779,0.2358372399813408,-1.4199735568867171
1.0,-1.6915567080873533,-0.7463366447006028,1.5595210923796627,-0.0185159844383782,0.1984027992877545,0.0364335765002288,0.7281300329145532,0.644274619249247,-0.0959538701574946,-1.6702163155745977,-0.7274161401684097,1.5564138738336075,0.8157173657248051,0.7342428316827881,-0.1113183580450384,0.8464122615607031,0.6206334339932118,0.501589452828749,0.2821982954254932,11.23210495046078,-1.3549248309257258,0.2395689825786675,-1.418549550803024
1.02,-1.6775594103156704,-0.733906825838548,1.5578661771104814,-0.0175534197954936,0.1959845660396112,0.0368138109175338,0.7445537753198137,0.6623113125573212,-0.0784857190423619,-1.6702163155745977,-0.7274161401684097,1.5564138738336075,0.8157173657248051,0.7342428316827881,-0.1113183580450384,1.500164927153836,0.8211871202630228,0.9018346654037112,0.873407555756632,11.213241364689566,-1.3556200597878063,0.2387574870572739,-1.4165492433816498
1.04,-1.66250077409778,-0.7205184988063864,1.5564753615576743,-0.0125115335359862,0.1912981525065294,0.0375072973014998,0.7602223599879468,0.6746354888402561,-0.0616270499333642,-1.6702163155745977,-0.7274161401684097,1.5564138738336075,0.8157173657248051,0.7342428316827881,-0.1113183580450384,1.3053779057058426,0.7834292334066573,0.6162088141467459,0.8429334554498891,11.908641016313595,-1.3639204720718252,0.2329463907425841,-1.414023367812555
1.06,-1.6471623387760412,-0.7069517154413978,1.555387083215824,-0.0068212203444373,0.1851339934519783,0.0382142495135044,0.7724459647820914,0.6813562110003665,-0.0481605678920816,-1.6620591419173494,-0.7200737118515819,1.5553006902531574,0.8357173660228283,0.7542428319808113,-0.1132624624408452,0.9694466966845268,0.6111802397072263,0.3360361080055163,0.6733241020641274,11.908641016313595,-1.3731752437424696,0.2264848197068334,-1.408741364335824
1.08,-1.6324040029318412,-0.6939708141157681,1.5545681272704617,-0.0022811335844406,0.1790096419099753,0.0387766524832611,0.7803118820027444,0.6849899503918144,-0.038680496659585,-1.6457447946028534,-0.705388855217926,1.5530743230922566,0.8757173666188748,0.7942428325768578,-0.1171506712324588,0.6421613236958758,0.3932958610326498,0.1816869695723977,0.4740035616248306,11.6534887631733,-1.3828164861262937,0.2207411924053876,-1.4019063798283131
1.1,-1.6167423475242302,-0.6802467260036388,1.5538752147406432,0.0011591061113189,0.1732689323609101,0.0392303810058907,0.785220697027854,0.6874771733362546,-0.0312116714186222,-1.6294304472883572,-0.6907039985842703,1.5508479559313555,0.9157173672149213,0.8342428331729043,-0.1210388800240723,0.4638590664364958,0.2454407512554823,0.1243611472220074,0.3734412620481407,11.423640354805684,-1.3913938578839666,0.2167401245368497,-1.3953387155042614
1.12,-1.6010187522482568,-0.6664825554840663,1.5533053164164503,0.003115850036423,0.1693016739867634,0.0395534215910344,0.786814406685318,0.6891831258608495,-0.0261315731751085,-1.6111160999440588,-0.6740191419208122,1.5484271783308745,0.9557173678109676,0.8742428337689507,-0.1249270888156859,0.2795424057822729,0.0796854828731985,0.0852976262297466,0.2540049121756833,11.249300466281056,-1.3972281516175131,0.2146867985411433,-1.3907861334468394
1.14,-1.5860743022256274,-0.6533809626955626,1.5528478001947057,0.0035548569977222,0.1680820053187206,0.0397541374358191,0.7864473150101103,0.690104763566507,-0.0222970631783572,-1.5928017525997602,-0.6573342852573542,1.5460064007303929,0.9957173684070142,0.9142428343649972,-0.1288152976072995,0.198038123057669,-0.0183545837603826,0.0460818852828726,0.1917254998375639,11.108662246999302,-1.3990922046312873,0.2143584544220876,-1.3897066074837228
1.16,-1.5703378845196545,-0.6395650373161834,1.552439604166428,0.0025154231871722,0.1692891822572753,0.0398601870788708,0.7874761771198171,0.6915721631528897,-0.0187607493590127,-1.5734874052405607,-0.6396494285789949,1.543488417910121,1.0357173690030606,0.9542428349610436,-0.1327035063989131,0.1982254664251913,0.0514431054853381,0.0733699793191378,0.1768156909672281,11.041482092809929,-1.3970854272421396,0.2159895295605965,-1.392522649898201
1.18,-1.5545596717648975,-0.6257111092632955,1.5521007404302845,0.0001407772333195,0.1720369813826654,0.0398670370549899,0.7904970409280182,0.6939174173647865,-0.0153164267284926,-1.55317305786646,-0.6209645718857345,1.540873229870059,1.075717369599107,0.99424283555709,-0.1365917151905266,0.2573382688662501,0.1510431904100551,0.1172627105948398,0.1722161315260017,11.010267153466884,-1.3927514358223838,0.2193025745787431,-1.3969525005946302
1.2,-1.538699471288874,-0.6117867237292447,1.551833305190958,-0.0029211617662639,0.1754304776248076,0.0398133311774668,0.7954967988100522,0.698576337481276,-0.0116208199558977,-1.5150348197184969,-0.5910152383950562,1.55133491909386,0.8904970424181343,0.7939174188549026,-0.0242407489312943,0.3884605029743723,0.2499878941016997,0.2329460058244747,0.1847803386297455,11.011684493163555,-1.3875294366593411,0.2232531134989897,-1.401421649669313
1.22,-1.5234752040856725,-0.5983831982281177,1.5517526159109385,-0.0034326554241571,0.1776365727136206,0.0399225919042727,0.8065813866526,0.7109337888889061,0.0029493919566476,-1.5150348197184969,-0.5910152383950562,1.55133491909386,0.8904970424181343,0.7939174188549026,-0.0242407489312943,1.1043841814644704,0.5542293921273922,0.6178725703815058,0.7285105956272707,11.035923968028328,-1.3813898963461688,0.2241143753275989,-1.4045397122007337
1.24,-1.507230794085935,-0.5840670137375842,1.5519636955488654,-0.000878752468273,0.1781514537775493,0.0402511361668251,0.8171150986245999,0.7198089719035751,0.017285224199191,-1.5150348197184969,-0.5910152383950562,1.55133491909386,0.8904970424181343,0.7939174188549026,-0.0242407489312943,0.9940372824236382,0.5266855985999908,0.443759150733447,0.7167916121271726,11.837090325931058,-1.381605441359251,0.2212220545386293,-1.4076653553831926
1.26,-1.4907902937493762,-0.5696150684031093,1.5524341173035552,0.0027875203234622,0.1776093567273164,0.0406444135966016,0.8263020597970617,0.7247328664909435,0.028928160141035,-1.5061298492943156,-0.5830760642065071,1.5510925116045469,0.9104970427161576,0.8139174191529258,-0.0260256133718547,0.7813497149767824,0.4593480586230936,0.2461947293684208,0.5821467970921975,11.712216860528317,-1.3830696757041516,0.2168223710013907,-1.4092350655902857
1.28,-1.4741816298979258,-0.5550974492275712,1.553107254927187,0.0058801319666309,0.1765643746032739,0.040978596191528,0.8340290842403408,0.7270490248896034,0.0378255856932733,-1.4883199084459529,-0.5671977158294091,1.550607696625921,0.950497043312204,0.8539174197489723,-0.0295953422529754,0.6004907949592974,0.3863512221639553,0.1158079199329975,0.4448712776119171,11.53032753673142,-1.384738495799971,0.2132287745644676,-1.4090782556236623
1.3,-1.4582729138291486,-0.5412751749695841,1.5538911231066657,0.0077540399221375,0.1755511193090711,0.0412062451808739,0.8401766912325505,0.7281216416139306,0.0442520998922495,-1.47050996759759,-0.551319367452311,1.5501228816472952,0.9904970439082504,0.8939174203450188,-0.033165071134096,0.4478941368158706,0.307380349610481,0.0536308362163562,0.3213257099488099,11.36506459311022,-1.3863800186254511,0.2108234886322729,-1.4082734993693609
1.32,-1.4414103244851286,-0.5267107995293817,1.5548332242918137,0.0083384395326019,0.1747911588983058,0.041338632154616,0.8457520369896165,0.7284155015305362,0.0495575249885887,-1.450700026719425,-0.5334410190454106,1.5494595802246132,1.030497044504297,0.9339174209410652,-0.0367348000152167,0.3850920974724343,0.2787672878533043,0.0146929958302843,0.2652712548169573,11.1379060053996,-1.387701164149991,0.2102519665487967,-1.4074476226562933
1.34,-1.424441843011227,-0.5121485246136651,1.5558722705474377,0.0070387121753247,0.1745587476736748,0.0413352527085806,0.8508813938442056,0.7281109594618026,0.054088840163071,-1.43089008584126,-0.5155626706385102,1.5487962788019312,1.0704970451003433,0.9739174215371116,-0.0403045288963374,0.3425487732566034,0.256467842729452,-0.0152271034366824,0.2265657587241142,11.1379060053996,-1.388165657725461,0.2119396379822682,-1.4068201087765977
1.36,-1.408222922953532,-0.4983072243228661,1.556940604297099,0.0041786393517378,0.1747117275941676,0.0412168895717246,0.8561320547430946,0.7292523590495869,0.0581449534076192,-1.410080144948194,-0.4966843222167088,1.5480437341572213,1.1104970456963896,1.0139174221331582,-0.0438742577774581,0.3366165754486697,0.2625330449444518,0.0570699793892126,0.2028056622274121,11.097212997326096,-1.3871527846861682,0.2158311298987781,-1.4060402005850745
1.38,-1.3910393605350482,-0.4836828757071256,1.5581487776695624,0.0005471216762935,0.1750057952448951,0.0410471797707519,0.8619614801094548,0.7332648599741197,0.062460527331669,-1.3882702040402264,-0.476805973780006,1.5472019462904834,1.150497046292436,1.0539174227292043,-0.0474439866585788,0.4144470474779609,0.2914712683180109,0.2006250462266434,0.2157786962024899,11.079808476691142,-1.386076975154087,0.2205894080320651,-1.405450616684243
1.4,-1.3737356905511506,-0.4689567062523673,1.5594432910032514,-0.0027688930470363,0.1752347719664397,0.0408980618983456,0.8680990777816354,0.7390689015732644,0.0667737890987837,-1.3479412865295757,-0.4470196327084196,1.5612718040361455,0.961961481599571,0.8332648614642358,0.0322811701755115,0.4742394731088196,0.3068798836090292,0.2902020799572358,0.2156630883557352,11.083033456437988,-1.3853848771664514,0.2247633427379616,-1.4050359998531774
1.42,-1.3571569183551706,-0.4547676472801647,1.5607972822189766,-0.0027232861798163,0.1746497033184777,0.0409795572917479,0.8766329745147111,0.7528811822538453,0.0755483227727166,-1.3479412865295757,-0.4470196327084196,1.5612718040361455,0.961961481599571,0.8332648614642358,0.0322811701755115,0.9227661299659412,0.4266948366537848,0.6906140340290412,0.4387266836966434,11.083997739186088,-1.382983271074799,0.2247291171660739,-1.403959595268822
1.44,-1.3395468860920183,-0.4396097569135194,1.562388120897417,0.0010714038569474,0.1729388081492898,0.0413163309392064,0.8837669808000304,0.7615275958614333,0.0829661893099457,-1.3479412865295757,-0.4470196327084196,1.5612718040361455,0.961961481599571,0.8332648614642358,0.0322811701755115,0.6720849237942349,0.3567003142659619,0.4323206803793999,0.3708933268614565,11.422520022415483,-1.387328349051283,0.2201743656952342,-1.4035819993016911
1.46,-1.3218154204046466,-0.4243386157350735,1.5640956071476912,0.0056170015915243,0.1709817144557056,0.0416816188419175,0.888892555558332,0.7651137904313757,0.0872845705873856,-1.3383216717135795,-0.4386869840937773,1.5615946157379008,0.981961481897594,0.853264861762259,0.02624529874428,0.3800681680756991,0.2562787379150832,0.1793097284971234,0.2159190638719929,11.259320946271146,-1.3909971940857293,0.2145037312230586,-1.4023014122064563
1.48,-1.3048961960256844,-0.4097934472528216,1.565768177428198,0.0091050289437656,0.1695945580329053,0.0419517964845142,0.8918050347925026,0.7660946394147385,0.0885799645591266,-1.3190824420815883,-0.4220216868644926,1.5622402391414112,1.0219614824936407,0.8932648623583055,0.014173555881817,0.166753152591351,0.1456239617085297,0.0490424491681407,0.0647696985870506,10.887272567472792,-1.3934535178997571,0.2101160857453147,-1.401062868027625
1.5,-1.2870379593916452,-0.3944728684206615,1.567534821569469,0.0114813060793471,0.1691464237137423,0.0421382216792219,0.8939414034612858,0.7662001488971366,0.0879237161219715,-1.2998432124495969,-0.4053563896352078,1.5628858625449211,1.061961483089687,0.933264862954352,0.002101813019354,0.1118689562736556,0.1068184334391597,0.0052754741199034,-0.0328124218577523,10.887272567472792,-1.3941365816548652,0.2070977692995775,-1.400749999651891
1.52,-1.2691399016096772,-0.3791588362781858,1.5692699442632243,0.0123227024918925,0.1698062501161293,0.0422185546907207,0.895914092170798,0.7655021062234995,0.0856225095244531,-1.278603982787803,-0.3866910923761208,1.5629278988053084,1.1019614836857334,0.9732648635503984,-0.0099699298431089,0.1555178134758011,0.0986344354756085,-0.0349021336818577,-0.1150603298759211,10.673764971508716,-1.3935925804998903,0.2060681527659651,-1.401510807703538
1.54,-1.2520962818506287,-0.3646290779105496,1.570869055629556,0.0113954883554003,0.1713356345219199,0.0421772863310997,0.8981909020926385,0.7642667834662933,0.0828158641656465,-1.2573647531260093,-0.3680257951170338,1.5629699350656954,1.14196148428178,1.0132648641464448,-0.0220416727055719,0.190965598372939,0.1138404960920269,-0.0617661378603084,-0.1403322679403323,10.640735115119242,-1.3915788924252763,0.207274099769985,-1.403029046314543
1.56,-1.234096369680585,-0.3493486191563502,1.5724927363550938,0.0086231993667745,0.1735376012599125,0.0420066006301061,0.901785847401035,0.7641430797055451,0.0796924448024342,-1.2351255234493144,-0.3483604978430456,1.562710177754521,1.1819614848778264,1.0532648647424911,-0.0341134155680349,0.238194683553569,0.1797472654198217,-0.0061851880374108,-0.156170968160612,10.640735115119242,-1.3878952041812538,0.2107772412816452,-1.4046808752558888
1.58,-1.21601178285804,-0.3340397465727813,1.574055550292378,0.0049716452331175,0.1758496751425047,0.0417660038223572,0.9065596609050426,0.7669444336759603,0.0767507196151535,-1.2118862937577184,-0.3276952005541563,1.562148626871785,1.2219614854738727,1.0932648653385375,-0.0461851584304979,0.3134111776727531,0.2386906752003814,0.1400676985207627,-0.1470862593640369,10.649083875607175,-1.3840818030615452,0.2154136620436258,-1.406215361020573
1.6,-1.1978205499082653,-0.3186515273548817,1.57556206264824,0.0015443744976347,0.1778709241038363,0.0415313052119591,0.912326603091336,0.7716754907476308,0.0740412325560542,-1.1706837998127877,-0.2956925248889833,1.5778930862731355,1.0065596623951587,0.8621500312554395,0.0548641920768539,0.396805504368579,0.2883471093146739,0.2365528535835215,-0.1354743529549666,10.649083875607175,-1.3811575744584084,0.2195863002293198,-1.407373501481539
1.62,-1.1803595276148786,-0.3038402570186269,1.5770902189295144,0.0017980008582222,0.1779748085445843,0.0415453776693535,0.9251959329027314,0.7856640440208426,0.0869652544246296,-1.1706837998127877,-0.2956925248889833,1.5778930862731355,1.0065596623951587,0.8621500312554395,0.0548641920768539,1.1492710882678736,0.6434664905697662,0.6994276636605901,0.6462010934287714,10.666950756646656,-1.3758211936357698,0.2189395473582345,-1.4062987950625592
1.64,-1.161725876804981,-0.2880298594130973,1.5789581111574738,0.0062705536399078,0.175028699899294,0.0418308402275701,0.9372607730615496,0.7937474234656241,0.0989984364480327,-1.1706837998127877,-0.2956925248889833,1.5778930862731355,1.0065596623951587,0.8621500312554395,0.0548641920768539,0.9429990202997288,0.6032420079409073,0.4041689722390773,0.6016591011701551,11.762312220768765,-1.3817581761346285,0.2133418027803836,-1.4043347184384238
1.66,-1.1428814628367612,-0.2721270889733976,1.5810260700076473,0.0114813494069213,0.1698366362814018,0.0421150487332548,0.9461396871240694,0.7960842959922874,0.1070607396248955,-1.160618203188836,-0.2870710245764289,1.578441728193904,1.026559662693182,0.8811911507713354,0.050486886569194,0.6109353907148006,0.4439457031259919,0.1168436263331629,0.4031151588431411,11.559761247487586,-1.3899021769591402,0.2066342733222056,-1.3977075175837348
1.68,-1.1239069247288496,-0.2562128828557437,1.583210730944503,0.0156724385987792,0.1638073607573041,0.042273222988405,0.9506769508961416,0.7955760876937941,0.1110562694265647,-1.140487009940933,-0.2698280239513201,1.5795390120354411,1.0665596632892285,0.9192733898031272,0.0417322755538742,0.3033533278540165,0.2268631886036098,-0.0254104149246647,0.1997764900834572,11.282842428116057,-1.39847778345355,0.2014447825925912,-1.3897966498056886
1.7,-1.105834226735795,-0.2411168445360555,1.5853292019711174,0.0182757374608985,0.1585208866970215,0.0423003064314832,0.9513887265212218,0.7939192473560939,0.1117716688012773,-1.12035581669303,-0.2525850233262113,1.5806362958769782,1.1065596638852748,0.9573556288349188,0.0329776645385544,0.096999235956114,0.0355887812540089,-0.0828420168850097,0.0357699687356299,11.02969560351812,-1.40683352826814,0.1978098340607038,-1.3816921731710217
1.72,-1.0868297342600008,-0.2252661728655756,1.587550754504477,0.0194870127280043,0.1545684031468835,0.0422297788830615,0.9488330911638536,0.791434649972512,0.1102569329685448,-1.0982246234153243,-0.2334379107495129,1.5812958491677491,1.1465596644813212,0.9954378678667104,0.0242230535232345,0.1936422015038027,-0.1277817678684067,-0.1242298691790932,-0.0757367916366234,10.825851033599063,-1.4133599911967083,0.1962220799539133,-1.3757365843424334
1.74,-1.0679039784169235,-0.209472968095328,1.589729196561166,0.0188241363098611,0.1534248612977064,0.0420729812701066,0.9440596659643165,0.7882275294036971,0.1076177459833254,-1.0760934301376188,-0.2142907981728145,1.5819554024585205,1.1865596650773678,1.0335201068985025,0.0154684425079147,0.3163720848204036,-0.2386712599768581,-0.1603560284407446,-0.1319593492609704,10.686209003582007,-1.4155278189184544,0.1969696570263892,-1.374210323689245
1.76,-1.0490615561571253,-0.1937356278653071,1.5918508981763748,0.0162441608419057,0.1550016887655565,0.0418280728942841,0.9407105212310812,0.7859147516011149,0.1046694556469088,-1.0529622368450122,-0.1941916296203213,1.5823960904739085,1.226559665673414,1.071602345930294,0.0067138314925949,0.2512873231784805,-0.1674572366617666,-0.1156388901291105,-0.1474145168208297,10.623973649837351,-1.413083803205196,0.199840362907257,-1.376215900520491
1.78,-1.0312030910851575,-0.1788026383706558,1.5938158251130394,0.0127470863386985,0.1580678062139537,0.0415394518564967,0.9394996495930792,0.7863548516998534,0.1022975232507005,-1.0288310435375043,-0.1731404050920334,1.5826179132139135,1.2665596662694605,1.1096845849620856,-0.0020407795227248,0.1349626014198855,-0.060543581900091,0.0220050049369258,-0.1185966198104133,10.605083078970893,-1.4078721168026134,0.2042614370540998,-1.380246714069277
1.8,-1.0124073144804488,-0.1630504512924225,1.5958411297359212,0.0090848852698161,0.1620626717801724,0.0412336703704727,0.9403264862926396,0.7888851282777528,0.1003687669624665,-0.9842281086055036,-0.1394848957856631,1.5989307012755745,1.0394996510831955,0.8459974050293212,0.0592891212607637,0.1643628555042812,0.0413418349780203,0.1265138288949696,-0.0964378144117011,10.674241758937567,-1.40200532729205,0.2087415562746209,-1.3854041695368595
1.82,-0.9935484199691432,-0.1470451689299397,1.5978945773882924,0.0119373649789795,0.1654613006551458,0.0413681185648405,0.9456794493899828,0.8090689306000807,0.1053870320251964,-0.9842281086055036,-0.1394848957856631,1.5989307012755745,1.0394996510831955,0.8459974050293212,0.0592891212607637,1.0738052364699795,0.2676481548671505,1.009190116116393,0.250913253136497,10.674241758937567,-1.3934975525215,0.2046085059832231,-1.391203788338289
1.84,-0.9745760406330464,-0.130781697968441,1.6000412033083284,0.0218382991420297,0.1674965077985013,0.0419796926587935,0.9512402351410992,0.8151322701888308,0.1088681083712939,-0.9842281086055036,-0.1394848957856631,1.5989307012755745,1.0394996510831955,0.8459974050293212,0.0592891212607637,0.4466663118752171,0.2780392875558202,0.303166979437508,0.1740538173048735,11.15788604955651,-1.393072392192226,0.1927093791326344,-1.397284343984772
1.86,-0.9564556757610974,-0.1153128448222842,1.6021059906673547,0.0319324147694737,0.1686297854495907,0.0425851424085905,0.9558581223863288,0.8129048533704668,0.1083096327762364,-0.9738331120946716,-0.1310249217353699,1.599523592488182,1.0594996513812187,0.8579259156952147,0.0506874408627763,0.2578670359054306,0.2308943622614856,-0.1113708409182012,-0.0279237797528773,10.988934773567053,-1.392231890382861,0.1788943331586149,-1.4009852402575151
1.88,-0.937296232353274,-0.0991228405772927,1.6042349227564272,0.0410650233802862,0.1694174004210344,0.0430900205012348,0.9598076232695616,0.8064483587349865,0.1044782659599572,-0.9530431190730078,-0.1141049736347835,1.6007093749133974,1.0994996519772653,0.8817829370270018,0.0334840800668016,0.4241587317429844,0.1974750441616379,-0.3228247317740129,-0.1915683408139579,10.75876683993738,-1.391519938389279,0.1669083846616613,-1.402656334076706
1.9,-0.9180654606703234,-0.0830868728414569,1.606257961219061,0.0479850595241872,0.1701673852708206,0.0434205777796184,0.9630707113794404,0.7978476708386217,0.097929006176294,-0.9322531260513438,-0.0971850255341971,1.6018951573386129,1.1394996525733116,0.905639958358789,0.0162807192708269,0.564606898685751,0.1631544054939371,-0.4300343948182406,-0.3274629891831616,10.42864687508154,-1.3906697797610794,0.1577196695241227,-1.4032289176681538
1.92,-0.8987745509640974,-0.0672354730110225,1.6081282926579612,0.0526166803678995,0.1711286681141737,0.0435844445338686,0.9659182935278032,0.7883072677364626,0.0894664287563421,-0.9094631329998776,-0.0790722263670213,1.602220771724029,1.179499653169358,0.929496979690576,-0.0009226415251478,0.6533437686854475,0.1423791074181446,-0.4770201551079545,-0.4231288709975945,10.42864687508154,-1.3895404579648385,0.1517184682403942,-1.403273423386747
1.94,-0.8803958259632224,-0.0523548162659587,1.6097408581545825,0.0552176775802934,0.1723504183021522,0.0436169365106379,0.9686112634763108,0.7790284890348758,0.0807244798531149,-0.8866731399484112,-0.0609594271998455,1.6025463861094458,1.2194996537654046,0.9533540010223632,-0.0181260023211225,0.6514781116108607,0.134648497425377,-0.4639389350793443,-0.4370974451613565,10.333258259486684,-1.3878337042222215,0.1478064872440668,-1.4032264675603148
1.96,-0.8609873124712212,-0.0368750087940872,1.6112556308721635,0.0565104502955733,0.1738400008371793,0.0435483131178684,0.9721524027305396,0.7695861111562067,0.0712077797977153,-0.8628831468820439,-0.042250202499375,1.6024419164749628,1.259499654361451,0.9772110223541504,-0.0353293631170972,0.6932996234779434,0.1770569627114415,-0.4721188939334542,-0.4758350027699823,10.279263217777952,-1.3858456626073514,0.1458116002390465,-1.4032332515700947
1.98,-0.8414996647154256,-0.021587360291798,1.6125786493541778,0.0563556156739981,0.1752435151894117,0.0433608674853392,0.9764401939045612,0.7598620015084451,0.0615860412952678,-0.8380931538007754,-0.0229445522656099,1.6019073628205809,1.2994996549574973,1.0010680436859374,-0.052532723913072,0.7168007278930262,0.214389558701078,-0.4862054823880801,-0.481086925122377,10.279263217777952,-1.3841651320775026,0.1456405273665462,-1.4027166420174195
2.0,-0.822901418740172,-0.0072439722419343,1.61365762738189,0.0547760876614281,0.1763015563841704,0.0430562520670014,0.981033117152634,0.7506403864322587,0.0524889993098806,-0.7926776550201975,0.0164057397836242,1.6156579514189413,1.0764401953946772,0.768901950202853,0.0239648300347106,0.6871850214096852,0.2296461624036405,-0.4610807538093175,-0.4548520992693577,10.280697315330144,-1.3827912332000445,0.1473724993973417,-1.4013214274949932
2.02,-0.8031667413800399,0.0078600220597684,1.614766037069024,0.0578713338662869,0.1757884511601524,0.0429658632401637,0.9924180549872976,0.7580750259665564,0.0595251880737969,-0.7926776550201975,0.0164057397836242,1.6156579514189413,1.0764401953946772,0.768901950202853,0.0239648300347106,0.7655041260920123,0.5692468917331772,0.3717319767148841,0.3518094381958176,10.280697315330144,-1.3780234492301444,0.1424593674683184,-1.3984692325178163
2.04,-0.7832068926107534,0.0229872782277579,1.616015492605407,0.0670842954623448,0.1724653018164472,0.0430969697064436,1.0027573211913108,0.7532585687208938,0.0648064564190732,-0.7926776550201975,0.0164057397836242,1.6156579514189413,1.0764401953946772,0.768901950202853,0.0239648300347106,0.6284713226782175,0.5169633102006632,-0.2408228622831298,0.2640634172638111,11.340912105742063,-1.384517432585026,0.1302840628796521,-1.3945942880080209
2.06,-0.7630718320560758,0.0379263907220936,1.6173166185550467,0.0768285158659263,0.1671949738991413,0.0430562849342881,1.0098777200940767,0.7409047586273917,0.065103818814909,-0.7819132530662507,0.0240947592856527,1.6158975997192884,1.0964401956927003,0.7707099399417346,0.0164405877825991,0.7131008497317937,0.3560199451382972,-0.6176905046751058,0.0148681197917922,10.826411785313212,-1.392521092261552,0.1180032072447763,-1.386821691726547
2.08,-0.7438514640980245,0.0518483742184077,1.618518713592877,0.0846726683443591,0.1615946669686733,0.0427922917470744,1.0128210756997074,0.7255709162620415,0.0614784023376013,-0.7603844491583572,0.0394727982897098,1.6163768963199827,1.136440196288747,0.7743259194194978,0.0013921032783763,0.8014575917360499,0.1471677802815318,-0.766692118267509,-0.1812708238653849,10.826411785313212,-1.4014124677826671,0.1069238975797694,-1.3769552432058014
2.1,-0.7235950216346507,0.0661714713492019,1.619679296874771,0.0909633904651509,0.1562602750124462,0.0423521797912102,1.012460864109951,0.7078657795524662,0.0546832893556434,-0.7388556452504637,0.0548508372937668,1.6168561929206768,1.1764401968847933,0.777941898897261,-0.0136563812258465,0.9483870237562808,-0.0180105794878149,-0.8852568354787649,-0.3397556490978954,10.585208151940606,-1.409449661889882,0.0984497710358792,-1.3673474738424527
2.12,-0.703382293207841,0.0801284869781381,1.6206761515644197,0.095193932497582,0.1526887125536747,0.0418772131488589,1.0087695253802444,0.6892575806313427,0.0454152454478351,-0.7153268413127678,0.070409675271712,1.61658306529616,1.2164401974808396,0.7815578783750241,-0.0287048657300694,1.0556842408866836,-0.1845669364853308,-0.9304099460561766,-0.4634021953904141,10.276177101338362,-1.414924653092517,0.092590201455666,-1.3600395716753235
2.14,-0.6842701605605466,0.093040674963308,1.621444516194088,0.0975702964485267,0.1519084309615326,0.0415324090307182,1.0035073488141513,0.6713072758542276,0.0359615166544198,-0.6917980373750718,0.0859685132496573,1.616309937671643,1.2564401980768862,0.7851738578527873,-0.0437533502342923,1.0479467208588331,-0.263108828304659,-0.8975152388557561,-0.4726864396707667,10.276177101338362,-1.4160225350986355,0.0890157432912822,-1.3574114462232354
2.16,-0.6642443703403998,0.1062660176184572,1.6220585940906067,0.0986108952071303,0.1536174107308566,0.0412979029427583,0.9996299865952608,0.6523370293882106,0.0259488774159445,-0.6672692334224749,0.1016177507145466,1.6156605979345204,1.2964401986729326,0.7887898373305505,-0.0588018347385151,1.0899049652122947,-0.1938681109445283,-0.9485123233008486,-0.5006319619237668,10.235973224455847,-1.4134232961628728,0.08704282718858,-1.3584956767868177
2.18,-0.6442725163704516,0.1191064497854516,1.622476544601274,0.0979599657223234,0.1569015895432969,0.0410867997877637,0.9979735224778328,0.632839270084659,0.0163807366847506,-0.6417404294549768,0.1173573876663799,1.6146350460847922,1.336440199268979,0.7924058168083137,-0.073850319242738,1.0891003262825336,-0.0828232058713906,-0.9748879651775788,-0.4784070365596918,10.232804821268472,-1.4086948032874895,0.0872118462541245,-1.3612459169590476
2.2,-0.6243093682980267,0.131554231775266,1.6227119646188355,0.0952674861929698,0.1608599229896906,0.0407822215346023,0.9985617555541464,0.6133261693861753,0.0076664099571682,-0.5943738402465599,0.1507484132896846,1.6232955814355117,1.0979735239679491,0.5867584125693239,-0.0386201906145104,1.068932419912843,0.0294116538156696,-0.9756550349241832,-0.4357163363791219,10.266946262027886,-1.403045538462517,0.089739374316968,-1.3640531274814445
2.22,-0.6052878068341828,0.1432281021320603,1.6228660169686675,0.0975260590582038,0.1639409530661751,0.0407506644300923,1.0036031430939911,0.6134518167182074,0.0087028612752274,-0.5943738402465599,0.1507484132896846,1.6232955814355117,1.0979735239679491,0.5867584125693239,-0.0386201906145104,0.2574179816643476,0.2520693769922533,0.0062823666016009,0.0518225659029613,10.318084258808994,-1.394846405792094,0.0861432744406777,-1.3668421044053822
2.24,-0.5851629833825799,0.1553893501034123,1.6230229631277997,0.1064958777175043,0.1658747829756321,0.0410437412858021,1.0085593203977656,0.6014455446421828,0.0066840397637622,-0.5943738402465599,0.1507484132896846,1.6232955814355117,1.0979735239679491,0.5867584125693239,-0.0386201906145104,0.6572478659629277,0.2478088651887144,-0.600313603801228,-0.100941075573259,10.826758276753935,-1.3940702270130032,0.0742751171467598,-1.3697236841183642
2.26,-0.5649455200605412,0.1672133667834381,1.6230981439528265,0.116605654715197,0.1669836485634996,0.0413136423868182,1.01290702019192,0.5814431878222728,0.0009363998285745,-0.5833941050068804,0.1566159974153778,1.6229093795293663,1.1179735242659723,0.577542241066257,-0.0496203760743626,1.0630523701535788,0.2173849897077251,-1.0001178409955014,-0.2873819967593841,10.650419512874578,-1.3929874655344707,0.0615480152307435,-1.369780469109518
2.28,-0.5456648949116578,0.1780314065956554,1.623037494983258,0.1250837989492884,0.1676309119518502,0.0414220598597174,1.0164086115829618,0.5586011524517729,-0.0069914748222053,-0.5614346345275214,0.1683511656667643,1.6221369757170765,1.1579735248620189,0.5591098980601229,-0.071620746994067,1.2215470914126314,0.1750795695520834,-1.1421017685249946,-0.3963937325389949,10.487121087887315,-1.3918620834090083,0.0496316628861262,-1.3675336248255527
2.3000000000000003,-0.5253034755579883,0.188930994309379,1.6227939687654118,0.1322247296224996,0.1682101853565493,0.0413728645669011,1.0195485501947952,0.5328078457242842,-0.0169727303403895,-0.5394751640481624,0.1800863339181508,1.6213645719047862,1.1979735254580652,0.5406775550539888,-0.0936211179137715,1.3917429253849996,0.1569969305916685,-1.2896653363744348,-0.4990627759092109,10.367043673759326,-1.3906332686236564,0.0400693255895752,-1.3640721617568468
2.32,-0.5048824141271898,0.1993014211895113,1.6223388902963474,0.1374737251878464,0.1689144291886134,0.0411825868542843,1.0224271366704245,0.505835574640882,-0.0280249173499037,-0.5155156935390012,0.1908998850192306,1.6194921495465109,1.2379735260541116,0.5222452120478548,-0.1156214888334759,1.4645310727221563,0.1439293237814665,-1.3486135541701083,-0.5526093504757126,10.283684386579807,-1.3893620788805718,0.0329202944231082,-1.3603669905667273
2.34,-0.4844040555689473,0.2091241739347804,1.62165931979459,0.1409044149030817,0.1698670610194023,0.04087670733583,1.0253288192509689,0.4782484208290637,-0.0393096570299704,-0.4915562230298398,0.2017134361203104,1.617619727188235,1.2779735266501582,0.5038128690417207,-0.1376218597531804,1.4973444550954391,0.1450841290272175,-1.3793576905909126,-0.5642369840033317,10.233976847585836,-1.3880252737873433,0.0282942300905135,-1.356783130600005
2.36,-0.4648885249512478,0.2179381733422828,1.620805074709243,0.1425677210439423,0.1708726781279973,0.0404696829266076,1.0288032300252816,0.4513275503431259,-0.0499825391027954,-0.4665967525057773,0.2120661786462368,1.6151972955569671,1.3179735272462043,0.4853805260355867,-0.1596222306728848,1.4583511320063949,0.1737205387156382,-1.3460435242968942,-0.533644103641254,10.22763092225523,-1.3864300493437731,0.025486298641029,-1.3530099281879058
2.38,-0.4442690399612086,0.226661126058719,1.6196878344461787,0.1425425999886373,0.1717971203701549,0.0398794204600326,1.032971153847712,0.4225782972445784,-0.0611373711749832,-0.4406372819668137,0.2219581125970098,1.6122248546527065,1.357973527842251,0.4669481830294527,-0.1816226015925892,1.5558931689488134,0.2083961911215182,-1.437462654927374,-0.5577416036093862,10.235697489827544,-1.3851012965055989,0.0249523746680925,-1.3487381497706548
2.4,-0.4235613916832912,0.234802499066015,1.6183491920584163,0.1402975479231616,0.1724306503532672,0.0390759441128691,1.0375706274213532,0.393252051365892,-0.072107512039861,-0.392620482268823,0.2477900409209479,1.6166309658874296,1.1089182820840058,0.3486609455814657,-0.1236361753567974,1.582346236674403,0.2299736786820605,-1.4663122939343214,-0.5485070432438899,10.241131275658518,-1.3842729682917394,0.0269669029019797,-1.3440555434816477
2.42,-0.4026554910456299,0.242428225715777,1.6169257599696918,0.1381314644709274,0.1700598672874038,0.0378462438734613,1.0524700337303226,0.3700521665061306,-0.0697392892350557,-0.392620482268823,0.2477900409209479,1.6166309658874296,1.1089182820840058,0.3486609455814657,-0.1236361753567974,1.383686602088006,0.7449703154484677,-1.1599942429880687,0.1184111402402661,11.051088462922962,-1.3842209260312988,0.0288749346198971,-1.3346195781316323
2.44,-0.3825473840525966,0.2492365668125479,1.615604531519807,0.1376337713213037,0.1632536012270901,0.0361478698179254,1.0627318809570114,0.3475726321200345,-0.0694212411869261,-0.392620482268823,0.2477900409209479,1.6166309658874296,1.1089182820840058,0.3486609455814657,-0.1236361753567974,1.2356538039439855,0.513092361334444,-1.1239767193048034,0.0159024024064757,11.051088462922962,-1.3944244778212942,0.0287568579388161,-1.3192850368034137
2.46,-0.3612351004746978,0.2559327861625064,1.614187552248348,0.1382093610213967,0.1535896494448492,0.0340781549085863,1.0674335829844313,0.3231912268383236,-0.0724005855678783,-0.381531299447983,0.2512766503767626,1.6153946041338616,1.1241077077312644,0.3338774752488432,-0.1361359361931602,1.2504353425967272,0.2350851013709909,-1.2190702640855478,-0.1489672190476083,10.835823438659643,-1.407642788186653,0.0272344645482152,-1.299552865527509
2.48,-0.3398901042161961,0.2621331318733407,1.6126728521459015,0.1393922703611314,0.1433300542957236,0.0319466109111801,1.0664784329682084,0.298072380064273,-0.0790333510213105,-0.3593529338063029,0.2582498692883919,1.6129218806267258,1.154486559025782,0.3043105345835982,-0.1611354578658859,1.2998676397733389,-0.0477575008111408,-1.2559423387025286,-0.3316382726716075,10.58987559889556,-1.4214653409114977,0.0251009954191324,-1.277950814911981
2.5,-0.3186175268196076,0.2678227238944953,1.6109865456093038,0.1406493697341178,0.1340134970046451,0.0299288935460097,1.0607656962805752,0.2722279695710775,-0.0892029428453769,-0.3371745681646227,0.2652230882000213,1.6104491571195898,1.1848654103202996,0.2747435939183531,-0.1861349795386116,1.417735440827327,-0.285636834381664,-1.292220524659773,-0.5084795912033223,10.352561830370178,-1.433228377747475,0.0230160915844349,-1.258776904276822
2.52,-0.2985495510694467,0.2727421699304037,1.6091711068313086,0.1414874353970042,0.1269678698946318,0.0282253844659604,1.0519672169380974,0.2470180334148326,-0.1013439493642478,-0.3134772599582168,0.2707179600783883,1.6067264575288176,1.2152442616148171,0.245176653253108,-0.2111345012113372,1.466593126120209,-0.4399239671238897,-1.260496807812246,-0.6070503259435444,10.150195924851689,-1.4426626541305336,0.0214108935101441,-1.2399367034726687
2.54,-0.2776341184995132,0.2773998550007335,1.6069977850596902,0.1416811790621116,0.1222433333937147,0.0267579632112929,1.0399111182158878,0.2201541740312344,-0.1153777085533405,-0.2897799517518107,0.2762128319567554,1.6030037579380454,1.2456231129093347,0.215609712587863,-0.236134022884063,1.6309221734641752,-0.6028049361104793,-1.3431929691799085,-0.7016879594546367,9.998299943186794,-1.4490067477262902,0.0206573237053053,-1.2255488578547806
2.56,-0.2569786633325649,0.2815080317765638,1.6045357664728976,0.140639070565938,0.1210379316602566,0.0257036147120965,1.026535807336971,0.1921891861378292,-0.1301134839134314,-0.2653231722630418,0.2809685303184913,1.598656070305455,1.276001964203852,0.1860427719226179,-0.2611335445567886,1.7161603687075917,-0.6687655439458373,-1.3982493946702617,-0.7367887680045426,9.926712507340198,-1.4504830600035248,0.0211550770179706,-1.2176472466152688
2.58,-0.2365758882927843,0.2850514871138932,1.6017788661356345,0.1376969161500316,0.1229409643156903,0.0249564596280166,1.014799061126713,0.1641181970285358,-0.1447556232332359,-0.2401069214919099,0.2849850551635961,1.5936833946310465,1.3063808154983696,0.1564758312573729,-0.2861330662295143,1.6882860280759877,-0.5868373105128999,-1.403549455464667,-0.7321069659902285,9.888581160569627,-1.4476562255545682,0.0235256953098832,-1.2147430163552944
2.6,-0.2173883512703179,0.287920033160985,1.5988970268099207,0.1336118644447864,0.1266339295713366,0.024413073682775,1.0057934906330093,0.1396503727607515,-0.1578105184447286,-0.1858359352364486,0.29325739696532,1.5945410849739727,1.0620007206571145,0.0641181955384197,-0.1787070994495522,1.4579137605661878,-0.4502785246851881,-1.223391213389216,-0.6527447605746334,9.91012333155777,-1.4421879630970156,0.0275090653610656,-1.2149722425999303
2.62,-0.1972382091902036,0.2904893752880194,1.595838094789907,0.1307210696230992,0.1289652618767011,0.0237280260046718,1.0099268256274174,0.117692885799505,-0.1462739974464244,-0.1858359352364486,0.29325739696532,1.5945410849739727,1.0620007206571145,0.0641181955384197,-0.1787070994495522,1.2572857755633975,0.2066667497204077,-1.097874348062324,0.5768260499152091,9.91012333155777,-1.437626844374644,0.0293698495828721,-1.2179993191949012
2.64,-0.1769958295808346,0.2925985315582822,1.5930331451622457,0.1300383648962291,0.1267035273997215,0.0225973109515621,1.0137300807778231,0.0941734779818909,-0.1350698388064184,-0.1858359352364486,0.29325739696532,1.5945410849739727,1.0620007206571145,0.0641181955384197,-0.1787070994495522,1.3163970379987548,0.1901627575202957,-1.1759703908807049,0.560207932000302,11.528710097906696,-1.4401445301159543,0.0290919197291535,-1.2129515673766578
