t,x,y,z,roll,pitch,yaw,v_x,v_y,v_z,ref_x,ref_y,ref_z,ref_v_x,ref_v_y,ref_v_z,a_com,a_x,a_y,a_z,thrust,wind_x,wind_y,wind_z
0.0,-1.3463838636859904,0.5198659549098563,2.885662220864293,0.0114080659166906,0.1362078870502413,0.0257425442446365,0.0013055959763898,0.0033488213981866,-0.0034649827316802,-1.3463378126432308,0.5198659929861154,2.8855558727471897,0.0708723442974722,-0.0913619241243486,-0.1034383339489515,0.2496261752168651,0.0652797988194924,0.1674410699093324,-0.173249136584012,10.540676187735698,-1.2865095137413036,0.1648645906793505,-1.162367398201395
0.02,-1.3464739989273495,0.5201792575982979,2.88537296473928,0.0199846142083329,0.1385295040125171,0.0263846417595813,-0.0100204262028159,0.0238225741278143,-0.0265576148597176,-1.3463378126432308,0.5198659929861154,2.8855558727471897,0.0708723442974722,-0.0913619241243486,-0.1034383339489515,1.643717575983373,-0.5663011089602892,1.0236876364813845,-1.154631606401869,10.54069792327573,-1.3102806999647645,0.1580069181555887,-1.1780098203375442
0.04,-1.3467669106697393,0.5206886170434762,2.8845194733157427,0.0350470795998866,0.1445123561595516,0.0275915798252188,-0.0181897934489543,0.0253715447143633,-0.0577812598477088,-1.3463378126432308,0.5198659929861154,2.8855558727471897,0.0708723442974722,-0.0913619241243486,-0.1034383339489515,1.6155911282069335,-0.4084683623069218,0.0774485293274529,-1.5611822493995595,9.152601767997568,-1.299818037387218,0.1415066464369209,-1.163160281018086
0.06,-1.3471567221261116,0.521131295098332,2.8831340725732373,0.0497756409839229,0.1518316613869993,0.0289042691594792,-0.0221174426667677,0.0208562258172889,-0.0864616400319072,-1.345629089200256,0.5189523737448719,2.8845214894077,0.0847585337582266,-0.1098014211779718,-0.1234383342469747,1.4649050657215237,-0.19638246089067,-0.2257659448537237,-1.4340190092099236,8.796425977190665,-1.2861655324741783,0.1257407463293797,-1.1518134738542904
0.08,-1.3476135921637364,0.5214683620616198,2.8811024404222727,0.0647420011818138,0.1601995277436511,0.0303829385268769,-0.0230542075516318,0.0127657337871146,-0.1151337427385504,-1.344211642314307,0.5171251352623849,2.882452722728721,0.1125309126797354,-0.1466804152852182,-0.1634383348430212,1.4903213272312443,-0.0468382442432033,-0.4045246015087113,-1.4336051353321562,8.959483416880175,-1.2733099702620103,0.1103266515808259,-1.1423281833121202
0.1,-1.3480592819687571,0.5216132749721902,2.878515983726608,0.0790136300963287,0.168657882670344,0.0319221702883761,-0.0212074888346716,0.0018281408240344,-0.1420166887528658,-1.342794195428357,0.5152978967798979,2.880383956049742,0.1403032916012442,-0.1835594093924646,-0.2034383354390676,1.4540753902860315,0.0923359358480086,-0.5468796481540139,-1.3441473007157694,9.057662914118737,-1.2616636291513743,0.0961302442940884,-1.133426633300714
0.12,-1.348442001419573,0.5215111367893173,2.8754105482180043,0.0925910821195341,0.1768884500564566,0.0334892201462397,-0.0169485830647521,-0.0117774152396111,-0.1672200732249702,-1.3399881295963323,0.5116267085920486,2.876315189340961,0.168075670522753,-0.220438403499711,-0.243438336035114,1.447808708882817,0.2129452884959751,-0.6802778031822769,-1.260169223605223,9.057662914118737,-1.2524528171033376,0.0836281902984858,-1.1274692417149617
0.14,-1.3487086495538048,0.5211388307022247,2.87199660944595,0.1048692427788912,0.184358857497331,0.0349785843564825,-0.0111703434478293,-0.0269654087471998,-0.1909122596021721,-1.3371820637643077,0.5079555204041993,2.87224642263218,0.1958480494442618,-0.2573173976069575,-0.2834383366311606,1.436473890459903,0.2889119808461395,-0.7593996753794363,-1.184609318860094,9.14743821862885,-1.2451057297597283,0.0713984156878017,-1.1232241808191887
0.16,-1.348854201903209,0.5204119056048272,2.8679158445425967,0.1171673721116858,0.191798052634799,0.036525664586587,-0.0035162079065991,-0.045185448753299,-0.2159437031411101,-1.3336816884592448,0.5033623573636689,2.867177655908497,0.2236204283657706,-0.2941963917142038,-0.323438337227207,1.5946228506691007,0.3827067770615134,-0.9110020003049594,-1.2515721769468997,9.170130976695871,-1.2392186392150062,0.0600492477649824,-1.119107940675934
0.18,-1.3488301087780532,0.5192970678555099,2.8633376499000467,0.1288503225994448,0.1987839670883112,0.0380334582540715,0.0057042888854434,-0.0656322097832575,-0.240626245663232,-1.3294870036811446,0.4978472194704573,2.861108889169913,0.2513928072872794,-0.3310753858214502,-0.3634383378232534,1.667569715982402,0.4610248396021277,-1.0223380514979237,-1.234127126106095,9.178189230405223,-1.2341199760459864,0.049523385824882,-1.1143264984283965
0.2,-1.3486057053055425,0.5177505248806024,2.858271773322762,0.1399447243868213,0.2053183993433332,0.0394865920057547,0.0164155587546679,-0.0882288212719881,-0.264762923213151,-1.348544894333781,0.516015457366347,2.851306337616885,0.0599799803946902,-0.159134768551053,-0.3406262471533481,1.737755273429454,0.5355634934612247,-1.129830574436532,-1.2068338774959468,9.213713489036309,-1.2300899873438995,0.0402176232936192,-1.1095897446513412
0.22,-1.3481499465846494,0.5156674345252011,2.85311340728106,0.1447519478458924,0.2111175016437152,0.0404263210812969,0.0310865690937081,-0.126794412300192,-0.2766356813581601,-1.348544894333781,0.516015457366347,2.851306337616885,0.0599799803946902,-0.159134768551053,-0.3406262471533481,2.146803287269693,0.7335505169520106,-1.928279551410194,-0.593637907250455,9.255920742213675,-1.216238929979022,0.0361056954309017,-1.0969986822586828
0.24,-1.3473601709819405,0.5127820777937929,2.847448828239894,0.143438211590178,0.2168107186806784,0.0408857491780407,0.0472068927130594,-0.159195565885977,-0.2892624138268893,-1.348544894333781,0.516015457366347,2.851306337616885,0.0599799803946902,-0.159134768551053,-0.3406262471533481,1.9164641661919384,0.8060161809675627,-1.620057679289251,-0.6313366234364626,10.07054653994328,-1.2125034866481434,0.0380957561140456,-1.0973448183487335
0.26,-1.3462408919221018,0.5092999986843638,2.8415144815525397,0.1388714261254296,0.2220580470527616,0.0410104958804298,0.0639867258643876,-0.186619180878329,-0.3035301411189062,-1.347945094529834,0.5144241096808365,2.847900075145352,0.0708351186965396,-0.1778352803046121,-0.3606262474513714,1.7586823916746073,0.8389916575664094,-1.3711807496175967,-0.7133863646008459,9.820215563376223,-1.210193420217123,0.0432355641800127,-1.0980336954291696
0.28,-1.3447749217467797,0.5053191159902355,2.835275508068197,0.1333977962730785,0.2265805931732829,0.0409252609492445,0.0817761498606708,-0.2098897879617041,-0.3196126969738402,-1.3467454949219402,0.5112414143098154,2.8410875502022845,0.0925453953002383,-0.2152363038117304,-0.4006262480474178,1.6708032222373173,0.8894711998141631,-1.1635303541687596,-0.8041277927466978,9.820215563376223,-1.2076376252784302,0.0486839926449441,-1.0990337781013553
0.3,-1.343046624345123,0.5011317103272479,2.8290353592176394,0.1283594107969339,0.2299540120566856,0.0406951771820342,0.0992184259566583,-0.2297218725883628,-0.336424228078185,-1.3455458953140464,0.5080587189387944,2.8342750252592177,0.1142556719039371,-0.2526373273188486,-0.4406262486434643,1.5653850597536376,0.8721138047993737,-0.9916042313329334,-0.8405765552172401,9.706241672643046,-1.2071937021564665,0.0543191742005808,-1.098558267286371
0.32,-1.3408689456746612,0.4963346355825548,2.822107270697597,0.1236416573309674,0.232493390239847,0.0403332402929284,0.1175824652972281,-0.2489705091126298,-0.3555625457162568,-1.3432607818759676,0.5030059723924174,2.8254625002863483,0.1359659485076358,-0.2900383508259668,-0.4806262492395107,1.638614621380716,0.9182019670284882,-0.9624318262133474,-0.9569158819035888,9.609229570138268,-1.208807265056835,0.0593635559993635,-1.0966954795452375
0.34,-1.3383233724155086,0.4911639075785498,2.814787891415314,0.1196601171312255,0.2340435102269271,0.0398763981394509,0.1359718082924147,-0.2672519238036174,-0.375398697347534,-1.3409756684378888,0.4979532258460404,2.8166499753134797,0.1576762251113345,-0.3274393743330851,-0.5206262498355572,1.6323686550818584,0.91946714975933,-0.9140707345493826,-0.9918075815638638,9.518208132509244,-1.211410325749787,0.0634523562577577,-1.0931330462729472
0.36,-1.3355626217723968,0.4859114035269723,2.807462616453644,0.116242638328459,0.2345963743817668,0.0393407648330666,0.1536018004084154,-0.2846501572721289,-0.3946503393531669,-1.3381477980847176,0.4919654537119855,2.8068374503257085,0.1793865017150333,-0.3648403978402033,-0.5606262504316035,1.568550979206709,0.8814996058000387,-0.8699116734255719,-0.9625821002816448,9.480059808854094,-1.214201865967628,0.0672163090592258,-1.0878686177045136
0.38,-1.3322970141762496,0.4800310254202256,2.799351911937583,0.1127808013223801,0.2341876300579598,0.0386582900597728,0.1719730888367091,-0.3023811792707971,-0.4154027984205826,-1.334777170816454,0.4850426559902526,2.796024925323037,0.201096778318732,-0.4022414213473215,-0.60062625102765,1.64511241027595,0.9185644214146832,-0.8865510999334136,-1.037622953370784,9.454554362701856,-1.2173095560964138,0.0706977626893252,-1.0811473963782277
0.4,-1.3286647575502462,0.4738017125879817,2.7908218110786547,0.1093689651455965,0.2326491205472849,0.037843847415112,0.1902677673714637,-0.3195531823161898,-0.4365500758641468,-1.323698359734414,0.4649119664566857,2.7785817720165538,0.238211909389535,-0.3898052414632372,-0.5154027999106987,1.6407165313941825,0.9147339267377292,-0.8586001522696313,-1.0573638721782102,9.414909518290187,-1.221544961111355,0.0740402157554438,-1.0729183377502551
0.42,-1.3248607630135565,0.4675445215493263,2.7825484998514307,0.1060315394244589,0.2311328042821251,0.0370546763558249,0.2091572172696422,-0.338034341837685,-0.4332360585969401,-1.323698359734414,0.4649119664566857,2.7785817720165538,0.238211909389535,-0.3898052414632372,-0.5154027999106987,1.3316787198514648,0.944472494908924,-0.924057976074763,0.1657008633603379,9.38265209464771,-1.2229804589125175,0.0776739822162737,-1.054724578355826
0.44,-1.3204845781801176,0.460603136809,2.773887961275959,0.1028529793579387,0.2309019851645585,0.0363913219389592,0.2275627510778624,-0.3551653276501559,-0.4333491758775435,-1.323698359734414,0.4649119664566857,2.7785817720165538,0.238211909389535,-0.3898052414632372,-0.5154027999106987,1.2572262576718145,0.9202766904110136,-0.8565492906235456,-0.005655864030174,10.82391576549344,-1.2263418286455148,0.0801850320720466,-1.0571399063534526
0.46,-1.3157407058933588,0.4533273745608577,2.765170765414725,0.1001898731473356,0.2316152804161774,0.0358558012142343,0.2459476948149039,-0.3715342127467805,-0.4385640262542082,-1.3213162406405188,0.4610139140420533,2.773427744017446,0.2514596735001002,-0.4072900539017252,-0.5354028002087219,1.2581148794641897,0.9192471868520709,-0.8184442548312298,-0.2607425188332346,10.47764480031401,-1.2280510584027986,0.0822014653964287,-1.0585956754140864
0.48,-1.3106292766907073,0.4457326741898806,2.7563029244508286,0.0978680217110479,0.2326294287451682,0.0353663689542259,0.2643037886762573,-0.3871263265993713,-0.4479318318813291,-1.316552002452728,0.4532178092127886,2.763119688019233,0.2779552017212306,-0.4422596787787012,-0.5754028008047684,1.2921067859376871,0.917804693067674,-0.7796056926295369,-0.4683902813560431,10.191903945508784,-1.2299140377005864,0.0841143688831079,-1.059161787728618
0.5,-1.305434164006247,0.4382357110266693,2.7476758933600536,0.095928455771569,0.2335149211622428,0.0349048122832862,0.2816239163672208,-0.4012689106709755,-0.4596911053943653,-1.3117877642649374,0.4454217043835238,2.752811632021019,0.304450729942361,-0.4772293036556772,-0.6154028014008148,1.2632102170740094,0.8660063845481736,-0.707129203580209,-0.5879636756518092,9.976490088844912,-1.2315575133602257,0.0857913683783498,-1.0582110298904024
0.52,-1.2996136988292144,0.4300613883446825,2.7383293090376304,0.0942068268759319,0.2342023207265046,0.0344106278641611,0.2994762705128708,-0.4154331141036672,-0.4744451977209142,-1.30569874966609,0.4358771183104103,2.7405035759930025,0.3309462581634914,-0.5121989285326533,-0.6554028019968613,1.357400500777782,0.8926177072824976,-0.7082101716345851,-0.7377046163274448,9.810024297286873,-1.2334958937961782,0.0871948204977482,-1.055823992414054
0.54,-1.2934374228837202,0.4216093167333454,2.7286740745284197,0.0928870713443678,0.2345647524304047,0.0339074258248989,0.3172210314077416,-0.4290932652583724,-0.490311119685295,-1.2996097350672429,0.4263325322372967,2.728195519964986,0.3574417863846217,-0.5471685534096292,-0.6954028025929078,1.3722278861083503,0.8872380447435435,-0.6830075577352629,-0.7932960982190429,9.669218893469406,-1.235229723037533,0.0881785512040846,-1.0519364136387557
0.56,-1.2872389791416303,0.4133221829335833,2.7192001552937843,0.0917929530022744,0.2344616795139346,0.0333934578685388,0.3342773891320911,-0.4424671271049707,-0.5061150718087198,-1.2928583322628673,0.4159137055422588,2.714887463922069,0.3839373146057521,-0.5821381782866052,-0.7354028031889541,1.341216259810826,0.8528178862174746,-0.6686930923299139,-0.790197606171239,9.61380232342799,-1.2375619617637004,0.0890247477894665,-1.0471130805364277
0.58,-1.280365874771798,0.4043246280933428,2.708894728429512,0.0905289921027407,0.2337217265831199,0.032781910480316,0.3520865232566194,-0.4565085419077701,-0.5236109778554381,-1.2854445412529636,0.4046206382252965,2.70057940786425,0.4104328428268824,-0.6171078031635812,-0.7754028037850006,1.4321603579254876,0.890456706226414,-0.7020707401399706,-0.8747953023359123,9.571566288386748,-1.240634589973976,0.0899454966802975,-1.0415776685931668
0.6,-1.2731370077827924,0.3950455988519923,2.698230567488224,0.0889416126928722,0.232124454966344,0.0320674836889158,0.3698540137867212,-0.4705925954184952,-0.5419333557678807,-1.2627615486089672,0.3814992009979543,2.6827141795367404,0.4440702960708932,-0.5277082942981548,-0.6236109793455542,1.457526856867988,0.8883745265050896,-0.7042026755362557,-0.9161188956221312,9.515409302391165,-1.2442621783204282,0.0910764184650475,-1.035551927143467
0.62,-1.2655408777533652,0.3853991259236234,2.687505483616372,0.0849131972077302,0.2313502606028132,0.0312567549913299,0.38909218292757,-0.4916998171033758,-0.5295555603754252,-1.2627615486089672,0.3814992009979543,2.6827141795367404,0.4440702960708932,-0.5277082942981548,-0.6236109793455542,1.5563031339717308,0.9619084570424374,-1.0553610842440302,0.6188897696227769,9.465111714437626,-1.2439027422223383,0.0944518314574655,-1.0200966511720924
0.64,-1.2579662873443287,0.3759065225126826,2.67751422922448,0.0794332037187202,0.232559715038883,0.0305412703237866,0.4074574513566491,-0.5061461074721274,-0.5228654011158391,-1.2627615486089672,0.3814992009979543,2.6827141795367404,0.4440702960708932,-0.5277082942981548,-0.6236109793455542,1.2152536986253533,0.9182634214539576,-0.7223145184375779,0.3345079629793024,11.33216369436559,-1.2434038571127366,0.0989030338965353,-1.0274901559803726
0.66,-1.2496146050430117,0.3656542696616744,2.6670739528875687,0.0735488232068695,0.2349385721344429,0.0298658100069673,0.426835853079503,-0.5181578682042179,-0.5217913550316898,-1.2583208456482582,0.3762221180549728,2.676478069743285,0.462467050633748,-0.5419482447762317,-0.6436109796435774,1.141225683430073,0.968920086142694,-0.6005880366045269,0.0537023042074646,10.48948787626523,-1.243274789896192,0.1037525758697497,-1.0352507618783118
0.68,-1.240875953324266,0.3551852034509041,2.6565993982673874,0.0680737684740144,0.2378927492716502,0.0292548038590189,0.4461353561070638,-0.5280792368645225,-0.5259337090334545,-1.2494394397268405,0.3656679521690097,2.6640058501563737,0.4992605597594576,-0.5704281457323856,-0.6836109802396239,1.1046079280455547,0.9649751513780392,-0.4960684330152287,-0.2071177000882329,10.48948787626523,-1.2430178043444111,0.1081749115188027,-1.0415354015986753
0.7000000000000001,-1.2317526565382213,0.3445354626357136,2.6459940084194957,0.0632156419755294,0.2410987113838969,0.0286966124628523,0.4653425569227175,-0.5364378750551652,-0.5343979351818612,-1.2405580338054225,0.3551137862830466,2.6515336305694626,0.5360540688851672,-0.5989080466885395,-0.7236109808356703,1.1296310458135093,0.9603600407826846,-0.4179319095321321,-0.4232113074203347,10.20126429262109,-1.2425589281303242,0.1123777334244998,-1.0466910194305492
0.72,-1.2227292561994023,0.3342752143293339,2.6357316542969333,0.059232373749083,0.2442066810450676,0.0282084692854832,0.4836118337539165,-0.5432477118420627,-0.5454377514770028,-1.229836952427719,0.3431356253492758,2.6370614109527493,0.5728475780108767,-0.6273879476446933,-0.7636109814317168,1.120287794307384,0.91346384155995,-0.3404918393448752,-0.5519908147570807,9.980766969034448,-1.2421124540411703,0.1160053706417038,-1.050962566146815
0.74,-1.212850425464258,0.3233446337298824,2.624687372942625,0.0557419743377109,0.2473867661390184,0.0277339922416808,0.5033702379801706,-0.5495194915777322,-0.5584774483434934,-1.2191158710500158,0.331157464415505,2.622589191336036,0.6096410871365863,-0.6558678486008472,-0.8036109820277633,1.2245034228114426,0.987920211312704,-0.3135889867834751,-0.6519848433245323,9.81317227400814,-1.241518755242612,0.1189716671460252,-1.053916205803472
0.76,-1.202563434363504,0.3122889755409994,2.6133700200207954,0.052749577504141,0.2500886841899156,0.0272656818411178,0.524347619446162,-0.5557016378447708,-0.5726396678509592,-1.2074749519441696,0.3184673059578304,2.6071169717044214,0.6464345962622957,-0.6843477495570011,-0.8436109826238096,1.3027259180411153,1.0488690732995742,-0.3091073133519306,-0.7081109753732884,9.743243007473213,-1.2412852497492404,0.1214619808532208,-1.0562766010928355
0.78,-1.1918478139919233,0.3011137189076892,2.601758122836386,0.0499989179766399,0.2518179984153706,0.0267638521256768,0.5460540997837373,-0.5614715263641875,-0.5878182655943058,-1.194914195110181,0.3050651499762519,2.590644752057905,0.6832281053880053,-0.7128276505131549,-0.8836109832198561,1.3554083624745406,1.0853240168787637,-0.2884944259708366,-0.7589298871673311,9.696941349173358,-1.2417547639743305,0.1235912651836258,-1.0575640942872353
0.8,-1.1812634736223782,0.2903950248915701,2.590436328175271,0.0475376994889728,0.2523514005784525,0.0262465122166189,0.5668782532551341,-0.5664845752198616,-0.603163742680084,-1.1645451090027363,0.2730401425894798,2.5723672095566714,0.6388261291240045,-0.6180619046486419,-0.687818267084422,1.3174404100563752,1.0412076735698383,-0.2506524427837053,-0.7672738542889079,9.651496214115468,-1.2435762576061355,0.1256832146700115,-1.057411014836915
0.8200000000000001,-1.169614121746219,0.2789638419308202,2.5785014800732364,0.0438589124326849,0.2516180777488492,0.025573136422704,0.5972646949969548,-0.575712271870896,-0.5879022389799994,-1.1645451090027363,0.2730401425894798,2.5723672095566714,0.6388261291240045,-0.6180619046486419,-0.687818267084422,1.7616751420170174,1.5193220870910351,-0.46138483255172,0.7630751850042305,9.60039424383558,-1.238277175774545,0.1281908676942334,-1.044030724208519
0.84,-1.157362330317946,0.2673885597195564,2.566869918567916,0.0392599168951979,0.2494926686051638,0.0247935281183025,0.6262031524951682,-0.5811737759040861,-0.5761728303620947,-1.1645451090027363,0.2730401425894798,2.5723672095566714,0.6388261291240045,-0.6180619046486419,-0.687818267084422,1.584961651906944,1.4469228749106722,-0.2730752016595061,0.5864704308952362,11.675232167802278,-1.2444077766725217,0.1320799954782001,-1.052150352911036
0.86,-1.1452057964528657,0.2563139373182155,2.555968898860526,0.0350810885895002,0.2460162943915097,0.0240359917359026,0.6518463897343523,-0.5843129680018253,-0.5718480698329511,-1.1581568477114963,0.2668595235429934,2.5654890268858277,0.657380534992058,-0.6293799803055328,-0.7078182673824451,1.3097076933098672,1.2821618619592023,-0.1569596048869581,0.2162380264571772,11.197736509400784,-1.2521149260332445,0.136046785690023,-1.0573794349372931
0.88,-1.1319077522663612,0.2446070381080238,2.5445261053292327,0.0312354107995128,0.240589463850366,0.0232504519342176,0.6762043992950622,-0.586251648730704,-0.5728511595242085,-1.1453803251290162,0.2544982854500205,2.5517326615441385,0.6944893467281648,-0.6520161316193145,-0.7478182679784916,1.2227809510056027,1.217900478035494,-0.0969340364439352,-0.0501544845628698,10.760147534057069,-1.2627508246690424,0.1395855429847345,-1.05746598386491
0.9,-1.118164660126249,0.2328719036825454,2.533006266534189,0.0281017660395133,0.2338350449171915,0.0225118830395659,0.696564338390135,-0.5873021521414525,-0.5789932702411059,-1.132603802546536,0.2421370473570477,2.53797629620245,0.7315981584642717,-0.6746522829330962,-0.7878182685745381,1.0646081455513283,1.0179969547536416,-0.0525251705374263,-0.3071055358448704,10.408669392220872,-1.2745964472959552,0.1424399636649261,-1.053512464702505
0.92,-1.1040552095864713,0.2211219545660349,2.52132081866719,0.0256671316161772,0.2265457564676416,0.0218437440226626,0.7131286211913418,-0.5877895750974602,-0.5891845259444918,-1.1179718393772506,0.2286440016983858,2.522219930830959,0.7687069702003786,-0.6972884342468779,-0.8278182691705845,0.9727213612697544,0.8282141400603404,-0.0243711478003838,-0.509562785169293,10.108529321983042,-1.285486707650695,0.144465798879185,-1.0471416164219314
0.94,-1.0903747646539343,0.2099546485447569,2.5100097276690776,0.0239912254674438,0.2197382062256252,0.0212855021931331,0.7259613288003809,-0.5878197369172574,-0.6009060702680077,-1.1033398762079651,0.2151509560397239,2.5064635654594687,0.8058157819364855,-0.7199245855606597,-0.867818269766631,0.8690136587571731,0.6416353804519548,-0.0015080909898601,-0.5860772161757954,9.85802069539568,-1.295600457801154,0.1458675684969788,-1.038075310349594
0.96,-1.075732993325366,0.1981977155183814,2.4978447388505534,0.0227879136367329,0.2130483081009789,0.0207725973400985,0.7373757670563802,-0.5878796825214184,-0.6150330342237414,-1.087780192745277,0.2010920065982174,2.489707200073077,0.8429245936725923,-0.7425607368744415,-0.9078182703626774,0.9081080673329572,0.5707219127999652,-0.0029972802080502,-0.7063481977866881,9.721029685710164,-1.3042063412728082,0.1466525383935745,-1.0283123984816014
0.98,-1.0608834315958282,0.1864413364542168,2.4853768512312207,0.022089583989041,0.2069544571687983,0.0203278815417399,0.7469108281644706,-0.587775974137829,-0.6310071017040751,-1.0712927889891863,0.1864671533738664,2.471950834671784,0.8800334054086991,-0.7651968881882232,-0.9478182709587238,0.9301867791337664,0.4767530554045218,0.0051854191794709,-0.7987033740166849,9.600054345704848,-1.3115153473285392,0.1469497283081307,-1.0189834630100227
1.0,-1.0466160186910018,0.1752758514248525,2.4732213983947977,0.0218968102072721,0.2017898380037888,0.0199656074807862,0.7543577432100972,-0.5875678050124948,-0.6476836642254356,-1.0235378901876049,0.1570525377473253,2.453826496146017,0.8469108296545867,-0.6196303317082388,-0.7310071031941913,0.913246428422203,0.3723457522813278,0.0104084562667083,-0.8338281260680203,9.489266244889222,-1.3183509494172991,0.1468049227961403,-1.009183560887577
1.02,-1.0314345234483386,0.1634219872506749,2.4604176416576022,0.0190426844613964,0.1986255415914111,0.0194632849362253,0.7634156525726831,-0.5965745427091838,-0.6300293810600437,-1.0235378901876049,0.1570525377473253,2.453826496146017,0.8469108296545867,-0.6196303317082388,-0.7310071031941913,1.089542059814141,0.452895468129294,-0.4503368848344458,0.882714158269593,9.38903131654024,-1.3170355903971314,0.1484088681025213,-0.9883958749976348
1.04,-1.0160749512382008,0.1514558919197017,2.447964406340673,0.013024854688362,0.1993609205145232,0.0188375223758866,0.7724500391928169,-0.5989837979843243,-0.6168345548222759,-1.0235378901876049,0.1570525377473253,2.453826496146017,0.8469108296545867,-0.6196303317082388,-0.7310071031941913,0.8085915100156112,0.4517193310066891,-0.1204627637570288,0.6597413118883899,11.070418504610643,-1.316924355232764,0.1537077751828352,-0.9995688290361104
1.06,-1.0005237056295593,0.1394909979851122,2.435679736582159,0.006526665758465,0.2024289667980679,0.0182188929466091,0.7825063693529661,-0.5972405033158857,-0.6122884214231603,-1.0150687818910589,0.1508562344302429,2.446516425114075,0.8669108299526099,-0.6260012032223208,-0.7510071034922144,0.5586505649184667,0.5028165080074642,0.0871647334219294,0.227306669955779,10.59432049713996,-1.3156265681180404,0.1592979652944934,-1.009712021465988
1.08,-0.9855552020222136,0.1281819288503838,2.4240331438209908,0.0008446193481501,0.2064530323122379,0.0176719151074758,0.7928144198008996,-0.5933326806657017,-0.613909978580229,-0.9981305652979672,0.1384636277960782,2.431896283050192,0.9069108305486564,-0.6387429462504847,-0.7910071040882609,0.5571275202233194,0.5154025223966741,0.1953911325092039,-0.0810778578534343,10.59432049713996,-1.3134278659870025,0.1648027758117857,-1.01925900228436
1.1,-0.9695793863346754,0.1163733176672699,2.411692908922181,-0.0042916746831308,0.2112276586391998,0.0171514559830882,0.8043617429538789,-0.5877983603013113,-0.620247031111898,-0.9811923487048752,0.1260710211619134,2.4172761409863077,0.9469108311447028,-0.6514846892786486,-0.8310071046843074,0.7143661678092155,0.5773661576489619,0.2767160182195194,-0.3168526265834526,10.253941693786146,-1.3108560712698265,0.1695602319921584,-1.0277057920944337
1.12,-0.9533667276314012,0.1046876002884079,2.399181991834728,-0.0084332857627195,0.2161911927829628,0.0166971795577656,0.8164849189620657,-0.5812388770548546,-0.630533045706073,-0.9622541320819812,0.1130413273763404,2.400655998892621,0.9869108317407492,-0.6642264323068124,-0.8710071052803539,0.8599423137885521,0.6061588004093399,0.327974162322836,-0.5143007297087498,10.001612125182874,-1.3083258150830537,0.1732453738210145,-1.034732417136904
1.14,-0.936901480430644,0.0931407386848262,2.3864497856661053,-0.0116039807381985,0.2211259300194848,0.0163122338765105,0.8295681064720811,-0.5739866297047383,-0.6421890709030355,-0.9433159154590872,0.1000116335907674,2.384035856798935,1.0269108323367957,-0.6769681753349763,-0.9110071058764004,0.9481927684307062,0.6541593755007735,0.3626123675058101,-0.5828012598481203,9.75843862164129,-1.305386839437479,0.1762120573731438,-1.04072499937296
1.16,-0.92100506549338,0.0823071578611265,2.374129652959222,-0.0138588071680646,0.2255709936474879,0.0160072623487041,0.8431545693687678,-0.5668921687340892,-0.6540970769910422,-0.923377698821292,0.0866633962294904,2.366415714690348,1.066910832932842,-0.6897099183631403,-0.9510071064724468,0.970468906636263,0.6793231448343318,0.354723048532457,-0.5954003044003398,9.75843862164129,-1.3026772089539411,0.1784374308523096,-1.046267185979218
1.18,-0.9039796819856972,0.0710508748515077,2.360905880791852,-0.0155897577516736,0.2296506581922132,0.0157484047084248,0.8587084258143214,-0.5591819333330006,-0.6677040390882167,-0.9024394821685956,0.0729966152925092,2.34779557256686,1.1069108335288884,-0.7024516613913042,-0.9910071070684932,1.1028594626957615,0.7776928222776813,0.3855117700544308,-0.6803481048587245,9.72510552708627,-1.3006815272838863,0.1800856024195139,-1.051205157613096
1.2,-0.8866314417695897,0.0599545354552281,2.3473985113773645,-0.0165974862873107,0.2327241309903221,0.0155683946039087,0.8752666844108413,-0.5509391393612185,-0.682342081656294,-0.8610442606949813,0.0430917781848576,2.327520678837441,0.9587084273044376,-0.5609714010914997,-0.7677040405783329,1.1793980142802871,0.8279129298259968,0.4121396985891035,-0.7319021284038607,9.677881376773255,-1.299927385965173,0.181090567808182,-1.0548370320887166
1.22,-0.8688455182905721,0.0489357013620072,2.333921262050442,-0.0199117824020912,0.2339782834874681,0.0152721475840417,0.9027915686493168,-0.5498912490090351,-0.6629741444632318,-0.8610442606949813,0.0430917781848576,2.327520678837441,0.9587084273044376,-0.5609714010914997,-0.7677040405783329,1.6836228182449846,1.3762442119237717,0.0523945176091722,0.968396859653109,9.637091741334189,-1.2931683452210083,0.1829551774417408,-1.04523486257781
1.24,-0.8514400214870461,0.0385491775901022,2.3214814596518223,-0.0255564333796792,0.2329127039417811,0.0148839358922686,0.9277210626026032,-0.5430823086677152,-0.6479999770986057,-0.8610442606949813,0.0430917781848576,2.327520678837441,0.9587084273044376,-0.5609714010914997,-0.7677040405783329,1.4933745558318856,1.2464746976643235,0.3404470170659923,0.7487083682313045,11.387773287184244,-1.298947079186398,0.1896574667570339,-1.0567306760541308
1.26,-0.8326320474052891,0.0277985109166133,2.3086089971654,-0.0316935075574182,0.2294992344069016,0.0145636732099904,0.9515321309382122,-0.5322644511367592,-0.6403337007379765,-0.851457176421937,0.0374820641739427,2.319843638431658,0.9787084276024608,-0.5613292946431995,-0.787704040876356,1.3626855929383015,1.1905534167804488,0.5408928765477994,0.383313818031461,11.387773287184244,-1.3076321425679782,0.1966572307759884,-1.062921926739975
1.28,-0.8133796500734551,0.017287354760568,2.29581568126941,-0.0370459776091108,0.2237632695102394,0.0144301825026845,0.9719969640143992,-0.5194871039432076,-0.639582844404689,-0.8322830078758482,0.0262626361521127,2.3044895576200912,1.0187084281985073,-0.5620450817465992,-0.8277040414724025,1.206890404483761,1.0232416538093425,0.6388673596775807,0.0375428166643709,10.90248957710719,-1.319764048363938,0.2029078038631674,-1.0631873271301542
1.3,-0.7937674786609742,0.0070444254740142,2.282970828154508,-0.0412537051331914,0.2165163770874986,0.0144944001613038,0.9878573558854457,-0.5056973634613087,-0.6448367896006709,-0.8131088393297594,0.0150432081302827,2.2891354768085246,1.0587084287945536,-0.5627608688499988,-0.867704042068449,1.0831815556309858,0.7930195935523299,0.689487024094948,-0.262697259799094,10.49280742630708,-1.331933240008822,0.207693066548399,-1.059477236684379
1.32,-0.774883205685537,-0.0024261606456661,2.2706254803303576,-0.0441835513214767,0.2091193427315549,0.0147024656074847,0.9989623214808584,-0.4921505744962283,-0.6543444965299094,-0.7919346707538684,0.0037879907532827,2.271781395967156,1.0987084293906,-0.5634766559533984,-0.9077040426644954,0.9965342984463867,0.5552482797706371,0.6773394482540163,-0.4753853464619262,9.864654556833557,-1.344704717758858,0.2114719134826956,-1.052259136712032
1.34,-0.7548128285481075,-0.0121167056717827,2.25740944729718,-0.0462641882457084,0.2015717039146,0.0150241720538989,1.007280467084899,-0.4778025200421477,-0.666831227436053,-0.7707605021779772,-0.0074672266237172,2.254427315125787,1.1387084299866466,-0.564192443056798,-0.947704043260542,1.0379988699773752,0.4159072802020269,0.7174027227040303,-0.6243365453071803,9.864654556833557,-1.3563962996751284,0.2140323493374483,-1.0428272290685712
1.36,-0.7346009389115927,-0.0215174976673415,2.2439207686663005,-0.0473605890925998,0.1946910939209039,0.0154164862139534,1.0133422627166149,-0.4630997849615318,-0.681469726540045,-0.748586333587185,-0.0187403386783022,2.236073234269517,1.178708430582693,-0.5649082301601976,-0.9877040438565884,1.080742153740932,0.3030897815857858,0.7351367540307963,-0.7319249551995977,9.706445184185212,-1.366565564898959,0.2155460124498177,-1.0333083126757403
1.38,-0.7142892653853611,-0.0306175200324708,2.2301167868134635,-0.0471778985433881,0.1885832236533663,0.015882110373795,1.0174448717409248,-0.447848082349414,-0.6981468527125403,-0.7254121649814916,-0.0300313454104721,2.216719153398345,1.2187084311787393,-0.5656240172635973,-1.0277040444526346,1.1484471807054937,0.2051304512155072,0.762585130605889,-0.8338563086247641,9.577007027447507,-1.3753359738868336,0.2158134780849917,-1.024409110594788
1.4,-0.6949343416916358,-0.0389773208135835,2.216678561220058,-0.0455246090081995,0.183601938306254,0.0163961972409941,1.019627556445279,-0.4331179662942754,-0.7155269882675162,-0.6634170217983149,-0.0530099241499415,2.1952094441778365,1.117444873231041,-0.4110364139236156,-0.7981468542026564,1.1443442919700904,0.1091342352177116,0.7365058027569316,-0.8690067777487931,9.362363043193907,-1.383610134587227,0.2146075558474437,-1.015343286679023
1.42,-0.674494030626691,-0.0476078115668624,2.202528244993017,-0.0467276130677866,0.1804202236964616,0.0166422350176531,1.024317121379385,-0.429592701529357,-0.6968333151757042,-0.6634170217983149,-0.0530099241499415,2.1952094441778365,1.117444873231041,-0.4110364139236156,-0.7981468542026564,0.9796337639616924,0.234478246705283,0.1762632382459189,0.9346836545905955,9.362363043193907,-1.383914875417131,0.2145027123987056,-0.9947181053132168
1.44,-0.653977192300304,-0.0561057810052887,2.188746495168686,-0.0530212199481907,0.1808656442477465,0.0163843650036296,1.027468149633565,-0.4193006918127456,-0.6830050491447358,-0.6634170217983149,-0.0530099241499415,2.1952094441778365,1.117444873231041,-0.4110364139236156,-0.7981468542026564,0.8761783272951652,0.1575514127090116,0.5146004858305714,0.6914133015484214,11.724386930647595,-1.3854529501416648,0.2212493277058914,-1.0061310001623494
1.46,-0.6344220964347779,-0.063926394147057,2.17581995813526,-0.0600895290582683,0.1838191591522746,0.0159403524222004,1.0311117290571392,-0.4042705238574208,-0.6783773689356601,-0.6522425730660044,-0.0571202882891777,2.18722797563581,1.137444873529064,-0.4036740802384559,-0.8181468545006796,0.8071509212945203,0.1821789711787147,0.7515083977662401,0.2313840104537834,11.103604678516604,-1.3852462454210477,0.2293338647636764,-1.017987027170545
1.48,-0.6137499320555627,-0.0718189659740245,2.1622470297918643,-0.0670720501523554,0.1884852123230978,0.015407473861024,1.0361294733062796,-0.3857755219716178,-0.679431394311354,-0.6298936756013837,-0.06534101656765,2.171265038551757,1.177444874125111,-0.3889494128681365,-0.8581468550967261,0.9596272995260248,0.2508872124570183,0.92475009429015,-0.0527012687846939,10.625163087436704,-1.3838099752818307,0.2369159086285044,-1.0292054003620343
1.5,-0.5929636189128674,-0.0793215402359993,2.1485985311472904,-0.0729829382230338,0.193912721629462,0.0148893674199337,1.042458755047735,-0.3656068809347302,-0.6853612904831263,-0.6075447781367628,-0.0735617448461223,2.155302101467704,1.217444874721157,-0.3742247454978172,-0.8981468556927725,1.097722138391071,0.3164640870727764,1.0084320518443768,-0.2964948085886154,10.300431247356755,-1.3819789783769807,0.2431431590160447,-1.0391113888993215
1.52,-0.5730882888018639,-0.0860649823438503,2.135490775197667,-0.0774566749243133,0.1992437224215003,0.0144580629052814,1.049506586050369,-0.3454781977104585,-0.6941059766786415,-0.5831958806423396,-0.0810462397560787,2.137339164353848,1.2574448753172034,-0.3595000781274978,-0.938146856288819,1.152503087677856,0.3523915501316921,1.0064341612135843,-0.437234309775758,10.070994598686411,-1.3799868134820064,0.2485349976203035,-1.0485281331833518
1.54,-0.552010222991631,-0.0927451811138628,2.121501852048637,-0.0810314152096773,0.2047631481383014,0.0140896551932689,1.0580641507603314,-0.3237611869046249,-0.7043695659392727,-0.5588469831479165,-0.088530734666035,2.119376227239993,1.29744487591325,-0.3447754107571784,-0.9781468568848656,1.2749526820796455,0.4278782354981247,1.08585054029168,-0.51317946303156,9.91385824113604,-1.3782506195980426,0.2529055930502201,-1.0579435251672826
1.56,-0.5307425737264467,-0.0989819612156983,2.1072999377330457,-0.0834161662150198,0.2098367823513574,0.0138465358108784,1.068359125794682,-0.3012470984586985,-0.7153263374429698,-0.5334980856385922,-0.0956471128917334,2.1004132901112365,1.3374448765092963,-0.3300507433868591,-1.0181468574809118,1.3536261774333511,0.5147487517175309,1.1257044222963224,-0.5478385751848558,9.877891433447076,-1.377018930088662,0.2563009161492519,-1.067648753887473
1.58,-0.5092540940405441,-0.1047590185356172,2.092870323910708,-0.0843861819062924,0.2139976519865802,0.013791843941885,1.079944374856162,-0.277872836287248,-0.7270770253416311,-0.5071491881143668,-0.1023953744331737,2.080450352967578,1.3774448771053427,-0.3153260760165397,-1.0581468580769582,1.4306054609569785,0.5792624530740031,1.1687131085725249,-0.5875343949330647,9.843834860014796,-1.3769583120999866,0.2583798289231008,-1.0762611011064849
1.6,-0.488618012487887,-0.1098058679378322,2.0789359728718355,-0.0835939290189614,0.2168936279769834,0.0139667429014575,1.091625043553771,-0.2548409294435067,-0.7390859119107199,-0.455256875297736,-0.1186526603499796,2.0565164726436267,1.1799443763462782,-0.2222602535738824,-0.8270770268317472,1.4240085241241764,0.5840334348804599,1.1515953421870644,-0.6004443284544414,9.843834860014796,-1.3783737360886903,0.2589347533959764,-1.084359569302732
1.62,-0.4665569746008635,-0.1146718751476485,2.064348334324604,-0.0823554261636407,0.2181124422115568,0.0143514243838468,1.1141348958660369,-0.2326180819247871,-0.7173746122395137,-0.455256875297736,-0.1186526603499796,2.0565164726436267,1.1799443763462782,-0.2222602535738824,-0.8270770268317472,1.918286303170872,1.1254926156132772,1.1111423759359806,1.085564983560311,9.812512805728147,-1.3727168674757566,0.2564582240126712,-1.07291538199947
1.64,-0.4440480183846378,-0.1190833559965806,2.050197294342384,-0.0816722923841362,0.2169051149543516,0.0149145662047247,1.1353443570018773,-0.2096688443488815,-0.6993823823372329,-0.455256875297736,-0.1186526603499796,2.0565164726436267,1.1799443763462782,-0.2222602535738824,-0.8270770268317472,1.80293447180188,1.0604730567920218,1.1474618787952793,0.8996114951140388,12.111723118990083,-1.382409996816026,0.259823237269522,-1.0948154733260165
1.66,-0.4211408279863879,-0.1230276793114641,2.036312672788103,-0.0806066114114113,0.2133522689427959,0.0157108240886197,1.1541107576900531,-0.186108098402748,-0.6899228082350193,-0.4434574315342732,-0.1208752628857184,2.048245702375309,1.1999443766443014,-0.2111377370312093,-0.8470770271297704,1.5785832940667817,0.9383200344088016,1.1780372973066764,0.4729787051106826,11.59131985325712,-1.39290127667343,0.2627144858568786,-1.113291277758458
1.68,-0.3990611536520058,-0.1263377069371282,2.0232328549939007,-0.0786232745917323,0.2079038167335521,0.0167084122861193,1.1687041851592217,-0.1637442807329115,-0.6872904342476897,-0.4198585440073477,-0.1253204679571961,2.0317041618386744,1.239944377240348,-0.1888927039458631,-0.8870770277258169,1.3416760589620098,0.729671373458407,1.118190883491825,0.1316186993664814,11.107689186452262,-1.405780435596425,0.2641136537784834,-1.1247203246708308
1.7,-0.3755666609214677,-0.1293789485238844,2.0094658681533875,-0.0754878672044438,0.2009051140443285,0.0179227661877237,1.1796082439427926,-0.1419376272074504,-0.689727781001592,-0.3962596564804221,-0.1297656730286737,2.0151626213020397,1.2799443778363944,-0.1666476708605169,-0.9270770283218632,1.2251217236807914,0.5452029391785573,1.0903326762730536,-0.1218673376951195,10.71121899609625,-1.4195837202278871,0.2637918854409617,-1.1296108108274487
1.72,-0.3518993321110352,-0.1320030132823911,1.9955931324057696,-0.0717727314709371,0.1935901454165982,0.0191804802506176,1.1863818652179403,-0.1218541471226567,-0.6973421118851542,-0.3706607689236942,-0.1330986264458841,1.996621080735602,1.3199443784324407,-0.1444026377751707,-0.9670770289179096,1.126061890283799,0.3386810637573956,1.004174004239685,-0.3807165441781057,10.3754319520649,-1.432491928824089,0.262211743443823,-1.1292249709595052
1.74,-0.3293216427671343,-0.1341380559546768,1.982246467834148,-0.0679891632192025,0.1870350607350066,0.0203398033658445,1.1897932408392229,-0.1040892842714653,-0.7071433072784669,-0.3450618813669663,-0.1364315798630944,1.9780795401691649,1.3599443790284873,-0.1221576046898244,-1.0070770295139562,1.0287021761532986,0.1705687810641176,0.8882431425595687,-0.490059769665635,10.080431263175342,-1.4433943269366478,0.2599056380963593,-1.1251408883369642
1.76,-0.305506913834234,-0.1360311870787404,1.9679743435149064,-0.0638316428322905,0.1809134282056884,0.0214922445529058,1.1913728127790248,-0.0863736534851063,-0.7196221820938892,-0.3184629937953372,-0.1392084074531711,1.9585379995878265,1.3999443796245337,-0.0999125716044782,-1.0470770301100023,1.0863481697073265,0.078978596990098,0.8857815393179521,-0.6239437407711157,9.917306775851102,-1.452988009575718,0.2569444878336626,-1.1192439212695298
1.78,-0.2816808566054845,-0.137580586305831,1.953430970499173,-0.0594858927349824,0.175735480146062,0.0225706962279736,1.191012102445438,-0.0696729135626594,-0.7341427235818069,-0.2908641062088071,-0.1414291092161141,1.9379964589915863,1.43994438022058,-0.077667538519132,-1.0870770307060489,1.106674015919218,-0.0180355166793377,0.8350369961223458,-0.7260270743958852,9.77857730717824,-1.460917813320424,0.2537664495330133,-1.1130954866337566
1.8,-0.2578833534753368,-0.1388072563721926,1.9385761909341352,-0.0549646904866783,0.1718296240435118,0.0235613501992305,1.188689601079165,-0.0540727981331502,-0.7505598206684606,-0.2221302514832126,-0.1410642319839639,1.9167238343200828,1.2882322699631,0.0088821264988144,-0.834142725071923,1.1382867507387633,-0.1161250683136549,0.7800057714754581,-0.8208548543326866,9.654727532667494,-1.4675205012656245,0.2500377561529735,-1.1063180445329084
1.82,-0.2352872205002085,-0.1397605112845905,1.9245276338260155,-0.0533918303123236,0.170312111596409,0.0241780223554613,1.190035655095754,-0.0456574605630377,-0.7275400292784323,-0.2221302514832126,-0.1410642319839639,1.9167238343200828,1.2882322699631,0.0088821264988144,-0.834142725071923,1.227335084110024,0.0673027008294524,0.4207668785056264,1.150989569501415,9.545274242726007,-1.4669946357129726,0.24665541208845,-1.0798451620821834
1.84,-0.2114787041033758,-0.140562424435461,1.9101659058968008,-0.0557429178410639,0.171677821345612,0.0243904464250926,1.190983725084074,-0.0345538911640838,-0.7104712190901042,-0.2221302514832126,-0.1410642319839639,1.9167238343200828,1.2882322699631,0.0088821264988144,-0.834142725071923,1.0192305570199884,0.0474034994159988,0.5551784699476949,0.8534405094164033,12.051238992975414,-1.4679217406784335,0.2516631620839545,-1.1011787218587776
1.86,-0.1876419100821325,-0.1410997074756683,1.8960535452032552,-0.0603880000167894,0.1750575274630934,0.0243304004715293,1.1928443604017855,-0.0192496150801512,-0.7019877591180782,-0.2092479287835816,-0.1409754107189758,1.908382407069364,1.3076763034666326,0.0245931345111092,-0.8541427253699462,0.879846468617842,0.0930317658855761,0.76521380419663,0.4241729986013021,10.921909174052416,-1.465618889402402,0.2582164148334143,-1.1195909051183155
1.88,-0.1637592618086488,-0.1412969045640555,1.8820368491796824,-0.0653176350941839,0.1794677928970246,0.0241809534601248,1.1955406969669389,-0.0011550508363238,-0.7001118963850184,-0.1834832833843196,-0.1407977681889995,1.891699552567925,1.3465643704736974,0.0560151505356987,-0.8941427259659926,0.9195139300737396,0.1348168282576667,0.9047282121913685,0.093793136652992,10.921909174052416,-1.4627819639219095,0.2651812515592006,-1.1355860582402633
1.9,-0.1410111798771979,-0.1411331402263849,1.8687117968234652,-0.0695709940263789,0.1840379934102666,0.0240352235949229,1.198999151821016,0.0174321676352464,-0.7026305264289783,-0.1577186379850576,-0.1406201256590232,1.8750166980664864,1.3854524374807622,0.0874371665602883,-0.9341427265620392,0.953662804383591,0.1729227427038515,0.9293609235785144,-0.1259315021979956,10.592731966889003,-1.4593724842468012,0.2714641701730048,-1.1487986132725756
1.92,-0.1169873823065989,-0.1405716466376583,1.854599077194363,-0.0734240415266253,0.1889050614704569,0.0239136631643939,1.2033128669292592,0.03770359103491,-0.7086680643994211,-0.1300095892354424,-0.1388713823278174,1.8563338435352457,1.424340504487827,0.1188591825848778,-0.9741427271580856,1.079340781945228,0.2156857554121649,1.0135711699831804,-0.3018768985221409,10.36148877018968,-1.4560410444526934,0.2769772274102472,-1.1601865812120131
1.94,-0.0928677733547893,-0.1395950110534443,1.84034908956314,-0.0765513052651105,0.1936702254699914,0.0238455074843276,1.208559072065368,0.0588097009293921,-0.7160320001592322,-0.1023005404858271,-0.1371226389966117,1.8376509890040047,1.4632285714948918,0.1502811986094674,-1.014142727754132,1.148061510855053,0.2623102568054425,1.0553054947241052,-0.3681967879905545,10.184285666410688,-1.452663795847728,0.2813255828083991,-1.1689539309934642
1.96,-0.0698425270102004,-0.1382644503033475,1.8266664815613765,-0.0786379030937039,0.1978274244285396,0.023870479958564,1.214928266680854,0.0799090567430358,-0.7238726318243853,-0.0736192900610352,-0.1345883452647912,1.817968134457863,1.5021166385019566,0.1817032146340569,-1.0541427283501783,1.16964199726805,0.3184597307743009,1.0549677906821835,-0.3920315832576571,10.14389607207886,-1.449134840804981,0.2850725260516803,-1.1787592841137975
1.98,-0.0454649013289723,-0.1364261318011758,1.812091743863716,-0.0797313516685515,0.2015050171426564,0.0240332780290741,1.222526233319787,0.102688118181338,-0.7332401079997911,-0.0439658379610668,-0.1312685011323559,1.79728527989682,1.5410047055090217,0.2131252306586464,-1.0941427289462249,1.28876330929411,0.3798983319466487,1.1389530719151129,-0.4683738087702893,10.069115063145546,-1.445715311814784,0.2876568594228907,-1.1881866186883931
2.0,-0.0209276662034713,-0.1341205757564422,1.797315743988904,-0.0792127322280897,0.2042783188531632,0.0243896091957208,1.2307725513893677,0.1264334325289468,-0.7438756409150381,0.015661410337017,-0.1312917258921088,1.775429738463726,1.264587055568246,0.1688880467034481,-0.8084841323957338,1.3646943573221313,0.4123159034790324,1.1872657173804348,-0.5317766457623496,10.019416846279457,-1.4432869817574898,0.2885298449318236,-1.1962608428721937
2.02,0.0027791264116382,-0.1313702457246518,1.783468816551146,-0.0742123592808819,0.2011044674919692,0.0255016057953329,1.2630323274784097,0.1595473199185522,-0.7128859291315038,0.015661410337017,-0.1312917258921088,1.775429738463726,1.264587055568246,0.1688880467034481,-0.8084841323957338,2.7827975706980173,1.612988804452098,1.6556943694802706,1.5494855891767134,13.119364844319534,-1.4360240257283683,0.2803318694172604,-1.167764549175118
2.04,0.028329188560975,-0.1278977682166604,1.769512487055192,-0.0651009806195798,0.188227566776595,0.027569856056624,1.2887960934389415,0.1850756062965423,-0.6847041427488354,0.015661410337017,-0.1312917258921088,1.775429738463726,1.264587055568246,0.1688880467034481,-0.8084841323957338,2.2965616286005104,1.2881882980265935,1.2764143188995047,1.409089319133422,13.119364844319534,-1.4629531509130942,0.277252414045461,-1.1945160282291143
2.06,0.0542727366003891,-0.1239799690185594,1.7560154611536485,-0.0549201658639965,0.1691628429910011,0.0299261052256645,1.3030513869182665,0.2048820975231189,-0.6667320724492647,0.0283072808926994,-0.1296028454250744,1.7673448971397687,1.2729992200179376,0.1821280324078701,-0.8235329372749224,1.515343028610062,0.7127646739662374,0.99032456132883,0.8986035149785354,12.405386022672246,-1.4946957446755542,0.2714749647379031,-1.2045732289770674
2.08,0.08037991353579,-0.1197151280511286,1.7427577997751669,-0.044750903218744,0.1469604514689881,0.0321986895618175,1.3061360575755103,0.2202760829263971,-0.6597780851726794,0.0535990220040643,-0.1262250844910054,1.7511752144918542,1.289823548917321,0.208608003816714,-0.8536305470332994,0.8585568104425556,0.1542335328622135,0.7696992701639135,0.3476993638292625,11.610648217263588,-1.5263931933952644,0.2646797157400573,-1.201312344960423
2.1,0.1051457058214801,-0.1154140789814082,1.730201228925022,-0.0356379398826765,0.1253037333291224,0.0340950080557367,1.300168463653074,0.2315670535559738,-0.6622388951862042,0.0788907631154293,-0.1228473235569364,1.7350055318439397,1.3066478778167048,0.235087975225558,-0.8837281567916765,0.6502956652625976,-0.298379696121831,0.5645485314788353,-0.1230405006762358,10.907602949713691,-1.55753410823697,0.2567447319875812,-1.1847340876968775
2.12,0.1310126976601241,-0.1106852505978755,1.7168570045836182,-0.0269319512773144,0.1037744465560845,0.0357433943662407,1.2863852536416738,0.2406337569641213,-0.6723676899322154,0.1050237206717633,-0.1181455640524253,1.717330968708106,1.3234722067160882,0.2615679466344021,-0.9138257665500537,0.9679546372590232,-0.6891605005700074,0.4533351704073721,-0.5064397373005625,10.327121270723184,-1.584174542143737,0.2488030591995157,-1.1590342208852875
2.14,0.1565382554568414,-0.1057999239275684,1.703254412921794,-0.0193102450617174,0.0849045782174062,0.0370405455847474,1.2666270566923314,0.2474529749714208,-0.6875455728978245,0.1311566782280975,-0.1134438045479141,1.6996564055722725,1.340296535615472,0.2880479180432461,-0.9439233763084308,1.2915651476385197,-0.9879098474671166,0.3409609003649755,-0.7588941482804534,9.878654199632363,-1.605636978711392,0.2414783377313269,-1.128592412404585
2.16,0.1816239654428695,-0.1007921535869042,1.689311557101888,-0.0126804043192077,0.069475754576886,0.038046938195407,1.2428600225515656,0.2529660909384403,-0.7060767839533213,0.1577102440069162,-0.1080800457581818,1.6812294021924794,1.3571208645148554,0.3145278894520901,-0.9740209860668078,1.5318878407846177,-1.1883517070382932,0.2756557983509738,-0.9265605527748412,9.617368063827598,-1.620378450525048,0.2352214144910888,-1.0991173270817003
2.18,0.2049861541661645,-0.0959454483167674,1.6756977562118327,-0.007183607289391,0.0583066486722943,0.038797887768189,1.217675216347231,0.2569996428645582,-0.7259695021994802,0.1846844180082194,-0.1020542876832285,1.662049958568727,1.373945193414239,0.341007860860934,-1.0041185958251848,1.6173004080192075,-1.259240310216725,0.2016775963058936,-0.9946359123079452,9.440496730460836,-1.6301349170643078,0.2293483622743069,-1.0694089064725998
2.2,0.229043869085155,-0.0907717271708712,1.6609450080898305,-0.002174266807306,0.0502189586730286,0.0394322495093376,1.1893954944520533,0.2601859759575596,-0.7482841555134847,0.2658699149835261,-0.0830954661735395,1.6393992811018587,1.1798570750656263,0.3107399542785615,-0.7203739173338207,1.8082029349414623,-1.41398609475889,0.1593166546500712,-1.1157326657002251,9.314479950691291,-1.6353286975239432,0.2243136358477001,-1.0432834119813406
2.22,0.252680290832397,-0.0855268843863669,1.6462491450744992,0.0024346597920592,0.0417354626526634,0.0399748723726821,1.1754683184443666,0.2639499462087703,-0.7175951708329814,0.2658699149835261,-0.0830954661735395,1.6393992811018587,1.1798570750656263,0.3107399542785615,-0.7203739173338207,1.6955437802672986,-0.6963588003843335,0.1881985125605362,1.5344492340251648,9.230852827192392,-1.626039630713561,0.2178813412654494,-0.9854963738376794
2.24,0.274841581157794,-0.0804936560997937,1.6329009276183415,0.006443205339353,0.0300458034049901,0.0403929981555177,1.1572883849553397,0.2656524220144007,-0.6896733668934052,0.2658699149835261,-0.0830954661735395,1.6393992811018587,1.1798570750656263,0.3107399542785615,-0.7203739173338207,1.668109364500971,-0.9089966744513456,0.0851237902815216,1.3960901969788109,12.572992589428395,-1.6453678458362675,0.21569551955315,-0.9880500860571392
2.26,0.2977288329714857,-0.0751799598719824,1.619337975059897,0.0098286881814783,0.016317790270296,0.0406960747794236,1.1318670126783226,0.2657552281863941,-0.6684229230756237,0.2776684857341824,-0.0799880666307538,1.6321955419285206,1.1722934468093054,0.3214880165613622,-0.7192548003606888,1.6566820002707094,-1.2710686138508565,0.0051403085996659,1.0625221908890758,12.066163061695988,-1.664235905509298,0.213847898197548,-0.98276684611417
2.28,0.3200471428070362,-0.0698753759649242,1.606122160734329,0.0121646035997904,0.0029372410871415,0.0408712525415756,1.1008987442115603,0.2648932840394109,-0.6544969347386551,0.3012656272354949,-0.0737732675451826,1.617788063581844,1.1571661902966637,0.3429841411269635,-0.717016566414425,1.6983151582549034,-1.548413423338102,-0.0430972073491575,0.6962994168484282,11.58122109704891,-1.6804172722326032,0.2125364033190111,-0.9709170715813974
2.3000000000000003,0.3416963289533739,-0.0645982486725007,1.5931184414687432,0.0132890833353224,-0.0086929532875518,0.040945471872761,1.0655240076052803,0.2631067063093297,-0.6465074576624127,0.3248627687368075,-0.0675584684596114,1.6033805852351677,1.1420389337840215,0.3644802656925649,-0.7147783324681612,1.8154858811769308,-1.7687368303139994,-0.0893288865040586,0.3994738538121212,11.17227176508095,-1.692212437241738,0.2119805846685498,-0.955486767696326
2.32,0.3615760413013487,-0.0596267948481627,1.580875966161191,0.0129163509418624,-0.0173200700681885,0.040932737655401,1.0289039133821272,0.2605443815426912,-0.6425203814609399,0.3477035474124879,-0.0602688631457601,1.5890850185858043,1.1269116772713796,0.3859763902581662,-0.7125400985218975,1.8462757010795483,-1.8310047111576688,-0.1281162383319267,0.199353810073638,10.872664178709783,-1.7001192012292077,0.2124012371140416,-0.9375425209465154
2.34,0.3817251758189058,-0.0544506820662713,1.5680682206798822,0.0105990849183999,-0.0232161098004147,0.0408286297830882,0.987808798223211,0.2574392392642185,-0.6384302452473252,0.3705443260881683,-0.0529792578319088,1.5747894519364412,1.1117844207587375,0.4074725148237676,-0.7103018645756337,2.0707363501542533,-2.0547557579458084,-0.1552571139236347,0.2045068106807379,10.67606655001964,-1.7025390544218315,0.2141418005629777,-0.920469333974828
2.36,0.4010255035806347,-0.0493154785339045,1.5553481487254828,0.0066176422184211,-0.0249362548633853,0.0406617363102748,0.9446174205928296,0.2567291023514413,-0.6336669635283828,0.3930069233510327,-0.0451522494039174,1.5605498411357346,1.0966571642460958,0.4289686393893689,-0.7080636306293698,2.172952052381229,-2.159568881519075,-0.0355068456388579,0.2381640859471179,10.743037830154208,-1.6961535781228834,0.2166187361423439,-0.9058104836209936
2.38,0.4194691210195466,-0.0441674820930338,1.542739419409043,0.0021498648113487,-0.022529766264895,0.0404860987482969,0.902452913561698,0.2583367467819527,-0.6273517779739004,0.4150913392010811,-0.0367878378617861,1.5463661861836844,1.081529907733454,0.4504647639549703,-0.7058253966831061,2.1332555768008934,-2.1082253515565808,0.0803822215255656,0.3157592777241202,10.743037830154208,-1.6866208594122454,0.21925303791687,-0.8983771716254741
2.4,0.4362283807438889,-0.0392304938076517,1.5308940686507495,-0.0020460027694789,-0.017206678336974,0.0403117732286196,0.8642556288423108,0.2613741371548156,-0.6197782799664009,0.4645917666976315,-0.0312506447539362,1.5113718305103478,0.8024529120715818,0.2806019873319939,-0.5736326336593729,1.952956843020784,-1.9098642359693552,0.1518695186431495,0.3786749003749756,10.799765216789638,-1.6743779256843283,0.2220178605652394,-0.8974784346873732
2.42,0.4532483198950974,-0.0337876680076087,1.5187643480451654,-0.0009531815314063,-0.0138456232059539,0.0404995724809554,0.8399786448522384,0.280940828869185,-0.5927872364207089,0.4645917666976315,-0.0312506447539362,1.5113718305103478,0.8024529120715818,0.2806019873319939,-0.5736326336593729,2.0620037633239456,-1.2138491995036194,0.9783345857184684,1.349552177284602,10.8653504285312,-1.6524938278069097,0.2192864594000873,-0.8927271597009477
2.44,0.4697821312456505,-0.0280686195319763,1.5071970976111408,0.0065406648021315,-0.0173320051027657,0.0411124808947932,0.8137733989615806,0.2888185796557596,-0.5655374870751004,0.4645917666976315,-0.0312506447539362,1.5113718305103478,0.8024529120715818,0.2806019873319939,-0.5736326336593729,1.9308823818682603,-1.310262294532888,0.39388753932873,1.362487467280421,12.049525305590578,-1.665377229367462,0.214789826288044,-0.9017770681536256
2.46,0.4857349455009316,-0.0222775371983031,1.496146595686849,0.0151837988813073,-0.0248317091901481,0.0417053406745072,0.7822920458715547,0.289620821674717,-0.5410229596024457,0.4726162958183473,-0.0284446248806163,1.505635504173754,0.7824529117735586,0.2850550354420021,-0.5628888047964674,1.9954205332732569,-1.5740676545012988,0.0401121009478699,1.225726373632735,11.914343398966594,-1.674675347133883,0.2088343536890902,-0.9006574228860927
2.48,0.5002586131736421,-0.0168039009434526,1.4860744495372051,0.0227515384533671,-0.0334787222863687,0.042107421481552,0.7477957774400188,0.2866121930919476,-0.520439899470847,0.4886653540597789,-0.0228325851339764,1.4941628515005667,0.7424529111775121,0.2939611316620186,-0.5414011470706563,2.014141719213573,-1.724813421576793,-0.1504314291384728,1.029153006579936,11.770258590994672,-1.6827364949456962,0.2026636831177423,-0.8928196754550799
2.5,0.5147962778910524,-0.0111299760282155,1.4758758160093342,0.0294295576046765,-0.0425333552479449,0.042347099107048,0.7075357246329417,0.281065858651732,-0.5005761322572627,0.5047144123012106,-0.0172205453873365,1.4826901988273793,0.7024529105814656,0.3028672278820351,-0.5199134893448454,2.2617487292285725,-2.013002640353856,-0.2773167220107758,0.9931883606792148,11.641219192852075,-1.687964455824756,0.1972487057147752,-0.8809674827480284
2.52,0.5284909261511304,-0.0055862764541649,1.4660585477970638,0.0345711926335744,-0.0503239825763513,0.0424398248962523,0.6637985638490513,0.2738056769214183,-0.4821807243751251,0.5187634705128399,-0.0111632008296958,1.4722919290404823,0.6624529099854192,0.3117733241020515,-0.4984258316190343,2.4000210953985723,-2.186858039194517,-0.3630090865156865,0.919770394106878,11.515563779247714,-1.690363476416497,0.192902346502998,-0.868042917396138
2.54,0.54127450405924,-0.0002023190509262,1.4566058383241465,0.0380876497294648,-0.0556774942592011,0.0424527510466198,0.6166832817147193,0.2653741635563364,-0.4639887095608268,0.5328125287244693,-0.0051058562720551,1.4618936592535854,0.6224529093893727,0.320679420322068,-0.4769381738932233,2.560219537084131,-2.355764106716601,-0.4215756682540955,0.9096007407149193,11.515563779247714,-1.6899102550926448,0.1898978973707954,-0.8572059428287016
2.56,0.5525152017254399,0.0047516535502057,1.4479652316793736,0.0400841559363047,-0.0572495023912796,0.0424798800843385,0.5692973176746707,0.2568623037151024,-0.4463718596038826,0.5458615869211974,0.0011741406910859,1.4520325809098338,0.5824529087933263,0.3295855165420845,-0.4554505161674124,2.5633156011146347,-2.3692982020024287,-0.4255929920616991,0.880842497847209,11.558361129521472,-1.6837535942908517,0.1875836092955823,-0.8492985337707399
2.58,0.5633833203225808,0.0097877647470757,1.439244982502874,0.0408233348446829,-0.0550258719431602,0.0425562541986206,0.5204285381250308,0.2473502983473012,-0.4264444598376949,0.5579106451030243,0.0076767900597274,1.4427086940092275,0.5424529081972799,0.338491612762101,-0.4339628584416014,2.681294986676141,-2.4434389774819985,-0.4756002683900612,0.9963699883093812,11.611202763571782,-1.670718801311713,0.1859570753789693,-0.8470234042892653
2.6,0.5732909170058669,0.0146242369711232,1.4309388608224969,0.0397588848100789,-0.0494435792340808,0.0426323940987122,0.4733321554704583,0.2371045131333726,-0.4050670403251036,0.5894047472288323,0.0221552796644407,1.4179227595109891,0.4204285366349146,0.2388688535563418,-0.328464474660178,2.636303965219672,-2.354819132728619,-0.5122892606964274,1.0688709756295682,11.6786632037456,-1.6546413287333843,0.185501235776914,-0.850105024102865
2.62,0.5818587829625446,0.0191418850711347,1.4234934045855685,0.0403948495102272,-0.0420199501121586,0.0428925936088911,0.4313485097343196,0.2377248193266349,-0.3797458429356234,0.5894047472288323,0.0221552796644407,1.4179227595109891,0.4204285366349146,0.2388688535563418,-0.328464474660178,2.451619019295216,-2.099182286806936,0.0310153096631141,1.2660598694740066,11.740000604058878,-1.633943398315098,0.1835255313379573,-0.8634283294108531
2.64,0.5900512385107491,0.0238525661108188,1.41620470854537,0.0440825499301908,-0.0330663997844426,0.0434328987837739,0.3905085673228191,0.2326939547827049,-0.3503478088354765,0.5894047472288323,0.0221552796644407,1.4179227595109891,0.4204285366349146,0.2388688535563418,-0.328464474660178,2.528564268111184,-2.0419971205750285,-0.2515432271965004,1.4699017050073482,12.027004986870452,-1.6180618273804686,0.1797709620382996,-0.8777503552145918
