t,x,y,z,roll,pitch,yaw,v_x,v_y,v_z,ref_x,ref_y,ref_z,ref_v_x,ref_v_y,ref_v_z,a_com,a_x,a_y,a_z,thrust,wind_x,wind_y,wind_z
0.0,0.3756363574608665,1.415409786083227,2.5138277174459183,0.0110875962923205,0.1362366076340816,0.0256886520717549,0.00117442935971,-0.0032751212269296,-0.0028693775612887,0.3756740810848092,1.4152257832006747,2.51374074129993,-0.0987635262362556,-0.1053835156896972,-0.1028907107366805,0.2254940739867781,0.0587214679855008,-0.163756061346484,-0.1434688780644392,10.54176184300468,-1.2847490642368056,0.1649709034130411,-1.1599771538505796
0.02,0.3757924968252549,1.4156417652154247,2.513510263333006,0.0191694463094206,0.1306443648946619,0.0261692516746141,0.0131296690357401,0.0205676005044562,-0.0287208891707927,0.3756740810848092,1.4152257832006747,2.51374074129993,-0.0987635262362556,-0.1053835156896972,-0.1028907107366805,1.8572182072712595,0.5977619838015087,1.1921360865692987,-1.2925755804751975,9.11587300799374,-1.2970691503196736,0.1578028213986584,-1.1657374773274594
0.04,0.3761125332597494,1.416071384519219,2.5126701342744524,0.0333085689778576,0.1166625302668212,0.0267466141345637,0.0186697432813073,0.0228674167340294,-0.0582090391279199,0.3756740810848092,1.4152257832006747,2.51374074129993,-0.0987635262362556,-0.1053835156896972,-0.1028907107366805,1.5046034072391203,0.2770037122783578,0.1149908114786565,-1.4744074978563624,9.11587300799374,-1.3276074341241388,0.1431774744941074,-1.1347259416511597
0.06,0.3764558124183858,1.416489194125962,2.5111889594718875,0.0486328751217601,0.0965284481526315,0.0268873161938241,0.0143898312447852,0.0183953569811949,-0.0882282664534728,0.3746864458224467,1.4141719480437778,2.512711834192564,-0.1187635265342788,-0.1253835159877204,-0.1228907110347037,1.5325395383941232,-0.2139956018261027,-0.2236029876417257,-1.5009613662776435,8.822217870661916,-1.357043547380191,0.1281885223719886,-1.0920122822564962
0.08,0.3766133931155628,1.4167762108240989,2.509124637520447,0.0633564559337686,0.0746431666994953,0.0265204910057668,0.0009249401636997,0.0101930345954217,-0.1166138021747051,0.3727111752977216,1.4120642777299837,2.51065401997783,-0.1587635271303253,-0.1653835165837669,-0.1628907116307502,1.623514723160069,-0.673244554054277,-0.41011611928866,-1.4192767860616136,8.873648538306952,-1.3799482691731857,0.114045060344972,-1.0459628428086882
0.1,0.3764171474817477,1.4168668972518494,2.506507174766912,0.0773621185334617,0.0538703718341275,0.0258028968262907,-0.0201070970851063,-0.0010213270597897,-0.1437002384482657,0.3707359047729965,1.4099566074161898,2.5085962057630966,-0.1987635277263717,-0.2053835171798133,-0.2028907122267966,1.8040118681501989,-1.0516018624403063,-0.5607180827605752,-1.354321813678032,8.873648538306952,-1.393855152544803,0.1015743417516303,-1.002559089137762
0.12,0.3757856720520013,1.41671912047087,2.5035275747020043,0.0900303085908854,0.036791430760167,0.0249798923939454,-0.0452908200991047,-0.0142237378374197,-0.1685781533317441,0.366760634218469,1.4058489370725935,2.504538391518561,-0.2387635283224181,-0.2453835177758598,-0.2428907128228431,1.889070012027524,-1.2591861506999198,-0.6601205388814979,-1.24389574417392,8.929807648786664,-1.3996053012415683,0.0895121626306598,-0.9588398531458608
0.14,0.374568108321057,1.416267577103714,2.49987602597049,0.102731944678132,0.0224233312289309,0.0241377370637648,-0.075132904982002,-0.0305087916751423,-0.1952827223924762,0.3627853636639416,1.4017412667289972,2.500480577274025,-0.2787635289184647,-0.2853835183719063,-0.2828907134188896,2.161531295965305,-1.492104244144865,-0.81425269188613,-1.3352284530366034,8.981144194756325,-1.398736212194459,0.078506790580348,-0.9210204785176916
0.16,0.372719291221955,1.4154655350674452,2.495687728097611,0.1148149634333959,0.0123181928905482,0.0234942277850557,-0.108003293197576,-0.0491353555903962,-0.2222034557651738,0.357810093094513,1.3966335963705,2.495422763014588,-0.3187635295145111,-0.3253835189679527,-0.322890714014936,2.319556633311341,-1.6435194107786988,-0.9313281957626944,-1.34603666863488,8.96060655943711,-1.3956383846619111,0.0688062085487785,-0.8954630618620313
0.18,0.3703321852151864,1.4143373911517618,2.491209543830009,0.1257447691304837,0.0072083591547641,0.0232426301798882,-0.1414886451960847,-0.0688961166121021,-0.2478348088961896,0.3518348225101833,1.3905259259971017,2.4893649487402496,-0.3587635301105575,-0.3653835195639991,-0.3628907146109824,2.3284773661922498,-1.6742675999254364,-0.9880380510852962,-1.2815676565507903,8.979700663926451,-1.3872981584577733,0.0594822699991889,-0.8742371525091753
0.2,0.3671322506091784,1.4127215830476487,2.4859682239726366,0.1366415707702378,0.0068929992441998,0.0235174465922058,-0.1761174466608739,-0.0918441450473191,-0.2748995245095727,0.3632577529553821,1.4108925853211567,2.4788178033851995,-0.2414886466862009,-0.1688961181022182,-0.3478348103863057,2.479044539325893,-1.7314400732394568,-1.147401421760849,-1.3532357806691542,8.979700663926451,-1.3679917521173903,0.0503379770609993,-0.8611815766477582
0.22,0.3632359779924511,1.4104539642263527,2.480321231026241,0.1420836737383416,0.0119966655764295,0.0241513164106608,-0.2111009580594856,-0.13169999720185,-0.2872934593763616,0.3632577529553821,1.4108925853211567,2.4788178033851995,-0.2414886466862009,-0.1688961181022182,-0.3478348103863057,2.7230243490569577,-1.749175569930586,-1.992792607726545,-0.6196967433394457,8.964804965616622,-1.336708168953029,0.0444015840393602,-0.8596508450466135
0.24,0.3586959064554569,1.4074608186988775,2.4744501571608244,0.141208382223234,0.0219313096780252,0.0250319719929043,-0.2403974120470469,-0.1648857059769126,-0.2991257150070884,0.3632577529553821,1.4108925853211567,2.4788178033851995,-0.2414886466862009,-0.1688961181022182,-0.3478348103863057,2.2910563919617024,-1.4648226993780626,-1.6592854387531315,-0.5916127815363409,9.98355437764394,-1.313255186822081,0.0432833006792528,-0.870892402295706
0.26,0.3538955331765046,1.404042397335156,2.468628841802845,0.1372597905622723,0.0336218967640441,0.0259376675688079,-0.2629751913785165,-0.1924240424151246,-0.3129025551658609,0.3608428664885201,1.4092036241401344,2.4753394552813366,-0.2614886469842241,-0.1888961184002414,-0.367834810684329,1.909134239704647,-1.1288889665734825,-1.3769168219105967,-0.6888420079386254,9.80101812014891,-1.2899808071721215,0.0451762734938761,-0.8840444227334319
0.28,0.348431784444549,1.3999342870879985,2.462193703196369,0.1320342496203979,0.0465792254944049,0.026842963557166,-0.281796956791061,-0.2166911419179504,-0.3300066880364676,0.3560130935547961,1.4058257017780902,2.4683827590736103,-0.3014886475802705,-0.2288961189962879,-0.4078348112803754,1.7576278991728254,-0.9410882706272244,-1.213354975141291,-0.8552066435303318,9.590263207832322,-1.268953459477658,0.0482375883809769,-0.8982170502537895
0.3,0.3426379868818203,1.395371853038884,2.4553838478192107,0.126905329348981,0.0588952737913627,0.0276008531698946,-0.2964295506600811,-0.238292800104803,-0.3501134381296814,0.3511833206210721,1.4024477794160457,2.4614260628658844,-0.341488648176317,-0.2688961195923344,-0.4478348118764219,1.6469865201848617,-0.7316296934510053,-1.0800829093426303,-1.0053375046606916,9.39831726774446,-1.2521091391255634,0.0515700953490307,-0.9087104242570514
0.32,0.3368948615567382,1.390655672319992,2.4485178238818697,0.1225127832179817,0.069244594283574,0.028127065822067,-0.307304072099907,-0.2571196097703563,-0.3716314711157548,0.3443535476575458,1.397069857024199,2.452469366628356,-0.3814886487723634,-0.3088961201883808,-0.4878348124724683,1.5294849805718485,-0.5437260719912934,-0.9413404832776652,-1.0759016493036704,9.233899198025938,-1.2370747484097766,0.0549687603291274,-0.916305637030413
0.34,0.3306511699958667,1.3853187377931222,2.44083201950968,0.1185716119087604,0.07826456621698,0.0284547253175644,-0.3164238108207757,-0.2756431396640809,-0.3959049628616655,0.3375237746940194,1.3916919346323524,2.4435126703908274,-0.4214886493684099,-0.3488961207844273,-0.5278348130685149,1.593340198764387,-0.4559869360434343,-0.9261764946862288,-1.213674587295535,9.09637269074301,-1.2254820384138163,0.0579595994832406,-0.9210463080030984
0.36,0.3242396528998104,1.379611479653489,2.432646339696501,0.1150842482593756,0.0852745459090681,0.0285440144107246,-0.3243121943485313,-0.2940859126974234,-0.4214328239471678,0.3296940017155919,1.385314012225605,2.4335559741383976,-0.4614886499644564,-0.3888961213804737,-0.5678348136645612,1.6232946154665313,-0.3944191763877835,-0.922138651667126,-1.2763930542751127,9.00865629289092,-1.2175170106288509,0.060633392927424,-0.9220740209244754
0.38,0.3176776829676127,1.3735398680355635,2.423940895846413,0.1117258761611608,0.0905375792942852,0.0284190735910159,-0.3315392702254273,-0.3120409305933096,-0.4478131925286453,0.3208642287222633,1.3779360898039557,2.422599277871067,-0.5014886505605028,-0.4288961219765201,-0.6078348142606077,1.6359531929937738,-0.3613537938447958,-0.897750894794308,-1.319018429073876,8.953315102580746,-1.211090676725113,0.0633516067528842,-0.920763991733272
0.4,0.3113131567896555,1.3674453277132674,2.4151750142866804,0.1085744814132447,0.0941853484724281,0.0281377476853156,-0.3380964907208736,-0.3284886553755508,-0.4735691652697606,0.3011007194563413,1.357937821505898,2.401550236219981,-0.4315392717155434,-0.4120409320834257,-0.5478131940187614,1.5627659157558813,-0.3278610247723162,-0.8223862391120607,-1.2877986370557648,8.864285762033433,-1.2060190392171657,0.0659701159459278,-0.9178422374711526
0.42,0.3045054702401331,1.3606894514841588,2.405632282251706,0.1057066398478316,0.0968012014970846,0.0277308629163147,-0.3422351261372235,-0.3464662027272311,-0.4782522816307649,0.3011007194563413,1.357937821505898,2.401550236219981,-0.4315392717155434,-0.4120409320834257,-0.5478131940187614,0.9516460617557356,-0.2069317708174978,-0.8988773675840167,-0.2341558180502134,8.864285762033433,-1.1920750226646142,0.0670773703022792,-0.9169701364476076
0.44,0.2976258494823373,1.3535873033039074,2.3959932967197197,0.1037999735239466,0.0980164127030737,0.0272386492739242,-0.3457014086365761,-0.3631278810387531,-0.4855594794831697,0.3011007194563413,1.357937821505898,2.401550236219981,-0.4315392717155434,-0.4120409320834257,-0.5478131940187614,0.926042357260388,-0.1733141249676301,-0.8330839155760994,-0.3653598926202428,10.18750666732376,-1.190771655467507,0.0681247447180906,-0.9164430419000013
0.46,0.2910219814766442,1.3465310481089028,2.3866543605095125,0.1027074429490609,0.0977774967456494,0.0266754066020511,-0.3493582210380155,-0.378848580211809,-0.4971003003488425,0.2967853267391859,1.353817412185064,2.396072104279793,-0.4515392720135666,-0.4320409323814489,-0.5678131943167846,0.9920977845991154,-0.1828406200719667,-0.7860349586527954,-0.5770410432836381,9.885282784141054,-1.1905765327635969,0.0686578823240475,-0.9129552187653872
0.48,0.2839916732947125,1.3387864627991832,2.3765499666046184,0.102179906520694,0.0959890954314354,0.0259679976168572,-0.3535642954286442,-0.3947995694906872,-0.5128790360427948,0.288154541304875,1.3455765935433954,2.3851158403994184,-0.491539272609613,-0.4720409329774954,-0.607813194912831,1.1413737565473376,-0.210303719531435,-0.7975494639439057,-0.7889367846976164,9.623164176256978,-1.191474419832628,0.0686702571970714,-0.9069026558316242
0.5,0.2768714933142161,1.330726743272163,2.3660989679644584,0.1023382686709069,0.092477558539811,0.0251310455768514,-0.358363216756234,-0.4104070750365918,-0.5315238656493119,0.2795237558705641,1.337335774901727,2.3741595765190437,-0.5315392732056595,-0.5120409335735419,-0.6478131955088775,1.2392069503616958,-0.23994606637949,-0.780375277295231,-0.9322414803258516,9.415353493729526,-1.193614955047436,0.0681307714135072,-0.8981822289656471
0.52,0.2696426440888246,1.3223563965806142,2.3552507922127104,0.1031986649238001,0.0872509962559257,0.0241625177157684,-0.3646427387260614,-0.4259217264562276,-0.5523221368405835,0.2688929704064509,1.327094956230256,2.3612033126088656,-0.571539273801706,-0.5520409341695883,-0.687813196104924,1.334826664204041,-0.3139760984913725,-0.7757325709817936,-1.0399135595635822,9.260213010131338,-1.197555377587869,0.0672207270294647,-0.8867726376769991
0.54,0.2626356293843842,1.314114945254388,2.344554408648641,0.1046583703447963,0.0812893276399125,0.023174572129021,-0.3728455423098595,-0.4408971075295494,-0.5725540278405994,0.2582621849423377,1.3168541375587852,2.348247048698688,-0.6115392743977525,-0.5920409347656348,-0.7278131967009704,1.323704497199146,-0.4101401791899051,-0.7487690536660874,-1.011594550000794,9.14654788864209,-1.201138433453193,0.0655335147817702,-0.8747455816518646
0.56,0.255065061562506,1.3051187781594564,2.332875123950442,0.1065471023895522,0.0747520143470437,0.0221164259060192,-0.3839650861375826,-0.4579508347132637,-0.5943163658373597,0.2466313994633233,1.3056133188724133,2.3342907847736094,-0.6515392749937988,-0.6320409353616812,-0.7678131972970168,1.4900278696038265,-0.5559771913861533,-0.8526863591857142,-1.0881168998380153,9.114685871840264,-1.2039411868572074,0.0634223217714124,-0.8635059324162586
0.58,0.247248738657632,1.2957655310812104,2.3207572313529914,0.1081439734608756,0.068656034745832,0.0210697810690385,-0.3972165906040553,-0.4764427243407834,-0.6163718046239424,0.2340006139694078,1.2933725001711402,2.3193345208336296,-0.6915392755898453,-0.6720409359577276,-0.8078131978930633,1.584293795899307,-0.6625752233236359,-0.9245944813759872,-1.1027719393291335,9.08879847233584,-1.205300249105368,0.0614634209410036,-0.8531254666152289
0.6,0.2391464896295199,1.2860298122735705,2.308194045608884,0.1088406745161784,0.0635823741048612,0.0200628992951405,-0.4124154372085289,-0.4960201001558105,-0.6388131783212531,0.2273879091274292,1.2719433948641712,2.289938641121794,-0.4972165920941714,-0.5764427258308995,-0.7163718061140585,1.671745970035125,-0.7599423302236785,-0.9788687907513528,-1.1220686848655348,9.077612764176138,-1.2054316855599532,0.060244687584488,-0.8443011786133764
0.62,0.2311176788973082,1.2763619518624336,2.296073907181425,0.1075245305265033,0.0618516152364849,0.0193066520376832,-0.4317025081049851,-0.5201509635461502,-0.6358163768187726,0.2273879091274292,1.2719433948641712,2.289938641121794,-0.4972165920941714,-0.5764427258308995,-0.7163718061140585,1.5518299608634931,-0.964353544822813,-1.2065431695169853,0.1498400751240247,9.062151816959158,-1.193564089198676,0.0598503121059414,-0.8383960960114388
0.64,0.2222905176550116,1.2657197003820402,2.2833571147735023,0.1039341650146363,0.0645121264212708,0.0188442306109049,-0.4494742558289093,-0.5422257355699351,-0.6362973123919772,0.2273879091274292,1.2719433948641712,2.289938641121794,-0.4972165920941714,-0.5764427258308995,-0.7163718061140585,1.4171819538175532,-0.8885873861962074,-1.103738601189247,-0.0240467786602305,10.609056319506635,-1.1852852211271363,0.0612168043173928,-0.8449810786987633
0.66,0.213141544831276,1.2546736190118293,2.2705703255462857,0.0995348331956131,0.0698892492713254,0.018601989067756,-0.4641698782576406,-0.5610166676308568,-0.642578952110526,0.2224157432064875,1.266178967605862,2.282774923060653,-0.5172165923921946,-0.5964427261289227,-0.7363718064120817,1.2334093438916098,-0.7347811214365646,-0.939546603046082,-0.3140819859274391,10.23225956816168,-1.1764076351155996,0.0635308915639648,-0.8530298489803613
0.68,0.204204672942908,1.2438551347694908,2.258252372962156,0.0952783399706604,0.0762663951110869,0.0184779157005311,-0.475558002901823,-0.5767289621086696,-0.6536983741685016,0.212471411364604,1.2546501130892442,2.2684474869383724,-0.5572165929882411,-0.6364427267249692,-0.7763718070081281,1.1182655404378898,-0.5694062322091187,-0.785614723890643,-0.5559711028987835,9.592299724981784,-1.1678454029465892,0.0660255162826883,-0.8607415772115804
0.7000000000000001,0.1945898596719205,1.232164214122664,2.245015508081289,0.0910895129027742,0.0833343250147154,0.0183823864047443,-0.4851136510983449,-0.591486868326568,-0.6695953814759193,0.2025270795227206,1.243121258572626,2.2541200508160912,-0.5972165935842876,-0.6764427273210156,-0.8163718076041746,1.1851382300433038,-0.4777824098260969,-0.7378953108949204,-0.794850365370886,9.592299724981784,-1.159128175841613,0.0686116794778564,-0.8679492400931961
0.72,0.1848059635681787,1.2201922913504806,2.2314181801479083,0.0873635221373487,0.0900534403410063,0.018270102954733,-0.4926813224728462,-0.6049951258536557,-0.6893312580343454,0.1905827476510349,1.2295924040262058,2.237792614664008,-0.637216594180334,-0.7164427279170621,-0.8563718082002211,1.254240302912479,-0.378383568725063,-0.675412876354381,-0.9867938279213008,9.354452330500862,-1.150922124842268,0.0709892199520159,-0.8731008500256338
0.74,0.1748891829443735,1.2079604054603004,2.2174057949625285,0.0841367965668329,0.0959745960333213,0.0181107182652334,-0.4985701776020529,-0.6175797808102603,-0.7109232650769217,0.1786384157793491,1.2160635494797856,2.2214651785119246,-0.6772165947763805,-0.7564427285131086,-0.8963718087962675,1.283809685307996,-0.2944427564603391,-0.6292327478302329,-1.0796003521288178,9.165760639892142,-1.1440247022734875,0.0729499010231759,-0.8765859207754502
0.76,0.1653676033770074,1.1961056367336227,2.2036808659043827,0.0812859722744642,0.1007450813613446,0.0178957280556963,-0.5033749207705387,-0.629552154606935,-0.7327139418124141,0.1656940838927622,1.2015346949184642,2.20413774234494,-0.7172165953724269,-0.7964427291091549,-0.936371809392314,1.266152522243216,-0.2402371584242862,-0.5986186898337353,-1.08953383677462,9.07382661866086,-1.1379661044839025,0.0749012459374133,-0.878548562427827
0.78,0.1552528227836943,1.183387052267221,2.188773236824234,0.0783110292552958,0.1049468551377252,0.0176011348299671,-0.507813877882929,-0.6415686946799475,-0.756952138468361,0.1517497519912741,1.1860058403422415,2.185810306163054,-0.7572165959684733,-0.8364427297052014,-0.9763718099883604,1.370758688376903,-0.2219478556195142,-0.6008270036506225,-1.211909832797342,9.008210763165152,-1.132952474984517,0.0768686100728761,-0.8792435956263499
0.8,0.1450544538747821,1.1704337287150166,2.1733678268764747,0.0753016432548374,0.1083848503368587,0.0172436238105769,-0.511788785244521,-0.6530240231959351,-0.7823543123440029,0.1298621288895478,1.1513086175332237,2.150925629900816,-0.6078138793730451,-0.7415686961700636,-0.8569521399584771,1.4073866540069777,-0.1987453680796003,-0.5727664257993814,-1.270108693782096,8.878119668838735,-1.129005824261225,0.0787859548771056,-0.8788427216885774
0.8200000000000001,0.135314901915809,1.157906484692373,2.158520569517383,0.0725360357913041,0.1114115477789184,0.0168934817174598,-0.5130940751101006,-0.665022470947767,-0.7792524584046271,0.1298621288895478,1.1513086175332237,2.150925629900816,-0.6078138793730451,-0.7415686961700636,-0.8569521399584771,0.6230730854960876,-0.0652644932789825,-0.5999223875915949,0.1550926969687893,8.878119668838735,-1.1171339301537786,0.0800741658188931,-0.8802494305452563
0.84,0.1250513591485448,1.144493028598828,2.1429282030786534,0.0701717796104574,0.1143579411670137,0.0165485570587624,-0.513177335842484,-0.6758081135660066,-0.7805528050679158,0.1298621288895478,1.1513086175332237,2.150925629900816,-0.6078138793730451,-0.7415686961700636,-0.8569521399584771,0.543203277978577,-0.0041630366191702,-0.5392821309119777,-0.0650173331644354,10.516644358088342,-1.1150386245659485,0.0815104057043648,-0.8840286870634657
0.86,0.1147914698589406,1.1308678035572393,2.1272435779023398,0.0684224559585141,0.1164778830819262,0.0161937193843236,-0.5128600251152328,-0.6862071863408837,-0.7880871131775995,0.1237839900958173,1.143892930571523,2.142356108501231,-0.6278138796710683,-0.7615686964680868,-0.8769521402565003,0.6422756405283985,0.0158655363625637,-0.5199536387438586,-0.3767154054841848,10.126786296508726,-1.113960055710301,0.0825569843287591,-0.8852062559537341
0.88,0.1045382307869665,1.1170410653305118,2.1113558857059584,0.0671402677797443,0.1175321487332833,0.0158059870790472,-0.5125740247027414,-0.6959461992716395,-0.8004816799804442,0.1116277125083565,1.1290615566481217,2.1252170657020617,-0.6678138802671147,-0.8015686970641333,-0.9169521408525468,0.7882820804311614,0.0143000206245691,-0.4869506465377871,-0.6197283401422338,9.535003334848623,-1.1138861376555615,0.0832613933345809,-0.8839784048186201
0.9,0.0948014329716024,1.1037329153407276,2.09599342279022,0.0664761033633701,0.1174266702166288,0.0154100429188247,-0.5124578242675505,-0.7044873305041371,-0.8159687321347976,0.0994714349208956,1.1142301827247203,2.108078022902892,-0.7078138808631612,-0.8415686976601797,-0.9569521414485932,0.8843263109615542,0.0058100217595447,-0.4270565616248833,-0.774352607717671,9.535003334848623,-1.1145030600317518,0.0835332985569611,-0.8810240029318658
0.92,0.084552587929814,1.0895557990390643,2.0794762781428267,0.0665703397081854,0.1159991451861585,0.0149691829913625,-0.5125002362789468,-0.712834883564823,-0.8350437701245262,0.0853151573036323,1.097398808771517,2.08893898007392,-0.7478138814592077,-0.8815686982562262,-0.9969521420446396,1.04108178736023,-0.002120600569816,-0.4173776530342954,-0.9537518994864324,9.338178338505712,-1.1159040300483436,0.083137795392489,-0.8764667108034594
0.94,0.0743030917765712,1.0752149118888643,2.062564669340469,0.0677009417057813,0.1129255851112528,0.0144956941305743,-0.5125764621794111,-0.720976082579613,-0.8551343483057839,0.0711588796863691,1.0805674348183134,2.069799937244948,-0.7878138820552542,-0.9215686988522728,-1.036952142640686,1.0838776031493895,-0.0038112950232149,-0.4070599507394967,-1.004528909062885,9.180777619419132,-1.1175638947721849,0.0819158148709342,-0.871097630718376
0.96,0.0645564086652115,1.0614288833230603,2.04612415509061,0.069511479736418,0.1084043073013027,0.0139867819769019,-0.5136239721870527,-0.7297888839929884,-0.8744133744021929,0.0560026020542047,1.0627360608502086,2.0496608944010752,-0.8278138826513005,-0.961568699448319,-1.0769521432367324,1.06118282260141,-0.0523755003820791,-0.4406400706687685,-0.9639513048204484,9.118891748387796,-1.1209885808924214,0.0800764066091957,-0.8626105100515777
0.98,0.0542527308438907,1.0467250909324932,2.028419934510304,0.0717384448367037,0.1024754059206438,0.0133836322745915,-0.5169564444443846,-0.7402599958996524,-0.8949965186258155,0.0398463244071392,1.0439046868672026,2.028521851542301,-0.867813883247347,-1.0015687000443654,-1.1169521438327787,1.1666355279587295,-0.1666236128665954,-0.5235555953332027,-1.029157211181131,9.118891748387796,-1.1247943146133097,0.0779600446087936,-0.852739641286443
1.0,0.0438585283555767,1.03179668013876,2.0103029655120928,0.073694775794145,0.0960848899377972,0.0127179002244512,-0.5224961638048486,-0.7519868021740447,-0.9156494836967932,0.0284049086216715,1.0097120911375106,1.983670108579013,-0.6105116788170004,-0.8402599973897685,-0.9949965201159316,1.219376318259518,-0.2769859680232023,-0.5863403137196133,-1.03264825354889,9.095005975493224,-1.1280410195522077,0.0760141394412775,-0.8425187817973208
1.02,0.0332849245511291,1.016576697795878,1.9920337714439809,0.0741377369446262,0.0921187341588889,0.0121223961793578,-0.5348060375461042,-0.7692192652739297,-0.9088478146233752,0.0284049086216715,1.0097120911375106,1.983670108579013,-0.6105116788170004,-0.8402599973897685,-0.9949965201159316,1.1121527302925236,-0.6154936870627792,-0.861623154994251,0.3400834536709085,9.087231335238355,-1.1272547345511543,0.075180674268119,-0.8337454518831391
1.04,0.0230099700720922,1.0018118562997995,1.9748072411602076,0.0727312700034474,0.0930310820719903,0.0117841199836663,-0.5455707922556514,-0.7839738589279313,-0.904960925170284,0.0284049086216715,1.0097120911375106,1.983670108579013,-0.6105116788170004,-0.8402599973897685,-0.9949965201159316,0.9336566385347084,-0.5382377354773593,-0.7377296827000779,0.1943444726545562,10.84246130003794,-1.12168828282831,0.0754433919056614,-0.8370206158301786
1.06,0.0120058674487516,0.9859803238618758,1.956690596717577,0.0698664739634542,0.0970099492154425,0.0115571126362377,-0.5539255151012787,-0.7980524525298891,-0.9071727843878864,0.0222997918335015,1.001309491163613,1.9737201433778535,-0.6292227256915236,-0.8602599976877917,-1.0149965204139548,0.8259850374474529,-0.4177361422813663,-0.7039296800978923,-0.1105929608801181,10.441807742246056,-1.1150734615136464,0.0770298576558948,-0.8414662492669154
1.08,0.0008619166883052,0.9698957389942852,1.9384678432592424,0.0663106687185976,0.102558063568645,0.0113896088838776,-0.559794130659835,-0.8094991029481912,-0.9152180002969802,0.0100895582571614,0.9845042912158176,1.953820212975535,-0.6666448194405699,-0.9002599982838382,-1.0549965210100014,0.7586039042162893,-0.2934307779278111,-0.5723325209151031,-0.4022607954546897,9.720140022200212,-1.1084179464626516,0.0793088331614917,-0.8465689608728566
1.1,-0.0103769304490272,0.953603128448519,1.9200260252218653,0.0627798135387863,0.108611825646791,0.011250678241942,-0.563610917497459,-0.8191397286472667,-0.9285400550415392,-0.0021206753191785,0.967699091268022,1.9339202825732165,-0.7040669131896162,-0.9402599988798848,-1.0949965216060478,0.844077407958778,-0.1908393418811993,-0.4820312849537767,-0.6661027372279527,9.720140022200212,-1.102022440866414,0.081530642511026,-0.8515117452477828
1.12,-0.0211078254487439,0.9379592129176492,1.9022203219575973,0.0597132752377467,0.1141838488350962,0.0111215368481519,-0.5656742238740657,-0.8271276273481535,-0.9450773897736836,-0.0162020135829708,0.9488938912904245,1.9120203521410957,-0.7414890069386626,-0.9802599994759312,-1.134996522202094,0.924049780723911,-0.1031653188303394,-0.3993949350443393,-0.826866736607218,9.451926319849008,-1.095646981827939,0.0836520550636133,-0.8576066046297449
1.14,-0.032430562923127,0.9213381833900676,1.8831147936869088,0.0569429491283978,0.1194086062079002,0.0109761221597136,-0.566420343443121,-0.8345981306193114,-0.9647047102991092,-0.0302833518467631,0.9300886913128268,1.8901204217089749,-0.778911100687709,-1.0202600000719777,-1.1749965227981407,1.0507102651819695,-0.0373059784527618,-0.3735251635578973,-0.9813660262712852,9.240633398228056,-1.090181600025662,0.0854828278817122,-0.8623787345886449
1.16,-0.0437597958908873,0.9045655148381688,1.8635996239070451,0.0544257631967556,0.1238042230300464,0.0108017756902217,-0.5664282509400803,-0.8422070190351968,-0.9858820250941992,-0.0453002424542816,0.910283491320328,1.8672204912619528,-0.8163331944367552,-1.060260000668024,-1.214996523394187,1.1251376664482442,-0.0003953748479668,-0.3804444207942681,-1.0588657397544998,9.056328823018704,-1.0858651874409733,0.0871831332309738,-0.865582889682979
1.18,-0.0550832604054551,0.8876438595480337,1.84364732891524,0.0518886206822947,0.12741850850352,0.0105868166797118,-0.565895594466929,-0.8494651730989902,-1.0083325207092566,-0.0612526854055262,0.8894782913129279,1.8433205608000287,-0.8537552881858015,-1.1002600012640704,-1.2549965239902334,1.1800310130393366,0.026632823657563,-0.3629077031896688,-1.1225247807528649,9.056328823018704,-1.0825369282053572,0.0888399537551725,-0.8676683124081027
1.2,-0.065826675216829,0.8714385845009138,1.8242643032055152,0.0494047911050102,0.1301642610139932,0.0103467684320483,-0.5650242171732347,-0.8558733760298207,-1.0308493149780995,-0.0833780401288015,0.8451706008930842,1.793230702879777,-0.6269688343596502,-0.9494651745891064,-1.1083325221993727,1.1713564651036823,0.0435688646847176,-0.3204101465415276,-1.125839713442156,8.993112229356484,-1.0798000100619758,0.0906676313429379,-0.8689060214854684
1.22,-0.0771396273597117,0.8542405640456323,1.8036741854784453,0.0467242892299274,0.1343711879973265,0.0101581137175676,-0.5658066815443809,-0.8635304761491288,-1.0255483768631355,-0.0833780401288015,0.8451706008930842,1.793230702879777,-0.6269688343596502,-0.9494651745891064,-1.1083325221993727,0.4672883949658374,-0.0391232185573076,-0.3828550059654045,0.2650469057482008,8.931774699537527,-1.0739433596879746,0.0925222282223274,-0.8667965586836868
1.24,-0.0884397106745177,0.8369091658247721,1.7831852152867085,0.0444092303227454,0.1411884562808175,0.0101168546557709,-0.5637311939488802,-0.8693765511163644,-1.0238150462997,-0.0833780401288015,0.8451706008930842,1.793230702879777,-0.6269688343596502,-0.9494651745891064,-1.1083325221993727,0.3220585200074505,0.1037743797750345,-0.2923037483617774,0.086666528171786,10.700294992197088,-1.067617554433549,0.0940079596982162,-0.8754764926555125
1.26,-0.0991139216224032,0.8203419756372605,1.763687027025823,0.0427374735889734,0.1488145849404267,0.0101633564019745,-0.559686050048326,-0.8743427323475625,-1.0287273389206324,-0.089647728472398,0.8356759491471931,1.7821473776577832,-0.6391834823381944,-0.9694651748871296,-1.128332522497396,0.4035986991770508,0.2022571950277107,-0.2483090615599092,-0.24561463104662,10.283948956319364,-1.0610375500290654,0.0952648459583765,-0.8852146967660373
1.28,-0.110247825419228,0.8028087006691443,1.74300673748335,0.0415659186663799,0.1573008241026131,0.0102724416821748,-0.553677431504005,-0.8787511749465728,-1.0392998495027752,-0.102187105159591,0.8166866456554109,1.7599807272137955,-0.663612778295283,-1.009465175483176,-1.1683325230934425,0.6467531271077254,0.3004309272160499,-0.2204221299505149,-0.5286255291071407,9.907407424663688,-1.0547574846100518,0.0961324804879026,-0.8944019720693193
1.3,-0.121245454100828,0.7851955169187782,1.722065905410533,0.0412384274120733,0.1658275812009078,0.0104463499766002,-0.546180065976516,-0.8824045671915351,-1.054451179366302,-0.114726481846784,0.7976973421636289,1.7378140767698085,-0.6880420742523714,-1.0494651760792224,-1.2083325236894888,0.8647551118405293,0.374868276374446,-0.1826696122481153,-0.7575664931763426,9.387981472116737,-1.0486687582387355,0.0963611429431156,-0.90305399498183
1.32,-0.1320705579095469,0.76751659144417,1.7007803837112283,0.0420463980040765,0.1738730894511625,0.0106909154793086,-0.5365841648157407,-0.8854665235275226,-1.0733512938183694,-0.1284873233318315,0.7767080386420444,1.7136474262960184,-0.7124713702094598,-1.0894651766752688,-1.2483325242855352,1.070830544474833,0.4797950580387677,-0.1530978167993746,-0.9450057226033648,9.387981472116737,-1.0435077991900057,0.0957458483858536,-0.9106281909462938
1.34,-0.1421563353037071,0.7506675838444075,1.6801941644938625,0.0441029769482036,0.1805108293139364,0.0109880445127283,-0.5255438692236073,-0.8881495355965243,-1.0926835683495204,-0.1422481648168789,0.75571873512046,1.6894807758222286,-0.7369006661665484,-1.1294651772713151,-1.2883325248815818,1.1211863349504845,0.5520147796066688,-0.1341506034500839,-0.9666137265575524,9.218704099886963,-1.039213877352401,0.0940018313708562,-0.9170266869291808
1.36,-0.1525330349457928,0.7328579919278402,1.6581183315211887,0.0472942788468516,0.186138014194538,0.0113343875969608,-0.5126903533638774,-0.8929771089016448,-1.113929834923953,-0.1566197387008535,0.7337294315839743,1.6643141253335376,-0.7613299621236368,-1.1694651778673617,-1.328332525477628,1.2648341564455143,0.6426757929864968,-0.2413786652560257,-1.062313328721631,9.1623435986221,-1.0363027119532555,0.0913725996238299,-0.9216750665307964
1.38,-0.1626416719846551,0.7149301834026852,1.635612261246757,0.0505227266522051,0.1902683591876634,0.0116317113574076,-0.4988505215160802,-0.8995868825475024,-1.1356190113861286,-0.1716020449837554,0.7107401280325876,1.6381474748299456,-0.7857592580807252,-1.209465178463408,-1.3683325260736745,1.328204077723154,0.6919915923898567,-0.3304886822928787,-1.0844588231087804,9.120652839318607,-1.0356136026320362,0.0887666918326345,-0.924065910600428
1.4,-0.1719814546698477,0.6977661270258103,1.6138266490188566,0.0532196570500309,0.1927323296329913,0.0118260167924382,-0.485104221272416,-0.9067585899188472,-1.156498162644279,-0.1875841980604591,0.6699508392753101,1.5788313106774503,-0.5283133693747476,-0.9995868840376184,-1.1973933062095368,1.300320262733265,0.6873150121832095,-0.358585368567238,-1.043957562907516,9.112423675735954,-1.0367066873505573,0.0866261577212288,-0.924544381121665
1.42,-0.1815095306631214,0.6794826732357669,1.590820633562979,0.0541491495528751,0.1954468728923724,0.0119117304105805,-0.4679180717301033,-0.9208231604279796,-1.1411494041898362,-0.1875841980604591,0.6699508392753101,1.5788313106774503,-0.5283133693747476,-0.9995868840376184,-1.1973933062095368,1.3497780056271445,0.8593074771156339,-0.7032285254566173,0.7674379227221362,9.112423675735954,-1.0345439351127783,0.0859539674463728,-0.9162913471828484
1.44,-0.1906742142020918,0.6609336759198936,1.56815181777916,0.0525211937884546,0.1995587961629516,0.0118981468733205,-0.4492443449078655,-0.9331420226226264,-1.1269863854219906,-0.1875841980604591,0.6699508392753101,1.5788313106774503,-0.5283133693747476,-0.9995868840376184,-1.1973933062095368,1.3238707828000171,0.9336863411118916,-0.615943109732342,0.7081509383922824,11.119363777377655,-1.0340189883611677,0.0873832020259895,-0.9218777196346558
1.46,-0.1994588807801056,0.6421581992512588,1.5457014067262016,0.0491404003075431,0.2043356718733012,0.0117941562620878,-0.4300215856840547,-0.9432662847375722,-1.1190086571607205,-0.1928673317542066,0.6599549704349339,1.5668573776153552,-0.534205938946481,-1.0195868843356417,-1.2097481651742183,1.157215735893057,0.9611379611905418,-0.5062131057472941,0.398886413063515,11.119363777377655,-1.0338900699456697,0.0902125601680304,-0.9272989357187952
1.48,-0.2074332553040652,0.6241647168135245,1.5244637257805274,0.0453841658563642,0.2087197014198588,0.0116433763355889,-0.4103269752778633,-0.9501466646308973,-1.116907909114067,-0.2034335991417015,0.6399632327541815,1.5429095114911644,-0.5459910780899481,-1.0595868849316885,-1.2344578831035815,1.048368314195503,0.984730520309568,-0.3440189946662453,0.1050374023326639,10.748762268858629,-1.0337674994462005,0.0937185484982751,-0.9323686555723296
1.5,-0.2154111931790328,0.6051032539216892,1.502108173189214,0.0415945207736174,0.2122922387676852,0.0114443914172937,-0.3885577048405356,-0.9555985343466477,-1.1189331190438545,-0.2139998665291965,0.6199714950734292,1.5189616453669736,-0.557776217233415,-1.0995868855277346,-1.259167601032945,1.1266382449911942,1.088463521866384,-0.2725934857875201,-0.1012604964893748,10.44053895709476,-1.035252962104016,0.0971559600920244,-0.9354101053219092
1.52,-0.2229466550770885,0.5859458342464057,1.479671276283888,0.0382513352615162,0.2141661121439586,0.011207772629075,-0.3662910465534193,-0.9599213152880084,-1.1246069403301304,-0.2251553908738648,0.5979797573628745,1.4937782933463146,-0.5695613563768819,-1.139586886123781,-1.283877318962308,1.1690623960366673,1.1133329143558162,-0.2161390470680479,-0.2836910643137957,10.200883015182626,-1.0384976820105514,0.1000976681540914,-0.9360298653591864
1.54,-0.2300307008868167,0.5667110223243562,1.4571092597959483,0.0354439868949619,0.2139446206771951,0.0109376841975078,-0.343392341322191,-0.9634399981159476,-1.1312756135133977,-0.2363109152185331,0.5759880196523198,1.4685949413256558,-0.5813464955203489,-1.1795868867198276,-1.3085870368916714,1.2054076407335654,1.1449352615614166,-0.1759341413969495,-0.3334336591633624,10.017424252073395,-1.043265684467459,0.1027138553079555,-0.9340158487656876
1.56,-0.2363303355758574,0.548370427774607,1.4355479314338788,0.0330477242942489,0.2112531047878944,0.0106268493177055,-0.321046378769088,-0.9669041663043748,-1.137959132044808,-0.247761068041788,0.5529962819268639,1.4427938463567629,-0.5931316346638158,-1.219586887315874,-1.3332967548210346,1.1789952540427109,1.1172981276551477,-0.1732084094213604,-0.3341759265705124,9.97097127901452,-1.0504436597327471,0.1050470677276582,-0.9289743266736722
1.58,-0.2425094977359181,0.5289973957060629,1.412712875002326,0.0306118264743328,0.2053682651065625,0.0102281464826273,-0.298605492089854,-0.9701500751032583,-1.1451125075289583,-0.2595058493436297,0.5290045441865069,1.4163750084396358,-0.6049167738072828,-1.2595868879119203,-1.358006472750398,1.18880202272933,1.1220443339617026,-0.1622954399441822,-0.3576687742075202,9.951812203406917,-1.0620210184379977,0.1073700853959853,-0.919332169551666
1.6,-0.248268343938005,0.5095635355643888,1.3897358585215234,0.0282215931927858,0.1968525139783927,0.0097837309967392,-0.278964916415108,-0.9729900378256718,-1.152123876876498,-0.2574397723404108,0.4804898919508999,1.355457249625878,-0.281023822476135,-1.0701500765933745,-1.1350513198593235,1.0523508222400677,0.9820287837372988,-0.1419981361206745,-0.3505684673769771,9.924054863087804,-1.074427656000042,0.1094720466109551,-0.9076635506989776
1.62,-0.2534443444860991,0.4910257075285882,1.3681799505052714,0.0254730691653231,0.1906979984619931,0.0094137817905907,-0.2667152744611596,-0.977751512012034,-1.116597366654933,-0.2574397723404108,0.4804898919508999,1.355457249625878,-0.281023822476135,-1.0701500765933745,-1.1350513198593235,1.8939761699598303,0.6124820976974171,-0.2380737093181095,1.7763255110782472,9.899112641062857,-1.0816470259148696,0.1117139163647858,-0.8849524160956656
1.64,-0.2586346589970653,0.4714375336115663,1.3462155567096623,0.0222266763605618,0.1896948500065281,0.0091667754896942,-0.2524478022176701,-0.9806677269615526,-1.0821483134998997,-0.2574397723404108,0.4804898919508999,1.355457249625878,-0.281023822476135,-1.0701500765933745,-1.1350513198593235,1.8700283000056728,0.7133736121744755,-0.1458107474759273,1.7224526577516608,12.830578571080878,-1.0839653449284632,0.1144468916062201,-0.8882271164433014
1.66,-0.2635131775803297,0.4518136598352523,1.3248780444251271,0.0193198372998764,0.1919212635714775,0.0090292450784472,-0.2358441247491108,-0.9816275441107026,-1.0535878446468254,-0.2602500105651721,0.4697883911849662,1.344106736427285,-0.2775074885533912,-1.0901500768913976,-1.1330390823253966,1.6525009346042552,0.8301838734279684,-0.0479908574575027,1.4280234426537142,12.357962811417565,-1.0853606064465775,0.117063979747378,-0.8936656714712221
1.68,-0.2680370797031853,0.4321842419142334,1.304055384215274,0.0171824018555655,0.195639615059578,0.0089806862668374,-0.2171796708166124,-0.9814831870561715,-1.0301155535987183,-0.2658704870146949,0.4483853896530986,1.3214057100300984,-0.2704748207079036,-1.1301500774874442,-1.1290146072575429,1.4994425019024442,0.9332226966249176,0.0072178527265542,1.1736145524053443,11.96022213717606,-1.0861304722083724,0.1190407155551278,-0.8994910968853367
1.7,-0.2719672439254747,0.4135472051854199,1.2846729965965773,0.0160233102981536,0.1993104804751375,0.0090030565095075,-0.1974296673224356,-0.9804893999689744,-1.011315497454915,-0.2714909634642176,0.4269823881212312,1.298704683632912,-0.263442152862416,-1.1701500780834906,-1.124990132189689,1.3642693665519656,0.98750017470884,0.0496893543598608,0.9400028071901768,11.66200345319794,-1.0869254665787489,0.1204070039287216,-0.9049198911500084
1.72,-0.2756836723063499,0.393958423000973,1.2646310785587025,0.0160699996790858,0.2023878982820439,0.0091103210975087,-0.1752735889592695,-0.9785762338559312,-0.9939680778545106,-0.2767598065214659,0.4035793865595614,1.2762048809891182,-0.2564094850169284,-1.210150078679537,-1.1209656571218347,1.410217163953258,1.1078039181583037,0.0956583056521576,0.8673709800202212,11.448045257169724,-1.088933278470814,0.1207436652239309,-0.908839578428805
1.74,-0.2789433499482198,0.3744138057577894,1.2449300964712309,0.0178593247912373,0.2040647362923721,0.0093262017881638,-0.1519003071511808,-0.9761821432156604,-0.9769779522654296,-0.2820286495787142,0.3801763849978915,1.2537050783453243,-0.2493768171714408,-1.2501500792755835,-1.1169411820539807,1.4497468227305303,1.1686640904044363,0.1197045320135314,0.8495062794540487,11.311542974074657,-1.0922992971372334,0.1196453797621262,-0.9105948674731292
1.76,-0.281723870669826,0.3549020253040396,1.2255716823226166,0.0212780178765451,0.2038377254123489,0.0096269002541685,-0.1275195955552452,-0.975644167067322,-0.9596964260405088,-0.2871216759398253,0.3557733834213206,1.231305887578227,-0.2423441493259532,-1.29015007987163,-1.112916706986127,1.4944561426510603,1.2190355797967816,0.0268988074169307,0.864076311246037,11.311542974074657,-1.0971920222707154,0.1173519596536015,-0.9105720009282408
1.78,-0.2839059159662973,0.3363483827809275,1.207504951567533,0.0249339830783393,0.2013379241373434,0.009887308040099,-0.1035731409249321,-0.9775090630747756,-0.9428999607632432,-0.2920388856047993,0.3303703818298484,1.209007308687826,-0.2353114814804656,-1.3301500804676762,-1.108892231918273,1.4654621901388725,1.1973227315156525,-0.0932448003726882,0.8398232638632819,11.33688558328231,-1.103937816472822,0.1145329487895678,-0.9077123324249272
1.8,-0.2857122426746724,0.3167641612853725,1.188836830898756,0.0285988496257329,0.1957142627886298,0.0100561147569294,-0.0788103047307819,-0.980876081508664,-0.9247018395180164,-0.2890845730125439,0.2874729296271887,1.1603599535293705,-0.0531394940373913,-1.0775090645648917,-0.8428999592731271,1.545725142423798,1.2381418097075083,-0.1683509216944156,0.9099060622613342,11.366923772200607,-1.1143945509689304,0.1119191209724357,-0.9004783436688941
1.82,-0.2870381899799558,0.2970148311901027,1.1708483952492246,0.0293767977736122,0.1888859121218383,0.00997254433034,-0.0550605920869309,-0.993095523331946,-0.8733721190404707,-0.2890845730125439,0.2874729296271887,1.1603599535293705,-0.0531394940373913,-1.0775090645648917,-0.8428999592731271,2.8931400819183724,1.187485632192553,-0.6109720911641026,2.56648602387729,11.389547439898706,-1.116728480992241,0.1110161111034175,-0.883084117545127
1.84,-0.2878949515675938,0.277048970565932,1.1539403978034577,0.0261110545634244,0.1825842220938771,0.0096405831145094,-0.0320358993336663,-1.0021306577423494,-0.8201168278350268,-0.2890845730125439,0.2874729296271887,1.1603599535293705,-0.0531394940373913,-1.0775090645648917,-0.8428999592731271,2.9359394457195997,1.1512346376632303,-0.4517567205201689,2.662764560272196,13.948852105530932,-1.125215595559937,0.113731155426578,-0.8771579372487106
1.86,-0.2882962495719625,0.2579688323118289,1.1388376160912588,0.0215787108518938,0.176479549569867,0.0092640238487847,-0.0116157496540308,-1.0056484687738334,-0.7722736568958968,-0.2896159679529178,0.2766978389815398,1.1519309539366391,-0.0430527646598831,-1.0975090648629149,-0.8228999589751039,2.6068786473974783,1.0210074839817718,-0.1758905515741982,2.392158546956502,13.767501892486507,-1.1358621320488616,0.1179096622611302,-0.8734627247035036
1.88,-0.2883219208927344,0.2378481107701273,1.1238993711940015,0.0171511100725278,0.1696904864120329,0.008933483553632,0.0076614424280883,-1.0062913248996856,-0.7241466992618785,-0.2906787578336656,0.255147657690242,1.1350729547511766,-0.0228793059048668,-1.1375090654589617,-0.7828999583790575,2.592405952814903,0.9638596041059596,-0.0321428062926121,2.406347881700915,13.509745879847287,-1.1469699481560294,0.1218630699466369,-0.8690169177737559
1.9,-0.2879886124167463,0.2177344017794655,1.109895805658237,0.0137544850608068,0.1625706069697149,0.0087150198797043,0.0243947098384203,-1.005317163233211,-0.6785765945566632,-0.2917415477144134,0.2335974763989441,1.1182149555657142,-0.0027058471498505,-1.1775090660550078,-0.742899957783011,2.4277487884985085,0.836663370516599,0.0487080833237341,2.278505235260764,13.315247168674432,-1.1573173474281162,0.1248732676031323,-0.8649161589174357
1.92,-0.287387002242902,0.1986534273119754,1.0974187547145746,0.0116151709806294,0.1556564871954049,0.0086147904038652,0.0378513450008788,-1.0035602114947566,-0.6370518968250298,-0.2917956646574104,0.210047295077844,1.103356956410054,0.0174676116051658,-1.2175090666510542,-0.7028999571869645,2.1843010501132225,0.6728317581229276,0.0878475869227179,2.076234886581668,13.118829154560444,-1.1675185808369346,0.1271354748171117,-0.8603841568788047
1.94,-0.2865015904059943,0.1786108622536043,1.0851388634663268,0.0106061520582246,0.1484551903068489,0.0086208336715749,0.0497361017070814,-1.0009295237306417,-0.5930949339690299,-0.2918497816004075,0.1864971137567438,1.0884989572543935,0.0376410703601821,-1.2575090672471008,-0.662899956590918,2.280560536141087,0.5942378353101306,0.1315343882057451,2.1978481427999963,12.971214881821652,-1.175408040676598,0.1283188170038364,-0.8572085962460021
1.96,-0.2854012023565608,0.1586194862227038,1.073737233081361,0.0109554037215121,0.1415399907523288,0.0087357131936337,0.0594929342945499,-0.9984471409260705,-0.5492776899886316,-0.2913995620745291,0.1619469324207425,1.0746409581136347,0.0578145291151984,-1.2975090678431471,-0.6228999559948717,2.247948440559788,0.4878416293734245,0.1241191402285679,2.190862199019916,12.986687213681762,-1.1816369363037862,0.1284584736400563,-0.8581024105658825
1.98,-0.2841277416339725,0.1386752603256776,1.0632093321326843,0.0125916864276371,0.1350801638982897,0.0089437621335232,0.0671768845066949,-0.9962569704075122,-0.5057070681786198,-0.2904450060797753,0.13639675106984,1.061782958987777,0.0779879878702147,-1.3375090684391937,-0.5828999553988252,2.2148583604116547,0.3841975106072499,0.1095085259279093,2.1785310905005906,12.96888014904107,-1.1858371410269632,0.1276034039146549,-0.8606324440408462
2.0,-0.2827955969589882,0.1197604268342106,1.054012930878259,0.0152124795022794,0.1296018041703737,0.0092129795859925,0.072510669427467,-0.9951963053169534,-0.4645318492248141,-0.2807688974086378,0.088862411805302,1.0379239787237533,0.1514339805588647,-1.0746399393101,-0.4057070666885036,2.076639670181868,0.2666892460386059,0.0530332545279399,2.058760947690283,12.952874649666228,-1.18843613344735,0.1257730139878827,-0.8671981050314583
2.02,-0.2813889628047786,0.0997168288588513,1.0451230795151558,0.014139085878108,0.1273743163652246,0.0092767323684873,0.067865758072334,-1.0079876569942217,-0.4269141071436768,-0.2807688974086378,0.088862411805302,1.0379239787237533,0.1514339805588647,-1.0746399393101,-0.4057070666885036,2.0001802409480307,-0.2322455677566524,-0.6395675838634152,1.8808871040568664,12.945486067199454,-1.1936327912652605,0.1271780624057009,-0.8737358750715264
2.04,-0.2800528718659368,0.0795047732744799,1.0369752703667618,0.0079196332347124,0.1305715424952503,0.0090644389718888,0.0666360818388288,-1.0115865678141562,-0.3897363218196976,-0.2807688974086378,0.088862411805302,1.0379239787237533,0.1514339805588647,-1.0746399393101,-0.4057070666885036,1.868590367312328,-0.0614838116752614,-0.1799455409967287,1.858889266198957,12.617274510143943,-1.1827103329275368,0.1320733275385792,-0.8891176023596431
2.06,-0.2786923417061818,0.0592969898783339,1.0295649639103055,0.0010966610574498,0.1367073266347826,0.0088183313166256,0.0699160431030029,-1.0089421086680617,-0.353235710819527,-0.2792545576030492,0.078116012412201,1.0338669080568683,0.1682853997692987,-1.0903165330906175,-0.3857070663904804,1.83714854697138,0.1639980632087062,0.1322229573047284,1.82503055000853,12.568604817873164,-1.1731211573858655,0.1375958565904355,-0.9067059888994208
2.08,-0.2773044279669221,0.0401843477211063,1.0231945627635874,-0.0043624910542579,0.1438079199832797,0.0086312524551011,0.0763260702807125,-1.003348475281876,-0.3192187590592362,-0.2762258779918718,0.056623213625999,1.025752766723098,0.2019882381901666,-1.1216697206516528,-0.345707065794434,1.7532328638403811,0.3205013588854805,0.279681669309284,1.7008475880145395,12.515208646545943,-1.1639236976297485,0.1428977348784109,-0.9265570059586222
2.1,-0.2756806485518923,0.0201976243541913,1.0171861042885,-0.0085613974684366,0.1517764745961656,0.008515365280516,0.0860267104654506,-0.9958973851466522,-0.2834609546467617,-0.2731971983806945,0.035130414839797,1.017638625389328,0.2356910766110345,-1.153022908212688,-0.3057070651983875,1.889604284366022,0.4850320092369055,0.3725545067611913,1.787890220623728,12.494935369885752,-1.15503277635873,0.1470924120308546,-0.9468075342043594
2.12,-0.2738348070030262,0.0003713151004873,1.0118929486191304,-0.0110371481882442,0.1597785044052423,0.0085045663220655,0.0983394051129844,-0.9875961782679096,-0.2477128984039478,-0.2684833768484739,0.0120699566755433,1.0115244840853603,0.2693939150319024,-1.184376095773723,-0.2657070646023411,1.9354818587799203,0.6156347323766881,0.4150603439371292,1.7874028121406913,12.532096745288982,-1.146973612698957,0.14985164629834,-0.9662318690446184
2.14,-0.2718261848255271,-0.0183033982700691,1.0075268489998677,-0.0118001692194132,0.1670298652879504,0.0086065837519914,0.1126369962558511,-0.978887452011638,-0.2137200589498644,-0.2637695553162532,-0.0109905014887104,1.0054103427813927,0.3030967534527704,-1.2157292833347584,-0.2257070640062946,1.8945818533691987,0.7148795571433372,0.4354363128135807,1.6996419727041716,12.56967712687856,-1.1389480589516148,0.1513965332808647,-0.9864994463607296
2.16,-0.2693851159107843,-0.0377834575299681,1.0036320280864246,-0.0107947218763748,0.173663191591547,0.0088610396344153,0.1308390980253798,-0.969752426591044,-0.1775608656422624,-0.2582131628235108,-0.0348347893419901,1.000296201492326,0.3367995918736383,-1.2470824708957935,-0.1857070634102481,2.0750014812764044,0.9101050884764352,0.4567512710296983,1.8079596653801016,12.6149093574777,-1.1321064347857817,0.1513192430138714,-1.006052703779036
2.18,-0.2665498090551693,-0.0570840334939486,1.0004660786201969,-0.0078840642893136,0.1785146824881524,0.0092846358427345,0.1516573571926538,-0.961195438543176,-0.1408752000817718,-0.2518141993702467,-0.0594629068842956,0.9961820602181608,0.3705024302945062,-1.2784356584568286,-0.1457070628142017,2.1520106974776567,1.0409129583637002,0.4278494023934043,1.8342832780245275,12.7627298849402,-1.1283701988626271,0.1496544030209033,-1.0228569798606657
2.2,-0.263454253445612,-0.0752878339389929,0.9981447547823974,-0.0040711046396626,0.1810909844465389,0.0097912190685236,0.1729428716002425,-0.9557098886013494,-0.1053221700449349,-0.2589669411955366,-0.1051438054211074,0.993422318616108,0.247302807248253,-0.9680576961504572,-0.0408751985916557,2.089965506031241,1.064275720379436,0.2742774970913242,1.7776515018418468,12.7627298849402,-1.1272422134651212,0.1468069752630479,-1.0380269008435898
2.22,-0.2597375703133719,-0.0946355871242691,0.9963153962448612,-0.0088500348919534,0.1803976535808831,0.0097385587452093,0.1974634281415357,-0.9752483858994984,-0.0800421947506378,-0.2589669411955366,-0.1051438054211074,0.993422318616108,0.247302807248253,-0.9680576961504572,-0.0408751985916557,2.0137575081454075,1.22602782706466,-0.9769248649074468,1.2639987647148534,12.846032381612533,-1.132703898603133,0.1524960632388529,-1.0486769763628323
2.24,-0.2555432200859887,-0.114150750145223,0.9949903871598752,-0.0226235957313208,0.1750628892652129,0.0091704286957982,0.2200485927060683,-0.973982325535856,-0.0534765044195759,-0.2589669411955366,-0.1051438054211074,0.993422318616108,0.247302807248253,-0.9680576961504572,-0.0408751985916557,1.7445833815106655,1.129258228226626,0.0633030181821203,1.328284516553093,11.997696334328792,-1.1412224693992807,0.165794388821851,-1.046095099404868
2.26,-0.2509512365183516,-0.1335111262172715,0.9942066421045238,-0.0371152646008725,0.1668418685594849,0.0087626533728476,0.2374968693245688,-0.9619392334074844,-0.0262072269188125,-0.2564939131230541,-0.1148243823826119,0.9930135666301916,0.2664318972593729,-0.9694301476719134,-0.0208751982936325,1.7270581347929508,0.8724138309250257,0.6021546064185812,1.363463875038173,12.11919987193869,-1.1551229981418392,0.1809222200064545,-1.0415378488555054
2.28,-0.2463159572017071,-0.151615139256987,0.9939671694392112,-0.0489205890584658,0.1581269246408256,0.0087003501606426,0.2492796575818829,-0.9448223670208632,-0.0003470119407601,-0.251547856978089,-0.1341855363056211,0.9921960626583584,0.3046900772816125,-0.9721750507148258,0.0191248023024139,1.6587434496669624,0.5891394128657051,0.8558433193310566,1.2930107489026168,12.127900272495026,-1.1697827573154036,0.1943455950412372,-1.0374677441084426
2.3000000000000003,-0.2412396402421664,-0.1702886203822171,0.9942494156405716,-0.0585764178987193,0.1494168581428671,0.0089448555528527,0.2574963728346646,-0.9238222574856472,0.0272380770727977,-0.2466018008331239,-0.1535466902286302,0.9913785586865252,0.3429482573038522,-0.9749199537577384,0.0591248028984603,1.7814714044310946,0.4108357626390863,1.0500054767607958,1.3792544506778983,12.12585099347598,-1.182752655872199,0.205234091762389,-1.0354252485699251
2.32,-0.2360400135138666,-0.1885172979706536,0.9950862028848398,-0.0652240106488636,0.1423104973225249,0.0094058655394515,0.2619777260848868,-0.9008536315157604,0.0550783129380303,-0.2397428356870469,-0.173045089303785,0.9925610547444944,0.3812064373260919,-0.9776648568006508,0.0991248034945068,1.8184602270393653,0.2240676625111098,1.1484312984943457,1.39201179326163,12.165195758247137,-1.1931121798569926,0.2130411538874707,-1.0359218632603904
2.34,-0.2307859265339245,-0.2062788303574412,0.9964816117621524,-0.069200552162821,0.1378416976709321,0.0099391576130779,0.2631549501231391,-0.8771699447333746,0.0830854876025417,-0.2328838705409698,-0.1925434883789398,0.9937435508024636,0.4194646173483316,-0.9804097598435632,0.1391248040905533,1.8348737754480828,0.0588612019126133,1.1841843391192874,1.400358733225569,12.201340951392922,-1.201343412524965,0.2189577086009911,-1.0406725867118862
2.36,-0.2257870342429147,-0.222711972976156,0.9983295549206588,-0.0708507389841895,0.1367398520656087,0.0104029252196996,0.2633872393278525,-0.8543133861829402,0.1100151310819552,-0.2250684508943368,-0.2121105100301674,0.995926046875334,0.4577227973705713,-0.9831546628864758,0.1791248046865997,1.7661270657659227,0.0116144602356704,1.1428279275217224,1.346482173970672,12.242348580273756,-1.203025645202391,0.22282937527299,-1.0526669713616528
2.38,-0.2205010277170054,-0.2395391626473033,1.0008359173959112,-0.0704268396026665,0.1382363401285454,0.0108673586098957,0.2654922739152059,-0.8298497250022573,0.1392322973023395,-0.2162965767471477,-0.2317461542574677,0.9991085429631056,0.495980977392811,-0.9858995659293882,0.2191248052826461,1.9082352389883503,0.1052517293676724,1.223183059034144,1.4608583110192157,12.270371558906843,-1.2011213482366954,0.224534526837988,-1.068464811764175
2.4,-0.2151482959740461,-0.2558711221620992,1.0039378613239245,-0.0674003382712521,0.1414399715689543,0.0114063512097569,0.2699318703045394,-0.8051970958341145,0.1694879925195727,-0.2072264140212451,-0.2810316488974162,1.0077975322610282,0.361383771944438,-0.7741598760428113,0.2392322987924556,1.9639687077956824,0.221979819466675,1.2326314584071407,1.51278476086166,12.433636446447052,-1.1983282750438875,0.2238410712250064,-1.0863626276716247
2.42,-0.2099451084164276,-0.2711560469369776,1.00728655887319,-0.068752115601042,0.1440471565576845,0.0116652671735597,0.2772647886809244,-0.8022472948868161,0.181316907604384,-0.2072264140212451,-0.2810316488974162,1.0077975322610282,0.361383771944438,-0.7741598760428113,0.2392322987924556,0.711330179359563,0.36664591881925,0.1474900473649176,0.5914457542405646,12.433636446447052,-1.2053310701502875,0.2277185428135218,-1.1029495273216188
2.44,-0.2043240618699695,-0.287052118746788,1.0110657342380698,-0.0760585372367373,0.1452819933335162,0.0116413417316129,0.2843660157853713,-0.7865107958971655,0.196164442848801,-0.2072264140212451,-0.2810316488974162,1.0077975322610282,0.361383771944438,-0.7741598760428113,0.2392322987924556,1.1385452666389784,0.3550613552223441,0.7868249494825286,0.742376762220849,11.164575814953425,-1.2051276376200082,0.2366099143502846,-1.109055058798233
2.46,-0.1985666638847853,-0.3025445582590645,1.0151730522415048,-0.0840479869245966,0.1457479054558419,0.011646313158902,0.2909781614093768,-0.7634418164226603,0.2139181675163993,-0.2036125763018007,-0.2887732476578443,1.0101898552489528,0.3805620715502844,-0.7630219062509221,0.2592322990904788,1.4925590635893526,0.3306072812002736,1.153448973725263,0.8876862333799181,11.443172122763826,-1.2073437867469616,0.2468999361205221,-1.1180625550682648
2.48,-0.1926816843998932,-0.3175300579289466,1.0196605412962878,-0.0907673407435043,0.1459709538047235,0.0117833384077848,0.2971870503743595,-0.7364785015506212,0.2340359180700741,-0.1963849008629119,-0.3042564451787005,1.014974501224802,0.4189186707619772,-0.7407459666671438,0.2992322996865253,1.7104783968294426,0.3104444482491336,1.3481657436019534,1.005887527683738,11.663423982724453,-1.2101251680661689,0.2558676827632594,-1.128127005581666
2.5,-0.1869780521598299,-0.3312424944922807,1.024319635761609,-0.0953220612495997,0.1463043693445762,0.0120505883380747,0.3029267820463024,-0.7087797672464318,0.2553831571678961,-0.1891572254240232,-0.3197396426995568,1.019759147200651,0.45727526997367,-0.7184700270833654,0.3392323002825718,1.7719121160624538,0.2869865835971485,1.3849367152094727,1.0673619548911022,11.851180644093802,-1.213003713729164,0.2636908690764906,-1.1406865789202212
2.52,-0.180855334340455,-0.3451013886485718,1.029685005754493,-0.0983044711190911,0.1469841833539794,0.0124452540123418,0.3091066388245445,-0.6788939963638706,0.280132532318065,-0.1800117200245498,-0.3341090432412241,1.0265437932063024,0.4956318691853628,-0.696194087499587,0.3792323008786182,1.964612876222896,0.3089928389121005,1.4942885441280584,1.237468757508442,12.028970990066227,-1.2151414872515274,0.270018586712101,-1.156798417728111
2.54,-0.1746062364304303,-0.3583538697295597,1.035559382552155,-0.0995124655450099,0.1480786550112384,0.0129387720183187,0.3155650980891192,-0.6480902394398615,0.3060960135974395,-0.1708662146250764,-0.3484784437828914,1.033328439211954,0.5339884683970556,-0.6739181479158086,0.4192323014746647,2.0400278777813527,0.3229229632287361,1.5401878462004526,1.2981740639687238,12.21678808271372,-1.2170554781560972,0.2748405196319882,-1.1763636895978329
2.56,-0.1682194890957832,-0.3709776356749822,1.0419628548952244,-0.0985361611999863,0.1494381345759935,0.0135723449428379,0.3228440049862527,-0.6160902063188773,0.3329804458801563,-0.1607617942453107,-0.3622909458349642,1.0411130852325066,0.5723450676087484,-0.6516422083320302,0.4592323020707111,2.1211773290588,0.3639453448566782,1.6000016560492103,1.3442216141358403,12.32621782624301,-1.2192657353574985,0.2781507198560263,-1.2011767105562738
2.58,-0.1620088969030612,-0.3823729566496716,1.0485562198611058,-0.0950886852901707,0.150704690437694,0.0143641711424392,0.3305417192313619,-0.5857837443463401,0.3597164472061467,-0.1496984588852526,-0.3755465493974426,1.0498977312679605,0.6107016668204411,-0.6293662687482519,0.4992323026667575,2.057030753778106,0.3848857122554588,1.515323098626864,1.3368000662995232,12.429336450802111,-1.223838061332264,0.2794238038602436,-1.2334508225058485
2.6,-0.1553061808868053,-0.3937842141172624,1.0560628757024375,-0.0898561953527607,0.1518104051922934,0.0153407667251471,0.3393315133221913,-0.5573634684217662,0.3896011655892448,-0.1454818109414931,-0.4116621438669886,1.0665420422214131,0.4181611132953115,-0.4857837428562239,0.4597164486962629,2.108357747528377,0.4394897045414708,1.4210137962286928,1.4942359191549042,12.54656703461751,-1.2286349077430518,0.2783280360215586,-1.2641276636014092
2.62,-0.1483863955017962,-0.4047865967244843,1.0639486660557873,-0.0877683581125321,0.1502941204349148,0.0163366534632633,0.3520983254061434,-0.543130098500469,0.3961503364571336,-0.1454818109414931,-0.4116621438669886,1.0665420422214131,0.4181611132953115,-0.4857837428562239,0.4597164486962629,1.010534449140943,0.6383406041976042,0.71166849606486,0.3274585433944377,12.692224912081656,-1.2440894690889608,0.2799008469851833,-1.279497213725738
2.64,-0.141235554983318,-0.4154615192559727,1.07196588174475,-0.0904564671510779,0.1441739479450779,0.0174233709058461,0.3615817784683846,-0.5243330830683547,0.4053449550525763,-0.1454818109414931,-0.4116621438669886,1.0665420422214131,0.4181611132953115,-0.4857837428562239,0.4597164486962629,1.1487000068061013,0.4741726531120566,0.9398507716057158,0.4597309297721341,10.991578823158306,-1.2590838472537167,0.2861918393126795,-1.2857355719601944
