t,x,y,z,roll,pitch,yaw,v_x,v_y,v_z,ref_x,ref_y,ref_z,ref_v_x,ref_v_y,ref_v_z,a_com,a_x,a_y,a_z,thrust,wind_x,wind_y,wind_z
0.0,1.0107042731776468,0.5433554023305897,2.403032350698045,0.0138817755280185,0.1498873248880596,0.028193521249063,1.6082421057841747e-05,0.0045702518054083,-0.0020046996980166,1.0107098017564715,0.543393627342828,2.402972550219602,-0.099862008736337,-0.097818164758656,-0.1019959076762116,0.2495309654548598,0.000804121052892,0.228512590270419,-0.1002349849008336,10.65905357777956,-1.4134986821556663,0.1789638473890915,-1.2795357594292407
0.02,1.010816770779536,0.5436830236694438,2.4027592127717177,0.0226067939364414,0.1450739763023699,0.0287144211375965,0.0108097537164555,0.0245637508768824,-0.0266875594577761,1.0107098017564715,0.543393627342828,2.402972550219602,-0.099862008736337,-0.097818164758656,-0.1019959076762116,1.677413865951155,0.5396835647698877,0.9996749535737036,-1.234142987987972,10.65905357777956,-1.4091052834245286,0.1678306114189791,-1.274008575336524
0.04,1.0111074247981566,0.5442059869581433,2.4018989561401263,0.0374945180636769,0.1311589898585967,0.029289130890825,0.0164604006225197,0.0259900227482913,-0.0580474675079811,1.0107098017564715,0.543393627342828,2.402972550219602,-0.099862008736337,-0.097818164758656,-0.1019959076762116,1.5948416024996812,0.2825323453032083,0.0713135935704423,-1.5679954025102527,9.194221763457335,-1.4252933609791782,0.1504279811789903,-1.2482239417118028
0.06,1.011409066574427,0.5446790195448331,2.400417664480761,0.052651359658938,0.111785202675252,0.0293683075298977,0.0124931573360827,0.0208654267705591,-0.0883635326455911,1.0097111816691084,0.5424154456952415,2.40195259114284,-0.1198620090343602,-0.1178181650566792,-0.1219959079742348,1.5500518609522216,-0.1983621643218504,-0.2562297988866056,-1.5158032568804984,8.901745194116302,-1.4491141242463503,0.1333451920791685,-1.2103612176935037
0.08,1.0115346981665811,0.5450095993408116,2.398348639244777,0.0671721067224421,0.0907513291960993,0.0289514197231686,-0.0002877397652309,0.0121178996569789,-0.1169853784943526,1.0077139414943816,0.5404590824000683,2.3999126729893154,-0.1598620096304067,-0.1578181656527257,-0.1619959085702813,1.627175944011169,-0.6390448550656848,-0.4373763556790127,-1.4310922924380742,8.919618456211538,-1.472873519263054,0.1183825817686993,-1.1710052164267062
0.1,1.0113451259168589,0.5451329581439466,2.3958646032491395,0.0803010518078743,0.0716868079217454,0.028240730468844,-0.0192522065402674,0.0010398235076092,-0.1430638491080435,1.0057167013196548,0.5385027191048952,2.397872754835791,-0.1998620102264531,-0.1978181662487721,-0.2019959091663278,1.704744409568366,-0.948223338751826,-0.5539038074684826,-1.3039235306845476,8.97088078184288,-1.495724256739888,0.1039362461008355,-1.1318863503380978
0.12,1.010701361757282,0.5450079450426909,2.392719672727418,0.0934559095700775,0.0541610886592628,0.0273447048106559,-0.0442909215202362,-0.0132493166093789,-0.1700577072267622,1.001719461115126,0.5345463557799198,2.393832836652465,-0.2398620108224996,-0.2378181668448185,-0.2419959097623742,1.9747057687567968,-1.251935748998441,-0.7144570058494114,-1.3496929059359313,9.02297941336883,-1.515354490197151,0.0906810171765858,-1.098126178173257
0.14,1.0095135059596367,0.5445710855198546,2.3890306704084705,0.1059707707637867,0.0402009215674066,0.026481008566223,-0.0730912224372597,-0.0299879770486239,-0.1975127203178453,0.9977222209105968,0.5305899924549444,2.389792918469138,-0.2798620114185461,-0.277818167440865,-0.2819959103584207,2.1583661818856137,-1.440015045851171,-0.8369330219622519,-1.372750654554157,9.054122381673553,-1.5250579012772392,0.0786297457905773,-1.071642328557188
0.16,1.007823802443431,0.5438238786479985,2.385015158090145,0.1172980208921718,0.0307267128387144,0.0258438235789038,-0.1031422072313225,-0.0480468384145331,-0.2238069336637278,0.9927249806911664,0.5256336291150678,2.3847530002709103,-0.3198620120145925,-0.3178181680369115,-0.3219959109544671,2.19121531142247,-1.502549239703143,-0.902943068295458,-1.314710667294125,9.050406541529355,-1.5318609983477738,0.0670987133453979,-1.0480437870531871
0.18,1.0054089251136908,0.5426445692512237,2.380245218517813,0.1286575201164678,0.0251912624609578,0.0255314816574762,-0.1367986705904737,-0.0691774981959762,-0.2518281052625404,0.9867277404568352,0.51967726576029,2.3787130820577818,-0.3598620126106389,-0.3578181686329579,-0.3619959115505136,2.431279686921622,-1.6828231679575576,-1.056532989072154,-1.4010585799406283,9.050406541529355,-1.5333848263456478,0.056423218239389,-1.0309615022125984
0.2,1.002310936643787,0.5410127797308402,2.374913650891661,0.139215011731927,0.0246363105641703,0.0257421241474375,-0.1707620047954889,-0.093033476313535,-0.2798796625820696,0.9985689915841672,0.5391856943414249,2.367653813254686,-0.2367986720805898,-0.1691774996860923,-0.3518281067526565,2.50474830587718,-1.6981667102507634,-1.1927989058779411,-1.402577865976462,9.052941347566955,-1.527880506834945,0.0463356868858814,-1.0233266356310065
0.22,0.9985222069980392,0.5387195561641772,2.3691571178407616,0.1442615312934753,0.0295675965886812,0.0263259743614193,-0.2057865576723978,-0.1331024111395992,-0.2931909241440885,0.9985689915841672,0.5391856943414249,2.367653813254686,-0.2367986720805898,-0.1691774996860923,-0.3518281067526565,2.7429129254750544,-1.7512276438454446,-2.00344674130321,-0.665563078100942,9.05937279961745,-1.516888243303437,0.0425926730549736,-1.0136789246426785
0.24,0.9943189825401516,0.5358618678128595,2.363465449386448,0.1431749568312285,0.0389132680432028,0.0271397891762869,-0.2342819304027494,-0.1650551205068352,-0.3052132277305611,0.9985689915841672,0.5391856943414249,2.367653813254686,-0.2367986720805898,-0.1691774996860923,-0.3518281067526565,2.2234532187984244,-1.424768636517579,-1.5976354683618008,-0.601115179323633,10.085685979135633,-1.501617051471607,0.0428511578537167,-1.0244015541894764
0.26,0.989365016767713,0.5322481877636098,2.357203900552095,0.138896994498507,0.0512536185604946,0.0280985992210641,-0.2590695445604637,-0.1937972314493264,-0.3203255281836663,0.9962010048633612,0.537493919344564,2.3641355321871598,-0.256798672378613,-0.1891774999841155,-0.3718281070506797,2.042618651417289,-1.2393807078857164,-1.4371055471245606,-0.7556150226552566,9.903357388143377,-1.4856119306283122,0.0463486351813541,-1.038412223402312
0.28,0.983967386579154,0.5281115988664842,2.3506126335761346,0.1336409891497575,0.0643932313964305,0.0290332487942736,-0.2790440093030925,-0.2181784252276921,-0.3381514066387853,0.9914650314217496,0.5341103693508421,2.3570989700521063,-0.2967986729746594,-0.229177500580162,-0.4118281076467261,1.81051359737328,-0.998723237131438,-1.219059688918285,-0.8912939227559508,9.68736648014783,-1.4685867828020391,0.0507835778715257,-1.0536407323398884
0.3,0.9782144404087988,0.5235173393063434,2.3436358183890387,0.1284771994242441,0.0770734881404105,0.0298404550895614,-0.2949639662418456,-0.2399344685251217,-0.3587645858403573,0.9867290579801375,0.5307268193571203,2.3500624079170533,-0.3367986735707059,-0.2691775011762085,-0.4518281082427726,1.6968158457000455,-0.7959978469376544,-1.0878021648714764,-1.0306589600786036,9.50193997612496,-1.4521962498978924,0.0552283856519972,-1.0678672373928135
0.32,0.9721785824333844,0.5185084820788193,2.3362193158702595,0.1238255507337418,0.0884661107992087,0.0304542068890948,-0.307644374056155,-0.2598545841608256,-0.3819779469391895,0.9799930845087236,0.5253432693335961,2.3410258457521977,-0.3767986741667523,-0.3091775017722549,-0.491828108838819,1.655644800962597,-0.6340203907154701,-0.996005781785196,-1.1606680549416104,9.341713711857665,-1.437752993015703,0.0590843776307731,-1.078928140587467
0.34,0.96623557236097,0.5133946710393416,2.3287261948949887,0.1200481026326601,0.097606337177345,0.0308276382007972,-0.3172839883711333,-0.2775506260915673,-0.405623746964132,0.9732571110373094,0.519959719310072,2.331989283587342,-0.4167986747627988,-0.3491775023683014,-0.5318281094348656,1.5533801232921622,-0.481980715748917,-0.8848020965370823,-1.1822900012471216,9.204721006013642,-1.4244372103899237,0.0626013322319243,-1.086881491774235
0.36,0.9597956996168928,0.5076497510481492,2.320339923372477,0.1165192933628701,0.1053986270577361,0.0309974951359421,-0.3261495230251183,-0.2959489203707574,-0.4318099197803228,0.965521137550994,0.5135761692716466,2.3219527214075857,-0.4567986753588453,-0.3891775029643478,-0.5718281100309119,1.6604296009196664,-0.4432767326992493,-0.9199147139595047,-1.3093086408095391,9.128242880209656,-1.4133100303225297,0.0657300532070846,-1.091209412818425
0.38,0.953188886481084,0.5015411331035883,2.311418934651795,0.1131567188378343,0.1115097026369536,0.0309565375061872,-0.3341026539755771,-0.3138868664521105,-0.45895796662931,0.9567851640497778,0.5061926192183202,2.310916159212928,-0.4967986759548917,-0.4291775035603942,-0.6118281106269584,1.6748422681311523,-0.3976565475229399,-0.8968973040676564,-1.3574023424493598,9.018886818108513,-1.404043609998623,0.0687046385807641,-1.092593197738619
0.4,0.9464289702370402,0.4950804451397671,2.301947183094573,0.1098506048514404,0.1162092465860517,0.0307401584981044,-0.3415083787851632,-0.3311720553533845,-0.4868414672492233,0.9364837537823052,0.4858467897809827,2.2884710363203293,-0.4341026554656932,-0.4138868679422266,-0.5589579681194261,1.681600518946719,-0.3702862404793033,-0.8642594450637003,-1.3941750309956646,9.018886818108513,-1.3963840950682067,0.0713276759698394,-1.0931447809388668
0.42,0.939903284880886,0.488618739192423,2.292642528585758,0.1071433884103939,0.1194778522253605,0.0304208427022765,-0.3450848502314416,-0.3483173386352935,-0.4912216142587388,0.9364837537823052,0.4858467897809827,2.2884710363203293,-0.4341026554656932,-0.4138868679422266,-0.5589579681194261,0.9026870646130938,-0.1788235723139214,-0.8572641640954504,-0.2190073504757778,8.978005825401851,-1.389807333942194,0.0736871874527529,-1.0912535216920471
0.44,0.932968711217056,0.4814802119626513,2.2827362221339267,0.1052397222150191,0.1214993313285391,0.0299913936295459,-0.3482964128753938,-0.3648019346632969,-0.4995125755752003,0.9364837537823052,0.4858467897809827,2.2884710363203293,-0.4341026554656932,-0.4138868679422266,-0.5589579681194261,0.9364775496155188,-0.1605781321976085,-0.8242298014001698,-0.4145480658230727,10.29537460893971,-1.387295207673408,0.0749433011931465,-1.0917435269614566
0.46,0.9259661034538004,0.474013267620777,2.2726077291868267,0.1042383865942625,0.1219335455314751,0.0294542328705742,-0.3519269815894309,-0.3811438723290872,-0.5128893563710245,0.932142727227648,0.4817079211015604,2.282881456639135,-0.4541026557637165,-0.4338868682402498,-0.5789579684174493,1.0714222094014243,-0.1815284357018554,-0.8170968832895142,-0.6688390397912108,9.7227701660604,-1.3852370402195948,0.0751831228823541,-1.0901316646799295
0.48,0.9192418093992758,0.4666201377505594,2.262703324779863,0.1039086979642952,0.1209241372581003,0.0288369567891162,-0.3557972059510943,-0.3963088830870963,-0.5289887556065931,0.9234606741183344,0.4734301837427159,2.2717022972767467,-0.4941026563597629,-0.4738868688362962,-0.6189579690134958,1.1226607275200864,-0.1935112180831699,-0.7582505379004567,-0.8049699617784289,9.7227701660604,-1.3839656064022678,0.0747426816156371,-1.0859483047713234
0.5,0.9120787962505392,0.4585312522306177,2.251919430997736,0.104261468249114,0.1183071593362131,0.0280712514866903,-0.3603996406666775,-0.411826068239699,-0.5486624336697143,0.9147786210090204,0.4651524463838714,2.260523137914358,-0.5341026569558094,-0.5138868694323427,-0.6589579696095422,1.2737926135194613,-0.2301217357791596,-0.7758592576301321,-0.9836839031560628,9.529375169550804,-1.3838828199075837,0.0735630715055707,-1.0792282310418135
0.52,0.9048156097649996,0.4501331951483248,2.24071766131664,0.1053984516474745,0.11402114915119,0.0271790368762466,-0.3658744211728766,-0.427294268479078,-0.5704955352283532,0.9040965678699042,0.4548747089952245,2.247343978522167,-0.5741026575518559,-0.5538868700283892,-0.6989579702055887,1.3655793311873368,-0.2737390253099575,-0.773410011968953,-1.0916550779319412,9.371168044694969,-1.3849286309974995,0.0716003299715411,-1.0696382647787324
0.54,0.8974234452934319,0.4414215084190598,2.229074539984454,0.1072736172956408,0.108398760968117,0.0261840280076644,-0.3733476158931395,-0.4431825249733027,-0.5927211010491779,0.893414514730788,0.4445969716065776,2.234164819129977,-0.6141026581479023,-0.5938868706244357,-0.7389579708016352,1.4162107097895504,-0.3736597360131433,-0.7944128247112353,-1.1112782910412344,9.258728177720512,-1.387328975397667,0.0691339731132263,-1.0582516586666673
0.56,0.8902374437380306,0.4328322780362392,2.2175996764427914,0.1092538050512073,0.1026176539993267,0.0251882438765398,-0.3828351191243438,-0.4601238946323908,-0.6140212831849237,0.8817324615767708,0.4333192342030296,2.2199856597228846,-0.6541026587439487,-0.633886871220482,-0.7789579713976815,1.4411111012894924,-0.4743751615602143,-0.8470684829544023,-1.0650091067872902,9.230614469493048,-1.3900736570243486,0.0663146466008395,-1.0457163869190194
0.58,0.8824570524672815,0.4234310594015296,2.205079967738978,0.1108505972671562,0.0967956928861802,0.0241186350310989,-0.3948272594690472,-0.4790051978379743,-0.6368202461326934,0.8690504084078522,0.4210414967845804,2.2048065003008914,-0.6941026593399952,-0.6738868718165285,-0.818957971993728,1.5969562864101956,-0.5996070172351681,-0.9440651602791756,-1.1399481473884865,9.222029416967416,-1.3923415856193528,0.0639436922913509,-1.0339956119532014
0.6,0.8744157626552036,0.4136403030660265,2.19210081302989,0.1114988437116978,0.0918154996614397,0.0230670810327751,-0.4087790529863435,-0.4989347829222443,-0.6599159417729714,0.862715689493829,0.3994807995096309,2.173238955432343,-0.4948272609591633,-0.5790051993280905,-0.7368202476228095,1.677238847845461,-0.6975896758648181,-0.9964792542135004,-1.1547847820139012,9.197360234602456,-1.3935477605177995,0.0624918030126766,-1.0231824610500924
0.62,0.8660428766931861,0.403389718784844,2.178913526429564,0.1099857361044625,0.0901338423849057,0.022233741615181,-0.427528651135463,-0.5245612610063806,-0.6575868317839852,0.862715689493829,0.3994807995096309,2.173238955432343,-0.4948272609591633,-0.5790051993280905,-0.7368202476228095,1.5919238071363335,-0.9374799074559736,-1.281323904206813,0.1164554994493083,9.183860608831765,-1.3932427706163208,0.0636278864774931,-1.0105705702572887
0.64,0.8577567126931069,0.3932036861468265,2.1664059908842512,0.1064295710778769,0.0928235698781342,0.021770133616003,-0.4432610170141809,-0.5458070300990421,-0.6591160722465891,0.862715689493829,0.3994807995096309,2.173238955432343,-0.4948272609591633,-0.5790051993280905,-0.7368202476228095,1.324036080393019,-0.7866182939358951,-1.0622884546330758,-0.0764620231301915,10.717685115484528,-1.3897044513323746,0.0661127975221713,-1.0146606561966744
0.66,0.8487439386217427,0.3820852079078787,2.1531549162398447,0.1019520221680989,0.098290933675542,0.0215039299510651,-0.4568316149833479,-0.5646795069168121,-0.6661506564193035,0.8577674168842374,0.3936907475163499,2.1658707529561148,-0.5148272612571865,-0.5990051996261136,-0.7568202479208327,1.214307297352108,-0.6785298984583521,-0.9436238408885024,-0.3517292086357204,10.339801113241265,-1.38258863113841,0.0693442030519116,-1.022160742686705
0.68,0.83948810275495,0.3706144518188277,2.1397035598625664,0.0974508280443809,0.1050667852331808,0.0213519858171123,-0.4677815720034118,-0.5813354324525366,-0.6786027484467837,0.8478708716650541,0.3821106435297882,2.1511343480036587,-0.554827261853233,-0.6390052002221601,-0.7968202485168792,1.1751340456025452,-0.5474978510031953,-0.832796276786224,-0.6226046013740105,9.702082047562726,-1.3731300467209853,0.0726554951432601,-1.0305165323485306
0.7000000000000001,0.8305149495239572,0.3594255538670409,2.126653205049029,0.0934224476958695,0.1118099089397996,0.0212356823111562,-0.4760410221045498,-0.595581450472154,-0.6944907555756169,0.8379743264458709,0.3705305395432263,2.1363979430512026,-0.5948272624492794,-0.6790052008182066,-0.8368202491129256,1.14411135375267,-0.4129725050568966,-0.7123009009808723,-0.7944003564416602,9.472406008956568,-1.3632260167600214,0.0756287320216781,-1.0380935526571906
0.72,0.8209202365573399,0.347370587434287,2.112554291971602,0.0896245991687463,0.1185707291884781,0.021094722400195,-0.482855501937049,-0.6091608374337094,-0.7147301479264052,0.8260777811968852,0.3569504355268622,2.1196615380689443,-0.6348272630453259,-0.7190052014142531,-0.8768202497089721,1.265375328082884,-0.340723991624961,-0.6789693480777681,-1.0119696175394155,9.472406008956568,-1.3527910670194518,0.0783963015622195,-1.0449662796585926
0.74,0.8112070322904814,0.3350539807098638,2.098027757191274,0.0863542125562652,0.1245391864655017,0.0209063688597758,-0.4880389804604232,-0.6218426893505341,-0.7369880539296254,0.8141812359478997,0.343370331510498,2.1029251330866856,-0.6748272636413724,-0.7590052020102995,-0.9168202503050186,1.3068207578803013,-0.2591739261687126,-0.6340925958412347,-1.1128953001610098,9.279739735816293,-1.3435521639311712,0.0805586262392178,-1.050930603263431
0.76,0.8014000047930814,0.3224829408043849,2.0830409001372074,0.0833360041372724,0.1295881496670138,0.020648376785803,-0.4923490107638521,-0.6345222296433549,-0.7606286941962974,0.801284690684013,0.3287902274792327,2.085188728089526,-0.7148272642374187,-0.7990052026063459,-0.956820250901065,1.3585166317273554,-0.2155015151714429,-0.6339770146410406,-1.1820320133336004,9.18706245551948,-1.3345088202573172,0.0826106666818723,-1.055600007944968
0.78,0.792010172899503,0.3103094876477172,2.068353251840288,0.0804491228332369,0.1336084807414182,0.0203332592381718,-0.4958128621886024,-0.6461287391728943,-0.7842429931912926,0.7873881454052251,0.3132101234330663,2.066452323077465,-0.7548272648334652,-0.8390052032023924,-0.9968202514971116,1.3269744224899978,-0.1731925712375154,-0.5803254764769672,-1.1807149497497615,9.066525040456328,-1.3263060782326588,0.0846954935699848,-1.0590052031338384
0.8,0.7820600963807959,0.297264999438136,2.052395588110344,0.07738416097812,0.1371090993980156,0.0199395780201442,-0.4989836889167804,-0.6575986435614125,-0.8103296376847958,0.7672195297900729,0.2780030506890725,2.029141102180723,-0.5958128636787186,-0.7296728072113579,-0.8842429946814088,1.4336368697758664,-0.1585413364089016,-0.5734952194259124,-1.3043322246751587,9.066525040456328,-1.3191641953169937,0.0868408653374719,-1.0613935559024483
0.8200000000000001,0.7720720352476532,0.2839350522696215,2.036167983765011,0.0729241304886723,0.1404902876170613,0.0194385160544595,-0.4993739793114135,-0.6740444251555284,-0.8096964187881113,0.7672195297900729,0.2780030506890725,2.029141102180723,-0.5958128636787186,-0.7296728072113579,-0.8842429946814088,0.8231297361361437,-0.0195145197316531,-0.8222890797057958,0.0316609448342275,8.998967691807593,-1.312533035995746,0.0909182009784893,-1.0500408716634997
0.84,0.7620957498013002,0.2703246328499694,2.01996000458218,0.0673244595531695,0.1439115372553594,0.0188584395562429,-0.4982008490235606,-0.685921527825009,-0.8115647420707949,0.7672195297900729,0.2780030506890725,2.029141102180723,-0.5958128636787186,-0.7296728072113579,-0.8842429946814088,0.6040124882448189,0.0586565143926465,-0.5938551334740305,-0.0934161641341801,10.6349635847655,-1.309567732285269,0.095397993029711,-1.055021293097949
0.86,0.7526458952777219,0.2572007131711307,2.0044612876276067,0.0620877149078536,0.1464960014705393,0.0182678610314298,-0.4966252798107347,-0.694875157311381,-0.819749398472914,0.7612614011532857,0.2707063226169589,2.020298672233909,-0.6158128639767417,-0.7463816208190506,-0.904242994979432,0.6116340812617951,0.0787784606412961,-0.4476814743186008,-0.4092328201059536,9.906605505688276,-1.3062128804914743,0.1000186275242549,-1.0593871550525202
0.88,0.7427318396610184,0.243221873164551,1.987927825644304,0.0570169065403731,0.1481895355664099,0.0176189411713459,-0.4949434045420012,-0.7025027385529757,-0.8333818295731871,0.7493451438797113,0.2561128664727317,2.002613812340281,-0.6558128645727882,-0.779799248034436,-0.9442429955754784,0.7855760270661238,0.0840937634366711,-0.3813790620797341,-0.6816215550136562,9.623947897310243,-1.303225541464991,0.1042122671846458,-1.061912883315283
0.9,0.7328491313848088,0.2291045366703022,1.971076939065869,0.0525475920633386,0.1486881627185748,0.0169564635324004,-0.493500873568877,-0.708855480869681,-0.8511779054325633,0.7374288866061369,0.2415194103285046,1.984928952446653,-0.6958128651688347,-0.8132168752498214,-0.9842429961715248,0.947547553613478,0.0721265486562122,-0.317637115835262,-0.889803792968813,9.406824670076276,-1.3008112825331102,0.1078181049931187,-1.0625294206494686
0.92,0.7229932264851346,0.2148719090234736,1.9538326438721507,0.0487380039888251,0.1478489930029455,0.0162884910106373,-0.4922480383836752,-0.7141838449771575,-0.8723349870986288,0.7235126293027603,0.2252550728235081,1.9652440925232224,-0.7358128657648811,-0.8466345024652069,-1.0242429967675712,1.092683811410792,0.0626417592600903,-0.2664182053738251,-1.0578540833032724,9.406824670076276,-1.2992013827163535,0.1106307183874207,-1.0614598752701414
0.94,0.7136536245670982,0.2012596204946891,1.93704632468777,0.0457393692879835,0.145592227235804,0.015647855895,-0.4910246549232643,-0.7185384846322493,-0.8935708488863419,0.7095963719993835,0.2089907353185117,1.945559232599792,-0.7758128663609276,-0.8800521296805923,-1.0642429973636178,1.085612015735546,0.0611691730205421,-0.2177319827545931,-1.0617930893856542,9.240438531223845,-1.2987432210378789,0.1129687066913641,-1.057590801545071
0.96,0.7038408755942175,0.1868401908238579,1.918933099245098,0.043021633316001,0.1415458799711344,0.0149543420516526,-0.4904538331436527,-0.7231542384210128,-0.9166449481245776,0.6946801146811057,0.1918909571331306,1.92487437266146,-0.815812866956974,-0.9134697568959778,-1.1042429979596642,1.1769081062242244,0.0285410889805798,-0.2307876894381721,-1.153704961911789,9.178409270773956,-1.3001541170350777,0.1148832465770247,-1.0510433761234643
0.98,0.6940223404220242,0.172330560405563,1.9003540491530928,0.0405233361737115,0.1360537781065943,0.0142445395781774,-0.4917395298714551,-0.7275343963392982,-0.9400643559172104,0.6787638573479267,0.173955738267365,1.9031895127082272,-0.8558128675530204,-0.9468873841113632,-1.1442429985557103,1.1930082363741588,-0.0642848363901188,-0.2190078959142694,-1.1709703896316426,9.13242659165826,-1.303350847779595,0.116618526988651,-1.041901294745894
1.0,0.6841536016266269,0.157736936960413,1.8813041703532165,0.0381603855410714,0.1298550370140961,0.0135484022888286,-0.495278183037859,-0.7315571525960991,-0.96371988056163,0.6694353639284514,0.135953840588598,1.853350831357232,-0.5917395313615712,-0.7586994206049451,-1.0400643574073265,1.2127329470419972,-0.1769326583201946,-0.2011378128400465,-1.1827762322209725,9.07921835128127,-1.306176620863228,0.1180966060957084,-1.0320207766518914
1.02,0.674661315663094,0.143633599534241,1.863021110079785,0.0309200117039125,0.1260218763375018,0.0126545723087433,-0.5037669427330311,-0.7491221391029403,-0.9594364500823136,0.6694353639284514,0.135953840588598,1.853350831357232,-0.5917395313615712,-0.7586994206049451,-1.0400643574073265,0.9986685746770902,-0.4244379847586049,-0.878249325342062,0.2141715239658115,9.07921835128127,-1.3092430002942812,0.1244479287586121,-1.0061214745788434
1.04,0.6644937888597223,0.1285671744952474,1.843842775403104,0.0183988863818645,0.1263607785283775,0.0115573853634091,-0.5120543144943562,-0.7555639757336474,-0.9589917997774796,0.6694353639284514,0.135953840588598,1.853350831357232,-0.5917395313615712,-0.7586994206049451,-1.0400643574073265,0.5252987335333995,-0.4143685880662551,-0.3220918315353538,0.0222325152417102,10.761472378818326,-1.3093354886673414,0.1355198423489431,-1.0081592600239169
1.06,0.6541827863310127,0.113452577820256,1.8245884470419589,0.0047538958559182,0.1293705538634942,0.0104479904059681,-0.5183264165278281,-0.7550786557821357,-0.9664409471812652,0.6635179686148357,0.1283668463825486,1.8429501877831589,-0.6117395316595944,-0.7649324254580745,-1.0600643577053497,0.4875053753984245,-0.3136051016735919,0.0242659975755843,-0.372457370189283,10.320524200736145,-1.3058973978513335,0.1471194611566769,-1.0145396458215372
1.08,0.6442883009952474,0.0991483131479364,1.8060959059580055,-0.0077727201480238,0.1334218626315732,0.0094204379440749,-0.5227008940170317,-0.7505138107175449,-0.9797725745037074,0.6516831779876042,0.1131928579704497,1.822148900635012,-0.6517395322556409,-0.7773984351643333,-1.1000643583013965,0.7377434358090827,-0.2187238744601805,0.2282422532295436,-0.6665813661221098,9.882937933424728,-1.2994165796422728,0.1590110929451939,-1.022034274709306
1.1,0.6337986961959181,0.0842174501705363,1.7863035062175046,-0.0199147186561277,0.138046039514305,0.0083897218827002,-0.5259002661219083,-0.7427198488548111,-0.9990075547147598,0.6398483873603729,0.0980188695583508,1.8013476134868656,-0.6917395328516873,-0.789864444870592,-1.1400643588974426,1.049959864831495,-0.159968605243832,0.3896980931366867,-0.9617490105526204,9.534259555548488,-1.2914722130477407,0.1700178965629187,-1.029295648307303
1.12,0.6232571865627204,0.0694697607185888,1.766075954951195,-0.0307072001851541,0.1424370831546458,0.0074423865075327,-0.5280152512946721,-0.7325245113143785,-1.022779607203372,0.6260135967033391,0.0822215806609389,1.7785463263089167,-0.7317395334477338,-0.8023304545768508,-1.180064359493489,1.297621429159615,-0.105749258638188,0.5097668770216335,-1.188602624430607,9.261725808097252,-1.283615842385942,0.1794086992469967,-1.035516050890481
1.14,0.6126848839734058,0.0549474426905339,1.7453500246695912,-0.0400634478223524,0.1462321201401467,0.0066085147479421,-0.5290853720201836,-0.7203774082341357,-1.048626785752279,0.6121788060463054,0.0664242917635271,1.755745039130968,-0.7717395340437803,-0.8147964642831096,-1.2200643600895356,1.428962832396543,-0.0535060362755746,0.6073551540121402,-1.2923589274453584,9.056282016103978,-1.2757160681493074,0.1880471073143115,-1.040421223364229
1.16,0.6026257968058865,0.0413893173542949,1.7251698019539383,-0.0476755079309349,0.1492067332133769,0.0059360813228177,-0.5296923206541824,-0.7075470549204765,-1.0743160404206706,0.5973440153743704,0.0503153526234588,1.731943751938118,-0.8117395346398266,-0.8272624739893684,-1.260064360685582,1.4360746483166482,-0.0303474316999396,0.6415176656829558,-1.284462733419578,8.968472679391198,-1.2685089939250151,0.1954662462030022,-1.0441861473656882
1.18,0.5920284067170826,0.0273917387857294,1.7033883145771018,-0.0544750250312245,0.1517504188238344,0.0053555631555426,-0.5299941962139838,-0.6929689083759946,-1.1025327163631042,0.5815092246875344,0.033894763240734,1.7071424647303668,-0.8517395352358731,-0.8397284836956271,-1.3000643612816285,1.5880761055175443,-0.0150937779900717,0.7289073272240987,-1.41083379712168,8.919160960453155,-1.2617364998447569,0.2017933532012135,-1.0474646145587343
1.2,0.5814283743724875,0.0136985604320512,1.6810324156396743,-0.0600412084163637,0.153738426897258,0.0049127175871399,-0.5299890557705315,-0.6772942885979242,-1.131635535198816,0.5655286969063834,-0.0072567066330702,1.6482616787589466,-0.6299941977040999,-0.6751395311718148,-1.1293635888839086,1.652776297473057,0.0002570221726172,0.7837309889035193,-1.4551409417855932,8.864660568533964,-1.255743799342025,0.2067468806887401,-1.049667371784619
1.22,0.5709038626576185,0.0002370084605777,1.65856171923488,-0.0683143520462961,0.1552690509223408,0.0043338380771546,-0.5225148769820485,-0.6671106333660503,-1.1141074757991332,0.5655286969063834,-0.0072567066330702,1.6482616787589466,-0.6299941977040999,-0.6751395311718148,-1.1293635888839086,1.080281269812052,0.3737089394241499,0.5091827615936961,0.8764029699841469,8.83077076780819,-1.2554441893738022,0.2127967232883979,-1.032015709423849
1.24,0.5610514845305622,-0.0122706720332436,1.6375256055325205,-0.0784422250990207,0.1561083945583093,0.003697087513172,-0.5150775464030196,-0.6495269017559243,-1.101260812249697,0.5655286969063834,-0.0072567066330702,1.6482616787589466,-0.6299941977040999,-0.6751395311718148,-1.1293635888839086,1.1505849249741549,0.3718665289514422,0.879186580506297,0.64233317747181,11.559700940168112,-1.258257111206251,0.223948522895798,-1.038495651310965
1.26,0.5508346959350514,-0.0250193124047667,1.615586886640897,-0.0887937713262381,0.1557955009853843,0.0031861576770486,-0.5070961590899864,-0.6261972786070865,-1.0935402499086857,0.5592287549293424,-0.0140081019447884,1.6369680428701074,-0.6499941980021231,-0.6715736557309788,-1.1347297633880695,1.291879389270609,0.3990693656516608,1.1664811574418898,0.3860281170505741,11.17490929086398,-1.2605831825386078,0.2349718021648055,-1.0435117360484545
1.28,0.5407804701319369,-0.0372663612174735,1.5937461281938052,-0.0976311314038188,0.1534961847634388,0.0030190290477762,-0.4988816399395556,-0.5999534025977153,-1.0908736835128705,0.5466288709752604,-0.0275108925682247,1.6143807710924294,-0.6899941985981696,-0.664441904849307,-1.1454621123963913,1.381421305405535,0.4107259575215405,1.3121938004685585,0.1333283197907597,10.846745292169544,-1.263784904512007,0.2446749118732419,-1.0460127433876365
1.3,0.530890519787471,-0.0489678165988552,1.5719242233727877,-0.1045609905296111,0.1484390042352558,0.0033321267242018,-0.490961533526504,-0.5719151294433729,-1.091372955635988,0.5340289870211784,-0.041013683191661,1.5917934993147511,-0.729994199194216,-0.657310153967635,-1.156194461404713,1.456985003118173,0.396005320652576,1.4019136577171245,-0.0249636061558922,10.59842053165812,-1.2695606108380346,0.2522332169500287,-1.0443770044580831
1.32,0.5216190650882669,-0.0595527615903332,1.5511667892253922,-0.1092910049899069,0.1411106428246415,0.0041004477875221,-0.4858698451117716,-0.5441489002220751,-1.0935058614971025,0.5194291030372941,-0.0541598862710136,1.5686696100866568,-0.7699941997902625,-0.6501784030859631,-1.1669268104130348,1.4154840722300157,0.2545844207366199,1.3883114610648897,-0.1066452930557182,10.436201824732962,-1.278537086628444,0.2583136455497303,-1.0383381717350044
1.34,0.5119337141603177,-0.0701192356816873,1.5292803742420242,-0.112447332813936,0.1314385486871444,0.0053253963271274,-0.4833939567624985,-0.5143047377115763,-1.0949086143537028,0.5048292190534097,-0.0673060893503664,1.5455457208585626,-0.809994200386309,-0.6430466522042912,-1.1776591594213566,1.4989761294362145,0.1237944174636573,1.4922081255249409,-0.0701376428300148,10.337839062061905,-1.289306284690634,0.2625247564430603,-1.028901765743707
1.36,0.502261224193994,-0.0800746829413894,1.507380464009057,-0.1135956052018855,0.1205082218187757,0.0068892276046131,-0.4844289835447011,-0.4832447609124283,-1.0949311485076227,0.4892293350546243,-0.0802739986576773,1.5221535229052603,-0.8499942009823553,-0.6359149013226193,-1.1883915084296783,1.5538612767808258,-0.0517513391101287,1.552998839957395,-0.0011267076959975,10.384768921823706,-1.3010247783589692,0.2647689971871214,-1.0181506992174891
1.38,0.4925304954650193,-0.0893956474183214,1.485492501199619,-0.1122459384134341,0.1091185466117778,0.0087050561626253,-0.4889656477250313,-0.4509161978161643,-1.0937884647623874,0.4726294510409377,-0.0930636141929464,1.4984930162267498,-0.8899942015784018,-0.6287831504409475,-1.199123857438,1.633265930502318,-0.2268332090165137,1.6164281548132011,0.0571341872617647,10.454804008314568,-1.3132470468491304,0.2649129471994678,-1.0065852841582632
1.4,0.4831704277973561,-0.0976477946099204,1.4647305449631616,-0.1080763689279432,0.0984343789657115,0.010599845521697,-0.4963245912696237,-0.4204256209367739,-1.0916113217789545,0.4680822130787678,-0.1119414573091297,1.4308030779614995,-0.5889656492151475,-0.4114374078011821,-1.016649832226453,1.5720760796641051,-0.3679471772296161,1.5245288439695193,0.1088571491716594,10.57043742427777,-1.3239553985473662,0.2623360799907149,-0.996875663040704
1.42,0.4731227312698559,-0.1057949446426952,1.443273855920044,-0.1043249672387445,0.0892439431214906,0.0122878362180768,-0.5081935600924131,-0.3949033568241524,-1.0524988574790992,0.4680822130787678,-0.1119414573091297,1.4308030779614995,-0.5889656492151475,-0.4114374078011821,-1.016649832226453,2.4093791990667373,-0.5934484411394714,1.2761132056310742,1.955623214992752,10.57043742427777,-1.3354478803293353,0.2574975161582148,-0.9676511930397512
1.44,0.4628185169691908,-0.1133823073174586,1.4226587182663109,-0.1018879338713026,0.0838335044293936,0.0134773840062733,-0.5216938465313933,-0.3653155992182301,-1.0112299940128278,0.4680822130787678,-0.1119414573091297,1.4308030779614995,-0.5889656492151475,-0.4114374078011821,-1.016649832226453,2.6271715902654127,-0.6750143219490079,1.4793878802961151,2.0634431733135727,13.17624574718775,-1.345821682190144,0.257128119978358,-0.9661833977284112
1.46,0.4522404978744267,-0.1203659876570764,1.4028419884089929,-0.0988168177607655,0.0816699595089996,0.0143801524654647,-0.5351233117831112,-0.3350803805779952,-0.9724594028409138,0.4621925565866163,-0.1160558313871415,1.420636579639235,-0.6089656495131707,-0.4035416497981856,-1.001222105719266,2.5483709124603515,-0.6714732625858977,1.5117609320117464,1.9385295585956972,13.064062944564284,-1.3508463181631996,0.2563881032540733,-0.9711140399131416
1.48,0.4419571908058994,-0.1264463096064609,1.3847152171137802,-0.094907145360845,0.0815243842629213,0.0151212554887704,-0.5465138283752448,-0.307021075250772,-0.9375149351664764,0.4504132436023134,-0.1242845795431651,1.400303582994706,-0.6489656501092171,-0.3877501337921927,-0.9703666527048924,2.3120252511228085,-0.5695258296066763,1.4029652663611585,1.7472233837218631,12.874660080397916,-1.3539557392882997,0.254579987323305,-0.9787315771263968
1.5,0.4309133292878268,-0.1322875738622931,1.366339012395536,-0.089815051724139,0.0823721625495851,0.0158806774965868,-0.557168126959786,-0.2790461799204747,-0.9019721640744084,0.4386339306180104,-0.1325133276991888,1.3799705863501768,-0.6889656507052636,-0.3719586177861999,-0.9395111996905186,2.323465850821138,-0.5327149292270628,1.3987447665148671,1.7771385546034024,12.724145395334745,-1.3560376228011572,0.251723123505855,-0.9872216920420674
1.52,0.4196675075704287,-0.1375854234849453,1.3486584630483738,-0.0838185094790096,0.0835420662629253,0.0166817265118945,-0.5668392250131139,-0.2527145050588281,-0.8678205872513617,0.4248546176039051,-0.1399525000549128,1.3611803623563663,-0.7289656513013101,-0.356167101780207,-0.9086557466761448,2.209760981462148,-0.4835549026663943,1.3165837430823306,1.7075788411523407,12.62591871876066,-1.3578243700870898,0.2479338603400944,-0.9958560530271504
1.54,0.4082378962292456,-0.1423773006011561,1.3316638340042315,-0.0771505887683808,0.0845834627955099,0.0175463985492806,-0.5756467908934267,-0.2282979266863435,-0.8333213709807247,0.4110753045897999,-0.1473916724106368,1.342390138362556,-0.7689656518973566,-0.340375585774214,-0.8778002936617709,2.1586676674768146,-0.440378294015642,1.220828918624227,1.7249608135318506,12.529686675747143,-1.3596173263634588,0.2435139494709255,-1.0023535028880768
1.56,0.3972174708887004,-0.1464949166395295,1.3161608797794293,-0.0703441039935431,0.0853409257562248,0.0184213550384627,-0.5839524440345597,-0.2068021214474565,-0.8002740382471032,0.3962959915607935,-0.1544360568662109,1.3243713006941051,-0.8089656524934029,-0.3245840697682212,-0.8469448406473972,2.014435229646058,-0.4152826570566481,1.0747902619443528,1.652366636681074,12.553903556579826,-1.3619902888584587,0.2383105665626411,-1.0083431847651272
1.58,0.3854475337766638,-0.1504113255012292,1.300523973514059,-0.0628786765736595,0.0859612249584735,0.0193750384389796,-0.592599528803582,-0.1863357689579273,-0.7651321194626188,0.3805166785168859,-0.1610856534216353,1.3071238493510131,-0.8489656530894494,-0.3087925537622283,-0.8160893876330234,2.078820648278496,-0.4323542384511158,1.0233176244764597,1.757095939224218,12.571616319763052,-1.364941909075713,0.2328025867760251,-1.0143503272162608
1.6,0.3735041459864271,-0.1539405044061529,1.2855887610605157,-0.0552715345171815,0.0864590835843888,0.0203425321853081,-0.601300435958758,-0.167980860917095,-0.7301417493328608,0.3558175573364847,-0.1597281139491256,1.2622673675409282,-0.6831825179598282,-0.1380693059762264,-0.6651321179725027,2.0229523204513917,-0.4350453577588009,0.9177454020416156,1.7495185064879015,12.580365426374556,-1.3683003229424977,0.2274799779578498,-1.0207168025764095
1.62,0.3619678839553983,-0.1570630738069939,1.272046233560616,-0.0509130278835835,0.0878365335690226,0.0210111952257372,-0.6123415840835142,-0.1598688103239675,-0.6972446220691076,0.3558175573364847,-0.1597281139491256,1.2622673675409282,-0.6831825179598282,-0.1380693059762264,-0.6651321179725027,1.781806175588298,-0.5520574062378103,0.4056025296563736,1.6448563631876578,12.5547498918786,-1.3721431463967375,0.2244201118442507,-1.0265429163551385
1.64,0.3496182838289051,-0.1601255017713845,1.258469207066894,-0.0492035627792414,0.0906087765145909,0.0214509855061452,-0.6218393572563545,-0.1466357083322961,-0.6621706737432006,0.3558175573364847,-0.1597281139491256,1.2622673675409282,-0.6831825179598282,-0.1380693059762264,-0.6651321179725027,1.9335876853229967,-0.4748886586420142,0.6616550995835676,1.7536974162953525,12.5547498918786,-1.3740015963154142,0.2242250528000354,-1.035369304783604
1.66,0.3370996886095074,-0.1629070760464682,1.2455966104203429,-0.0486176234350411,0.0937564776219201,0.0217983006293919,-0.6294342780098205,-0.1321532878612655,-0.6268493888198657,0.3489857321568864,-0.1611088070088878,1.2556160463612032,-0.7012991157910774,-0.1284160133798862,-0.6451321176744795,1.9461606386592023,-0.3797460376733008,0.7241210235515313,1.766064246166743,12.60595037782059,-1.3761310429708913,0.2250982473515964,-1.0441951947290715
1.68,0.3244463349277593,-0.1653917950040635,1.2334313374874653,-0.0485930732093237,0.0966211876523119,0.0221232159209258,-0.6355148114179059,-0.1170611150773194,-0.5914632843277118,0.3353220817976899,-0.1638701931284124,1.242313404001753,-0.7375323114535759,-0.1091094281872058,-0.6051321170784331,1.947384757178819,-0.3040266704042671,0.7546086391973038,1.769305224607698,12.628745633615836,-1.3786415010063149,0.2264288872090509,-1.0519256513083408
1.7,0.3123236506456076,-0.167467375001075,1.2225302693551925,-0.0487996624184897,0.0987018242470285,0.0224490972236564,-0.6403035027211522,-0.1022207013993889,-0.5577988142824909,0.3216584314384933,-0.1666315792479369,1.229010761642303,-0.7737655071160744,-0.0898028429945255,-0.5651321164823866,1.8550377260014608,-0.2394345651623164,0.7420206838965256,1.6832235022610442,12.641780008751994,-1.3822014729213243,0.2280887201790925,-1.058994877225296
1.72,0.2994713432288639,-0.1693434091602561,1.211749880715779,-0.0490423096570687,0.0999844445842108,0.0228368143339038,-0.6447354517488141,-0.0861886337668933,-0.5220007948767034,0.3061831212961718,-0.1684276361078274,1.217708119312655,-0.8099987027785729,-0.0704962578018451,-0.5251321158863401,1.973681558746147,-0.2215974513830931,0.8016033816247825,1.7899009702893764,12.656395780065395,-1.3872671796275136,0.2298656890384979,-1.0652033720201626
1.74,0.2865320207572122,-0.1708927622384774,1.2016864610200038,-0.0490604203131906,0.1002418474126216,0.0232926402410426,-0.649078099003801,-0.0696036718901339,-0.4861376007891977,0.2907078111538503,-0.1702236929677179,1.2064054769830077,-0.8462318984410714,-0.0511896726091647,-0.4851321152902936,1.9875161859673671,-0.2171323627493449,0.8292480938379692,1.7931597043752827,12.6952407085264,-1.3929447898472551,0.2314868943083991,-1.071064215402828
1.76,0.2734983303288677,-0.1721006493435565,1.1923402716653513,-0.0483965022978903,0.0996578326274181,0.0238383977477447,-0.6541879866986382,-0.0522112407328345,-0.4502785955549491,0.2743266711199664,-0.1715370851977914,1.196102834668261,-0.8824650941035699,-0.0318830874164844,-0.4451321146942472,2.009027046983884,-0.2554943847418611,0.8696215578649691,1.7929502617124282,12.708144229761274,-1.3990437078558116,0.2324161188194278,-1.075653613893402
1.78,0.2610131773246881,-0.1729221737265397,1.1841267875149415,-0.0467352982441117,0.0986631012784691,0.0244482153252808,-0.6598552055112109,-0.0353560656865591,-0.416094217003347,0.25703970119452,-0.1723678127980479,1.1868001923684155,-0.9186982897660684,-0.012576502223804,-0.4051321140982008,1.9266460701627337,-0.2833609406286352,0.8427587523137714,1.7092189275801084,12.720346101067662,-1.4057480919319412,0.2324203935317187,-1.0811893190686293
1.8,0.2477469968848506,-0.17344922676911,1.176186663500049,-0.0438196121378711,0.0974263222540459,0.025173912389139,-0.6665182664762207,-0.0186729859395691,-0.379690436258877,0.2280204170491276,-0.1746899770108677,1.1633220766647745,-0.6989098116210685,0.0228590346316343,-0.3160942155132308,2.0297516989519355,-0.3331530482504896,0.8341539873494981,1.820189037223499,12.740079960837647,-1.4108673486004697,0.2311343248560769,-1.0874018691833895
1.82,0.2342364370023855,-0.1736929437516399,1.168861928518491,-0.0410402249582452,0.0991436152069793,0.0257574662492494,-0.6838529974318547,-0.0063763384598796,-0.3552426210905795,0.2280204170491276,-0.1746899770108677,1.1633220766647745,-0.6989098116210685,0.0228590346316343,-0.3160942155132308,1.6197191909766364,-0.8667365477816991,0.6148323739844733,1.2223907584148734,11.940888420645024,-1.418952348286533,0.2298781128259152,-1.0888804439644042
1.84,0.2204205493392054,-0.173691372500405,1.162020473728968,-0.0389573751219591,0.1055688318331306,0.0261040427087266,-0.6962223697564549,0.0060195389252342,-0.330095091870395,0.2280204170491276,-0.1746899770108677,1.1633220766647745,-0.6989098116210685,0.0228590346316343,-0.3160942155132308,1.5322021519135427,-0.6184686162300113,0.6197938692556944,1.2573764610092242,11.940888420645024,-1.4109479999292411,0.2290345501623703,-1.107555287630663
1.86,0.2071145355973768,-0.1734603609511868,1.156000561493383,-0.0373916900233474,0.1137933619448408,0.0263317699190883,-0.7034000913416334,0.0177281731163712,-0.3048842470232631,0.2210313189329169,-0.1744613866645514,1.160161134509642,-0.7067207328430399,0.034502054695273,-0.2960942152152076,1.4354428756331232,-0.3588860792589243,0.5854317095568513,1.2605422423565935,12.047259576591388,-1.4015803306393422,0.2286287446400616,-1.1285365893435717
1.88,0.1930020995136106,-0.1729794067344931,1.1501919611079776,-0.0361693599056096,0.12336990443177,0.0265176778856581,-0.7070719985485322,0.0297662741196233,-0.2772965207497779,0.2070531227004955,-0.1740042059719187,1.1538392501993773,-0.722342575286983,0.0577880948225503,-0.2560942146191612,1.5161476010281123,-0.1835953603449402,0.6019050501626038,1.3793863136742606,12.137941193974257,-1.3918033089995685,0.2287561025178784,-1.1515974783234364
1.9,0.1788520264016475,-0.172259982263406,1.1449417681600351,-0.0354692240242332,0.1331553648250128,0.0266667205206316,-0.7074257922168147,0.0416121908646835,-0.2491714011880512,0.1930749264680741,-0.173547025279286,1.147517365889113,-0.737964417730926,0.0810741349498277,-0.2160942140231147,1.5260023458796166,-0.0176896834141238,0.5922958372530122,1.4062559780863348,12.23172190224068,-1.3826642884956746,0.2293786510685047,-1.173262444726906
1.92,0.1654369042183707,-0.1713571036224505,1.1404775605049198,-0.0353124801186861,0.1420796990542884,0.0267882894680689,-0.7044876110301564,0.0528684374137469,-0.2222068949302174,0.1783156381134556,-0.1719255425802894,1.1431954816086505,-0.7535862601748691,0.1043601750771051,-0.1760942134270683,1.4683499180948774,0.1469090593329114,0.5628123274531678,1.348225312891692,12.29037996115494,-1.3731120613914587,0.2305766972417889,-1.195292713175396
1.94,0.1514130323243013,-0.1701741615446596,1.13633116677325,-0.0356884784417236,0.1503255185783311,0.0269171019922633,-0.6979035232627334,0.0648714779706274,-0.1938889084181544,0.1635563497588371,-0.1703040598812929,1.138873597328188,-0.7692081026188121,0.1276462152043825,-0.1360942128310218,1.5726820677084037,0.3292043883711515,0.6001520278440271,1.415899325603151,12.341056722404574,-1.3650206915863945,0.2324255274660256,-1.215737160570307
1.96,0.1375477291073112,-0.1687408943927165,1.1327476986596978,-0.036366267703101,0.1567622729860948,0.0270849229003459,-0.6889295516884547,0.0778419607073772,-0.1659121501218202,0.14840651534312,-0.1681004261791144,1.135551713062627,-0.784829945062755,0.1509322553316598,-0.0960942122349753,1.605821124076236,0.4486985787139352,0.6485241368374896,1.3988379148167056,12.374608543416798,-1.3603426511422332,0.2347183543962282,-1.2332228614334162
1.98,0.1238805331588986,-0.1670370192412652,1.1297241913939349,-0.0368531441108918,0.1610892973855398,0.0273394235522192,-0.6783869690516203,0.0917822203298893,-0.1378607654773027,0.1328661348663043,-0.165314641473754,1.133229828811967,-0.8004517875066981,0.1742182954589372,-0.0560942116389289,1.652541275938518,0.5271291318417193,0.6970129811256075,1.4025692322258796,12.425923689414049,-1.3586471357937904,0.2367273745596625,-1.246679736931711
2.0,0.1110993174081202,-0.1651522321048728,1.127375609877925,-0.0367563224005393,0.1632410396025163,0.0276913413069586,-0.6677118315092082,0.1057730837108335,-0.1107692738532619,0.0899611847063176,-0.1624479082247707,1.1228311531200694,-0.681840493834874,0.1505886583288994,-0.0378607639871865,1.6152799587912994,0.5337568771206058,0.699543169047205,1.354574581202037,12.425923689414049,-1.3598531175196813,0.2382642708067205,-1.258408984426959
2.02,0.0977847509977893,-0.1628668409273291,1.12529339955148,-0.0351296072404315,0.1651820063407025,0.0281800840461322,-0.6643716137125212,0.1217132197888964,-0.0997695793715721,0.0899611847063176,-0.1624479082247707,1.1228311531200694,-0.681840493834874,0.1505886583288994,-0.0378607639871865,0.982647281336222,0.1670108898343514,0.7970068039031497,0.5499847240844902,12.483388422238932,-1.364903375425474,0.2379073742403067,-1.264656007629937
2.04,0.0845515443016381,-0.1602843628595862,1.123430693508919,-0.0318305432714665,0.1680309142959627,0.0287549644443836,-0.6588738368288714,0.1352994306735077,-0.0867640100549897,0.0899611847063176,-0.1624479082247707,1.1228311531200694,-0.681840493834874,0.1505886583288994,-0.0378607639871865,0.9797391363418552,0.2748888441824915,0.6793105442305644,0.650278465829119,11.220927074004068,-1.3612802478623234,0.2351955784747786,-1.275683138542002
2.06,0.071455748129321,-0.1574592269991515,1.1218739645324245,-0.0282845699885737,0.170939591435457,0.0293480305197565,-0.6509357843210066,0.1465007663323711,-0.0696077287478445,0.0831427797679689,-0.1609420216414817,1.1224525454801977,-0.6825311987915247,0.1623499459287015,-0.0178607636891633,1.0986589398558162,0.3969026253932362,0.5600667829431694,0.857814065357261,11.500246741094088,-1.358860451541555,0.2323643851409153,-1.2861819324947157
2.08,0.0591806033459209,-0.1545811939045973,1.1207425527088697,-0.0252988196716087,0.1732980368419505,0.0298973628513007,-0.6416039336923489,0.1559692063837285,-0.0503749591724366,0.0695059698912714,-0.1579302484749037,1.1216953302004538,-0.6839126087048262,0.1858725211283055,0.022139236906883,1.1690104989931267,0.4665925314328856,0.4734220025678679,0.9616384787703957,11.760798472546412,-1.357344398531679,0.229802691059635,-1.2961555840427628
2.1,0.046465056862958,-0.1513647029186953,1.119972511453907,-0.0227520909819367,0.1750343673519189,0.0304510596611492,-0.6304505419433019,0.1652602941717057,-0.0275366770483462,0.0558691600145739,-0.1549184753083257,1.12093811492071,-0.6852940186181277,0.2093950963279095,0.0621392375029295,1.3530609651556331,0.557669587452353,0.4645543893988593,1.1419141062045208,11.975179752599615,-1.3574379316856648,0.2279803633033528,-1.3050796503752904
2.12,0.0339826712494167,-0.1479662427564481,1.1196826800427084,-0.0208237884635318,0.1758136541916944,0.0309785732690638,-0.6184106765702524,0.1741967156698958,-0.0025100369727611,0.0421632796422113,-0.1507305733817675,1.1221808996707687,-0.6866754285314292,0.2329176715275135,0.1021392380989759,1.458724357844337,0.6019932686524732,0.446821074909505,1.2513320037792526,12.170003663547504,-1.359119538815331,0.2269519170349321,-1.3124140780253024
2.14,0.0217453689920726,-0.1443935960177613,1.119908169044033,-0.0195196718154105,0.1755442293009205,0.0314775338919245,-0.6060873282362796,0.1826871568487567,0.0237953322546199,0.0284573992698488,-0.1465426714552093,1.1234236844208272,-0.6880568384447306,0.2564402467271176,0.1421392386950224,1.5132126054862338,0.6161674166986375,0.424522058943047,1.3152684613690544,12.326385108676732,-1.3625851941718978,0.2266072984805762,-1.318732715632907
2.16,0.0103461774962917,-0.1408408843592276,1.1206188688403689,-0.0187856378974493,0.1743719863085681,0.0319273281510031,-0.5945533090004999,0.1908521911641727,0.0496957476676396,0.0147169836496537,-0.141766705148661,1.125666469185787,-0.689438248358032,0.2799628219267216,0.1821392392910689,1.475239729391674,0.5767009617889896,0.4082517157707993,1.2950207706509855,12.482003627322229,-1.3669646438796703,0.2268984188876534,-1.3238833274428543
2.18,-0.0014197032770559,-0.1369330888853586,1.1219106597924855,-0.0184201040153242,0.1722145935728259,0.0323828542558611,-0.5827426648218491,0.1994897479468842,0.0781774259741061,0.0009420327816261,-0.1364026744621227,1.128909253965648,-0.6908196582713335,0.3034853971263256,0.2221392398871153,1.6010189741554504,0.5905322089325371,0.4318778391355748,1.4240839153233265,12.482003627322229,-1.3725806753231444,0.2277144225857734,-1.3281520751988742
2.2,-0.0129552902758156,-0.1328496816839262,1.123784581973754,-0.0183368176245803,0.1691427991731543,0.0328293944753426,-0.5715544044510239,0.2083821782370618,0.1077907847317246,-0.0305568365181484,-0.1269586014880143,1.125819531091191,-0.5560137516338685,0.2401263432854672,0.1781774274642222,1.6440829537301815,0.5594130185412605,0.4446215145088805,1.4806679378809222,12.64989142684044,-1.378503023868357,0.2287562000447318,-1.330472253502562
2.22,-0.0243844140445591,-0.1285132883497591,1.126037338890961,-0.0157912639868603,0.1673466759798161,0.0334165120734184,-0.5721826979978131,0.2237695117351574,0.1148670103895315,-0.0305568365181484,-0.1269586014880143,1.125819531091191,-0.5560137516338685,0.2401263432854672,0.1781774274642222,0.8474044998151097,-0.0314146773394585,0.7693666749047812,0.353811282890349,12.64989142684044,-1.3861588346671494,0.2269641675670193,-1.3284939879783322
2.24,-0.0352499608437599,-0.1241683442207093,1.1283091403717886,-0.0108122899372531,0.1687240550417737,0.0340921434897621,-0.5711089236036879,0.2324413636367489,0.1240113693180318,-0.0305568365181484,-0.1269586014880143,1.125819531091191,-0.5560137516338685,0.2401263432854672,0.1781774274642222,0.632402773289811,0.0536887197062574,0.4335925950795738,0.4572179464250148,11.340157197144435,-1.3831535392426335,0.2213447607237216,-1.3365327183647566
2.26,-0.0466311786294177,-0.1194586340187127,1.1309315986920458,-0.0055102821579059,0.1721957764442098,0.0347833852973599,-0.566754258270473,0.238059423325965,0.1379103971520476,-0.0361169740344871,-0.1245573380551597,1.1276013053658331,-0.5506679689962724,0.2482536623531838,0.1981774277622454,0.7805585813483882,0.2177332666607467,0.2809029844608041,0.6949513917007877,11.340157197144435,-1.3782309690164178,0.2155731240501983,-1.3472181310156497
2.28,-0.057890060661702,-0.1146586771614068,1.1338717882674625,-0.001054576629293,0.176709917188723,0.0354139208018613,-0.5591550558809054,0.2418578574650899,0.1553485337189263,-0.0472372490671645,-0.1197548111894503,1.1311648539151176,-0.53997640372108,0.264508300488617,0.2381774283582919,0.969877035752458,0.3799601194783786,0.1899217069562433,0.8719068283439337,11.628395550202184,-1.3726795628845243,0.2110317115673409,-1.359041584026692
2.3000000000000003,-0.0689649450138865,-0.1097930954421967,1.1371879534191554,0.0023537264607381,0.1813598204328319,0.0359746997117318,-0.5486161370382838,0.2447497838749242,0.1753509054345771,-0.0583575240998418,-0.114952284323741,1.134728402464402,-0.5292848384458878,0.2807629386240502,0.2781774289543384,1.139656662094258,0.5269459421310796,0.1445963204917175,1.0001185857825416,11.855885805879552,-1.366985363161353,0.2074873992992052,-1.3719438224441554
2.32,-0.079266473257109,-0.1051215300659884,1.1407292959512008,0.0046633454382269,0.1852594599093631,0.0364405200851167,-0.5362838342334827,0.2470643172238082,0.1963913184821998,-0.0689432208687596,-0.10933702555126,1.1402919510434888,-0.5185932731706956,0.2970175767594834,0.3181774295503848,1.2248895239030468,0.6166151402400566,0.1157266674441978,1.0520206523811346,12.214063279612674,-1.3626603559478248,0.2052079688937945,-1.3842623590078869
2.34,-0.0898402898055032,-0.1001587618945078,1.1449003948847458,0.0062150034352352,0.188393302704394,0.0368591087707222,-0.5217400391786152,0.2491794131002807,0.2196422923088357,-0.0795289176376773,-0.103721766778779,1.1458554996225756,-0.5079017078955033,0.3132722148949166,0.3581774301464313,1.3753212252520912,0.7271897527433735,0.1057547938236272,1.162548691331794,12.214063279612674,-1.360116317918156,0.2041260272406516,-1.39671492173409
2.36,-0.1001099040329611,-0.0951544973536121,1.1495462966695196,0.0068960902363746,0.1902548226589859,0.0371994894789404,-0.5060818684353866,0.2512179013303574,0.2437704550209713,-0.0898473252747153,-0.0977001420529121,1.1524190482165635,-0.497210142620311,0.3295268530303498,0.3981774307424777,1.4417888031465909,0.7829085371614308,0.1019244115038342,1.206408135606779,12.313813976266829,-1.359691553775595,0.2040993724406525,-1.4057542557564326
2.38,-0.1095709095724925,-0.0903621783095591,1.1544166692848132,0.0068039303105353,0.1907721469243629,0.0374526006851879,-0.490749459759796,0.2531860057952723,0.2676914349309788,-0.0998984437798734,-0.0912721513736595,1.1599825968254525,-0.4865185773451188,0.345781491165783,0.4381774313385241,1.4240518519660077,0.7666204337795302,0.0984052232457455,1.1960489955003748,12.476280560247687,-1.3611406223435358,0.2050633117302346,-1.4134699598273408
2.4,-0.1192151747015456,-0.0852744256510357,1.16004800948734,0.0059946786667735,0.1900688669717928,0.0376514118092226,-0.4745748824391078,0.2555321567991214,0.2942493795444142,-0.1341083825604823,-0.0777028780197955,1.167801241031362,-0.429233137564266,0.2777666856291613,0.3676914364210949,1.5592031603723822,0.8087288660344111,0.1173075501924525,1.3278972306717731,12.476280560247687,-1.3642420168234932,0.2069405984513359,-1.418862216927994
2.42,-0.1286309076854139,-0.0800674465530761,1.1659772418098466,0.0068082506489129,0.1894751257468485,0.037955218948396,-0.468037278254804,0.2645207812563638,0.2960616496983766,-0.1341083825604823,-0.0777028780197955,1.167801241031362,-0.429233137564266,0.2777666856291613,0.3676914364210949,0.5630718453601316,0.3268802092151857,0.4494312228621233,0.0906135076981173,12.586232171566737,-1.3686843441506575,0.2064386828497533,-1.4130781755710022
2.44,-0.1379152915551892,-0.0747112469777069,1.171940108828176,0.0103873464017066,0.1902906874056998,0.0384486387442742,-0.4604583366592616,0.2700269913282735,0.3005222079788527,-0.1341083825604823,-0.0777028780197955,1.167801241031362,-0.429233137564266,0.2777666856291613,0.3676914364210949,0.5187853246723719,0.3789470797771227,0.2753105035954856,0.2230279140238045,10.78259945082118,-1.3676083391281513,0.2025810103173014,-1.4201497081122365
2.46,-0.1465738438504921,-0.0695613461009379,1.1777450617603662,0.0143193982512036,0.1919708395555798,0.0389523651851578,-0.45121775796876,0.2717687116090759,0.3102435954488486,-0.138400713936125,-0.0749252111635039,1.171478155395573,-0.41692987312516,0.2826828215959391,0.3876914367191181,0.6762530192422522,0.46202893452508,0.0870860140401164,0.4860693734997978,11.152285957679853,-1.3653520009001088,0.1976840758741978,-1.428611019604203
2.48,-0.1554772618878371,-0.064126156066826,1.184097685466624,0.0179604827101861,0.1942998035900369,0.0394460120085107,-0.4394584079958301,0.2717361603534841,0.3246695128740785,-0.1469853766874103,-0.0693698774509207,1.178831984123995,-0.3923233442469481,0.2925150935294947,0.4276914373151645,0.9305784020296708,0.5879674986464967,-0.001627562779588,0.7212958712614931,11.505262100215988,-1.3625288291026447,0.1933958808524707,-1.4379406542399873
2.5,-0.1641231273032334,-0.0587041770750705,1.1907799879006986,0.0207183767794883,0.1967846767307638,0.0398708622320229,-0.4256629096299901,0.2706863221108151,0.3427908170509376,-0.1555700394386956,-0.0638145437383375,1.1861858128524168,-0.3677168153687361,0.3023473654630503,0.467691437911211,1.1399557015164197,0.6897749182919993,-0.052491912133451,0.9060652088429572,11.801879098234169,-1.3598540584791674,0.1902582651275126,-1.4481166479925422
2.52,-0.1724742483506485,-0.053308521467184,1.197854825600077,0.0225794040446071,0.1990390910739427,0.0402170793271898,-0.410135325659162,0.2691299241107081,0.3637566429811597,-0.1629243757460703,-0.0577675964290765,1.195539641610641,-0.3431102864905241,0.312179637396606,0.5076914385072575,1.3068034431794078,0.776379198541402,-0.0778199000053492,1.0482912965111002,12.04708954745456,-1.3578520269661936,0.188368786510862,-1.4579952840305568
2.54,-0.180108594965452,-0.0482156013547319,1.2049779338878233,0.0234914309655003,0.2007062443692435,0.0404636667725654,-0.3942931256678826,0.2671667055059143,0.3849744686215953,-0.170278712053445,-0.0517206491198154,1.2048934703688652,-0.3185037576123121,0.3220119093301615,0.547691439103304,1.3276159579880662,0.7921099995639697,-0.0981609302396879,1.0608912820217808,12.257364098866674,-1.3567092626199548,0.1875567451159671,-1.4677151500996837
2.56,-0.1878102937632193,-0.0428954748210494,1.212923929578046,0.0234812092673085,0.201764707241616,0.0406259232681491,-0.3767405776514299,0.2650148203595034,0.4085598126815151,-0.1770178851388645,-0.0454278950122155,1.2152472991419905,-0.2938972287341002,0.3318441812637172,0.5876914396993503,1.4739326697461597,0.8776274008226365,-0.1075942573205479,1.17926720299599,12.474304558142649,-1.3566932138128367,0.1880749688457501,-1.4765917126373085
2.58,-0.195153473097011,-0.0376167444586825,1.2213560820391889,0.0224794156774357,0.2019370633694713,0.0406855649634903,-0.3585904439490514,0.2630611686422718,0.433468582892819,-0.1831418950023286,-0.0388893341062768,1.226601127930017,-0.2692906998558882,0.3416764531972727,0.6276914402953968,1.544094347737536,0.9075066851189278,-0.0976825858615804,1.245438510565197,12.474304558142649,-1.3581916531504037,0.1899376006057198,-1.4836712707194266
2.6,-0.2017914968524091,-0.0326317301119344,1.2298408204800273,0.0207447835990699,0.2012419558762083,0.0406593498419423,-0.3411797575952855,0.2618350668703396,0.4584186195569772,-0.2130829952944636,-0.024463686026569,1.2430295111838296,-0.2896605258386807,0.2665278665176821,0.5334685843829352,1.5224484017588102,0.8705343176882901,-0.0613050885966109,1.2475018332079115,12.67732225518921,-1.360746776084386,0.1927360893189741,-1.4877967868369242
2.62,-0.2084608361065963,-0.0273192677922338,1.2390220088143795,0.0208106348397975,0.1989409726969489,0.0407238493852412,-0.3269051125360035,0.2689191658299935,0.4569903895867876,-0.2130829952944636,-0.024463686026569,1.2430295111838296,-0.2896605258386807,0.2665278665176821,0.5334685843829352,0.7999840474759526,0.7137322529641027,0.3542049479826947,-0.0714114985094827,12.67732225518921,-1.3634159145988902,0.1926356534958734,-1.4793542839335392
2.64,-0.2148542453332411,-0.0218894445658995,1.248175531913138,0.0243277369859154,0.1943817544011503,0.0409580653868134,-0.3132705002083295,0.2730486151867715,0.4589314195250579,-0.2130829952944636,-0.024463686026569,1.2430295111838296,-0.2896605258386807,0.2665278665176821,0.5334685843829352,0.7188925554931974,0.6817306163836995,0.2064724678389029,0.0970514969135166,10.68278905441548,-1.3705615285942332,0.1880632698786883,-1.4771533000332857
