t,x,y,z,roll,pitch,yaw,v_x,v_y,v_z,ref_x,ref_y,ref_z,ref_v_x,ref_v_y,ref_v_z,a_com,a_x,a_y,a_z,thrust,wind_x,wind_y,wind_z
0.0,1.5107657771949778,-0.5202503294704126,2.9973388820279427,0.0106993240266137,0.1361868789679894,0.0256739290341388,0.0001921658906138,4.710596145062233e-05,-0.0002496522466628,1.5107757031694895,-0.5203521214421143,2.997331407634418,-0.0997048710644494,0.097512480911984,-0.1002484430490501,0.0159274091885205,0.0096082945306927,0.0023552980725311,-0.012482612333144,10.543169366166694,-1.2851151618809118,0.1654881581715485,-1.1627896774505122
0.02,1.510923229285331,-0.5204965805973428,2.997225930029374,0.002158911305107,0.1311512680199063,0.0250673264924538,0.0149676277910026,-0.0200996823472407,-0.0114362783658923,1.5107757031694895,-0.5203521214421143,2.997331407634418,-0.0997048710644494,0.097512480911984,-0.1002484430490501,1.368711033652183,0.7387730950194374,-1.0073394154345698,-0.5593313059614735,10.543169366166694,-1.2779557844131164,0.1731359579438936,-1.1416611428473606
0.04,1.5113253413565482,-0.5209024068516436,2.9968193491439905,-0.013728484965651,0.1166838769495249,0.0241173243165742,0.0230725001835482,-0.0186720079496333,-0.0287611083947125,1.5107757031694895,-0.5203521214421143,2.997331407634418,-0.0997048710644494,0.097512480911984,-0.1002484430490501,0.9590059257018986,0.4052436196272815,0.0713837198803737,-0.8662415014410098,9.91133773982483,-1.3106974516445562,0.1909733118535668,-1.1215762074577469
0.06,1.5117714453005833,-0.5211943966820719,2.996045910213096,-0.0300499294560196,0.0965131313095504,0.0235613936613606,0.0200867638792685,-0.010231361724189,-0.0476957519053208,1.5097786544588452,-0.5193769966329944,2.996328923203928,-0.1197048713624726,0.1175124812100072,-0.1202484433470733,1.0472342799675023,-0.149286815213983,0.4220323112722131,-0.9467321755304154,9.506576603951544,-1.3428381160025786,0.2074532286348963,-1.0893311320194097
0.08,1.5120400694578449,-0.5212804756428764,2.994953125427181,-0.0449428548412933,0.0756917438297944,0.0235040605998027,0.0078170657330728,0.0010384952453816,-0.0663505959553428,1.5077845570375563,-0.5174267470147548,2.994323954342947,-0.1597048719585191,0.1575124818060537,-0.1602484439431198,1.2505582505864936,-0.6134849073097866,0.5634928484785326,-0.9327422025011002,9.324783585363548,-1.371329818368596,0.222984671003611,-1.0497189469886898
0.1,1.5119867753936402,-0.5211109436341091,2.9934135433276143,-0.0598605764674031,0.0547479748781978,0.02384267106714,-0.0129539395241015,0.0156386150090676,-0.0866616990939877,1.5057904596162672,-0.5154764973965151,2.992318985481966,-0.1997048725545655,0.1975124824021001,-0.2002484445391662,1.6256837540064608,-1.0385502628587218,0.7300059881843041,-1.015555156932245,9.324783585363548,-1.3920239409069777,0.2365471243939069,-1.0087826423512325
0.12,1.5114484760874254,-0.5206219529636792,2.9914621222526754,-0.0740345426530555,0.0366576548943256,0.0244140725228617,-0.0400257539443054,0.0328315263287156,-0.1074884615913519,1.501796362165176,-0.5115262477484731,2.9883140165911826,-0.239704873150612,0.2375124829981466,-0.2402484451352127,1.9119580093250288,-1.3535907210101936,0.8596455659823977,-1.0413381248682074,9.281688547764588,-1.4046102905923146,0.2484535116956376,-0.9712409139189104
0.14,1.5103206245616192,-0.5197531579844159,2.9890857785718428,-0.0871902251886343,0.0225214325112495,0.0250451880640093,-0.0713864829884668,0.0533015895725777,-0.1291211618755709,1.4978022647140845,-0.5075759981004311,2.9843090477003997,-0.2797048737466585,0.2775124835941931,-0.2802484457312592,2.162459558567438,-1.5680364522080708,1.0235031621931048,-1.08163501421095,9.262941454629528,-1.4100470381088082,0.2582153686925477,-0.9402457691265904
0.16,1.5086317328032557,-0.518504282814052,2.9864179431478166,-0.0978337005992703,0.013458794835473,0.025575174603981,-0.1046080678327409,0.0766569385125958,-0.1505559237361218,1.492808167248092,-0.502625748437488,2.9793040787947147,-0.3197048743427049,0.3175124841902395,-0.3202484463273056,2.2959720379905737,-1.6610792422137046,1.167767447000903,-1.071738093027548,9.262941454629528,-1.4110725269977338,0.2664761734802454,-0.9143774581335626
0.18,1.506149204064833,-0.5166935668252004,2.983162316195484,-0.1066987340780225,0.0091970389929414,0.025881082012538,-0.141702783904359,0.1028534691612785,-0.1738334707976689,1.4868140697671983,-0.4966754987596436,2.973299109874129,-0.3597048749387513,0.3575124847862859,-0.360248446923352,2.551529137431059,-1.8547358035809045,1.3098265324341378,-1.1638773530773527,9.255643304733894,-1.4047544259767426,0.2721509590035115,-0.895487155326526
0.2,1.502931889168384,-0.514344780200899,2.979438967739619,-0.1132340203234447,0.0103332099407409,0.0258097190840868,-0.1775730285963642,0.1303446031619102,-0.1972282843299143,1.499064064869615,-0.5115508933671364,2.9744706426556005,-0.2417027853944751,0.2028534706513947,-0.273833472287785,2.5444813828723234,-1.7935122346002572,1.3745567000315824,-1.1697406766122689,9.218192030316914,-1.3923197764995483,0.2755496246828002,-0.885562437677795
0.22,1.4992008709399531,-0.5114453691295838,2.97568972253465,-0.1134191039152108,0.0165104711041926,0.025589044673002,-0.2123627848347908,0.1710950141658849,-0.1959096269709752,1.499064064869615,-0.5115508933671364,2.9744706426556005,-0.2417027853944751,0.2028534706513947,-0.273833472287785,2.679861000757452,-1.7394878119213295,2.037520550198737,0.0659328679469536,9.218192030316914,-1.367094645667364,0.2749995584576996,-0.8940389461932602
0.24,1.494624733322694,-0.5076654058304091,2.9717722541566918,-0.1074467551518207,0.0275271544227719,0.0253129454586372,-0.2426408068066996,0.2035124526412954,-0.1960232346722087,1.499064064869615,-0.5115508933671364,2.9744706426556005,-0.2417027853944751,0.2028534706513947,-0.273833472287785,2.217916724399384,-1.5139010985954438,1.6208719237705214,-0.0056803850616765,10.793155496686268,-1.3479159039547342,0.2708047320609625,-0.9156106117526464
0.26,1.489508088011843,-0.5033180415676395,2.9678044305279347,-0.0998363794034951,0.0408443596078915,0.024990236742458,-0.2669275173695404,0.2292644032138565,-0.2009535840108122,1.49664703701567,-0.5095223586606225,2.9717323079327227,-0.2617027856924984,0.2228534709494179,-0.2938334725858083,1.786977624968691,-1.2143355281420367,1.2875975286280552,-0.2465174669301725,10.103775952090473,-1.329485269710094,0.2651984453939583,-0.939495026563399
0.28,1.483964106511121,-0.4985005439236054,2.9636824740596417,-0.0923978709390541,0.0546776887416982,0.0247079250218889,-0.2858733949306933,0.251180844327999,-0.2109877712444468,1.4918129813077807,-0.5054652892475946,2.9662556384869667,-0.3017027862885448,0.2628534715454643,-0.3338334731818547,1.5329396442061174,-0.947293878057648,1.095822055707124,-0.5017093616817333,10.103775952090473,-1.3131085316644049,0.2596466887488264,-0.9600361515922594
0.3,1.4783900916222523,-0.4935426501826555,2.9595398074374013,-0.0861308771649567,0.0670970326329846,0.0245390504215829,-0.2997426861270361,0.2697298953399731,-0.2246089346353275,1.4869789255998913,-0.5014082198345667,2.960778969041211,-0.3417027868845913,0.3028534721415108,-0.3738334737779011,1.3434662480453643,-0.6934645598171363,0.9274525505987063,-0.6810581695440326,9.581381756612243,-1.2980873402064492,0.2542594449911524,-0.9781173198096093
0.32,1.4722730004090196,-0.4879600464377425,2.954862516551438,-0.0805911268171231,0.0785845927570192,0.0244963002798354,-0.3110871704049442,0.2876547192001311,-0.2425984961550333,1.4801448698621995,-0.4953511503917365,2.953302299565653,-0.3817027874806377,0.3428534727375572,-0.4138334743739476,1.390702122688997,-0.5672242138954064,0.896241193007899,-0.8994780759852896,9.581381756612243,-1.286607205687701,0.2497372764035657,-0.9921138788697528
0.34,1.465957909902832,-0.4820307154463493,2.9497990556963973,-0.076170048418361,0.0879123854360626,0.0246000836585905,-0.3198978491294257,0.3045903476572535,-0.2628704405591457,1.4733108141245077,-0.4892940809489063,2.945825630090096,-0.4217027880766842,0.3828534733336037,-0.4538334749699941,1.3922960360023606,-0.4405339362240773,0.8467814228561243,-1.0135972202056225,9.287251195610224,-1.277980816887259,0.2462400171817763,-1.0012924888248795
0.36,1.459478991692581,-0.4757600444776366,2.9443134460562583,-0.0724239006319609,0.0950655071711656,0.0248534284344262,-0.3276082447542343,0.3216112780587259,-0.2846815333704744,1.4654767583719148,-0.4822370114911749,2.937348960599636,-0.4617027886727307,0.4228534739296501,-0.4938334755660405,1.436041470542572,-0.3855197812404287,0.85104652007362,-1.090554640566435,9.287251195610224,-1.2720879042627615,0.2431727371754876,-1.0073010493109655
0.38,1.4531868533619974,-0.4694908022646653,2.938685978630939,-0.069150242658904,0.1001073674349226,0.0252188402613106,-0.3343959469542804,0.3373999815082713,-0.3065869564971583,1.4566427026044206,-0.4741799420185423,2.927872291094276,-0.5017027892687771,0.4628534745256966,-0.533833476162087,1.3921239349760233,-0.3393851100023048,0.7894351724772652,-1.0952711563341933,9.21706661396729,-1.2683428719203322,0.2403651686350306,-1.0102403461583689
0.4,1.446425907662709,-0.4625744956028196,2.9323002801385027,-0.0659164062465714,0.1038910655479146,0.0257044174461506,-0.3413800514512719,0.3533395779674905,-0.3308816181278006,1.4364670560142834,-0.4526208031892517,2.923356630806081,-0.4343959484443965,0.4373999829983874,-0.4065869579872744,1.4942213981327,-0.3492052248495747,0.7969798229609637,-1.2147330815321156,9.155127047582027,-1.265718691226719,0.2377620055036934,-1.0114078725153428
0.42,1.439564294605006,-0.4553322072131867,2.925707407492223,-0.063072346289218,0.1062453914318384,0.0262611335591361,-0.3443286501488342,0.3702288710496422,-0.3257305983413276,1.4364670560142834,-0.4526208031892517,2.923356630806081,-0.4343959484443965,0.4373999829983874,-0.4065869579872744,0.8950914198207914,-0.1474299348781155,0.8444646541075851,0.2575509893236516,9.086095832611136,-1.2483473360406574,0.234895020418613,-1.0167936626790026
0.44,1.4329992633317032,-0.4481538947520919,2.9195389149394098,-0.0611504262452067,0.1069992922593958,0.0268279090509156,-0.3467704324106223,0.3847925850224896,-0.3240277144715446,1.4364670560142834,-0.4526208031892517,2.923356630806081,-0.4343959484443965,0.4373999829983874,-0.4065869579872744,0.7432426904633174,-0.1220891130894019,0.7281856986423696,0.0851441934891505,10.900163998830976,-1.2516714587074529,0.2343336320764387,-1.0216504723610578
0.46,1.4260302258514832,-0.4403010600560483,2.9130189919285527,-0.0599792502124933,0.1061701792706286,0.0274599214258131,-0.3501149460631935,0.3997562926978407,-0.3283196100679799,1.4321230965298395,-0.4482468033592678,2.9192907612262085,-0.4543959487424198,0.4573999832964106,-0.4265869582852977,0.7961135075733504,-0.1672256826285606,0.7481853837675551,-0.214594779821764,10.137173044614428,-1.2565470273357118,0.2344210942008673,-1.02252848030612
0.48,1.4189854651855849,-0.432154356149355,2.906354215530817,-0.0596331997641735,0.1036184565048884,0.0281329981707238,-0.3543319621649337,0.4142411082526138,-0.337904838297408,1.4234351775609515,-0.4394988036993001,2.911159022066463,-0.4943959493384662,0.4973999838924571,-0.4665869588813441,0.8936857762496265,-0.2108508050870094,0.724240777738655,-0.4792614114714072,10.137173044614428,-1.2618099260967304,0.2350279039026124,-1.0199420938572863
0.5,1.4122037928189723,-0.4241496217448129,2.89980931733792,-0.0600846756931874,0.0996006385034911,0.028811268016843,-0.3594650893045095,0.4277096200988478,-0.350527655517668,1.4147472585920635,-0.4307508040393323,2.9030272829067174,-0.5343959499345127,0.5373999844885036,-0.5065869594773906,0.9579735384645126,-0.2566563569787933,0.6734255923116994,-0.6311408610129993,9.86394322104752,-1.2682817728636413,0.2362707469750697,-1.013822997475444
0.52,1.4049383362888834,-0.4154493485618492,2.892632460792829,-0.0614593032134744,0.0939835197896619,0.0295499912397093,-0.3671472244945254,0.4416789697191977,-0.3666045744917136,1.4040593395933731,-0.4200028043495623,2.8928955437171697,-0.5743959505305591,0.57739998508455,-0.5465869600734371,1.1320614532692943,-0.3841067595007935,0.6984674810174923,-0.8038459487022781,9.660416796526988,-1.2761916621443572,0.2382750824245535,-1.0046742919261749
0.54,1.3974906863748229,-0.406465599103411,2.885122044981596,-0.0637404058965524,0.0877424246130669,0.0302764363615146,-0.3774572150654912,0.4561976752403829,-0.3836532268006463,1.393371420594683,-0.4092548046597922,2.882763804527622,-0.6143959511266056,0.6173999856805965,-0.5865869606694836,1.2326244979059708,-0.5154995285482911,0.7259352760592641,-0.8524326154466383,9.497987250514598,-1.2823650993051228,0.2409177997656836,-0.9947232076331548
0.56,1.3898068079692758,-0.3971661902150191,2.877263869096042,-0.0661081659417774,0.0817291907185162,0.0309998349009171,-0.390487498938723,0.4729089809004689,-0.4012894405437724,1.3816835015810915,-0.397506804955121,2.871632065323173,-0.654395951722652,0.6573999862766429,-0.6265869612655299,1.3784883658151204,-0.651514193661587,0.8355652830042998,-0.8818106871563064,9.452378103704175,-1.2873923895377364,0.2434934360552562,-0.9860486627237194
0.58,1.3822430201379463,-0.3880111356405727,2.869466418128117,-0.067743557839531,0.0769270805666954,0.0316817545122957,-0.405111496811384,0.4897352135560817,-0.4185925200742327,1.368995582552599,-0.3847588052355486,2.8595003261038228,-0.6943959523186984,0.6973999868726893,-0.6665869618615764,1.411010258996933,-0.7311998936330499,0.8413116327806391,-0.8651539765230143,9.428575976646243,-1.2913643243495645,0.2455925968042084,-0.978271668562576
0.6,1.3739591040176595,-0.378025296915443,2.860894270932325,-0.0685840951562722,0.073583185799805,0.0323494854711706,-0.4226185886489271,0.507870015965528,-0.4377467300511433,1.3619874452973773,-0.3635243749627687,2.8485367921244054,-0.5051114983015002,0.5897352150461979,-0.5185925215643489,1.5829190463171292,-0.8753545918771588,0.9067401204723158,-0.9577104988455292,9.40233718241234,-1.293161335708202,0.246832479684966,-0.9729457864741692
0.62,1.3652904593822175,-0.3676141659096545,2.85221987464655,-0.0670007373909626,0.0739767206267329,0.0329269823675614,-0.4427837145573222,0.5320188319265299,-0.4272055121587228,1.3619874452973773,-0.3635243749627687,2.8485367921244054,-0.5051114983015002,0.5897352150461979,-0.5185925215643489,1.6590018760351417,-1.0082562954197516,1.2074407980500912,0.5270608946210259,11.300299284616813,-1.2755557732089091,0.2453042163153442,-0.9811320898783716
0.64,1.3562509151790874,-0.356752508457045,2.8437613716203085,-0.0626632776994755,0.0785829198034478,0.0334139314592341,-0.4596442379612606,0.5522111644574985,-0.4196222361822296,1.3619874452973773,-0.3635243749627687,2.8485367921244054,-0.5051114983015002,0.5897352150461979,-0.5185925215643489,1.368862316881822,-0.8430261701969199,1.009616626548432,0.379163798824661,11.300299284616813,-1.2698182745553244,0.2427306508719917,-0.9940304504074914
0.66,1.3473835631643394,-0.3461016469351284,2.835789881662275,-0.0579408003029539,0.085176211943593,0.0337932297490505,-0.472551557805275,0.5678013063651385,-0.4198294268454157,1.3569363303143622,-0.3576270228123067,2.8433508669087617,-0.5251114985995233,0.609735215344221,-0.538592521862372,1.0120454019298644,-0.6453659922007221,0.7795070953819982,-0.010359533159307,10.829627627808804,-1.2624675759766415,0.2391614726532961,-1.007927015766567
0.68,1.337818034621588,-0.3345958375130542,2.8273329802460774,-0.0532633674536077,0.0930691069178032,0.0341398304491463,-0.4830409717965535,0.5819454870221173,-0.4261327093257702,1.3468341003483324,-0.3458323185113827,2.832979016477475,-0.5651114991955698,0.6497352159402675,-0.5785925224584185,0.9351698005774516,-0.5244706995639253,0.7072090328489433,-0.315164124017725,10.0154383767549,-1.2546599624390529,0.2355987764279046,-1.0204724170627322
0.7000000000000001,1.3280708213466812,-0.3228220413825672,2.8186920725668334,-0.0492143438263975,0.100907647935105,0.0344676831929123,-0.4909751785351768,0.5947640073423701,-0.4378678178506858,1.3367318703823023,-0.3340376142104588,2.822607166046188,-0.6051114997916163,0.689735216536314,-0.618592523054465,0.9552210108968172,-0.3967103369311636,0.6409260160126384,-0.5867554262457803,9.728535084788746,-1.2472802941037944,0.2324585895575923,-1.031178924947019
0.72,1.3181873729300206,-0.3108029014021977,2.809765342852951,-0.0458775374021034,0.1079727030214457,0.034799479508542,-0.4969089675432872,0.6066374749029462,-0.4542134433099473,1.32462964038647,-0.3202429098797325,2.8102353155850985,-0.6451115003876627,0.7297352171323604,-0.6585925236505115,1.052815933056773,-0.2966894504055212,0.5936733780288028,-0.8172812729630746,9.728535084788746,-1.2411398673995948,0.2300032334282974,-1.0394211057567115
0.74,1.3087043767682816,-0.299170666265792,2.80096097478893,-0.0433493219434612,0.1135761834036779,0.0351278959639784,-0.5010190749793402,0.6173454316512831,-0.4717484542195858,1.3125274103906377,-0.3064482055490062,2.797863465124009,-0.6851115009837092,0.7697352177284069,-0.6985925242465579,1.0476520515673282,-0.2055053718026472,0.5353978374168455,-0.8767505454819247,9.50484713304013,-1.2354481502664307,0.2279105749213301,-1.0454674491041105
0.76,1.298644662208066,-0.2867025796592037,2.7913172000633724,-0.0410725348095522,0.1182262252901229,0.0355017643352974,-0.5047289075320223,0.628859960628005,-0.4917725579934452,1.2994251803799042,-0.2916535012033788,2.7844916146480188,-0.7251115015797556,0.8097352183244533,-0.7385925248426043,1.169734977538713,-0.1854916276341045,0.5757264488360947,-1.001205188692969,9.404640176660903,-1.231653267828573,0.2261960839396835,-1.0492749961733914
0.78,1.2885147634005756,-0.2740047519919431,2.781258998859979,-0.0388740047173759,0.1217479040359619,0.035913316703886,-0.508082436578345,0.6402586649895832,-0.5130905441635466,1.2853229503542696,-0.2758587968428502,2.770119764157127,-0.765111502175802,0.8497352189204997,-0.7785925254386508,1.2202798373076416,-0.1676764523161344,0.5699352180789097,-1.0658993085050694,9.324711453171403,-1.229057695125885,0.2245383913429256,-1.0515545403191893
0.8,1.2783197211309214,-0.2610824833097345,2.7707611479987992,-0.0366276342726907,0.1243125904723955,0.0363592835955444,-0.5112834816794188,0.6512821315262002,-0.5356137010479927,1.2631106415716584,-0.2419918187424639,2.7556044716518016,-0.6080824380684611,0.6738725591243431,-0.6130905456536627,1.2639779470627583,-0.1600522550536942,0.5511733268308505,-1.126157844222303,9.26075669799502,-1.2275415336908329,0.2228938872747241,-1.052365246457246
0.8200000000000001,1.2686001123387023,-0.2483941026869302,2.760663430176211,-0.027976868603265,0.1262861179656923,0.0372468706774715,-0.5114264969521247,0.6790917971122554,-0.5259665046899581,1.2631106415716584,-0.2419918187424639,2.7556044716518016,-0.6080824380684611,0.6738725591243431,-0.6130905456536627,1.471790024890548,-0.007150763635294,1.3904832793027622,0.4823598179017285,9.201025292371014,-1.214490449996006,0.2139759224043616,-1.0564906129542142
0.84,1.2583815086524532,-0.2346486331786277,2.750206898866392,-0.0126472756304641,0.1278795260971651,0.0386174719711858,-0.5104441648128316,0.6927423509204615,-0.5206226198731718,1.2631106415716584,-0.2419918187424639,2.7556044716518016,-0.6080824380684611,0.6738725591243431,-0.6130905456536627,0.7346082300071544,0.0491166069646553,0.6825276904103061,0.2671942408393135,11.180826319950029,-1.2172858599136325,0.2002859897739703,-1.0665780743787825
0.86,1.2481819405999304,-0.2207367297547897,2.739770994612285,0.0037985314702398,0.1285513444907802,0.0400534768008576,-0.5096653398134318,0.6973127499987165,-0.5235809743631283,1.2570298171909735,-0.2352530931512205,2.749473566195265,-0.6280824383664843,0.680595337951295,-0.6330905459516859,0.2749862605770052,0.0389412499699926,0.228519953912748,-0.1479177244978258,10.68376858022475,-1.220830454603085,0.1851295488102748,-1.0725384128584674
0.88,1.2379924988082918,-0.2067974911882482,2.729193241693046,0.0191519764664301,0.1281294832398684,0.0413657850150718,-0.5094219600481796,0.696388179953931,-0.534006592217452,1.2448681684296046,-0.2217756419687336,2.737211755282192,-0.6680824389625307,0.694040895605199,-0.6730905465477324,0.5234681726768117,0.0121689882626063,-0.0462285022392761,-0.5212808927161805,10.199496206062577,-1.2240594206742703,0.1714117214348947,-1.074455679555273
0.9,1.228312208308282,-0.1936086982639403,2.718899368980285,0.0320012605869407,0.1265888123842736,0.0424132420220024,-0.5096584719241837,0.6921504568064324,-0.5490106710375525,1.2327065196682354,-0.2082981907862467,2.7249499443691185,-0.7080824395585772,0.707486453259103,-0.7130905471437788,0.7796419315655858,-0.011825593800202,-0.2118861573749297,-0.7502039410050287,9.820130071398124,-1.2276541203729123,0.1585587484988504,-1.0728175415875862
0.92,1.218112024968664,-0.1798365444675976,2.707715913232429,0.0435448481474939,0.1235853294709149,0.0432597480102376,-0.5104595232688756,0.6854167082798948,-0.5686905367895111,1.218544870877064,-0.1941484617210647,2.7106881334262427,-0.7480824401546237,0.720932010913007,-0.7530905477398253,1.040771550930597,-0.0400525672345941,-0.3366874263268815,-0.9839932875979284,9.330978792316271,-1.2319243519355123,0.1476210656157842,-1.067482241249328
0.94,1.207889355596797,-0.1662202636980052,2.6961195472915094,0.0530689070296956,0.1190019845553631,0.0438115911786279,-0.5119618673442792,0.6767346895811995,-0.589968954030371,1.2043832220858923,-0.1799987326558826,2.6964263224833678,-0.7880824407506701,0.7343775685669109,-0.7930905483358718,1.1515267329522976,-0.0751172037701808,-0.4341009349347613,-1.063920862042994,9.330978792316271,-1.2366074334989228,0.1385932160636148,-1.0577981434913994
0.96,1.1981293457325208,-0.1534587802717511,2.684702311391606,0.0603865160391727,0.1135220570205627,0.0440747942057546,-0.5155741124032138,0.6672714209121707,-0.6107316710199452,1.1892215732798197,-0.1655128646493529,2.6811645115255907,-0.8280824413467165,0.7478231262208148,-0.8330905489319181,1.1550889414425776,-0.1806122529467324,-0.4731634334514401,-1.0381358494787107,9.258120949691149,-1.2417901335548762,0.1317311183367083,-1.0459294568234383
0.98,1.187756878119466,-0.1402280656661293,2.6722526841026544,0.0666135604540164,0.1074005658779218,0.0441478081459075,-0.521673470320559,0.6564347373780707,-0.6331339000102201,1.1730599244588458,-0.1506908577014757,2.6649027005529127,-0.868082441942763,0.7612686838747188,-0.8730905495279646,1.2811086417189887,-0.3049678958672586,-0.5418341767050028,-1.1201114495137443,9.225126219383128,-1.2459081503122644,0.1258339105405417,-1.0324352805294443
1.0,1.1772409838844913,-0.1272238760946117,2.6593510451893403,0.071516815099067,0.1015340650427332,0.0440746746468328,-0.5297341067265452,0.6446835763076162,-0.6558935507283989,1.161673204603438,-0.1074063287972257,2.6405959891021435,-0.6216734718106751,0.6210969241795042,-0.7331339015003362,1.342632997682888,-0.4030318202993099,-0.5875580535227243,-1.1379825359089435,9.184802961731291,-1.248206427463309,0.1210866425466958,-1.019284511997338
1.02,1.166515387097498,-0.1143174697570052,2.646318383913826,0.080688885587727,0.0982323720416042,0.0444208658505222,-0.5422869842660104,0.64292039855338,-0.6464808705458753,1.161673204603438,-0.1074063287972257,2.6405959891021435,-0.6216734718106751,0.6210969241795042,-0.7331339015003362,0.7894334654236485,-0.6276438769732606,-0.0881588877118089,0.4706340091261807,9.158927330046936,-1.2370146617103093,0.1118946963753036,-1.0114302090769725
1.04,1.156098906804616,-0.1022258760782923,2.6340645521078385,0.0925985697433621,0.0991266475508573,0.0452440997951651,-0.5530318553973812,0.6296002373432067,-0.6439911903942929,1.161673204603438,-0.1074063287972257,2.6405959891021435,-0.6216734718106751,0.6210969241795042,-0.7331339015003362,0.8646928031849738,-0.5372435565685396,-0.666008060508666,0.1244840075791231,11.034323904800658,-1.232164589008692,0.0997553470216873,-1.016190769876489
1.06,1.1449440176017356,-0.0898169423511674,2.6211429883830557,0.105190850483706,0.1026443851005718,0.0463371560413703,-0.5615803990055049,0.6117128178164872,-0.6486334306085432,1.1554564698853311,-0.1011953595554307,2.63326465008714,-0.6416734721086983,0.6140293615397909,-0.7531339017983594,1.018071423515635,-0.4274271804061869,-0.8943709763359731,-0.2321120107125152,10.109782054961215,-1.2257212056790712,0.087726085700769,-1.0210080888968434
1.08,1.1336438034828054,-0.0777891123765887,2.608057523272205,0.1172820678499638,0.1073730773612411,0.0475305463233059,-0.5677805504411414,0.5916938094590839,-0.6596802238959298,1.143023000449118,-0.0887734210718406,2.6186019720571334,-0.6816734727047448,0.5998942362603644,-0.7931339023944058,1.184519116955126,-0.3100075717818229,-1.0009504178701667,-0.5523396643693335,10.109782054961215,-1.2187910282489691,0.0768759907606276,-1.0243459752628414
1.1,1.1228143934427202,-0.0667666547810517,2.595374743637908,0.1277116413369794,0.1120675795740846,0.0486269046322319,-0.5717482687709765,0.5697117243592413,-0.6747705954349043,1.1305895310129044,-0.0763514825882505,2.603939294027126,-0.7216734733007912,0.5857591109809378,-0.8331339029904523,1.3478447307330312,-0.1983859164917556,-1.0991042549921282,-0.7545185769487206,9.793606009654468,-1.211075441771037,0.0665988104540788,-1.025745649004129
1.12,1.1113507204210324,-0.0556353433109863,2.581677861653291,0.1370859512116213,0.1165714037980393,0.0496184847764641,-0.5743463529821762,0.5447371113876881,-0.6942449414869418,1.1161560615468886,-0.0646363003686318,2.5872766159673177,-0.7616734738968377,0.5716239857015112,-0.8731339035864988,1.5888136209148882,-0.1299042105599834,-1.2487306485776617,-0.9737173026018786,9.559378369774096,-1.20395721966561,0.0580213918300257,-1.0247535261734455
1.14,1.0998501802808434,-0.0450209133559319,2.567573177241884,0.1446371370831947,0.1201884692828099,0.0503528139332147,-0.5755710634666166,0.5181911077831106,-0.715241934237059,1.1017225920808726,-0.052921118149013,2.570613937907509,-0.8016734744928842,0.5574888604220847,-0.9131339041825453,1.693416611242941,-0.0612355242220197,-1.3273001802288742,-1.0498496375058564,9.379586932308484,-1.1975982299349022,0.0514781470810659,-1.02197784071835
1.16,1.088332373124656,-0.034953408515821,2.553040696561252,0.1502256709098145,0.1227816621971293,0.0507799418608918,-0.5762095369230766,0.4903577245570014,-0.7368682979888922,1.0862891225999556,-0.0415593140613799,2.5529512598327986,-0.8416734750889305,0.5433537351426581,-0.9531339047785916,1.7626716081651927,-0.0319236728230032,-1.3916691613054588,-1.0813181875916622,9.324904702403728,-1.192116424282779,0.0464579740867587,-1.017002634142549
1.18,1.0773818728891569,-0.0259113304068185,2.5388314631939246,0.1538110195227933,0.1243963252459721,0.0509090872164395,-0.5765086704893787,0.4632713523532645,-0.757674351605305,1.0698556531041374,-0.0305508881057325,2.534288581743187,-0.881673475684977,0.5292186098632315,-0.993133905374638,1.7078150566871295,-0.0149566783151033,-1.3543186101868443,-1.0403026808206428,9.30461818832373,-1.1879580185605323,0.0432460964391276,-1.01030763809917
1.2,1.0658498522307385,-0.0169489072837144,2.523444446275698,0.1559911927690657,0.1253022451607555,0.0507775438968661,-0.5767321720266321,0.4346831070296058,-0.7798855787597979,1.0485564393646878,-0.0027477627891553,2.5009477456136597,-0.6765086719794948,0.4279187572027938,-0.8576743530954212,1.8101632076496128,-0.0111750768626683,-1.429412266182939,-1.1105613577246432,9.29134847755904,-1.1847692338024882,0.041565713652357,-1.0023521934978403
1.22,1.054323346713896,-0.0086193305625524,2.507892253871705,0.1561731350843449,0.1264508874336334,0.050510847566802,-0.575683666824268,0.4001604653637131,-0.774155726473474,1.0485564393646878,-0.0027477627891553,2.5009477456136597,-0.6765086719794948,0.4279187572027938,-0.8576743530954212,1.750530889454755,0.0524252601182051,-1.726132083294632,0.2864926143161972,9.266953786495831,-1.170516559031883,0.0404357830904559,-0.9953138980348384
1.24,1.0434107549028169,-0.0013459884834656,2.493203253699696,0.1539726506451296,0.1280128367437336,0.0501361100018471,-0.5730697603334809,0.367573204649409,-0.7723432562752572,1.0485564393646878,-0.0027477627891553,2.5009477456136597,-0.6765086719794948,0.4279187572027938,-0.8576743530954212,1.6371065299973848,0.1306953245393538,-1.629363035715206,0.0906235099108365,10.6041861646936,-1.167709588822698,0.0422776407048679,-0.9925783401542688
1.26,1.0319858865560472,0.0056633395445144,2.477732574559255,0.1491616685864765,0.1292265406471975,0.0494724707797872,-0.56962898761439,0.3359311100794385,-0.7748859365336191,1.0417913526448928,0.0015314247828725,2.492371002082705,-0.696508672277518,0.4208482381726997,-0.8776743533934444,1.5965010872026222,0.1720386359545467,-1.582104728498526,-0.1271340129180953,10.6041861646936,-1.1666646264205596,0.0466357892097474,-0.9880726891725622
1.28,1.0206333115050423,0.0120753130850387,2.462169298363205,0.142815157607896,0.129414452175161,0.0485266881794667,-0.5659526934252933,0.3074731917864006,-0.7811698684052778,1.028261179205303,0.0100897999269284,2.475217515020797,-0.7365086728735645,0.4067072001125114,-0.9176743539894908,1.468720576135613,0.1838147094548325,-1.422895914651892,-0.3141965935829327,10.30891507452543,-1.1667103700109496,0.0520249725350811,-0.9821885356440464
1.3,1.009917195860485,0.0176658301740263,2.447242387568312,0.135988822344375,0.1282700864078752,0.0473752082882358,-0.5623523204713481,0.2828643119475447,-0.7896744733993347,1.014731005765713,0.0186481750709843,2.4580640279588883,-0.7765086734696109,0.3925661620523231,-0.9576743545855372,1.3142373819402704,0.1800186476972609,-1.230443991942795,-0.4252302497028459,10.084847023390466,-1.1676408085076306,0.058212469828778,-0.9748769172102412
1.32,0.9987105492890928,0.0230723270807347,2.431334216346841,0.128405995173727,0.1251998038792889,0.0458905678506479,-0.5586116806964242,0.2594129146973447,-0.8007341126530152,0.9992008322963208,0.0264994983120307,2.4389105408671776,-0.8165086740656574,0.3784251239921348,-0.9976743551815838,1.3098435396393544,0.1870319887461946,-1.1725698625100005,-0.5529819626840238,9.912399035561975,-1.1702057606656624,0.0645340025447321,-0.9661051274011204
1.34,0.9875730592164472,0.0280308377085909,2.4151980720945136,0.1206959971569369,0.1198170829158118,0.0441304267115562,-0.5557592874651545,0.2378740746098935,-0.8122661219719433,0.9836706588269286,0.0343508215530772,2.419757053775467,-0.8565086746617039,0.3642840859319465,-1.0376743557776302,1.2298831432197468,0.1426196615634867,-1.0769420043725622,-0.576600465946403,9.765766359014378,-1.1754645615921178,0.0709546288239979,-0.9536673695192758
1.36,0.9764618019629726,0.0325732717328452,2.398831594700082,0.1129347700571036,0.11269481713101,0.0422078997167294,-0.5558852426414308,0.2177646213406589,-0.8237228404197307,0.9671404853426352,0.041848618842619,2.399603566668855,-0.8965086752577502,0.3501430478717582,-1.0776743563736766,1.157219051309898,-0.0062977588138168,-1.0054726634617288,-0.5728359223893698,9.722968998128636,-1.1811667185816626,0.0767822259222118,-0.9411238610629492
1.38,0.9658752850777528,0.0365310864208607,2.3830714172913283,0.1055752923800709,0.1051704048689508,0.040357512027872,-0.5587304718413308,0.2001104337654856,-0.8346133539006414,0.9496103118434408,0.048992890180656,2.3784500795473416,-0.9365086758537968,0.3360020098115699,-1.117674356969723,1.0468631142814988,-0.1422614599950022,-0.8827093787586615,-0.5445256740455373,9.70246905719705,-1.186890234404402,0.0826420913674682,-0.9276108554334642
1.4,0.9546456246577568,0.040352629618859,2.3662548321041634,0.0979572410232836,0.0971087883134845,0.0384737522535885,-0.5643263191866296,0.183197419710549,-0.8464628689515414,0.937938761485686,0.046536608109135,2.3413407495962963,-0.658730473331447,0.183325870104864,-0.893180725120038,1.0697833412376987,-0.279792367264936,-0.8456507027468321,-0.592475752545002,9.67753727161744,-1.1918963280706547,0.0881754461344519,-0.9146068150297142
1.42,0.9432616063252676,0.0438271702341859,2.349539417889206,0.09081799441825,0.0910513934967037,0.0368814345059889,-0.5739229289540889,0.165037564056367,-0.822729015100454,0.937938761485686,0.046536608109135,2.3413407495962963,-0.658730473331447,0.183325870104864,-0.893180725120038,1.5693717652570396,-0.4798304883729676,-0.9079927827091008,1.1866926925543697,9.632446839575096,-1.1820131932862938,0.0922754833779357,-0.9005375436480983
1.44,0.931672302402835,0.0469439062420754,2.333321972959815,0.0840722659715346,0.0891011421675437,0.0357270655553374,-0.5841686266734506,0.1478416136127745,-0.8006696453957558,0.937938761485686,0.046536608109135,2.3413407495962963,-0.658730473331447,0.183325870104864,-0.893180725120038,1.4893713650258456,-0.512284885968084,-0.8597975221796241,1.102968485234912,11.58227984192763,-1.1810473375885968,0.096314973555669,-0.902724818599898
1.46,0.9204892541481902,0.0496020852003303,2.318256448007392,0.0776647343339958,0.0898934723131257,0.0348643695232023,-0.5922404166382386,0.1331419164871282,-0.7862317425696751,0.9313514567523716,0.0483698668101836,2.332408942345096,-0.6787304736294701,0.1799689573727397,-0.9048941993639174,1.1064446742118803,-0.4035894982393984,-0.7349848562823127,0.7218951413040353,11.58227984192763,-1.177126872055288,0.1006469568609798,-0.9077864914761026
1.48,0.9085713028108308,0.0521209249196416,2.302641587692777,0.0709003447777424,0.0921449512496911,0.0340621985142503,-0.5989681263232515,0.1197936813860572,-0.7762338693033832,0.9181768472857428,0.0520363842122809,2.314545327842695,-0.7187304742255166,0.173255131908491,-0.928321147851676,0.8991592291803965,-0.3363854842506453,-0.6674117550535499,0.4998936633145934,11.154319029855287,-1.1725400695774792,0.1052147518405421,-0.9131196412361802
1.5,0.8965340592221994,0.0543947186842733,2.287176847022549,0.0642247984710702,0.0948836182919735,0.033292031457814,-0.6043267976930979,0.108483007655386,-0.7709169528536803,0.9050022378191138,0.0557029016143782,2.2966817133402944,-0.7587304748215631,0.1665413064442424,-0.9517480963394346,0.6799196636824644,-0.2679335684923234,-0.5655336865335626,0.2658458224851445,10.819968976637028,-1.1682829673063733,0.1096417899604716,-0.9176756587397764
1.52,0.8844011176638737,0.0564631819099003,2.2717735423431464,0.057766078499158,0.097457855963625,0.0325177479277801,-0.6086795030381836,0.0990953680683667,-0.7696542320277588,0.8898276283226826,0.0590337277432631,2.277646751413506,-0.7987304754176096,0.1598274809799937,-0.9751750448271932,0.5212204061650029,-0.2176352672542847,-0.4693819793509621,0.0631360412960746,10.547221362791788,-1.1644110764815545,0.1142597104383605,-0.9212146955933168
1.54,0.8728028142705636,0.0582711275621845,2.257147522088461,0.0519730607956324,0.0993778022641787,0.0317711850210557,-0.6120108873819214,0.0917606357384709,-0.7699811979903033,0.8746530188262512,0.0623645538721479,2.258611789486717,-0.838730476013656,0.153113655515745,-0.9986019933149518,0.4031232030582689,-0.1665692171868904,-0.3667366164947921,-0.0163482981272222,10.329198534460376,-1.160907918901608,0.1186200105085557,-0.9233307632191686
1.56,0.8605265762080014,0.0600376357130542,2.2417333198340232,0.0463155654521797,0.1007525235261973,0.0309827876623283,-0.6154607137812071,0.0853637268854063,-0.7714716412980949,0.8584784093149189,0.0655275343644265,2.2389911538477345,-0.8787304766097024,0.1463998300514964,-1.0220289418027104,0.3709554094273493,-0.1724913199642852,-0.3198454426532278,-0.0745221653895789,10.243492797296312,-1.158541889566496,0.1226822040466231,-0.9241155712917056
1.58,0.8481804143457778,0.0616895985246603,2.2262761323963765,0.0411473513018713,0.1015788101584221,0.0302080427003904,-0.6190153124158846,0.0801879671357735,-0.7741667405289104,0.8413037997886853,0.068522669220099,2.218784844496558,-0.9187304772057489,0.1396860045872477,-1.045455890290469,0.3416402358604458,-0.177729931733872,-0.2587879874816401,-0.1347549615407783,10.176603047957542,-1.1570164911010323,0.1261976615642422,-0.9241911153001536
1.6,0.8363838877933254,0.0631737351736789,2.211531301451012,0.036706157901889,0.1019727852090754,0.0294962376682853,-0.6225719833535185,0.0762977821639804,-0.7777834145837897,0.8172296487249836,0.065698996881449,2.187567795369931,-0.6707457663839327,0.0764565359290853,-0.793219339154332,0.3196239137353936,-0.1778335468816949,-0.1945092485896582,-0.1808337027439654,10.112141879716546,-1.1559440552177995,0.1295138842989769,-0.9236949302647156
1.62,0.8238378055391977,0.0646517083197256,2.1962086520125723,0.03245368801368,0.1047486874000485,0.0288649677822433,-0.6312907998997768,0.0717491301862492,-0.7528786796163516,0.8172296487249836,0.065698996881449,2.187567795369931,-0.6707457663839327,0.0764565359290853,-0.793219339154332,1.3387996681544274,-0.4359408273129139,-0.2274325988865566,1.2452367483719085,10.04928006146656,-1.1450578638164013,0.131860946684676,-0.9214766976324402
1.64,0.8111576322228614,0.066049094018495,2.181401309910506,0.0285783604764197,0.1115267398755981,0.0283810497385164,-0.6357367386093691,0.0683010874989026,-0.7295185378972044,0.8172296487249836,0.065698996881449,2.187567795369931,-0.6707457663839327,0.0764565359290853,-0.793219339154332,1.2014070818438836,-0.2222969354796156,-0.1724021343673325,1.1680070859573566,11.65367237571445,-1.136115770873065,0.1344028318295224,-0.9356266063505092
1.66,0.798428139242247,0.0673897378848313,2.16699750226897,0.0250772904928848,0.120250770406549,0.0279593105396354,-0.6365581368200458,0.0659678807490177,-0.7120418185696572,0.8105221910611443,0.0664635622407399,2.179635601978388,-0.6810918571775423,0.0757102496877476,-0.7970298588794162,0.8825449949040486,-0.0410699105338363,-0.1166603374942468,0.873835966377362,11.302696530462526,-1.128072011057915,0.1367902837535979,-0.9490987240825258
1.68,0.7863478989109431,0.0686299616981841,2.1535923000173844,0.0221101523255321,0.1292904597229242,0.0275823907849827,-0.6346930998791619,0.0646924398792381,-0.69992782525355,0.7971072757334656,0.0679926929593216,2.163771215195301,-0.7017840387647616,0.0742176772050723,-0.8046508983295849,0.6161451660644903,0.0932518470441956,-0.0637720434889799,0.6056996658053593,11.0299329586951,-1.120146307864587,0.1391552314744075,-0.9623862932383948
1.7,0.773697269476524,0.0699178094237261,2.139693069302982,0.0193885135745709,0.1389218790752777,0.0271970289325976,-0.6301887460852261,0.0641602803109414,-0.6908164619459836,0.7836923604057869,0.0695218236779033,2.1479068284122143,-0.7224762203519808,0.072725104722397,-0.8122719377797535,0.5088942381024313,0.2252176896967883,-0.0266079784148338,0.4555681653783228,10.82319936230124,-1.1126011723328426,0.1412523318658443,-0.9747234556679892
1.72,0.7611709257788984,0.0712034538737008,2.1259377800107897,0.0171159304520144,0.1478699122532738,0.0268150281567718,-0.6225498628406563,0.0643641282090567,-0.6851859832045246,0.7692428359987473,0.0709763257723512,2.131661389656619,-0.7431684019392,0.0712325322397217,-0.819892977229922,0.4745955700587531,0.3819441622284925,0.0101923949057662,0.2815239370729472,10.82319936230124,-1.1060164229536775,0.1430146774340906,-0.9856963037637158
1.74,0.7494387953011814,0.0724340314612051,2.1129600892329723,0.0153773754376212,0.1549952862242815,0.0264501636843684,-0.6128077630777868,0.0650763130713078,-0.6811816737935991,0.7547933115917076,0.0724308278667992,2.115415950901024,-0.7638605835264193,0.0697399597570463,-0.8275140166800907,0.5278499051012214,0.4871049881434719,0.0356092431125561,0.2002154705462777,10.65134540784311,-1.1013124112230317,0.1443426571870761,-0.9937406903165
1.76,0.7373051540948024,0.0737485334832822,2.0993733741621257,0.0140114245937564,0.1606834820009764,0.0260688171215209,-0.6010803546750919,0.0663215511572194,-0.6777366660390696,0.7398264826449875,0.0738480156491802,2.098979986159175,-0.7845527651136385,0.068247387274371,-0.8351350561302593,0.6143101907077824,0.5863704201347464,0.0622619042955803,0.1722503877264747,10.595227198428802,-1.0988464908255429,0.145378489646998,-0.9995338029731796
1.78,0.7254168136237249,0.0750942659461169,2.0858486420299776,0.0132891742768462,0.1644245419836668,0.0257085715084332,-0.5884192645088718,0.0681497041121153,-0.6749309588799718,0.724342349158587,0.0752278891194944,2.082353495431072,-0.8052449467008577,0.0667548147916957,-0.842756095580428,0.6548231442272442,0.633054508311004,0.0914076477447914,0.140285357954889,10.566403356589944,-1.0985820355229543,0.1458579640172048,-1.0032951036457851
1.8,0.7137871000819488,0.0764816518984456,2.0723747127780485,0.013437814463296,0.1662110199633936,0.0253899489084826,-0.5753867360959217,0.0703840910820383,-0.6725882614401428,0.6959958503982813,0.0785017511517227,2.052102094085979,-0.5992600772068785,0.0623716573216048,-0.6730892654618713,0.6714304008240443,0.6516264206475053,0.1117193484961504,0.1171348719914477,10.540897192226112,-1.1004140765095758,0.1456025197845072,-1.0050667378484957
1.82,0.7029285182776882,0.0778409135208431,2.0597544676696056,0.0145951576199398,0.1685592794535574,0.0251748823192503,-0.5677225521134105,0.0724503238996041,-0.6560346209537102,0.6959958503982813,0.0785017511517227,2.052102094085979,-0.5992600772068785,0.0623716573216048,-0.6730892654618713,0.9179216299992994,0.3832091991255615,0.1033116408782931,0.8276820243216299,10.52206844072407,-1.100005422304934,0.1441660301412239,-1.0045424276524435
1.84,0.6916825694975247,0.0793106930378099,2.046804243044009,0.0169951207045317,0.1733045805140869,0.0250762402205902,-0.5569392442290939,0.0742041103925608,-0.640041493765285,0.6959958503982813,0.0785017511517227,2.052102094085979,-0.5992600772068785,0.0623716573216048,-0.6730892654618713,0.9684208966869582,0.5391653942158292,0.0876893246478306,0.7996563594212636,11.47714035408626,-1.096720268763895,0.1417404655869461,-1.0146330932731071
1.86,0.6806838151353309,0.0807967764016084,2.0341465095146654,0.0201277347842459,0.1789590959614309,0.0250628980914418,-0.5432605839775934,0.0741141014116832,-0.6266602498133,0.6900032496262125,0.0791254677249388,2.0453712014313603,-0.6014282397464797,0.0612160479635028,-0.6727209267782512,0.9567804575700124,0.6839330125750276,-0.0045004490438788,0.6690621975992461,11.32976355151095,-1.093842031415471,0.1388374231017803,-1.0240089619250603
1.88,0.6705148847341044,0.0821927617821011,2.0223464425025086,0.0231393808183433,0.1840589291413802,0.0250662317381188,-0.527807954548858,0.0727806830883285,-0.6161289710421134,0.6780180480820749,0.0803729008713708,2.031909416122123,-0.6057645648256824,0.0589048292472986,-0.671984249411011,0.9373761161392516,0.7726314714367688,-0.0666709161677332,0.5265639385593324,11.186487648637922,-1.091881758410197,0.1357564450102877,-1.0324611906134589
1.9,0.6601468050192412,0.0836254379546561,2.0101260872465434,0.0260843572622429,0.1883518658158477,0.0250457593159171,-0.5098128973903119,0.0705241400121341,-0.6065237741054008,0.6660328465379374,0.0816203340178029,2.0184476308128856,-0.6101008899048851,0.0565936105310944,-0.6712475720437708,1.0261260607097638,0.8997528579273051,-0.1128271538097226,0.4802598468356289,11.07638908912395,-1.0918310060275778,0.1329125136282844,-1.0386226218553527
1.92,0.65015185405607,0.0850053383222307,1.99808556275751,0.0286903673821087,0.1910592124668448,0.0249716637669492,-0.4906741451998589,0.0675749159165761,-0.598039080286462,0.6538308287398397,0.0827522062284248,2.00502267937201,-0.6144372149840878,0.0542823918148903,-0.6705108946765307,1.0570948247136158,0.9569376095226456,-0.1474612047778996,0.4242346909469396,10.953455492757712,-1.0938782873496624,0.1303984387396872,-1.04233232855387
1.94,0.6405487575553304,0.0863197387738929,1.986212249896882,0.0308993085946012,0.1918563263942483,0.0248204540783507,-0.4708065791072971,0.0640528663376511,-0.5896887352498911,0.641628810941742,0.0838840784390467,1.9915977279311348,-0.6187735400632904,0.0519711730986861,-0.6697742173092904,1.091848521898189,0.9933783046280924,-0.1761024789462495,0.4175172518285475,10.953455492757712,-1.0974813355644475,0.1283310807026751,-1.0436303934755822
1.96,0.6317971589852585,0.0874982812997246,1.9750895812292075,0.0326138970015877,0.1906516189968314,0.0245899185992795,-0.4515628958061585,0.0602409615842704,-0.5815121458020603,0.6293183850166642,0.0849581701817635,1.9781911934244405,-0.623109865142493,0.0496599543824819,-0.6690375399420503,1.062669492177298,0.9621841650569284,-0.1905952376690341,0.4088294723915364,10.959031925022828,-1.103091533387108,0.126499572083593,-1.0428419468633146
1.98,0.6229798196952521,0.088656550219345,1.9635529551934152,0.0339993965996123,0.1870011410557818,0.0242374479258299,-0.4313315344960035,0.055794832320842,-0.5725357662137655,0.6168995509646064,0.0859744814565752,1.964803075851927,-0.6274461902216957,0.0473487356662778,-0.66830086257481,1.1287730467218722,1.0115680655077537,-0.2223064631714212,0.4488189794147446,10.97744777504522,-1.1111778293575847,0.1250617870982992,-1.0392567726010802
2.0,0.6145557742774804,0.0897190860590161,1.9522017871447372,0.034811205414862,0.1807490300852681,0.0237530237714928,-0.4126623049052286,0.050730940702244,-0.5629468320137102,0.6014132429704518,0.0914462918353871,1.934926166882727,-0.4696130758137048,0.036680906103882,-0.5550702362503913,1.0795031159414947,0.9334614795387414,-0.2531945809299,0.4794467100027622,11.014928012313248,-1.1229649416462797,0.1243085812637823,-1.0314707115281454
2.02,0.6065012350007584,0.0907075297149275,1.9410979463511029,0.035964060709216,0.1720118076812343,0.0232019252467809,-0.3943901877213697,0.0479821529378894,-0.5478336483898978,0.6014132429704518,0.0914462918353871,1.934926166882727,-0.4696130758137048,0.036680906103882,-0.5550702362503913,1.1935602412543025,0.913605859192948,-0.1374393882177298,0.755659181190621,11.014928012313248,-1.1344518433314623,0.1230091900848381,-1.0226778048330645
2.04,0.5991519772142037,0.0915811997908507,1.9308360482557136,0.0377346378211752,0.1617558297151011,0.0226412869682171,-0.3806358403143217,0.0439415230163922,-0.5330714867022255,0.6014132429704518,0.0914462918353871,1.934926166882727,-0.4696130758137048,0.036680906103882,-0.5550702362503913,1.028870959412847,0.6877173703523976,-0.2020314960748576,0.7381080843836152,11.343339247942822,-1.150448208742644,0.1211935300060598,-1.0106833184174937
2.06,0.5916552034167817,0.0924022112464749,1.9203403197918096,0.0396785046450335,0.1498407705239347,0.0219922995162274,-0.3702474211211573,0.0383276155948324,-0.5172297151798756,0.5967171122123148,0.091813100896426,1.929375464520223,-0.477269384077245,0.03285812086049,-0.5515771302577165,0.9879232445350794,0.5194209596582205,-0.2806953710779918,0.7920885761174945,11.319303254905208,-1.1655408751494862,0.1191563748885344,-0.9983371311669296
2.08,0.5843223270945997,0.0931005565334554,1.9101629365363555,0.0413642813419281,0.1376071448639874,0.021290544748294,-0.3639619150307643,0.0318371372387223,-0.501256038324492,0.5873248506960407,0.0925467190185036,1.918274059795215,-0.4925820006043256,0.025212550373706,-0.5445909182723668,0.9175950201255988,0.3142753045196483,-0.3245239178055026,0.7986838427691823,11.309492646792933,-1.1786103535944037,0.1173435283518415,-0.9866134155069136
2.1,0.5774350773459673,0.0936370594671249,1.9007904718778477,0.0425843526893682,0.1263387229721553,0.0205964050415877,-0.3615882581915483,0.0250086200932284,-0.4860928529351653,0.5779325891797666,0.0932803371405812,1.9071726550702075,-0.5078946171314062,0.0175669798869221,-0.5376047062870172,0.8399182763039377,0.1186828419608015,-0.3414258572746978,0.7581592694663325,11.29485298540294,-1.1905786956023454,0.1157069370797291,-0.9749755282152583
2.12,0.5701992859803674,0.0940559284156482,1.8912353373900164,0.0433059491695069,0.1153625425145554,0.0198560938393941,-0.3623768745955274,0.0172617867628549,-0.4702136963640702,0.5677746968371385,0.0936316767383197,1.8964205609444669,-0.5232072336584866,0.0099214094001381,-0.5306184943016675,0.8842835460000418,-0.0394308201989546,-0.3873416665186722,0.793957828554756,11.278174399577438,-1.2001774112794217,0.1144936827312541,-0.964585875413564
2.14,0.5629158504952662,0.0943143096083021,1.881996709320364,0.0432479395668675,0.1056834794785694,0.019119662796323,-0.3661040567289775,0.0090228473786669,-0.4544416581445578,0.5576168044945105,0.0939830163360581,1.8856684668187265,-0.5385198501855673,0.0022758389133541,-0.5236322823163179,0.909023099857742,-0.186359106672504,-0.411946969209399,0.788601910975617,11.250963383767155,-1.20727106313558,0.1138916698652185,-0.9558236449830332
2.16,0.5555286023947109,0.0944031968704674,1.8730710415460152,0.0421484463969101,0.0976829102527115,0.0183968223539017,-0.3724695134189194,0.0004346693279572,-0.4389061220929389,0.5470760967387053,0.094143216671627,1.87509102799262,-0.5538324667126477,-0.0053697315734298,-0.5166460703309682,0.9429060418638882,-0.3182728344970964,-0.4294089025354884,0.7767768025809446,11.250963383767155,-1.2118394177712035,0.114124069051701,-0.9493448730245924
2.18,0.5483700121693907,0.0943297050466976,1.8648761339741429,0.0399883863620796,0.091997336471535,0.0177349611609934,-0.3808118395585775,-0.0075642357566879,-0.4244889931649026,0.5361525735697231,0.0941122777450262,1.864688244466147,-0.5691450832397283,-0.0130153020602138,-0.5096598583456186,0.9238918964105132,-0.4171163069829037,-0.399945254232257,0.7208564464018158,11.236294446645845,-1.2145590614363058,0.1153805643106721,-0.945025012027199
2.2,0.5406412595527805,0.0941051839572789,1.856542163085552,0.0368534740675599,0.0886361808353664,0.0171097902980771,-0.3917174306921897,-0.0141848139383376,-0.4096856492801523,0.5293294201914619,0.0939514932588632,1.8436516843158977,-0.4096575129855632,-0.0265923610874937,-0.3932011479407605,0.977116886051807,-0.5452795566806112,-0.3310289090824865,0.7401671942375149,11.220793983754447,-1.2141789293620595,0.1173888878183066,-0.9446732034345664
2.22,0.532646883747262,0.093769360999376,1.8485270883705152,0.0337156993555286,0.0897079218838509,0.0166662000671864,-0.4065878094458828,-0.0190362517859679,-0.3924499176238944,0.5293294201914619,0.0939514932588632,1.8436516843158977,-0.4096575129855632,-0.0265923610874937,-0.3932011479407605,1.1637601333546346,-0.7435189376846563,-0.2425718923815144,0.8617865828128957,11.403899034326969,-1.2085587607723662,0.119254442757574,-0.9497431778585924
2.24,0.5243919390824966,0.0933475157555042,1.8408536018685853,0.0309513883834406,0.0953350842551007,0.0164070084687497,-0.4175149817818551,-0.0229270511666991,-0.3758006693292905,0.5293294201914619,0.0939514932588632,1.8436516843158977,-0.4096575129855632,-0.0265923610874937,-0.3932011479407605,1.0145674988098443,-0.5463586167986145,-0.1945399690365603,0.8324624147301923,11.403899034326969,-1.196354601978696,0.1208338200435817,-0.9635277593277858
2.26,0.5163904856533429,0.09288150021454,1.833861298614208,0.0287056698827579,0.1030480470234059,0.0162564353014277,-0.4237823967119452,-0.0259694140062097,-0.361091632903274,0.5252328450616063,0.0936855696479883,1.83971967283649,-0.4154266476709604,-0.0303979861536548,-0.3869435788959321,0.8137754821433125,-0.3133707465045016,-0.1521181419755279,0.7354518213008282,11.322486302681682,-1.18361749802748,0.1222941809056551,-0.9790824622357248
2.28,0.5078829453385734,0.0923341742865521,1.826792784737757,0.0267352808639537,0.1121591930606594,0.0161474088661769,-0.4262783350790116,-0.0286262156947421,-0.3466042395806182,0.5170396948018949,0.0931537224262384,1.8318556498776748,-0.4269649170417547,-0.0380092362859771,-0.3744284408062753,0.7469485739154255,-0.1247969183533204,-0.1328400844266233,0.7243696661327903,11.24537334499928,-1.1715760300514195,0.1235942793171948,-0.9945634983542628
2.3000000000000003,0.4993661054049756,0.0917394627396235,1.8200016611708163,0.0251811813608247,0.1210870999870406,0.0160581339293548,-0.425089066113415,-0.0307626405610645,-0.3332683121526718,0.5088465445421837,0.0926218752044885,1.82399162691886,-0.438503186412549,-0.0456204864182994,-0.3619133027166185,0.6779115581058933,0.0594634482798256,-0.1068212433161205,0.6667963713973185,11.191587265490853,-1.161372024083692,0.1246923433674272,-1.0086578444861565
2.32,0.4909059062664169,0.0911076890406567,1.8134676308584328,0.0241030082614652,0.1289826380067417,0.0159759386873774,-0.4209214467810497,-0.0323494916595476,-0.3208330593011519,0.5000764808139327,0.0917094654761225,1.8167533608645272,-0.4500414557833432,-0.0532317365506217,-0.3493981646269616,0.660535125465511,0.2083809666182684,-0.0793425549241524,0.6217626425759931,11.140859006478422,-1.1537243903604233,0.1254441543577537,-1.02024099851781
2.34,0.4829684432820931,0.0904827612157911,1.8074853931682315,0.0236537547802693,0.1350266198964341,0.0159072368234068,-0.4148445024491132,-0.0334106283081429,-0.3095176170872912,0.4913064170856817,0.0907970557477565,1.809515094810195,-0.4615797251541376,-0.0608429866829441,-0.3368830265373048,0.6443882678472421,0.3038472165968225,-0.0530568324297632,0.5657721106930358,11.107285266341933,-1.1481304760711286,0.1257630371072051,-1.0301130046573077
2.36,0.4747512606380374,0.0898037799992338,1.8014184530709236,0.0238587943654495,0.1396560935601505,0.0158497702733823,-0.4072173100466585,-0.0344709431633811,-0.2977853774091191,0.4822478966231609,0.0896943647660825,1.802589707208104,-0.4731179945249318,-0.0684542368152664,-0.3243678884476479,0.7016832964421673,0.3813596201227343,-0.0530157427619113,0.5866119839086081,11.095812250854578,-1.1450695330032836,0.1254851470809853,-1.0375152336227835
2.38,0.4666960069352879,0.0891021383991807,1.7955849241851678,0.0247496352161069,0.1424940275483518,0.0158077395588196,-0.3988343102987646,-0.0357017777685711,-0.2861594798132082,0.4729009194263702,0.0884013925311004,1.7959771980582544,-0.4846562638957261,-0.0760654869475887,-0.3118527503579911,0.7192898120874678,0.4191499873946985,-0.0615417302595018,0.5812948797955436,11.101593167427382,-1.144194274981618,0.1245819936220353,-1.0427875907950304
2.4,0.4588104108021492,0.0883710433922746,1.7899842296134552,0.0262347428347036,0.1436847313931635,0.0157756790971784,-0.3903136210862652,-0.037401317364056,-0.274490039099143,0.4467542914203497,0.0873170495107521,1.7812769501945074,-0.3989240510504832,-0.0412517986085901,-0.2760847292929193,0.7274380146646607,0.4260344606249661,-0.0849769797742466,0.5834720357032586,11.11688197705189,-1.1450341875334826,0.1232023902989553,-1.046385123315304
2.42,0.4514139060914621,0.0875830444436013,1.7848185460726165,0.0262375799675613,0.1451093261676919,0.0156626233400066,-0.388334790333824,-0.0447252249208696,-0.2698585918707749,0.4467542914203497,0.0873170495107521,1.7812769501945074,-0.3989240510504832,-0.0412517986085901,-0.2760847292929193,0.4444257431695328,0.0989415376220603,-0.3661953778406785,0.2315723614184056,11.11688197705189,-1.1514445384180518,0.1233748583784579,-1.0439357486101053
2.44,0.444070037523418,0.0866729144979935,1.7797371476208614,0.0238374966054598,0.1479272640039693,0.0154249325049362,-0.3846065492100297,-0.0503959848954776,-0.2652584713080802,0.4467542914203497,0.0873170495107521,1.7812769501945074,-0.3989240510504832,-0.0412517986085901,-0.2760847292929193,0.409934170807016,0.1864120561897192,-0.2835379987303994,0.2300060281347354,10.716767688657455,-1.1471155883834752,0.1254714751779387,-1.048362790198251
2.46,0.4364369161201909,0.085631158970535,1.7744856444924166,0.0199136127805472,0.1515315931765302,0.0150951188944194,-0.3787482095951263,-0.0531276514583571,-0.2601290333781662,0.4427650509098449,0.0869045315246662,1.778516102901578,-0.3989419992008269,-0.0423618027765939,-0.2740697791888615,0.4125932583402827,0.292916980745167,-0.1365833281439739,0.2564718964957024,10.716767688657455,-1.1435667188086724,0.1291071197426134,-1.0534400749273545
2.48,0.4289396282956173,0.0845636074312674,1.769338404724163,0.0159324146034902,0.1551370288406939,0.0147620272019201,-0.3711794022206214,-0.0534483537749175,-0.2548570278214233,0.4347865698888352,0.0860794955524944,1.77299440831572,-0.3989778955015144,-0.0445818111126015,-0.2700398789807459,0.4614751825356774,0.3784403687252441,-0.0160351158280218,0.2636002778371449,10.749079018085467,-1.1411518342897429,0.1329125551298823,-1.0581121494857533
2.5,0.4216092826314702,0.0835059052619534,1.7642978482674985,0.0124669041913286,0.1582480665957348,0.0144597324610435,-0.3622370011471114,-0.0524007038143895,-0.2494736872116496,0.4268080888678255,0.0852544595803226,1.7674727137298614,-0.3990137918022018,-0.0468018194486091,-0.2660099787726303,0.5245103991346252,0.447120053675501,0.0523824980264018,0.2691670304886817,10.763265803968352,-1.1401016065473342,0.1361490445106851,-1.0619538886028594
2.52,0.4148206132322177,0.0825288990684813,1.7596102900877724,0.0097985100666246,0.1604769251404112,0.0142128746891212,-0.3528553976210239,-0.050621207692896,-0.2442268802926138,0.4188278130317815,0.0843184231913504,1.7621525141544088,-0.3990496881028893,-0.0490218277846167,-0.2619800785645148,0.5447707637455184,0.4690801763043761,0.0889748060746722,0.2623403459517906,10.763265803968352,-1.1403922767414605,0.1389926738222004,-1.0651154529022713
2.54,0.4078718005309852,0.0815414540046905,1.7547833936781725,0.0076362588502163,0.1619392712693312,0.0139990184426887,-0.3425669457155664,-0.0483045795937337,-0.2387394150958219,0.4108475371957374,0.0833823868023783,1.7568323145789562,-0.3990855844035768,-0.0512418361206243,-0.2579501783563991,0.5944141709421592,0.5144225952728732,0.1158314049581176,0.2743732598395929,10.779089626533278,-1.1421593112111146,0.1412434364141499,-1.0672637139032717
2.56,0.4011310863182105,0.080605173800583,1.7500664556013696,0.0061278896888471,0.162464987129964,0.0138356177416268,-0.3321335538832063,-0.0455479909253534,-0.2332226155820882,0.4028663639521763,0.0823908502050059,1.7516128625087064,-0.3991214807042642,-0.0534618444566319,-0.2539202781482836,0.6059899402814658,0.5216695916180042,0.1378294334190139,0.2758399756866883,10.781515507586846,-1.145089256733764,0.1428899744413841,-1.0685394749635608
2.58,0.3945973195519869,0.079728812912695,1.7454610852804169,0.005341031919396,0.1621238591327265,0.0137299870510045,-0.321886292130184,-0.0423167787108614,-0.2275816632823234,0.3948842933010978,0.0813438133992333,1.7464941579436597,-0.3991573770049517,-0.0556818527926395,-0.249890377940168,0.6067690018826324,0.5123630876511159,0.1615606107246019,0.28204761498824,10.786317488868008,-1.148698878047843,0.1438218862007718,-1.0691527610510945
2.6,0.3885770171774084,0.0789595958690334,1.7411920926902758,0.0054117958877723,0.1610778113910719,0.0136936587455806,-0.3124263237255352,-0.0389137351660189,-0.222061068643681,0.3785030049454777,0.0776129739771519,1.7340820021163006,-0.3133397991140006,-0.0457342519972517,-0.2002894061074739,0.5734733488778168,0.4729984202324427,0.1701521772421211,0.2760297319321189,10.794574709495464,-1.1530800476655931,0.1439750226240152,-1.0693272642926717
2.62,0.3824115956492653,0.0782118230950594,1.73681712360395,0.0062142333816785,0.1598373411825776,0.0137143655116728,-0.3047100219676406,-0.0360683606269994,-0.2157029563623807,0.3785030049454777,0.0776129739771519,1.7340820021163006,-0.3133397991140006,-0.0457342519972517,-0.2002894061074739,0.5197669210035628,0.385815087894728,0.1422687269509795,0.3179056140650158,10.803751817702503,-1.158589284416742,0.1434319723942645,-1.0681086713573238
2.64,0.3763986252117531,0.0775205704549466,1.732577816449208,0.0076617605827468,0.1590611138213031,0.0137900004811252,-0.2969421931211827,-0.0332700176727641,-0.20851245884879,0.3785030049454777,0.0776129739771519,1.7340820021163006,-0.3133397991140006,-0.0457342519972517,-0.2002894061074739,0.5474329702583127,0.3883914423228968,0.1399171477117617,0.359524875679533,10.885219047952887,-1.1609620637466629,0.1422389357955919,-1.0695802614020795
