t,x,y,z,roll,pitch,yaw,v_x,v_y,v_z,ref_x,ref_y,ref_z,ref_v_x,ref_v_y,ref_v_z,a_com,a_x,a_y,a_z,thrust,wind_x,wind_y,wind_z
0.0,0.8370008235779025,2.484253813324335,2.8605941755898203,0.0127076645048819,0.149864105950337,0.0280989938503358,0.0008290618947218,0.0021458073538855,-0.0029164425822023,0.837031820011494,2.484215081405275,2.860503846285648,-0.0990425355505524,-0.1004047172647575,-0.1029139127205528,0.1857247301825473,0.0414530947360914,0.1072903676942781,-0.1458221291101156,10.658720320675457,-1.4134890484149605,0.1802018331524832,-1.278533145891378
0.02,0.8371315787157931,2.4845513412984914,2.860307029215716,0.0210992641412717,0.1449937501841486,0.0286048819828641,0.0118167649050518,0.0234292716346808,-0.0269390257143445,0.837031820011494,2.484215081405275,2.860503846285648,-0.0990425355505524,-0.1004047172647575,-0.1029139127205528,1.69617213865205,0.5493851505164985,1.0641732140397624,-1.2011291566071134,10.658495064292763,-1.409244825111925,0.1695787307903684,-1.2733982357479223
0.04,0.837443752335275,2.4850578198354336,2.859448066776223,0.0359848523725177,0.1309532521691729,0.029199225464945,0.0175850768840334,0.0253757592834066,-0.0577096654000517,0.837031820011494,2.484215081405275,2.860503846285648,-0.0990425355505524,-0.1004047172647575,-0.1029139127205528,1.5683546345781654,0.2884155989490811,0.0973243824362901,-1.5385319842853604,9.234981942422564,-1.4256187689377775,0.1521852051484324,-1.2477792372825112
0.06,0.8377682580436672,2.4855218104330863,2.857978655309972,0.0512073883525673,0.1114212030305738,0.0293068197416431,0.0136407628391117,0.0205458132757161,-0.0875460732861554,0.8360413946559885,2.4832110342326272,2.8594747071584417,-0.1190425358485756,-0.1204047175627807,-0.122913913018576,1.5240548114061707,-0.1972157022460834,-0.241497300384524,-1.4918203943051822,8.931403293618132,-1.4483813805957864,0.1358595850501278,-1.211603735512862
0.08,0.8379154523838612,2.485836575028577,2.8560458320430357,0.0650887075790777,0.0912833266368449,0.0289465104031538,0.0015684419915878,0.0125400265414939,-0.1143847031001872,0.8340605439449774,2.481202939887332,2.8574164289040307,-0.1590425364446221,-0.1604047181588272,-0.1629139136146225,1.5249144256105396,-0.603616042376197,-0.4002893367111111,-1.3419314907015922,8.942038219131064,-1.4736466953547045,0.1199960912814133,-1.170166143359319
0.1,0.8377476031522559,2.4859729333976963,2.853469305990713,0.0789967222013525,0.0709589714151053,0.02822324507273,-0.0181469405778413,0.0012013126955865,-0.141830397899659,0.8320796932339664,2.479194845542037,2.85535815064962,-0.1990425370406686,-0.2004047187548736,-0.2029139142106689,1.7822239649971574,-0.9857691284714593,-0.5669356922953701,-1.372284739973588,8.98843162451567,-1.4965417558365912,0.1054587826846342,-1.1309008441027562
0.12,0.837120780945866,2.4858533002440244,2.850352185300889,0.0922185318806342,0.0533047526082457,0.0273444898883789,-0.0435430715196412,-0.0128821896872731,-0.168532457370218,0.828098842493153,2.47518675116694,2.8512998723654066,-0.239042537636715,-0.2404047193509201,-0.2429139148067154,1.972503793500999,-1.2698065470899953,-0.7041751191429846,-1.3351029735279518,9.067696617021284,-1.5155999125674895,0.0928154868121792,-1.0983013787361038
0.14,0.8360181214535618,2.48545527555604,2.8468922134072248,0.1041826671463339,0.0398830166426489,0.0265355715154685,-0.0711184826502412,-0.0285437390712629,-0.1943578583106986,0.8241179917523397,2.4711786567918423,2.847241594081193,-0.2790425382327615,-0.2804047199469666,-0.2829139154027619,2.044895328534778,-1.37877055653,-0.7830774691994876,-1.291270047024029,9.055173497827129,-1.526296531439102,0.080068532940033,-1.0703047836205433
0.16,0.8342659293281394,2.484691377586469,2.842714826229169,0.1161808104233451,0.0296894355909538,0.025862506136155,-0.1026015468077232,-0.0472787922714498,-0.2220476474548924,0.8191371409966252,2.466170562401844,2.8421833157820786,-0.3190425388288079,-0.320404720543013,-0.3229139159988083,2.2961434896407678,-1.5741532078740974,-0.9367526600093474,-1.3844894572096893,9.055173497827129,-1.5330522689246897,0.0684522599519052,-1.0468357325860187
0.18,0.8318596038546328,2.4835292840304466,2.837982053183126,0.1275964028230198,0.0240006518742991,0.0255421278962334,-0.1364999996076108,-0.0682382700396295,-0.2498556904579111,0.8131562902260094,2.460162467996944,2.836125037468063,-0.3590425394248543,-0.3604047211390594,-0.3629139165948547,2.4298621700616883,-1.694922639994379,-1.0479738884089818,-1.3904021501509336,9.04515948653443,-1.534861534330672,0.0577685806626295,-1.029281180048119
0.2,0.828761439498313,2.4819196662293206,2.832693065563587,0.1382663634569761,0.0234439468743899,0.025761711501838,-0.1709191124243752,-0.0917635622125618,-0.2776085508886077,0.8250346038742522,2.480117370528465,2.82548926866023,-0.2365000010977269,-0.1682382715297456,-0.3498556919480272,2.504164511868537,-1.7209556408382218,-1.1762646086466162,-1.3876430215348317,9.073105815575673,-1.5297975992549089,0.0480791132781397,-1.0219270217928758
0.22,0.8251680966418773,2.479768268483028,2.8272920757900373,0.1429468432890043,0.0282213313849845,0.0263167100699343,-0.204761755872515,-0.1305563807874061,-0.2890501752238492,0.8250346038742522,2.480117370528465,2.82548926866023,-0.2365000010977269,-0.1682382715297456,-0.3498556919480272,2.636815340504285,-1.692132172406989,-1.9396409287422145,-0.5720812167620715,9.073105815575673,-1.5180613884645473,0.0440718622679397,-1.0126139639687315
0.24,0.8207474456236609,2.4768027369584,2.821383242669487,0.1420140614687,0.038106803401812,0.0271845120543324,-0.2348561159085437,-0.1634663086555402,-0.3012940724887805,0.8250346038742522,2.480117370528465,2.82548926866023,-0.2365000010977269,-0.1682382715297456,-0.3498556919480272,2.3122753288147275,-1.5047180018014332,-1.6454963934067062,-0.6121948632465651,10.111966353545997,-1.5028821952216191,0.0442244467772543,-1.023963226431441
0.26,0.8157808620823874,2.473221315932596,2.8152019742315577,0.1379095922810717,0.050530787448492,0.0281555497682728,-0.2597630455541269,-0.1921841320030183,-0.3162256774235211,0.8226696038632749,2.478434987813168,2.8219907117407503,-0.2565000013957501,-0.1882382718277688,-0.3698556922460504,2.0420708533950025,-1.2453464822791596,-1.435891167373904,-0.7465802467370303,9.909617463654286,-1.4868022541760002,0.047551370204303,-1.0381689118932298
0.28,0.8103684352738193,2.4691177333429546,2.8086914219822323,0.1327273292708387,0.0637275125550796,0.0290920441980794,-0.2798503745516456,-0.2164740228869419,-0.3340320205355963,0.8179396038413205,2.475070222382573,2.8149935979017897,-0.2965000019917966,-0.2282382724238153,-0.4098556928420969,1.81008662805984,-1.0043664498759346,-1.214494544196179,-0.8903171556037592,9.69738457459698,-1.4705467525372002,0.051683118774174,-1.0527594088516925
0.3,0.804894791993943,2.4647979436574907,2.8021507555314806,0.127881173763866,0.0758183884894021,0.0298611922390785,-0.295112296791267,-0.2369938221448995,-0.3535726123763963,0.8132096038193659,2.471705456951978,2.807996484062829,-0.3365000025878431,-0.2682382730198617,-0.4498556934381433,1.6092103354781424,-0.7630961119810709,-1.0259899628978788,-0.9770295920400046,9.511796434213466,-1.454073333938097,0.0560658095876417,-1.067141273034227
0.32,0.7988536014406569,2.459850452599466,2.794838688008473,0.1233290119176621,0.0872720856595216,0.0304848642549415,-0.3080156157714016,-0.2566894655925215,-0.3767474726744133,0.8064796037676091,2.4663406914915806,2.7989993701940663,-0.3765000031838895,-0.3082382736159081,-0.4898556940341897,1.6518838952477566,-0.6451659490067319,-0.984782172381099,-1.1587430149008482,9.350628306107865,-1.438867342685054,0.0600116178556524,-1.078841959044568
0.34,0.7925819943938095,2.454521766168108,2.787044697281621,0.11948695203276,0.0969313187339831,0.0308883306143213,-0.318403863103173,-0.2752454764739925,-0.4015678054166359,0.7997496037158522,2.460975926031184,2.7900022563253035,-0.416500003779936,-0.3482382742119547,-0.5298556946302363,1.6342354021789314,-0.5194123665885675,-0.927800544073551,-1.2410166371111309,9.20442955674298,-1.425552618312082,0.0633703681916488,-1.0868174000475617
0.36,0.7861188659823424,2.44882248642404,2.778740280129064,0.1160692408427166,0.1046987926392003,0.0310604588024647,-0.327387928980994,-0.2936815119670793,-0.4276206682893328,0.7920196036491942,2.4546111605558854,2.7800051424416394,-0.4565000043759824,-0.3882382748080011,-0.5698556952262827,1.6578242580736149,-0.4492032938910539,-0.9218017746543404,-1.3026431436348431,9.075131009878532,-1.4149505233425892,0.0662424885674136,-1.0909425728146682
0.38,0.7798211989748355,2.443071001360827,2.770359849386726,0.112939313299738,0.1105368870399647,0.0310290817558781,-0.3350859267915933,-0.3107197577813865,-0.4532110042694723,0.783289603567635,2.4472463950656858,2.769008028543074,-0.4965000049720288,-0.4282382754040475,-0.6098556958223291,1.5846342529880308,-0.3848998905299633,-0.851912290715362,-1.2795167990069771,9.075131009878532,-1.4056115202360375,0.0691477018091148,-1.0924973521830696
0.4,0.7730395936708749,2.43667528248593,2.7610036255216546,0.1097331678792874,0.1153051127109634,0.0308277699434278,-0.3426626392683106,-0.3278709609441666,-0.4810995367976038,0.7630669026352558,2.4275350134717577,2.7476992991732523,-0.4350859282817094,-0.4107197592715026,-0.5532110057595885,1.680283152074708,-0.3788356238358659,-0.8575601581390035,-1.3944266264065723,9.029719019811637,-1.397568703062305,0.0718258072679912,-1.0929899442476922
0.42,0.7661449795069446,2.42992782768089,2.751325717134118,0.1069448912060897,0.1187370078931741,0.0304955345125677,-0.3464838834938356,-0.3461486233458938,-0.4853080662272476,0.7630669026352558,2.4275350134717577,2.7476992991732523,-0.4350859282817094,-0.4107197592715026,-0.5532110057595885,0.9570613489515696,-0.1910622112762494,-0.9138831200863616,-0.210426471482189,10.317174164872084,-1.3913398144633184,0.0740021324631176,-1.091174300248866
0.44,0.7595315987847576,2.4231941377913286,2.742029770567122,0.1050765395317013,0.1206026477540578,0.0300781953127618,-0.3496168102635589,-0.3619995729839139,-0.4930848014781334,0.7630669026352558,2.4275350134717577,2.7476992991732523,-0.4350859282817094,-0.4107197592715026,-0.5532110057595885,0.8965844156211193,-0.1566463384861632,-0.7925474819010014,-0.3888367625442895,10.317174164872084,-1.3888002100228145,0.0753605540233156,-1.0914418618632118
0.46,0.7525009152530473,2.4157822389158468,2.732037533513524,0.1038827168250415,0.1210331607629899,0.0295283584525158,-0.3533828666203597,-0.3783742565736665,-0.5059276707952407,0.7587160433524387,2.4234278158790428,2.7421671891156563,-0.4550859285797327,-0.4307197595695258,-0.5732110060576117,1.05741753276959,-0.1883028178400414,-0.8187341794876318,-0.642143465855366,10.003625234601714,-1.3869993151964477,0.0758274092232697,-1.0894767577624649
0.48,0.7453897171795981,2.4080475323982378,2.7217479197304444,0.1033562502461157,0.1199236158944098,0.0288632374412646,-0.3576293124999194,-0.3942925567250432,-0.5225226137958826,0.7500143247868045,2.4152134206936124,2.7311029690004647,-0.4950859291757791,-0.4707197601655723,-0.6132110066536581,1.1692056229679006,-0.2123222939779873,-0.7959150075688343,-0.8297471500320952,9.73771388890782,-1.3858482344418428,0.075544823375478,-1.0851958113130984
0.5,0.7381879892127248,2.399998942158241,2.7110934521329986,0.1035071789651681,0.117207044407543,0.0280767688266181,-0.3624483286088151,-0.4098337833966076,-0.5420594194749857,0.7413126062211703,2.4069990255081826,2.7200387488852726,-0.5350859297718256,-0.5107197607616187,-0.6532110072497046,1.2712586468317286,-0.2409508054447839,-0.7770613335782189,-0.9768402839551548,9.537485359348466,-1.385848313687839,0.0746277687128656,-1.0787260085628023
0.52,0.7312490113327295,2.392066366331797,2.7005904030476224,0.1043079240358633,0.1131158506602958,0.0272139755889463,-0.3678891580323989,-0.4244671263725542,-0.5625223114723683,0.7306108876257338,2.39678463029295,2.7069745287402784,-0.575085930367872,-0.5507197613576652,-0.6932110078457511,1.2869220065380478,-0.2720414711791907,-0.7316671487973297,-1.0231445998691302,9.386032167292797,-1.3869982814094393,0.0729855707137851,-1.0690657065637068
0.54,0.7238146229429002,2.383415550520218,2.689107223510113,0.1059131468889501,0.1075215632891661,0.0262137853243529,-0.3755461807248237,-0.439933902623833,-0.5847303429877859,0.7199091690302973,2.386570235077718,2.693910308595284,-0.6150859309639185,-0.5907197619537117,-0.7332110084417975,1.4062786245168586,-0.3828511346212371,-0.7733388125639395,-1.1104015757708807,9.272790869700655,-1.3894427426776463,0.0706270772314479,-1.0570885847790956
0.56,0.7161995159743179,2.374438500221541,2.67717727721692,0.1079476823089718,0.1014425944076557,0.0251751814298238,-0.3857670758744357,-0.4570724932841382,-0.6071428748748912,0.7082074504199596,2.375355839847584,2.679846088435389,-0.6550859315599649,-0.630719762549758,-0.7732110090378439,1.5004329150876536,-0.5110447574805999,-0.8569295330152632,-1.1206265943552618,9.22759835663146,-1.3921291637856792,0.0678632939902943,-1.0445245376747383
0.58,0.7083568492267172,2.365101352661504,2.664797090299981,0.1096139138229002,0.0956734841855982,0.0241276924543782,-0.3980997880496195,-0.4756774689160421,-0.6297344496553777,0.6955057317947207,2.3631414446025496,2.664781868260593,-0.6950859321560113,-0.6707197631458045,-0.8132110096338904,1.58793904080256,-0.6166356087591918,-0.9302487815951944,-1.1295787390243284,9.217751379310355,-1.394231236182141,0.0655461365617367,-1.033361822560954
0.6,0.7006589407990813,2.3558757724974337,2.6526143195278813,0.1103667187693717,0.0910339336542268,0.0231578753265084,-0.4116580777833659,-0.4943381323460429,-0.6515004194303631,0.6884518598242362,2.341317479215701,2.633310367817212,-0.4980997895397356,-0.5756774704061582,-0.7297344511454938,1.585721460721869,-0.6779144866873199,-0.9330331715000416,-1.0882984887492675,9.207628474331614,-1.39538498709888,0.0639365703100481,-1.0226570725031725
0.62,0.6922313183207394,2.345728088810863,2.639570977125306,0.1092259955335258,0.089227796866726,0.0223420472438032,-0.4303587630736269,-0.5192699343949668,-0.6504362776144712,0.6884518598242362,2.341317479215701,2.633310367817212,-0.4980997895397356,-0.5756774704061582,-0.7297344511454938,1.559200741996071,-0.9350342645130516,-1.2465901024461934,0.0532070907945936,9.191837613293046,-1.3950839638078785,0.064803082741418,-1.0099892343200032
0.64,0.6834420704821996,2.335101114415832,2.626550136703904,0.1058256899796999,0.0920233728455154,0.0218752028394851,-0.4470511753088095,-0.5416426906380426,-0.651775968213729,0.6884518598242362,2.341317479215701,2.633310367817212,-0.4980997895397356,-0.5756774704061582,-0.7297344511454938,1.39729347225547,-0.8346206117591293,-1.1186378121537888,-0.0669845299628879,10.71630411296701,-1.3916998009764494,0.0668545127497323,-1.0141963512205907
0.66,0.6748119281676616,2.324624418468248,2.614101897321078,0.101704226347387,0.0972088870649816,0.0216309708627976,-0.460204719028015,-0.559780472783931,-0.6584615011292153,0.6834708619288388,2.33556070451164,2.6260130233057573,-0.5180997898377588,-0.5956774707041814,-0.749734451443517,1.1690714305687302,-0.6576771859602731,-0.9068891072944174,-0.3342766457743173,10.357834863742028,-1.3844256059994369,0.0699197815110952,-1.0217024809574142
0.68,0.6654865736308605,2.313251850342366,2.600812097894578,0.0972995914406467,0.1039661839723316,0.0214846289101259,-0.4713588785665196,-0.5763983392124564,-0.6703891724388863,0.6735088661380441,2.324047155103517,2.611418334282847,-0.5580997904338053,-0.6356774713002279,-0.7897344520395635,1.1649443146758935,-0.5577079769252286,-0.8308933214262737,-0.5963835654835492,10.007389875826448,-1.3750940056175955,0.0731334225572587,-1.0302771417851742
0.7000000000000001,0.6559630332421591,2.301565609783549,2.5872323731557603,0.0931840205878741,0.1110485330096435,0.0213701212641819,-0.4802367689024529,-0.5913643134565392,-0.6869696318826987,0.6635468703472494,2.3125336056953936,2.5968236452599376,-0.5980997910298518,-0.6756774718962744,-0.82973445263561,1.2017788453572826,-0.4438945167966668,-0.7482987122041374,-0.8290229721906184,9.715986067730228,-1.3652575006035683,0.0760019700240817,-1.0379332074302858
0.72,0.646282780964035,2.289594312209025,2.573283234256745,0.0894816678081862,0.1177871045128158,0.0212346584868584,-0.4872208283977079,-0.6050363402123923,-0.7071165823104262,0.6515848745266524,2.299020056257468,2.5802289562072254,-0.6380997916258982,-0.7156774724923208,-0.8697344532316564,1.2664922168960755,-0.3492029747627495,-0.6836013377926553,-1.0073475213863758,9.480761546575197,-1.35478632896413,0.0787092866715138,-1.044652307996116
0.74,0.6369735156409995,2.277978042095524,2.5596396523126344,0.0864170978958311,0.1234660753693615,0.0210608540552779,-0.4923058847644432,-0.6171054538790898,-0.728047609334134,0.6396228787060553,2.2855065068195426,2.563634267154513,-0.6780997922219447,-0.7556774730883673,-0.9097344538277028,1.2345335102982502,-0.2542528183367643,-0.6034556833348748,-1.046551351185393,9.29559033091391,-1.3452387911951496,0.0809907875893171,-1.0504158010702136
0.76,0.627078966940748,2.265502722963382,2.5448329656911843,0.0834615938236421,0.1285564073305559,0.0208124830576532,-0.4968225840877867,-0.6297058568667421,-0.7515812065293911,0.6266608828705571,2.270992957366716,2.5460395780869,-0.7180997928179911,-0.7956774736844137,-0.9497344544237494,1.3536994913729372,-0.2258349661671765,-0.6300201493826152,-1.1766798597628525,9.203276016813106,-1.3362397264536765,0.0829770251906051,-1.0551971127124895
0.78,0.6171014535679165,2.252778793650219,2.5295413915941283,0.0805201632588126,0.1328104190910622,0.0204910881615072,-0.5006698184443498,-0.6419166524255967,-0.7763836458802129,0.6126988870201577,2.255479407898988,2.527444889004385,-0.7580997934140375,-0.8356774742804601,-0.9897344550197958,1.3955874552725618,-0.1923617178281517,-0.6105397779427313,-1.2401219675410913,9.127675017063666,-1.328398504531655,0.0848662812346235,-1.058518359433268
0.8,0.6075565252508597,2.240470495391929,2.514544692833214,0.0776693837099159,0.1361673610107673,0.0201253603081108,-0.503847691998757,-0.6529561943189485,-0.800963359608484,0.5920679626456989,2.220682961028939,2.4907222093001176,-0.6006698199344659,-0.7419166539157128,-0.876383647370329,1.356588268881375,-0.158893677720362,-0.5519770946675884,-1.2289856864135529,9.069215286246616,-1.321123151064946,0.0869450625415192,-1.0608927202075715
0.8200000000000001,0.5974699190846234,2.227279979896013,2.498510262690934,0.0747828214883969,0.1395540500128987,0.019737215874985,-0.5043500566704928,-0.665571636371095,-0.7998426683498397,0.5920679626456989,2.220682961028939,2.4907222093001176,-0.6006698199344659,-0.7419166539157128,-0.876383647370329,0.6337540874260216,-0.0251182335867905,-0.6307721026073243,0.0560345629322112,9.01423710623476,-1.3151673746721353,0.0895850176539315,-1.049679609233469
0.84,0.5873927783447567,2.2138547252917533,2.482494760909685,0.0724755007503354,0.1428643870221158,0.0193859124326709,-0.5033266545450944,-0.6765236286819526,-0.8019375768295026,0.5920679626456989,2.220682961028939,2.4907222093001176,-0.6006698199344659,-0.7419166539157128,-0.876383647370329,0.5598708088155656,0.051170106269921,-0.547599615542882,-0.1047454239831435,10.644293319336612,-1.311833383859513,0.0910338571156783,-1.0555002939290374
0.86,0.5778443967118447,2.200900998095157,2.467182558007814,0.0708206091130186,0.1453122228462606,0.0190430086988673,-0.5018664928531422,-0.6865449534835872,-0.8097560249095787,0.5860612644463543,2.213263794489782,2.4819583728264143,-0.6206698202324891,-0.761916654213736,-0.8963836476683522,0.6397014016854796,0.0730080845976088,-0.5010662400817323,-0.3909224040038017,10.26986339173709,-1.30841439341051,0.0920306756245542,-1.059765636204908
0.88,0.5678246100157813,2.1870672901448125,2.450856229186909,0.0695671266109173,0.1468443854851593,0.0186485193818591,-0.5002723665973536,-0.6963062587509729,-0.8226639455746163,0.5740478680476649,2.198425461411468,2.464430699879008,-0.6606698208285355,-0.8019166548097825,-0.9363836482643988,0.8130786169513233,0.0797063127894293,-0.4880652633692806,-0.6453960332518827,9.935372938633918,-1.3056712040551135,0.0925561211367175,-1.0618396547645073
0.9,0.557835024699093,2.1730456544109247,2.434230924108481,0.0689629160682782,0.1471608626429818,0.0182227035122576,-0.4988479841132465,-0.705397419964808,-0.8393574088784704,0.5620344716489757,2.1835871283331536,2.446903026931601,-0.700669821424582,-0.8419166554058289,-0.9763836488604452,0.9530868202242856,0.0712191242053572,-0.4545580606917565,-0.8346731651927064,9.673448021308104,-1.303576527220758,0.0924335588292256,-1.0619130353845052
0.92,0.547872914237844,2.1588486700824,2.4172384252179318,0.0691914820890104,0.1460815712874329,0.0177663534786206,-0.4975266354862461,-0.7139510256843762,-0.8590311305468474,0.548021075220484,2.166748795225037,2.427375353954392,-0.7406698220206285,-0.8819166560018754,-1.0163836494564915,1.074669085445227,0.066067431350017,-0.4276802859784101,-0.98368608341885,9.475842220764209,-1.3024020152169982,0.0915441609119813,-1.0601845925971891
0.94,0.5384340959974928,2.1452052225079368,2.4007219989229007,0.0703333664398973,0.1435151121727337,0.0172946661582686,-0.4962029868672324,-0.7218975743492168,-0.8785382343942857,0.5340076787919924,2.1499104621169205,2.4078476809771834,-0.780669822616675,-0.921916656597922,-1.056383650052538,1.0552568192909686,0.0661824309506869,-0.3973274332420284,-0.9753551923719128,9.327383571750032,-1.3025277692836124,0.0896883284560658,-1.0554646854553709
0.96,0.5285185954659536,2.130669911479803,2.3829311331756484,0.0723399251986258,0.1390517257059722,0.0167277091916938,-0.4956296142954609,-0.7312726518955208,-0.8995159050191681,0.5189942823485996,2.132072128993902,2.3873200079850734,-0.8206698232127213,-0.9619166571939683,-1.0963836506485845,1.149220931709097,0.0286686285885739,-0.4687538773152033,-1.0488835312441214,9.282193864002693,-1.3045753876315715,0.0870685845285432,-1.0478026764977302
0.98,0.5185936895939195,2.1159306233210917,2.364720058128893,0.0746059714567773,0.1332072572504216,0.0160695215494584,-0.4971744455344253,-0.7422659051894267,-0.9205162926113232,0.5029808858903057,2.1132337958559835,2.365792334978062,-0.8606698238087678,-1.0019166577900147,-1.1363836512446308,1.1877019834133449,-0.0772415619482186,-0.549662664695294,-1.0500193796077584,9.252581450238722,-1.3079139639461104,0.0842392995038946,-1.037675805638837
1.0,0.5086139325061636,2.100957301240636,2.3460891204038368,0.0764797284680612,0.1267442785142435,0.0153271194295093,-0.5009383430630671,-0.7543823696083727,-0.9414848376887304,0.4937349673171982,2.07881732806162,2.318694243498326,-0.5808503739482933,-0.8422659066795428,-1.0205162941014394,1.2254137232838471,-0.1881948764320878,-0.6058232209472991,-1.0484272538703543,9.245555772304217,-1.3113731394503203,0.0819216433267519,-1.0267767830071042
1.02,0.4989773245164826,2.086452074222222,2.3282680798768736,0.0767792186495945,0.1237496845104289,0.0147572765469167,-0.5129167582966078,-0.7713740301418454,-0.9333435652871718,0.4937349673171982,2.07881732806162,2.318694243498326,-0.5808503739482933,-0.8422659066795428,-1.0205162941014394,1.1163324723265384,-0.5989207616770353,-0.8495830266736337,0.4070636200779298,9.238170028925197,-1.3152519656008064,0.0820494170765497,-1.000189182965124
1.04,0.4886067277740253,2.070857248592861,2.309652416549933,0.0752790701089503,0.1266050514382628,0.0144994778481653,-0.5228481143109983,-0.787073672014585,-0.9290403902027938,0.4937349673171982,2.07881732806162,2.318694243498326,-0.5808503739482933,-0.8422659066795428,-1.0205162941014394,0.9534514972242456,-0.4965678007195273,-0.7849820936369822,0.215158754218897,11.037264446906192,-1.311563647453125,0.0827130395605413,-1.00662277043381
1.06,0.4780796527815456,2.0549604400006203,2.2910428187897782,0.0723699280597512,0.1330243639988416,0.0144126413977657,-0.5288849871845211,-0.8014159662670473,-0.9320888789516156,0.4879264635777153,2.0703946689948247,2.308489080557312,-0.5975855596310669,-0.862265906977566,-1.0405162943994626,0.7928406557546426,-0.3018436436761418,-0.7171147126231125,-0.1524244374410899,10.59475390163152,-1.3046350854663809,0.0846138423438164,-1.0167518213137268
1.08,0.467996299422832,2.03961997387862,2.273250134335977,0.0689558633826252,0.1407252644298608,0.0143902972275598,-0.5318982871923499,-0.8124762561663655,-0.9406653245102448,0.4763094560987495,2.0535493508612337,2.288078754675284,-0.6310559309966141,-0.9022659075736124,-1.0805162949955092,0.7158306503885434,-0.1506650003914367,-0.5530144949659144,-0.4288222779314621,10.178406738837111,-1.2952052154761764,0.0873541839435024,-1.0285271297164127
1.1,0.4573497015908846,2.0232666973127458,2.2542948513272774,0.0654226824515139,0.1493437748312371,0.0143895206789934,-0.5323505115348293,-0.8222079630043798,-0.9546475868555402,0.4646924486197836,2.0367040327276427,2.2676684287932547,-0.6645263023621613,-0.9422659081696588,-1.1205162955915555,0.8520772927523182,-0.0226112171239689,-0.4865853419007138,-0.6991131172647658,9.8441102637089,-1.2836458896561955,0.0900528808994167,-1.0400358394360671
1.12,0.4467188425819141,2.006732147656129,2.2350134863024382,0.0622275987439799,0.1576088287860287,0.0143732647997913,-0.5305472879314188,-0.8307445930544329,-0.9729721632122558,0.4514019225725403,2.017858714564249,2.245258102881424,-0.6979966737277085,-0.9822659087657054,-1.160516296187602,1.014785404196949,0.0901611801705226,-0.4268315025026559,-0.9162288178357793,9.571446282496254,-1.2725511208894251,0.092368851266481,-1.0499540760323565
1.14,0.4361462885386369,1.990037170191954,2.2153370361371576,0.0594817534309306,0.1649139872775636,0.0143176511268104,-0.5267343239658168,-0.838395176524601,-0.9937581659501604,0.4381113965252971,1.9990133964008563,2.2228477769695925,-0.7314670450932557,-1.022265909361752,-1.2005162967836485,1.1237526768123554,0.1906481982801022,-0.3825291735084057,-1.039300136895238,9.357216729328684,-1.2616799787694737,0.0944604222346204,-1.0579807978543263
1.16,0.4261854854860673,1.9740330830999684,2.196244795359472,0.0570561173474978,0.1707437203859184,0.0142063736759594,-0.5219392898474245,-0.8457613335423064,-1.0149094306752058,0.4239841111939152,1.979168078222562,2.1994374510428605,-0.7649374164588028,-1.0622659099577982,-1.2405162973796948,1.1452386442080305,0.2397517059196108,-0.3683078508852688,-1.0575632362522625,9.255663975051904,-1.2520175176498305,0.0963844037790617,-1.0638420849039265
1.18,0.4158079314855693,1.957040271039364,2.1756995633133536,0.0545008656266827,0.1757013112995026,0.0140201262741415,-0.5160443174237231,-0.8530340439364763,-1.038558864538036,0.4090200665783946,1.9583227600293664,2.1750271251012268,-0.79840778782435,-1.1022659105538446,-1.2805162979757412,1.2717495217082286,0.2947486211850703,-0.3636355197084939,-1.182471693141507,9.191061672346224,-1.2435936310243143,0.098326703354569,-1.0680556357473108
1.2,0.4055560957545033,1.9399066786399168,2.154667979500362,0.0518888529763198,0.1794496339954339,0.0137655688079,-0.5094716566093184,-0.8598335114756239,-1.0633998071768054,0.3900057156143832,1.91438856884254,2.123771620086452,-0.556467163055561,-0.9530340454265924,-1.109083661381565,1.329008145366093,0.3286330407202387,-0.3399733769573809,-1.242047131938473,9.1216743524883,-1.2363531908274017,0.1003369470039297,-1.0703815943057022
1.22,0.3954667399046807,1.9226169491105147,2.1335302585177955,0.0490265230588587,0.1835032279760526,0.0135118279920462,-0.4993856529939847,-0.8685150558151059,-1.0491577470767597,0.3900057156143832,1.91438856884254,2.123771620086452,-0.556467163055561,-0.9530340454265924,-1.109083661381565,0.9745934497782084,0.5043001807666841,-0.4340772169740992,0.7121030050022958,9.068193072936992,-1.235962943173413,0.1032096269443323,-1.054272329162505
1.24,0.3860829883181664,1.9060496790619617,2.113688188059642,0.0463424448243377,0.1884593829407962,0.0133283837499456,-0.4886676043167827,-0.87497987477007,-1.040329377789499,0.3900057156143832,1.91438856884254,2.123771620086452,-0.556467163055561,-0.9530340454265924,-1.109083661381565,0.7658501090937699,0.5359024338600971,-0.3232409477482045,0.4414184643630192,11.383135742585182,-1.2323041355022468,0.1056936857839485,-1.0642999007217169
1.26,0.3764344415132807,1.888491104168163,2.0929210667850846,0.0439243343866267,0.1941957409465047,0.0131872262483453,-0.4765870001103578,-0.880572121059109,-1.0371395965465906,0.3844410439838275,1.9048582283882745,2.112680783472636,-0.5645517321819286,-0.9730340457246156,-1.1231886207502704,0.6844503651236747,0.6040302103212464,-0.2796123144519491,0.1594890621454237,10.93841702996724,-1.2272230927813532,0.1077956331810797,-1.074041496181823
1.28,0.3670348732754402,1.8708290071280371,2.0721606500919947,0.0420267736901236,0.2000931544205229,0.0130901882286111,-0.4638282105922052,-0.8854188320865993,-1.0392901061360036,0.3733117007227163,1.8857975474797424,2.090499110245005,-0.5807208704346637,-1.0130340463206622,-1.151398539487682,0.6908364662615079,0.6379394759076312,-0.2423355513745173,-0.1075254794706492,10.577016956067382,-1.2211219649513585,0.1093929698213454,-1.0830743938308387
1.3,0.3578967948158404,1.8530783203854309,2.0513081232784467,0.0407317582306256,0.2059395757288477,0.0130362421290926,-0.450444857510809,-0.889498156546642,-1.045864631367505,0.3621823574616051,1.8667368665712103,2.0683174370173734,-0.5968900086873988,-1.0530340469167083,-1.1796084582250934,0.772947944190405,0.6691676540698105,-0.2039662230021333,-0.3287262615750741,10.290858021630813,-1.2149084144148827,0.1103713003343432,-1.0909226736451498
1.32,0.349471645500888,1.836147141245211,2.0313453160340376,0.0402601009707205,0.2112918970713916,0.013035750230963,-0.4369619385084323,-0.8926347299455679,-1.05517296937375,0.3502445572878572,1.8456761856328765,2.044725267852872,-0.613059146940134,-1.093034047512755,-1.2078183769625048,0.8340748676677672,0.6741459501188318,-0.1568286699462961,-0.4654169003122432,10.072007950076111,-1.2081330297077966,0.1106197172861896,-1.098324750943377
1.34,0.340901048090155,1.8182668643393451,2.0101276886237223,0.0408753258505094,0.2162600065822063,0.0130962875473613,-0.4207392610187409,-0.8953385151448701,-1.0661512968192546,0.3383067571141092,1.824615504694542,2.0211330986883698,-0.6292282851928691,-1.1330340481088017,-1.2360282956999165,0.9886978720003732,0.8111338744845709,-0.1351892599651072,-0.5489163722752322,9.907797692010718,-1.2015709549421878,0.1097153300123359,-1.1041681392436922
1.36,0.3326721415693948,1.8003247170414511,1.988684132813436,0.042603863316876,0.2199670891303409,0.013196223866807,-0.4029807519254135,-0.8988162228809911,-1.0776667339463355,0.3259647284840428,1.8025548237413067,1.996835681555433,-0.6453974234456042,-1.1730340487048478,-1.264238214437328,1.0724555801330722,0.887925454666369,-0.1738853868060497,-0.575771856354057,9.864085685006104,-1.196576720060614,0.1078135718684574,-1.108031860991706
1.38,0.3248108670914438,1.7823031923162989,1.967007307573126,0.0450911212501546,0.222064943373598,0.0132922333981125,-0.3841990907097246,-0.9033601385197232,-1.0894284882757626,0.3132184713976581,1.7794941427731703,1.97183301645406,-0.6615665616983394,-1.2130340493008942,-1.2924481331747395,1.1310800505033003,0.9390830607844486,-0.227195781936601,-0.5880877164713416,9.853970852186649,-1.1930517629980195,0.1050453486655266,-1.109816594436701
1.4,0.3176973142387251,1.7650818667021884,1.9461951772944173,0.0475614362038365,0.2223864987361762,0.0133216086265388,-0.3656657398455306,-0.9091957147087611,-1.1007131658701963,0.3056009125559576,1.7371351853903128,1.912535883159338,-0.4163338024521257,-1.003360140009839,-1.0742371623579223,1.1234800756173966,0.9266675432097,-0.2917788094519036,-0.5642338797216984,9.852639588089914,-1.19145706904363,0.1021236387944337,-1.1088938982855934
1.42,0.3106743795559896,1.7467502401936694,1.9244679489544727,0.0480630048668517,0.2211166789640024,0.0131318207400344,-0.3373146957505032,-0.9232063853511644,-1.0691849166473033,0.3056009125559576,1.7371351853903128,1.912535883159338,-0.4163338024521257,-1.003360140009839,-1.0742371623579223,2.2327735510956748,1.4175522047513682,-0.7005335321201678,1.5764124611446606,9.854809432436014,-1.194232791364319,0.1017137592054129,-1.0849658131336883
1.44,0.3042383851982315,1.7281497916164428,1.9034269965956183,0.045289848804517,0.2181015185298929,0.0126416005821085,-0.3079612115469686,-0.9356506671476568,-1.036663761949803,0.3056009125559576,1.7371351853903128,1.912535883159338,-0.4163338024521257,-1.003360140009839,-1.0742371623579223,2.277121366537373,1.4676742101767282,-0.6222140898246131,1.6260577348750194,12.885099312517925,-1.2015497104699138,0.1042626790224603,-1.0833389025836035
1.46,0.298389588803543,1.709344289247584,1.8829874782462197,0.0407400255801269,0.2121513556209781,0.0119290573966638,-0.279010131024311,-0.9438525021101948,-1.008777812531646,0.3014375745314364,1.7271015839902144,1.9017935115357587,-0.4227607448006059,-1.0233601403078625,-1.0711988971743545,2.0512565265795764,1.44755402613288,-0.4100917481269062,1.394297470907846,12.589602479249152,-1.2127225256081493,0.1087361570680887,-1.0773262290985928
1.48,0.2933406779883996,1.69135911938122,1.864051354170792,0.0363026952805955,0.20344986280975,0.0111725348318895,-0.2545567900125517,-0.9488810477457796,-0.9857701068568012,0.2931108984823938,1.7070343811900175,1.8803087682886004,-0.4356146294975663,-1.0633601409039088,-1.0651223668072185,1.6975030767769097,1.2226670505879669,-0.2514272817792429,1.1503852837422337,12.245957539815208,-1.227369015963247,0.113350472080841,-1.068069018597168
1.5,0.2884839790106341,1.672343617271296,1.8445660066857112,0.0321498656746983,0.1916222075304902,0.0103844186666468,-0.2330661989240147,-0.9524361296215064,-0.9640070745794244,0.2847842224333513,1.6869671783898208,1.8588240250414416,-0.4484685141945268,-1.1033601414999552,-1.0590458364400823,1.5395727381192317,1.0745295544268507,-0.1777540937863364,1.0881516138688485,11.74344522530555,-1.2444065270945217,0.1174147221924366,-1.055099475280752
1.52,0.2840084360577136,1.6532700291804034,1.8254903127965896,0.0287810082477139,0.1776643653915886,0.0096548657701903,-0.2162795672713667,-0.9548964502586228,-0.9445280137856196,0.2758148521494608,1.6648999755598215,1.83764310831264,-0.4613223988914873,-1.1433601420960016,-1.0529693060729466,1.2915862236876112,0.8393315826323979,-0.1230160318558104,0.9739530396902452,11.559937033644928,-1.2620164426954972,0.1205346607072011,-1.0399948811750734
1.54,0.2800220533750657,1.635111882154861,1.8077303718553703,0.026351259418443,0.1631005655114682,0.0090390655933961,-0.2047572394070217,-0.956545431433826,-0.9258306574791956,0.2668454818655703,1.6428327727298226,1.8164621915838384,-0.4741762835884477,-1.183360142692048,-1.0468927757058106,1.101220131466683,0.5761163932172477,-0.0824490587601589,0.9348678153211888,11.533776878794924,-1.281404515991189,0.1230266653702735,-1.0206831068913895
1.56,0.2760101570975384,1.6159605823833634,1.789424563617206,0.0243553674844036,0.1471711469730998,0.0084684266777179,-0.1976109744881698,-0.9585151176800288,-0.90567013707818,0.2575547644642557,1.6197655698849225,1.7954331881142152,-0.4870301682854082,-1.2233601432880945,-1.0408162453386745,1.07400576003886,0.3573132459425962,-0.0984843123101486,1.0080260200507785,11.533776878794924,-1.3009095798044703,0.1249561882621287,-1.0000735340353395
1.58,0.2720878024602732,1.5967705477590133,1.771523022605763,0.0226580409393659,0.1313953925095647,0.0079706971431872,-0.1954743966633839,-0.9603770280702626,-0.8854642133930678,0.2479426999455171,1.5956983670251208,1.7745560979037704,-0.4998840529823686,-1.2633601438841409,-1.0347397149715385,1.0201850654062847,0.1068288912392953,-0.0930955195116878,1.0102961842556155,11.493679011625318,-1.3197365387490705,0.1266051680082884,-0.9794716322994784
1.6,0.2681567194893861,1.5775464839345004,1.754021868903615,0.0211729937953069,0.1164597288894899,0.0075496809292891,-0.1981017121032589,-0.9619138966439909,-0.8656248730416074,0.262314082627104,1.5487516963555,1.7272498119361095,-0.2517155401582284,-1.0603770295603787,-0.8551819488177056,1.0035738351195242,-0.1313657719937508,-0.0768434286864128,0.99196701757302,11.448959321270197,-1.336150577513973,0.127978490540095,-0.9608963270982416
1.62,0.264312915736952,1.5592226642185412,1.7378860126189128,0.0189081938290671,0.1046354570480623,0.0071794238884474,-0.2062781160258857,-0.9660897895670348,-0.8338619524418956,0.262314082627104,1.5487516963555,1.7272498119361095,-0.2517155401582284,-1.0603770295603787,-0.8551819488177056,1.6531596927053571,-0.4088201961313403,-0.2087946461521939,1.5881460299855876,11.448959321270197,-1.3507535496900611,0.1300653452210726,-0.9359415528993724
1.64,0.2600808852657574,1.5398917158668144,1.721541740299399,0.0160589881160109,0.0955040940654019,0.0068698146279217,-0.2165993056259754,-0.966788906243104,-0.8024170380949636,0.262314082627104,1.5487516963555,1.7272498119361095,-0.2517155401582284,-1.0603770295603787,-0.8551819488177056,1.6551422576123571,-0.5160594800044827,-0.0349558338034683,1.5722457173466042,12.396656899272784,-1.363083475831791,0.1327506381522153,-0.9259913044637124
1.66,0.2556213511203528,1.5205658732324772,1.7057919156532877,0.0138304792818789,0.0892864427865226,0.0066905775916943,-0.2289632968761981,-0.9659107629219378,-0.7742773245521609,0.2597969272255217,1.5381479260598965,1.7186979924479324,-0.2629637688571973,-1.080377029858402,-0.8491254959026332,1.5374352779865907,-0.6181995625111333,0.0439071660583156,1.4069856771401323,12.172648459852098,-1.372598529352162,0.1349305741566863,-0.9192236788591122
1.68,0.2508948182444604,1.501268611981261,1.6905752429861811,0.0126035598053449,0.0860501436419096,0.0066484776974613,-0.2430706111578756,-0.963985380133238,-0.7489089582659907,0.2547626164223571,1.5169403854686887,1.7015943534715785,-0.285460226255135,-1.1203770304544485,-0.8370125900724883,1.4545423877927588,-0.7053657140838789,0.0962691394349901,1.2684183143085117,11.952888231954605,-1.378879382382268,0.1362920371269628,-0.917060994979043
1.7,0.2458857664869966,1.4820214698799363,1.6758403472777497,0.0128594707255095,0.085607565952485,0.0067606213717281,-0.2568235659832311,-0.961091956049236,-0.7258484958567428,0.2497283056191925,1.4957328448774811,1.684490714495224,-0.3079566836530728,-1.1603770310504948,-0.8248996842423434,1.3502783008388357,-0.6876477412677731,0.144671204200103,1.153023120462393,11.777746743394346,-1.3818614922984882,0.1364686374334214,-0.9199279325720404
1.72,0.2408844545347963,1.4637954282074024,1.6622539582748737,0.0148820544307313,0.0869736103898961,0.0070246995319745,-0.2687387686106529,-0.9578758819562264,-0.7054571828811617,0.2435691719461311,1.4725253042564712,1.6679927208103773,-0.3304531410510106,-1.2003770316465412,-0.8127867784121985,1.1917642710414138,-0.595760131371087,0.1608037046504695,1.0195656487790583,11.630205120060054,-1.3830484245947106,0.1351247261569881,-0.9252922188363556
1.74,0.2353911773843551,1.4446623564108867,1.648366253142754,0.0188666688233332,0.0895626341661695,0.0074619604987618,-0.2797811269020384,-0.9562513140574402,-0.6844182036596405,0.2374100382730696,1.4493177636354613,1.6514947271255305,-0.3529495984489484,-1.2403770322425878,-0.8006738725820536,1.190810169775917,-0.5521179145692778,0.0812283949393144,1.0519489610760602,11.52741768447686,-1.3824290428087889,0.1321476913020872,-0.9325093891851572
1.76,0.2296898804599061,1.425523760819113,1.6348956806721853,0.0234319137850134,0.092837945207488,0.0079696429214092,-0.2896389909502816,-0.9578367550023976,-0.6637131604305623,0.2306884931650597,1.4251102229995505,1.6352995560864372,-0.3754460558468862,-1.280377032838634,-0.7885609667519088,1.149336680113349,-0.4928932024121618,-0.0792720472478691,1.035252161453909,11.490380462108078,-1.3812889687422478,0.1286558993299225,-0.9393560270928248
1.78,0.2238040828223573,1.4063317834311877,1.6218358488204103,0.0277113195244682,0.0965124257992983,0.0084855254283875,-0.2982944423869853,-0.96126969162254,-0.6433178740546227,0.2234045366221014,1.399902682348738,1.6194072076930974,-0.3979425132448239,-1.3203770334346805,-0.7764480609217639,1.121014718645161,-0.4327725718351827,-0.1716468310071162,1.0197643187969785,11.47980722599732,-1.3798357084638793,0.1255303510837832,-0.9457969093231638
1.8,0.2180636853960112,1.388023352620083,1.609802783929592,0.0312262688513882,0.1001400910338219,0.0089577884793521,-0.3054143755145764,-0.9656754641204356,-0.6243492554611787,0.208889360703008,1.3582682988500605,1.5896699551176794,-0.3008578665625905,-1.061269693112656,-0.5922233830198765,1.036716897696921,-0.3559966563795536,-0.2202886248947766,0.9484309296722004,11.47980722599732,-1.3781469908993702,0.1226996590518475,-0.9524609955481264
1.82,0.2118436735981445,1.3685699109619105,1.597633771374654,0.0317311270566418,0.1056781448492134,0.0093012007392938,-0.3157643542717693,-0.9785794786373232,-0.5929397176584962,0.208889360703008,1.3582682988500605,1.5896699551176794,-0.3008578665625905,-1.061269693112656,-0.5922233830198765,1.77496106711143,-0.5174989378596451,-0.6452007258443915,1.570476890134126,11.461115007778062,-1.374081157752404,0.1225761266807784,-0.954737563980311
1.84,0.2054537353134336,1.348900430419958,1.5860997062049569,0.0281770424764834,0.1138409295640249,0.0094397592515833,-0.3222187398204499,-0.986956965943828,-0.5621049445561239,0.208889360703008,1.3582682988500605,1.5896699551176794,-0.3008578665625905,-1.061269693112656,-0.5922233830198765,1.629896176644732,-0.3227192774340331,-0.4188743653252391,1.541738655118613,12.187308594973729,-1.3701649226050414,0.125869703468244,-0.9682754233772164
1.86,0.1992972230375699,1.3301145397166074,1.5756868451757202,0.0236904829005649,0.1226788016042919,0.009499567496257,-0.3251763445088332,-0.9899757509425192,-0.5355623090559468,0.2058807820373821,1.347655601918934,1.5837477212874806,-0.3013705513977115,-1.0812696934106791,-0.5820044848129273,1.3438489383635457,-0.1478802344191621,-0.1509392499345618,1.3271317750088552,12.187308594973729,-1.364096092032586,0.130453900817543,-0.9868601248381328
1.88,0.1927858568257805,1.310310580628185,1.5652463198499365,0.0194661836004947,0.1323376498693749,0.0095742831087436,-0.3254788575706687,-0.9903573161234264,-0.5100327256124197,0.1998636247061303,1.3264302080566808,1.571903253627083,-0.3023959210679536,-1.1212696940067255,-0.5615666883990288,1.2767113386939442,-0.0151256530917742,-0.0190782590453519,1.2764791721763535,11.991761907142063,-1.3572862462146302,0.134716866283328,-1.0055351082214703
1.9,0.1862946251295882,1.2905168817646635,1.55528958243395,0.0163605006979115,0.1419262860135236,0.0097005624713536,-0.3233301670715877,-0.9893020654490974,-0.4869670600444338,0.1938464673748785,1.3052048141944277,1.5600587859666857,-0.3034212907381957,-1.161269694602772,-0.5411288919851304,1.159477633398638,0.1074345249540476,0.0527625337164494,1.1532832783992946,11.84906561389198,-1.3500435834058089,0.1380474868833162,-1.0235308171731872
1.92,0.1801897357604484,1.2717388456114571,1.5462425192305702,0.014504453834918,0.1507476315498383,0.0098788531054607,-0.3191738846560515,-0.9875654757122584,-0.4666088286947161,0.1877780415601146,1.2819794203023722,1.5492362081269828,-0.3044466604084377,-1.2012696951988184,-0.5206910955712319,1.0425305884246527,0.2078141207768086,0.086829486841955,1.0179115674858878,11.724035430665936,-1.3426112680082196,0.1402165121298739,-1.039460974667663
1.94,0.1738818306546676,1.252016707727849,1.5371295070461604,0.0139303953537314,0.1592639180056138,0.0101490031195263,-0.3116440289411993,-0.9848958260795782,-0.4458122665501859,0.1817096157453507,1.2587540264103168,1.5384136302872802,-0.3054720300786798,-1.241269695794865,-0.5002532991573334,1.1139151148977513,0.3764927857426131,0.1334824816340063,1.0398281072265092,11.64414624287383,-1.3352000309717826,0.1412329875757617,-1.0553193718111105
1.96,0.1677532853359902,1.2323450894481156,1.5284271675274392,0.0148283644020459,0.1663556275691621,0.0105104719983804,-0.3015059457579001,-0.98251675337832,-0.4255028546700207,0.1756155556888307,1.2345286325033602,1.528101997357925,-0.3064973997489219,-1.2812696963909114,-0.479815502743435,1.141175850239086,0.5069041591649615,0.1189536350629072,1.015470594008258,11.64106117427582,-1.329180656681818,0.1408602942409094,-1.0694414516706818
1.98,0.1618501797973751,1.212716262982884,1.5201298669164969,0.0170610661367828,0.1715988443317298,0.0109522423638001,-0.2894030191736704,-0.9806388938856354,-0.4052652480066301,0.1694958613905547,1.2093032385815023,1.5183013093389175,-0.3075227694191639,-1.3212696969869575,-0.4593777063295365,1.1827593918879191,0.6051463292114839,0.0938929746342298,1.011880333169532,11.64106117427582,-1.3249907953844535,0.1392767507674551,-1.0804798641093978
2.0,0.1564787884088767,1.1940879575710122,1.5126243413834104,0.0200448849214511,0.1747249499900535,0.0114136288305711,-0.276754934998134,-0.9806099368563604,-0.385814452539505,0.1473800288386915,1.1636843182886023,1.499866604516165,-0.2522085622685438,-1.0806388953757515,-0.3529468538225175,1.1600736141781405,0.6324042087768211,0.0014478514637539,0.972539773356254,11.664176265686365,-1.322269932405857,0.1366519768923627,-1.089561819692106
2.02,0.1510384782586981,1.1743977397792895,1.505109645465072,0.0212635481907971,0.1776229303269771,0.0117672302602168,-0.2678646330035886,-0.9877489427396464,-0.3667612202366004,0.1473800288386915,1.1636843182886023,1.499866604516165,-0.2522085622685438,-1.0806388953757515,-0.3529468538225175,1.1102122947259412,0.4445150997272662,-0.3569502941643043,0.9526616151452284,11.70076999279172,-1.3209652710820878,0.1359116040955126,-1.0952203881107758
2.04,0.1457917594711966,1.1545995231771746,1.4979786102262305,0.01989192301814,0.1812889245999095,0.0119601829151139,-0.2570540577545226,-0.9915731779981272,-0.3472733006529298,0.1473800288386915,1.1636843182886023,1.499866604516165,-0.2522085622685438,-1.0806388953757515,-0.3529468538225175,1.1305665860836542,0.540528762453299,-0.1912117629240428,0.9743959791835316,11.614912385031856,-1.3184114381602552,0.1377324246635642,-1.102153360575577
2.06,0.1407820752675877,1.134748177846905,1.4912389204330327,0.0174734379150831,0.18490786312045,0.0120795299129844,-0.2443617054735429,-0.993269113481454,-0.3276838873319663,0.1448579432160061,1.1528779293348448,1.4963371359779398,-0.2447696708875185,-1.1006388956737747,-0.342483174985695,1.170167848908482,0.6346176140489864,-0.0847967741663402,0.9794706660481768,11.66178729897092,-1.3164082787811595,0.1404931656080251,-1.1085578079704017
2.08,0.1362727718293103,1.1158832983659936,1.485198432717208,0.0152471607612102,0.187803931790721,0.0121886329692924,-0.2309522577461493,-0.9925692128361868,-0.3091542030679442,0.1398137719706352,1.1312651514273298,1.4892781989014896,-0.2298918881254678,-1.1406388962698213,-0.32155581731205,1.1441725702350296,0.670472386369679,0.0349950322633574,0.9264842132011036,11.675063280244103,-1.3152881907141318,0.1434166222993434,-1.1150134050892069
2.1,0.1318108685786624,1.0960552714970262,1.4792213740051106,0.0137897859892533,0.1900009380681085,0.0123551368640562,-0.2159586750601461,-0.9904301716245258,-0.2895282187774087,0.1347696007252644,1.1096523735198147,1.4822192618250392,-0.2150141053634172,-1.1806388968658676,-0.300628459638405,1.239518332296407,0.749679134300163,0.1069520605830542,0.9812992145267736,11.680450403046052,-1.3151984037119842,0.1454638896958117,-1.1206092361186415
2.12,0.1276554667957177,1.0762806180217028,1.4736384087781589,0.0137515832164898,0.1911752526901644,0.0126114171072081,-0.2003923813432152,-0.9873057624230076,-0.2697461571298989,0.130469318617996,1.0860395955824973,1.476206692632271,-0.2001363226013666,-1.220638897461914,-0.27970110196476,1.268267909361198,0.7783146858465414,0.156220460075912,0.9891030823754892,11.701990194885184,-1.3157464579970015,0.1460671214045966,-1.1257218290171087
2.14,0.1238147160560843,1.0565761026766565,1.468455199680025,0.0156593431654718,0.1912498230732002,0.0129918569025376,-0.1846071324505568,-0.9836350665327072,-0.2495615068308339,0.1261690365107277,1.06242681764518,1.470194123439503,-0.1852585398393159,-1.2606388980579606,-0.2587737442911149,1.2942837774400462,0.7892624446329224,0.1835347945150223,1.0092325149532524,11.722682855119274,-1.317366111670372,0.1447955913630282,-1.1294162582488734
2.16,0.1204600109054978,1.0379068111799266,1.4639109711083471,0.0190455490864269,0.1902784820635435,0.0134442423844928,-0.1694138181272634,-0.9822235118565662,-0.2297878006462186,0.1222406989725106,1.0378140396929614,1.464704738188576,-0.1703807570772653,-1.300638898654007,-0.2378463866174699,1.2488281937536698,0.7596657161646688,0.0705777338070479,0.9886853092307664,11.755508258303962,-1.3192364130967649,0.1416540237587972,-1.1318293405507789
2.18,0.1172409548896757,1.0182515408848245,1.459542928897554,0.022971440630374,0.1880293821436187,0.0139113925118377,-0.1533814610755099,-0.9834870753177436,-0.2080041790262506,0.1186843060033448,1.0122012617258418,1.4597385368794902,-0.1555029743152147,-1.3406388992500533,-0.2169190289438249,1.3538456671065455,0.8016178525876757,-0.0631781730588754,1.0891810809983955,11.799435327342508,-1.322747728807938,0.1380917906575086,-1.132849806951037
2.2,0.1143403462264561,0.9985514281646184,1.4556195967572276,0.0265253616708504,0.1843535820817397,0.0143024481309139,-0.1376153153680767,-0.986442526043533,-0.1853715852430058,0.1095718818359002,0.9690771871189372,1.4491427199462417,-0.1396575717097176,-1.08348707680786,-0.1379917660609529,1.3870295065516407,0.7883072853716574,-0.1477725362894644,1.1316296891622433,11.869701743958103,-1.328023874590396,0.1348977144393748,-1.1327167388725703
2.22,0.1118006301428246,0.9786933033426064,1.4521236718814703,0.0265485241825335,0.177316361368734,0.0143439764318803,-0.1181068930792976,-0.9977673952997896,-0.1651939157704945,0.1095718818359002,0.9690771871189372,1.4491427199462417,-0.1396575717097176,-1.08348707680786,-0.1379917660609529,1.5132494417730304,0.9754211144389562,-0.5662434628128377,1.0088834736255616,11.794773413726034,-1.3335494687486449,0.1349564163187628,-1.1279223690068572
2.24,0.1096995420150853,0.9596713328474444,1.4491962587424327,0.0229890494619965,0.1672272100837281,0.0140699499844448,-0.1046383917499983,-1.003391630371926,-0.1438612859317583,0.1095718818359002,0.9690771871189372,1.4491427199462417,-0.1396575717097176,-1.08348707680786,-0.1379917660609529,1.2923947191556109,0.6734250664649638,-0.2812117536068081,1.0666314919368134,11.794773413726034,-1.349295053333684,0.1392813644252031,-1.1155941021009754
2.26,0.1077049624256371,0.9395910153870688,1.4465669105019572,0.018482843904607,0.1550517405772859,0.0137569826968003,-0.0960542190395773,-1.0042983105751122,-0.1201199349519145,0.108175306118803,0.9582423163508584,1.447762802285632,-0.1369127938365592,-1.1034870771058831,-0.1239892834678934,1.2630932630464344,0.4292086355210528,-0.0453340101593147,1.1870675489921878,11.88374676899457,-1.3662032684491303,0.1444043143294758,-1.10131312659908
2.28,0.1058244393469454,0.919521873550483,1.4444175146550446,0.014816705894339,0.1428662649401061,0.0135697170912911,-0.0928059824621595,-1.0027764952678424,-0.0959897231847905,0.1053821546846087,0.9365725748147012,1.445002966964413,-0.1314232380902422,-1.1434870777019297,-0.0959843182817743,1.21976850531009,0.1624118288708891,0.0760907653634901,1.2065105883561993,11.9173477219083,-1.3818686972410037,0.1484760182089445,-1.0877744850509767
2.3000000000000003,0.1039579327561888,0.8994969082657512,1.4427519513718046,0.0125216683988696,0.1319250112065979,0.013544480717573,-0.0941405749872518,-1.000218407822539,-0.0717681867140356,0.1025890032504143,0.914902833278544,1.442243131643194,-0.1259336823439253,-1.183487078297976,-0.0679793530956552,1.2196390629915494,-0.0667296262546163,0.1279043722651751,1.2110768235377454,11.910552346265831,-1.3966495963491543,0.1514493176469692,-1.0756733292795573
2.32,0.10212530682903,0.8805270090246969,1.4416192533847387,0.0117211054685381,0.1234129383075253,0.0136634540846182,-0.0987077667901818,-0.9970099143550284,-0.0486790500858832,0.1000703296035358,0.8912330917125846,1.4408835445812809,-0.1204441265976084,-1.2234870788940224,-0.0399743879095362,1.1877098777998123,-0.2283595901465006,0.1604246733755199,1.1544568314076211,11.903044200198565,-1.4092281251582637,0.1530137496501721,-1.0669586489327187
2.34,0.1000740117114176,0.8606304082112962,1.4409036758134337,0.0127070640483932,0.1169798933920496,0.0139497549702431,-0.1063564623398562,-0.9930316559519676,-0.0240850006171264,0.0975516559566573,0.867563350146625,1.439523957519368,-0.1149545708512915,-1.263487079490069,-0.0119694227234171,1.303069791688832,-0.38243477748372,0.1989129201530493,1.2297024734378394,11.90458269919418,-1.4193432331630575,0.152804664835827,-1.0617046452064918
2.36,0.0978388533756855,0.8408031357796902,1.4406819316744697,0.0156053122292034,0.1140165549568427,0.0144040225377794,-0.1166074274292535,-0.990259362759354,0.000662639124975,0.0951702212034367,0.8428936085657643,1.4388644945871076,-0.1094650151049746,-1.3034870800861154,0.0160355424627019,1.3464894797348903,-0.5125482544698634,0.1386146596306758,1.237381987105075,11.935423027929572,-1.4246011222677537,0.1508423575860652,-1.0615445745828358
2.38,0.0955293483812309,0.8219890058026752,1.4409323443126127,0.0191732353979858,0.1145062584504788,0.0149360430450498,-0.1255935869800548,-0.9904725338913464,0.0244341780279161,0.092926025343874,0.8172238669700025,1.4389051557845003,-0.1039754593586577,-1.3434870806821615,0.044040507648821,1.2707109891887418,-0.449307977540065,-0.0106585565996186,1.1885769451470527,11.948347793791982,-1.4251439783468782,0.1478407700248686,-1.067954181739704
2.4,0.0929370444857432,0.8021585275368166,1.4416881523990617,0.0227490401278104,0.1175084241079436,0.0155329855331726,-0.1328476142838445,-0.992568783298534,0.0498979634686191,0.0892496690322281,0.7724653791081079,1.4421540532140085,-0.0911807186591129,-1.0883764337398074,0.0579423968527795,1.3279867682618498,-0.3627013651894842,-0.1048124703593833,1.273189272035152,11.958829934340429,-1.4230260778501769,0.1449647403651024,-1.078237662769737
2.42,0.0901741695999164,0.7821977509196196,1.4427811395358616,0.0232228492650436,0.1230741820061405,0.015978439879688,-0.1427779903932013,-1.002509768986087,0.0572292038797039,0.0892496690322281,0.7724653791081079,1.4421540532140085,-0.0911807186591129,-1.0883764337398074,0.0579423968527795,0.7924371458963433,-0.4965188054678382,-0.497049284377643,0.366562020554239,11.991703397144192,-1.419687596219372,0.1451513517764707,-1.0869069140283565
2.44,0.0872477509446367,0.762092377411875,1.4439951067048948,0.0200393161533951,0.1309605300185474,0.0162121508628639,-0.1489198113768892,-1.0070878493133124,0.0638781449769313,0.0892496690322281,0.7724653791081079,1.4421540532140085,-0.0911807186591129,-1.0883764337398074,0.0579423968527795,0.5071715740077489,-0.3070910491843992,-0.2289040163612754,0.3324470548613709,10.768501060454582,-1.411000550363544,0.1485176493122446,-1.099617688245163
2.46,0.0843880192112433,0.7429555044367618,1.4452786700381437,0.0163098750686319,0.1393643417637557,0.0163778819463318,-0.1515006301786942,-1.0071198201403118,0.070860076208352,0.088337861845637,0.7615816147707097,1.4427334771825362,-0.0842981449949245,-1.1079572137094995,0.0646440406177522,0.3721861481228712,-0.1290409400902456,-0.0015985413499675,0.3490965615710328,10.835693748203994,-1.4012832600797842,0.1529514857693576,-1.1142271819481926
2.48,0.0813549917758869,0.7228379558378195,1.446777653956496,0.0131702838762657,0.1484569197317427,0.0165832917969062,-0.1513598320305184,-1.004846569587358,0.0786553664793665,0.0865142474724547,0.7398140860959136,1.443892325119592,-0.0705329976665477,-1.147118773648884,0.0780473281476976,0.4060604714953444,0.0070399074087873,0.1136625276476843,0.3897645135507291,10.881739853085492,-1.3913801080995984,0.1566719074004401,-1.1291614115944324
2.5,0.0783574992136748,0.7027800974871792,1.4484366561390458,0.011410056992948,0.1572420577197097,0.0168617867288898,-0.148187119921641,-1.001435490417733,0.0868026499243334,0.0846906330992725,0.7180465574211174,1.4450511730566475,-0.056767850338171,-1.1862803335882686,0.0914506156776429,0.4692541708922207,0.1586356054438686,0.1705539584812565,0.4073641722483416,10.927676853250889,-1.382187550535547,0.1589523368532158,-1.1434678958904716
2.52,0.0754559343964858,0.682798663458827,1.4502635365415548,0.0112806420840242,0.1651064242436242,0.0172371455944671,-0.1420348849133565,-0.99718481007196,0.0954363374723333,0.0835552760925091,0.6943209507493521,1.4468801853702005,-0.0430027030097942,-1.225441893527653,0.1048539032075883,0.5710928989131093,0.3076117504142245,0.2125340172886514,0.4316843773999969,10.969492190478377,-1.373544326809219,0.1597681991572329,-1.1578814441540966
2.54,0.072835604881806,0.6638999490621541,1.4521595646627257,0.0130339618588887,0.1712840700327583,0.0177151612560083,-0.134095588756512,-0.992669668270764,0.1036873598389602,0.0824199190857456,0.6705953440775867,1.4487091976837534,-0.0292375556814174,-1.2646034534670376,0.1182571907375337,0.6154232264173402,0.3969648078422289,0.2257570900597971,0.4125511183313453,11.026099114548742,-1.3666982785524069,0.158486798747127,-1.1706298860053628
2.56,0.0702575943716552,0.6440803501891941,1.4543287341866586,0.0166255960645566,0.1761926562523386,0.0183316484089933,-0.1241078986843704,-0.990056717413831,0.1128055966220697,0.0816286907621916,0.6458906984073368,1.4508732921855547,-0.0154724083530406,-1.303765013406422,0.1316604782674791,0.6887011456189718,0.4993845036070782,0.1306475428466513,0.4559118391554762,11.052378506498826,-1.3611062168804444,0.1551875189120877,-1.1804053941063055
2.58,0.0678927718743729,0.6242776025681572,1.4566880759742915,0.0206029680817973,0.1793758123432871,0.0189563516798155,-0.1129293617541068,-0.990425974715938,0.1227052483434134,0.0811815911218471,0.6202070137386022,1.453372468875605,-0.0017072610246639,-1.3429265733458065,0.1450637657974244,0.7468251854690111,0.5589268465131824,-0.0184628651053453,0.4949825860671809,11.167946328934704,-1.357848865167813,0.1514479772013779,-1.1878756703326123
2.6,0.0657589771004168,0.6044476537660469,1.459255662594299,0.0241128896101588,0.1808640316970113,0.0195151163876011,-0.1011807133653795,-0.9924481879759298,0.1335586212366773,0.0622463037866676,0.5747563038323603,1.4628233383914624,-0.0572611381048434,-1.002531839188625,0.1399761412019186,0.8060952000090721,0.5874324194363616,-0.1011106629995983,0.5426686446631961,11.23548739526268,-1.356800222185155,0.1483290727872641,-1.1926927924996915
2.62,0.0639284237309718,0.5852619099661884,1.461799147616142,0.01701227914561,0.1811983033352751,0.0192914984952583,-0.0922785887489411,-1.020477528463781,0.1338670326964449,0.0622463037866676,0.5747563038323603,1.4628233383914624,-0.0572611381048434,-1.002531839188625,0.1399761412019186,1.470532954832202,0.4451062308219219,-1.4014670243925609,0.0154205729883824,11.23548739526268,-1.3548107466658934,0.1560879922718261,-1.187444069735297
2.64,0.0621671644626069,0.5648001572407568,1.4644864076728077,0.0007269926757721,0.181082735765972,0.0184538561731901,-0.0843646375020211,-1.0232268052668898,0.134897515053456,0.0622463037866676,0.5747563038323603,1.4628233383914624,-0.0572611381048434,-1.002531839188625,0.1399761412019186,0.4220516590621635,0.3956975623460007,-0.1374638401554384,0.0515241178505529,10.622690941235303,-1.357392535375402,0.1743312510518954,-1.1863864332667693
