t,x,y,z,roll,pitch,yaw,v_x,v_y,v_z,ref_x,ref_y,ref_z,ref_v_x,ref_v_y,ref_v_z,a_com,a_x,a_y,a_z,thrust,wind_x,wind_y,wind_z
0.0,-1.0747581281027745,1.707636549294643,2.282849163467699,0.0138825099539498,0.1363556549973598,0.0258787292822494,0.0022246992549788,-0.0071465882752386,-0.0022451783838358,-1.074692569483738,1.707379328028106,2.2827790275760997,-0.0251271776029564,-0.1082058450148753,-0.1023131644729207,0.3907167667445482,0.1112349627489409,-0.357329413761932,-0.1122589191917921,10.544483028781542,-1.284099649198084,0.1619419761146268,-1.1596282030626652
0.02,-1.0747604846737389,1.7077720449646374,2.2825726882423245,0.0205509332066901,0.136440087460344,0.0263441880307428,-0.0025313316466225,0.0166708638095744,-0.0265713177168883,-1.074692569483738,1.707379328028106,2.2827790275760997,-0.0251271776029564,-0.1082058450148753,-0.1023131644729207,1.7187582062352724,-0.2378015450800665,1.1908726042406546,-1.2163069666526232,10.5434167683361,-1.3065723286751842,0.1575338840147037,-1.175022320038445
0.04,-1.0748601134470588,1.7081323616013382,2.2817816938135937,0.0344574162045441,0.1368304781765318,0.0273034150164894,-0.0075998705865408,0.0192952900517137,-0.0553071515479309,-1.074692569483738,1.707379328028106,2.2827790275760997,-0.0251271776029564,-0.1082058450148753,-0.1023131644729207,1.464859930207659,-0.2534269469959185,0.1312213121069631,-1.436791691552134,8.869561628389874,-1.3072989357856293,0.1420020367474758,-1.1551676341491453
0.06,-1.075065089224111,1.7084781722560778,2.2803626381554127,0.0498315227072866,0.137627968629803,0.0283583454462108,-0.012543994964481,0.014767621177139,-0.0850317712691011,-1.0749438412597674,1.7062972695779572,2.28175589593137,-0.030591928131292,-0.1282058453128985,-0.1223131647709439,1.5235625757336917,-0.2472062188970092,-0.2263834437287313,-1.486230986058508,8.869561628389874,-1.3040606708715743,0.1258958856779779,-1.136126082780982
0.08,-1.0753630191266317,1.7086928779860882,2.278361241916244,0.0646875314867638,0.1388171511888342,0.0293807691681276,-0.0169046805698079,0.0066084201466464,-0.1135601613926054,-1.0754463848118263,1.7041331526776595,2.279709632641912,-0.0415214291879631,-0.168205845908945,-0.1623131653669904,1.4995475846429107,-0.2180342802663423,-0.407960051524633,-1.4264195061752152,8.894199875920094,-1.299634922124208,0.1107823499710468,-1.1188831154270915
0.1,-1.075740673209932,1.708713780482962,2.2758021598358136,0.0788362120040136,0.14033979853437,0.030363387475386,-0.0205384962714159,-0.0044093641813872,-0.140914650342829,-1.0759489283638857,1.7019690357773622,2.277663369352453,-0.0524509302446343,-0.2082058465049914,-0.2023131659630368,1.485651585820363,-0.1816907850804022,-0.5508892164016838,-1.367724447511181,8.998683214979337,-1.294746768410478,0.0975162001423789,-1.102707979088918
0.12,-1.076159093226544,1.7085046212679984,2.272872857648312,0.0916216028759892,0.1419937039034731,0.0312583832732826,-0.0232431672326004,-0.0173040946776291,-0.1660596826885191,-1.0769979469687785,1.6978049188472624,2.273617106033192,-0.0633804313013054,-0.2482058471010379,-0.2423131665590832,1.4193854050651502,-0.1352335480592228,-0.6447365248120928,-1.2572516172845036,8.998683214979337,-1.2894896762585473,0.0846582709928392,-1.0865186177296162
0.14,-1.0766490525730903,1.7079957737315616,2.269268019833084,0.1044170212623827,0.1438431602639472,0.0321551239675129,-0.025541028176386,-0.0331702419028357,-0.1931382570709033,-1.078046965573671,1.6936408019171625,2.2695708427139314,-0.0743099323579766,-0.2882058476970844,-0.2823131671551298,1.5734230067524917,-0.1148930471892791,-0.793307361260333,-1.3539287191192086,8.998439517059978,-1.286001336073075,0.0727653379463174,-1.0742640789975944
0.16,-1.0771788368858384,1.7071457852196652,2.2651184676421074,0.1165638898392018,0.1457116272273916,0.0329981984592848,-0.0272588266185132,-0.0512889894973904,-0.2204714128594825,-1.0793692217049806,1.6884766849721615,2.2645245793797697,-0.0852394334146477,-0.3282058482931308,-0.3223131677511762,1.6419053346993653,-0.0858899221063637,-0.9059373797277324,-1.3666577894289589,8.998439517059978,-1.2827476726209202,0.0617648724234219,-1.0625295477692176
0.18,-1.0777366711838976,1.7059105587881087,2.2604222646772536,0.1280930137037546,0.1475210149290156,0.0337786301504507,-0.0283850844357564,-0.07156912311904,-0.2477841979567196,-1.0809647153627069,1.6823125680122597,2.2584783160307067,-0.0961689344713188,-0.3682058488891772,-0.3623131683472226,1.70186699403238,-0.0563128908621595,-1.0140066810824826,-1.3656392548618557,8.988600541203596,-1.2796119866975169,0.0521186922369131,-1.0509573568614767
0.2,-1.0782820810745624,1.7043418098703933,2.255455941167027,0.1385001478977154,0.1491275801955674,0.0344532223948761,-0.0289346507193296,-0.0927478136227117,-0.2736246596909326,-1.0791559254056855,1.7023321026321567,2.248033054779418,-0.0382607973520114,-0.1715691246091562,-0.3477841994468357,1.6707546327840013,-0.0274783141786569,-1.0589345251835838,-1.2920230867106517,8.992172579873113,-1.2766887249312933,0.0427419052636439,-1.038848968662208
0.22,-1.0788485895194828,1.7020713972699857,2.249833991499547,0.1442731254592111,0.1511394256971563,0.0348280371212209,-0.0274762195213963,-0.1311773840934708,-0.2861328585017778,-1.0791559254056855,1.7023321026321567,2.248033054779418,-0.0382607973520114,-0.1715691246091562,-0.3477841994468357,2.022012577617764,0.0729215598966621,-1.9214785235379557,-0.625409940542257,8.999964115236253,-1.2627904949040842,0.0380401900808732,-1.021790444702137
0.24,-1.0793742420691916,1.6991055614716108,2.2439834894520505,0.1442781808323362,0.1537082594253141,0.0348595814004214,-0.025074148715676,-0.1629958238478199,-0.2984312302279907,-1.0791559254056855,1.7023321026321567,2.248033054779418,-0.0382607973520114,-0.1715691246091562,-0.3477841994468357,1.7098486772759665,0.1201035402860133,-1.5909219877174543,-0.6149185863106449,9.985857362649767,-1.258008499080093,0.0381784236028688,-1.0180510481840956
0.26,-1.0798438156470074,1.695533873867049,2.237858476285295,0.1411318339157123,0.1563707489067454,0.0346623845960149,-0.0219530547512566,-0.1920064752989987,-0.3134941780488787,-1.0795385333792056,1.7006164113860651,2.2445552127849493,-0.0402359399352624,-0.1915691249071794,-0.3677841997448589,1.6418370216097251,0.1560546982209717,-1.4505325725589422,-0.7531473910444036,9.827300774968537,-1.254346760842152,0.0409236568831597,-1.0157750795396556
0.28,-1.080227533886684,1.6916441366981532,2.2317370082890644,0.1366755743880012,0.158654225800781,0.0343169766329013,-0.018582273346958,-0.2156757217867028,-0.3300442801601277,-1.080303749326246,1.697185028893882,2.2375995287960126,-0.0441862251017644,-0.2315691255032258,-0.4077842003409053,1.4538752323222446,0.1685390702149286,-1.1834623243852038,-0.8275051055624483,9.500359656863113,-1.2514682972845776,0.0454029960257111,-1.0116099000144367
0.3,-1.0805605304899353,1.6870963651600543,2.224933647265904,0.1318881680217161,0.1606265111679609,0.0338686987374062,-0.0148995953839144,-0.2377768176120254,-0.3495050580169299,-1.081068965273286,1.693753646401699,2.230643844807076,-0.0481365102682664,-0.2715691260992723,-0.4477842009369518,1.4838652469575706,0.1841338981521799,-1.1050547912661302,-0.9730388928401084,9.500359656863113,-1.2500778897722649,0.0500633198682236,-1.006253777016265
0.32,-1.0808196007229776,1.6821253150543336,2.217719469242664,0.127551283935015,0.1620873847036128,0.0333689737289839,-0.0112112343175149,-0.25826715645442,-0.3709135801576051,-1.0820316954786515,1.6883222638797135,2.221688160788337,-0.0520867954347684,-0.3115691266953187,-0.4877842015329982,1.4931366426754586,0.1844180533199791,-1.0245169421197269,-1.0704261070337615,9.362334591613944,-1.248687979312924,0.0539603516815755,-1.0008717608369913
0.34,-1.0810047862827097,1.6767559895630533,2.210067786088975,0.1238085422559865,0.1630499640364593,0.0328353873385576,-0.0075199803239721,-0.2777259964711296,-0.3931695337243328,-1.0829944256840167,1.682890881357728,2.212732476769598,-0.0560370806012704,-0.3515691272913652,-0.5277842021290448,1.489630222576296,0.1845626996771367,-0.9729420008354804,-1.1127976783363829,9.252563352883044,-1.2473169503745165,0.0574473860374322,-0.9945160789687704
0.36,-1.0811127924775046,1.6712932712626738,2.2023801654419306,0.1205507630128726,0.163552495517376,0.0322898795972937,-0.0040641004709648,-0.2962262775620811,-0.4149079847104107,-1.0840559130185443,1.6764594988208414,2.202776792735958,-0.0599873657677724,-0.3915691278874116,-0.5677842027250911,1.437674995675961,0.1727939926503647,-0.9250140545475738,-1.0869225493038952,9.198477059439938,-1.2459819468101507,0.0605178502848888,-0.9877237237093052
0.38,-1.0811576645035863,1.665169220759284,2.1938346302952407,0.1172094862883038,0.1637250465752904,0.0316724625195092,-0.0006348715557267,-0.3151010507550644,-0.4385155179223702,-1.085216157482235,1.6690281162690537,2.1918211086874164,-0.0639376509342744,-0.4315691284834581,-0.6077842033211376,1.5209637556442954,0.1714614457619047,-0.943738659649168,-1.180376660597976,9.159531408829023,-1.2442787795734744,0.0632649686409535,-0.9819462907966382
0.4,-1.0811361926714538,1.658673119581602,2.184809868675061,0.1138704105141021,0.1636108654378117,0.0310173749286564,0.0025802182903156,-0.33342203217606,-0.4627415285155654,-1.0811894080813726,1.6494141682215306,2.1719088543991223,-0.0024526191570347,-0.4151010522451805,-0.5385155194124863,1.5271662910503525,0.1607544923021202,-0.9160490710497764,-1.2113005296597616,9.108314029091162,-1.2429500174181969,0.0658143942016794,-0.9763462908406284
0.42,-1.0810481422892404,1.652154683618022,2.1760070059936765,0.1110322158601364,0.1641843144191626,0.0304927906270097,0.0067841917691521,-0.3519135972485779,-0.4626949211589838,-1.0811894080813726,1.6494141682215306,2.1719088543991223,-0.0024526191570347,-0.4151010522451805,-0.5385155194124863,0.9481739609475875,0.210198673941825,-0.924578253625899,0.0023303678290786,9.069318014167038,-1.2352320955355958,0.068117544396496,-0.9659015835919926
0.44,-1.0808617619337404,1.644929144914243,2.166718992142475,0.1088551314576348,0.1660548007979305,0.0301327686750685,0.0117515800343605,-0.3698161976935801,-0.4664663479825793,-1.0811894080813726,1.6494141682215306,2.1719088543991223,-0.0024526191570347,-0.4151010522451805,-0.5385155194124863,0.9478946528444734,0.2483694132604194,-0.8951300222501096,-0.1885713411797718,10.453827559901583,-1.2342651242885714,0.0695310977349451,-0.9681042743196678
0.46,-1.080568249901634,1.6373466721839742,2.157300651108348,0.107354298219855,0.1685362294752863,0.0298790110008096,0.0174342180254363,-0.3875241418447914,-0.4753793869808973,-1.081213934272943,1.6452631576990788,2.166523699204997,-0.0028161686772962,-0.4351010525432038,-0.5585155197105095,1.031147327962371,0.2841318995537931,-0.8853972075605648,-0.4456519499159012,10.121728251761851,-1.2322975644575689,0.0704035428078767,-0.9700922830621788
0.48,-1.0801547456032148,1.629416182407474,2.1476574323523567,0.1062777289209096,0.1710365032947317,0.029649194727376,0.0236770740471699,-0.4046453759490087,-0.488472539717727,-1.0812629866560837,1.6369611366541752,2.1557533888167475,-0.0035432677178194,-0.4751010531392502,-0.598515520306556,1.121985469100934,0.3121428010866766,-0.8560617052108616,-0.6546576368414853,9.846230020431904,-1.2301787950458267,0.0709208504578649,-0.9712446878580482
0.5,-1.079642433612365,1.621570714765722,2.138224489954724,0.1056434580603415,0.1731051482873971,0.0294188577422599,0.0299392499818015,-0.4203527884738759,-0.5038012066121415,-1.0813120390392243,1.6286591156092716,2.144983078428498,-0.0042703667583426,-0.5151010537352967,-0.6385155209026024,1.1411679153640717,0.3131087967315815,-0.7853706262433618,-0.7664333447207211,9.637214932062308,-1.2283898302478873,0.0711674508735462,-0.9712423574205086
0.52,-1.078973635100409,1.6129964653948288,2.1279557089983467,0.1055056160283006,0.1747982662055638,0.0291560887868338,0.0365926332697222,-0.4362673290564447,-0.5223740170353955,-1.0813974463743912,1.6183570945345656,2.132212768010446,-0.0049974657988658,-0.5551010543313432,-0.6785155214986489,1.267368729048839,0.3326691643960345,-0.7957270291284402,-0.9286405211627048,9.475609043799524,-1.2272643882237857,0.0709763881775146,-0.9701215201159225
0.54,-1.0781698815061442,1.6041059143646923,2.11730197799371,0.1060151735741651,0.1759180220579159,0.0288720781905946,0.043407533008054,-0.4520538157032865,-0.5420499743249383,-1.081482853709558,1.6080550734598595,2.1194424575923936,-0.0057245648393889,-0.5951010549273896,-0.7185155220946954,1.3065214448625984,0.3407449869165891,-0.7893243323420923,-0.9837978644771372,9.288856900856445,-1.2264437357412366,0.0702829258250806,-0.9677339665852271
0.56,-1.0772287093653357,1.5948871819266026,2.1062474851891126,0.1068008261303036,0.176445568549226,0.0285381455942855,0.0503060351347999,-0.4689473882993734,-0.5623870092051384,-1.081586438520738,1.5967530523702524,2.1056721471594404,-0.0064516638799121,-0.635101055523436,-0.7585155226907417,1.3661781677095135,0.3449251063372963,-0.8446786298043407,-1.0168517440100056,9.288856900856445,-1.2262299748802794,0.0693400225664896,-0.9638456473746502
0.58,-1.0762076690741773,1.5858075877404454,2.0953630159446472,0.1072837653263617,0.1764177482985555,0.0281398136328658,0.0567625893873155,-0.4858325422183702,-0.5822972320035772,-1.081708200807931,1.5844510312657445,2.0909018367115864,-0.0071787629204353,-0.6751010561194825,-0.7985155232867882,1.3446305139027643,0.3228277126257822,-0.8442576959498432,-0.9955111399219396,9.257227624472762,-1.226247875994407,0.068626564320588,-0.9586752983440694
0.6,-1.075003387940711,1.5758985947605897,2.083488024630785,0.1071197174269337,0.1758818409563875,0.0276136476767576,0.0632684234385253,-0.5040331043727073,-0.6041157913140807,-1.0733695396048115,1.5615159606295268,2.066248154344468,0.0683666982349932,-0.5858325437084864,-0.6822972334936933,1.4574257012123508,0.3252917025604873,-0.9100281077168536,-1.0909279655251736,9.22388653877806,-1.2264917441785403,0.0684718884608964,-0.9530236112911148
0.62,-1.0737364830723373,1.5660959535073344,2.07205514316174,0.1053953981515551,0.1762783770350869,0.0270984819044948,0.0701104121439567,-0.52645241147456,-0.598237415627048,-1.0733695396048115,1.5615159606295268,2.066248154344468,0.0683666982349932,-0.5858325437084864,-0.6822972334936933,1.2082978121000745,0.3420994352715728,-1.1209653550926346,0.2939187843516322,9.173543047499152,-1.2200065655367058,0.0697088064197893,-0.940969838920596
0.64,-1.0722525549758206,1.555350684377977,2.0601178605661388,0.1020234490649065,0.1785225428621097,0.0266379406191546,0.0780864604810596,-0.5464479653317417,-0.59614936830396,-1.0733695396048115,1.5615159606295268,2.066248154344468,0.0683666982349932,-0.5858325437084864,-0.6822972334936933,1.0814336118721155,0.3988024168551408,-0.9997776928590828,0.1044023661543991,10.8273806935249,-1.2189048656793504,0.0719418382574939,-0.9450097247732532
0.66,-1.0705982853857152,1.544234780908056,2.0481600105865643,0.0983292685841989,0.1816782023027878,0.0262421008573539,0.0870536273610125,-0.5639782633040842,-0.5999715132342659,-1.0726858726224615,1.555657635192442,2.059425182009531,0.0706875200045288,-0.6058325440065095,-0.7022972337917165,1.0029085460802305,0.4483583439976492,-0.8765148986171256,-0.1911072465152929,10.43682001394336,-1.2175338828656768,0.0746240606714498,-0.9486798082979202
0.68,-1.068853082474705,1.533367323798427,2.036678290254472,0.0948762852964032,0.184767706465156,0.0258718974969274,0.0962558910787589,-0.579027391805796,-0.6084077900908625,-1.0713185386577615,1.5439409843182723,2.0457792373396573,0.0753291635435999,-0.645832544602556,-0.742297234387763,0.9776613593074204,0.4601131858873161,-0.7524564250855903,-0.4218138428298323,9.83757913970021,-1.2161595806326568,0.0772249998184407,-0.9508632730845537
0.7000000000000001,-1.0668225017947774,1.5216342518372612,2.024381548998515,0.0915371131424375,0.187664811714925,0.0254628169135859,0.1063286313299011,-0.5934645956394213,-0.6209825824701335,-1.069951204693062,1.5322243334441026,2.0321332926697835,0.079970807082671,-0.6858325451986025,-0.7822972349838094,1.0816865928752155,0.5036370125571094,-0.7218601916812672,-0.6287396189635475,9.83757913970021,-1.2145195369008654,0.0797383239230901,-0.9514952104139098
0.72,-1.064587928370429,1.5096227796884634,2.01179983559117,0.0886000125165282,0.189949482805602,0.0250219176115822,0.1166031978257527,-0.6069586706941413,-0.6366724026072266,-1.0683517885514084,1.5185076825401305,2.016487347970107,0.084612450621742,-0.725832545794649,-0.8222972355798559,1.155235078019215,0.5137283247925818,-0.674703752736,-0.784491006854654,9.46283309251885,-1.2135727621101076,0.0819425162385453,-0.9506646724395498
0.74,-1.0621454953810456,1.497349558853456,1.9988864238200883,0.0860907333337398,0.1914791212042382,0.0245431878193285,0.1270673383076845,-0.6197503889145475,-0.6538585826359642,-1.066752372409755,1.5047910316361586,2.000841403270431,0.0892540941608131,-0.7658325463906954,-0.8622972361759024,1.1921525437586151,0.5232070240965919,-0.6395859110203073,-0.8593090014368809,9.46283309251885,-1.2133537681523738,0.0837136517727854,-0.9483710329136368
0.76,-1.059630011124267,1.4854497077949451,1.9862908470568896,0.0838270645597905,0.1921831617792623,0.0240339872381454,0.1371158557576756,-0.6321046261661525,-0.6710997692186426,-1.0650369151796248,1.4900743807172854,1.9841954585558537,0.0938957376998842,-0.8058325469867418,-0.9022972367719488,1.1735186361861154,0.5024258724995525,-0.6177118625802502,-0.8620593291339185,9.392586862267308,-1.2137820016995573,0.0854511115262178,-0.944609101749914
0.78,-1.0567784055473162,1.4726745600115796,1.972668160516436,0.0813650881706552,0.1921394550293658,0.023431184147744,0.1474453659672862,-0.6446454608970957,-0.6902853738363781,-1.063205416861018,1.4743577297835109,1.9665495138263756,0.0985373812389553,-0.8458325475827883,-0.9422972373679952,1.2570389228931604,0.5164755104805324,-0.6270417365471626,-0.9592802308867776,9.340639842500424,-1.2150267519568263,0.0872388779719853,-0.9398004136326548
0.8,-1.0537220926448254,1.4596528702211742,1.958650264385704,0.0787540078102174,0.1912570304599629,0.0227575135447474,0.1575952037070074,-0.656734698486646,-0.7105040172498722,-1.0494061372489518,1.4404422869667248,1.9381538918246173,0.1747362298835641,-0.7446454623872119,-0.7307860966619053,1.2825389010876942,0.5074918869860584,-0.6044618794775136,-1.0109321706747054,9.274451928789858,-1.2165056139296728,0.0889676702050558,-0.9349963951244828
0.8200000000000001,-1.050391898162521,1.4463405483137202,1.944694104183654,0.0753741099324219,0.1901111780866961,0.0220205106342271,0.1748232940392196,-0.6732784754893968,-0.6840511571119113,-1.0494061372489518,1.4404422869667248,1.9381538918246173,0.1747362298835641,-0.7446454623872119,-0.7307860966619053,1.7820335739613102,0.8614045166106088,-0.8271888501375391,1.3226430068980444,12.104453055999327,-1.2078742016661443,0.0909783845480016,-0.9199011886178352
0.84,-1.0469107648545763,1.433412894051794,1.931910905523282,0.0716642992507434,0.1892045410573109,0.0213133347669195,0.1906821273387377,-0.6865273681897132,-0.6629794295738133,-1.0494061372489518,1.4404422869667248,1.9381538918246173,0.1747362298835641,-0.7446454623872119,-0.7307860966619053,1.475680735157711,0.792941664975906,-0.6624446350158186,1.0535863769049023,12.104453055999327,-1.213517978213972,0.0938172613212438,-0.9227663266721832
0.86,-1.0429286107655844,1.4195560997777978,1.9188265690456785,0.067889212053115,0.1879455724313397,0.0205725803898076,0.2065883948643135,-0.6983920827286758,-0.6468189652274857,-1.0476587749501165,1.4329958323428529,1.9308460308579984,0.1801944026668197,-0.764645462685235,-0.7388862412270107,1.2795911510861415,0.795313376278789,-0.5932357269481325,0.8080232173163782,11.627757977054898,-1.2185939415974365,0.0965822687188772,-0.923527153151902
0.88,-1.0386367446740383,1.4054778117692648,1.906002136459635,0.0645246061744198,0.1858966096420245,0.0198255370795348,0.2217053683244545,-0.7088746229213385,-0.6363863902841383,-1.044164050352445,1.4181029230951083,1.91623030892476,0.1911107482333308,-0.8046454632812815,-0.7550865303572216,1.0574085722108046,0.755848673007052,-0.5241270096331352,0.5216287471673686,11.226262794738432,-1.223287052153277,0.0988671164279749,-0.9228352594241592
0.9,-1.0342869475800454,1.3919195635050523,1.893970454004526,0.061775763604482,0.18282010111056,0.0190936220581978,0.2352999796821377,-0.7178514397230884,-0.6306002249111308,-1.0406693257547737,1.4032100138473642,1.901614586991522,0.202027093799842,-0.844645463877328,-0.7712868194874325,0.8644021164689766,0.679730567884157,-0.4488408400874943,0.2893082686503789,10.894333016182827,-1.228047921203996,0.1007752763834237,-0.9217480934323504
0.92,-1.0294408620876898,1.3774722022250403,1.8813911285866416,0.0594114005424509,0.1780933385799722,0.0182908281628921,0.2484140016441268,-0.7264765906925934,-0.6277590619379801,-1.0366287838787769,1.3863171045698175,1.8861888506017728,0.2129434393663531,-0.8846454644733744,-0.7874871086176434,0.7975634901158146,0.6557010980994551,-0.4312575484752501,0.1420581486575312,10.63477804127433,-1.234514675392303,0.1022972861593656,-0.9173931055385076
0.94,-1.024352877119216,1.3628575113608694,1.8688551290384576,0.0576153180817331,0.1719100825814973,0.0174648626032137,0.2593662237666565,-0.7346258696278664,-0.6259707204494476,-1.03258824200278,1.369424195292271,1.870763114212025,0.2238597849328643,-0.9246454650694208,-0.8036873977478542,0.6884040998311235,0.547611106126486,-0.4074639467636476,0.0894170744266287,10.429807780599733,-1.2425657356606268,0.1034110405286465,-0.909495120737133
0.96,-1.019073710769485,1.3480751898077556,1.8563473511694597,0.0561364780580873,0.164896204739754,0.016635980043772,0.2677195277651394,-0.7431548550380717,-0.6248945323903342,-1.0282747914876202,1.3515312859998234,1.8549323705940208,0.2347761304993755,-0.9646454656654672,-0.8198876868780651,0.5993318374597316,0.4176651999241443,-0.4264492705102651,0.0538094029556679,10.30882056385144,-1.2501219421220169,0.1041756498147259,-0.9008752537294946
0.98,-1.013928301627803,1.333873269608368,1.844475821271042,0.0547316132912245,0.1579612316104055,0.0158548381276766,0.2732830922511473,-0.7512769038356673,-0.6247545641524894,-1.023688432333298,1.3326383766924743,1.8386966197477612,0.2456924760658866,-1.0046454662615136,-0.836087976008276,0.4922918787876186,0.2781782243003933,-0.4061024398797797,0.0069984118922394,10.30882056385144,-1.2576698035112543,0.1049401678267943,-0.8913032834067426
1.0,-1.0084225360310477,1.3187600053908088,1.8319726688162867,0.0531583601285889,0.1508072142861951,0.0150579522864672,0.2767979807902191,-0.7595525825363781,-0.6255939934750713,-1.0002641470152456,1.2963094244165845,1.813238093063417,0.288259924335505,-0.8512769053257834,-0.6479196876896722,0.4515139560055398,0.1757444269535946,-0.4137839350355443,-0.0419714661290926,10.242027007527213,-1.2644572951580209,0.1057532421922628,-0.8817758303103368
1.02,-1.0028292656507145,1.3034440496000106,1.8196798620792964,0.0505415561723702,0.1440466285218193,0.0142378921518448,0.2823535284420255,-0.7710827490848614,-0.6023966994194021,-1.0002641470152456,1.2963094244165845,1.813238093063417,0.288259924335505,-0.8512769053257834,-0.6479196876896722,1.3246917583464826,0.277777382590319,-0.5765083274241634,1.1598647027834583,11.766900644335692,-1.2640881223867328,0.1069592051681646,-0.8673309895062334
1.04,-0.9974306540029853,1.28871389564757,1.8084347832660197,0.0474063423263531,0.1381313440311193,0.0134752393744376,0.2854969989496481,-0.7788317703388705,-0.5825817651482166,-1.0002641470152456,1.2963094244165845,1.813238093063417,0.288259924335505,-0.8512769053257834,-0.6479196876896722,1.0753608201422211,0.1571735253811268,-0.3874510627004557,0.9907467135592762,11.416833021836284,-1.2697554201091052,0.1089853970353305,-0.8663175825696753
1.06,-0.991708428834989,1.2730701418002872,1.7969567238319228,0.0444670555606296,0.1326649905638105,0.0127704735441674,0.286366999170983,-0.7851848542798208,-0.5664787184555118,-0.9973815477718904,1.2877966553633269,1.8067588961865209,0.2912552907523765,-0.8712769056238066,-0.6525527123971088,0.8666410570895448,0.0435000110667466,-0.3176541970475122,0.8051523346352396,11.416833021836284,-1.2748390893178287,0.1108149399621939,-0.8645910068266766
1.08,-0.9859943663052936,1.2573104626827265,1.7857541923829576,0.0421946329596873,0.1283214673915874,0.0121930601034462,0.2848390681144921,-0.7905670670739905,-0.5547523813678029,-0.9916163492851804,1.270771117256811,1.7938005024327273,0.2972460235861197,-0.911276906219853,-0.661818761811982,0.6496340688604819,-0.0763965528245425,-0.2691106397084863,0.5863168543854436,11.105532552405748,-1.2788117051677708,0.1121811341227967,-0.8629210125025888
1.1,-0.9803341787177884,1.2414517755457002,1.77474547289464,0.0407111676558074,0.1255803383967012,0.0117613917477208,0.2812100532359702,-0.7951854289747707,-0.5466902686557767,-0.9858511507984704,1.2537455791502954,1.780842108678934,0.3032367564198627,-0.9512769068158996,-0.671084811226855,0.4987401052064237,-0.1814507439260954,-0.2309180950390121,0.4031056356013085,10.846360662572806,-1.2809722063017035,0.1129400130341812,-0.8622013773932389
1.12,-0.9750353749119964,1.2263074463303365,1.764411208112936,0.0401993705983056,0.124785962234184,0.0115028369814056,0.2769748358195322,-0.7988588954754823,-0.541537843492478,-0.9797864156700732,1.2347200410139774,1.7674204124543968,0.3092274892536058,-0.991276907411946,-0.6803508606417281,0.3807194103265016,-0.2117608708219004,-0.1836733250355771,0.2576212581649362,10.648032619971673,-1.2799969321851337,0.1129528155836243,-0.8636702147097525
1.14,-0.9695354652248312,1.2102963163856963,1.753628719080991,0.0409050100098869,0.1254692269254281,0.0113904973123639,0.2733945276866092,-0.8021862662364794,-0.537026018242591,-0.9737216805416758,1.2156945028776591,1.7539987162298598,0.3152182220873489,-1.0312769080079924,-0.6896169100566013,0.3325904748836433,-0.1790154066461491,-0.1663685380498547,0.2255912624943512,10.443050759929974,-1.2775220880681797,0.1120112630162722,-0.866344471174248
1.16,-0.9640955088202884,1.1942094661389695,1.7429296120398203,0.0428270381046561,0.1271435630743479,0.0114147121756328,0.270913543282183,-0.8064158782286053,-0.5331411510318458,-0.967507177092435,1.1956689647264402,1.7403453687699508,0.321208954921092,-1.0712769086040388,-0.6988829594714744,0.3127982355451554,-0.1240492202213144,-0.2114805996062951,0.1942433605372606,10.443050759929974,-1.2747111177365142,0.1102837416133906,-0.8696900055737841
1.18,-0.958962866053812,1.178836159143617,1.7328327441270204,0.0453386421390092,0.1292066003697296,0.0115168397098185,0.2695803978994084,-0.8118108041435529,-0.529896118429165,-0.9611429053223506,1.17464342656032,1.72646037007467,0.3271996877548351,-1.1112769092000852,-0.7081490088863476,0.3217636509607939,-0.0666572691387257,-0.2697462957473806,0.1622516301340415,10.412307325158508,-1.2716506066233189,0.1079292208893597,-0.87344689999853
1.2,-0.9535771243441028,1.1625244608780751,1.7222666552292696,0.0479525121749476,0.131519007773413,0.0116407667317843,0.269143572687881,-0.8190766024571011,-0.5269063681458185,-0.9454838461588414,1.1382456189364394,1.706337938205562,0.3143420667901231,-0.911810805633669,-0.5262947059074897,0.3934502768945417,-0.0218412605763718,-0.3632899156774116,0.1494875141673235,10.37652051504574,-1.2683356655202949,0.1055813098242945,-0.8772590555241536
1.22,-0.9481972565367636,1.1459797127651066,1.711996291198464,0.0480187950696482,0.1349722539799333,0.0116536866989823,0.2693255233406505,-0.8339921767653931,-0.5002787618490713,-0.9454838461588414,1.1382456189364394,1.706337938205562,0.3143420667901231,-0.911810805633669,-0.5262947059074897,1.5260544551889303,0.0090975326384745,-0.7457787154145967,1.3313803148373604,10.37652051504574,-1.2607080899711758,0.1050596481203337,-0.8757473079499051
1.24,-0.9430602265186082,1.130016147733121,1.702721618080251,0.0450790552967772,0.1397123405763045,0.0115304683397136,0.2716577789425009,-0.8452037780106676,-0.4774090848476099,-0.9454838461588414,1.1382456189364394,1.706337938205562,0.3143420667901231,-0.911810805633669,-0.5262947059074897,1.2788290980683974,0.1166127800925204,-0.5605800622637269,1.1434838500730653,11.926677506756278,-1.2533450688180716,0.1069456425858668,-0.8896924030919273
1.26,-0.9375832455050076,1.1130306838902888,1.6933928199073516,0.0407397888294992,0.1453099635159861,0.0113354493476157,0.2761211592231584,-0.8525087490574825,-0.4568527991941144,-0.9423404254909402,1.1291275108801029,1.7010749911464873,0.323294400568266,-0.9318108059316924,-0.5255744234031546,1.1133791418387915,0.2231690140328757,-0.3652485523407467,1.0278142826747771,11.663188092674318,-1.2464146344430442,0.1100625177286451,-0.9031637507931368
1.28,-0.931997663776146,1.0959307156152025,1.6844382061651102,0.0366910470343157,0.1508471617597483,0.0111497245469429,0.282349915255446,-0.8571627578719839,-0.4398015643452445,-0.9360535841551376,1.1108912947674294,1.6905490970283374,0.3411990681245519,-0.9718108065277388,-0.5241338583944846,0.9370189560869784,0.3114378016143782,-0.2327004407250699,0.8525617424434973,11.434531419537052,-1.241116214209096,0.1130003692372297,-0.9148696424281116
1.3,-0.9262713700200476,1.0787551582035613,1.6757915675704111,0.0334989166686027,0.1558069205833668,0.0109981223314777,0.2900228228998479,-0.8603810692406325,-0.4257335284446111,-0.9297667428193352,1.092655078654756,1.6800232029101876,0.3591037356808377,-1.0118108071237852,-0.5226932933858145,0.8172219311279562,0.3836453822200963,-0.1609155684324292,0.7034017950316662,11.233240314271823,-1.2367801076225922,0.1155516108755979,-0.9253977606651852
1.32,-0.9206783577304812,1.0623867244263194,1.6678174270138668,0.0313693776333676,0.1596991099621463,0.0108909215790201,0.2983255938073163,-0.8626936832523616,-0.4143720926396853,-0.9225846681057184,1.0724188625122804,1.6695693370424711,0.3770084032371236,-1.0518108077198316,-0.5212527283771444,0.7130329793540426,0.4151385453734196,-0.1156307005864554,0.568071790246294,11.080295411506995,-1.2338949644653745,0.1173992890334203,-0.934470638322866
1.34,-0.914612095189693,1.0451151783960777,1.65965042222575,0.0301460335152782,0.1627975943802241,0.0108240394607565,0.3078589035869051,-0.8644539238299632,-0.4029541426448388,-0.9154025933921016,1.0521826463698043,1.6591154711747549,0.3949130707934095,-1.0918108083158782,-0.5198121633684744,0.74891926188584,0.4766654889794386,-0.08801202888008,0.5708974997423233,10.970627308517578,-1.231989974782304,0.1184061005559907,-0.9417615882723768
1.36,-0.9083469709560056,1.027805532988438,1.651706799501082,0.0299303650174225,0.1647630482890495,0.0108026693502934,0.3181228278239729,-0.8664738832594371,-0.3919998968863159,-0.9077729019895778,1.0309464302124276,1.6486976194322551,0.4128177383496953,-1.1318108089119243,-0.5183715983598042,0.7573372382550355,0.5131962118533923,-0.100997971473693,0.5477122879261442,10.95522899284424,-1.231312334343556,0.1185905726029145,-0.9476496483842686
1.38,-0.9022009544423772,1.011322036845144,1.6443595200326817,0.0304882227228649,0.1654739089310425,0.0108100380466789,0.3281781323871624,-0.8685827714459823,-0.3819432208931257,-0.8996955938981468,1.0087102140401496,1.6383157818149727,0.4307224059059811,-1.171810809507971,-0.5169310333511341,0.7188415876844083,0.5027652281594741,-0.1054444093272599,0.5028337996595078,10.939449370598595,-1.2319885690367256,0.1181375060291524,-0.951835412758215
1.4,-0.8955267153860177,0.9939244093608745,1.6368293171806667,0.0317853482005076,0.1650490411473681,0.0108392932324479,0.3386284990539862,-0.871127477141415,-0.3716151296823953,-0.885792047823019,0.967892898272845,1.6252623589880253,0.3706265785417568,-0.9685827729360984,-0.3851102526916375,0.7455789002590504,0.5225183333411904,-0.1272352847716373,0.5164045605365236,10.926576153222411,-1.233745443230341,0.1170482594785662,-0.954862202014897
1.42,-0.8886183666365531,0.9764156513324308,1.6295738322325957,0.0320123674125791,0.1629613780178503,0.010747241768768,0.3517008126781092,-0.8792633880175221,-0.3540617927841761,-0.885792047823019,0.967892898272845,1.6252623589880253,0.3706265785417568,-0.9685827729360984,-0.3851102526916375,1.1674738386081425,0.6536156812061489,-0.406795543805355,0.8776668449109598,10.914904689086145,-1.2336446552976226,0.1166570994491397,-0.9549000443619918
1.44,-0.88145442864051,0.9587705483554092,1.6226642823422843,0.0304577646517157,0.1586108073213961,0.0104729439066188,0.3638171998852346,-0.8847823955100356,-0.3377895890314197,-0.885792047823019,0.967892898272845,1.6252623589880253,0.3706265785417568,-0.9685827729360984,-0.3851102526916375,1.051250324169548,0.6058193603562717,-0.2759503746256719,0.8136101876378199,11.426042303531176,-1.2389312654930922,0.1179426111550212,-0.9555400425115754
1.46,-0.8744484534383562,0.9419224343719204,1.616378357211816,0.0284163953279214,0.1526957108386578,0.010141129268082,0.3726655292214184,-0.8884595826878839,-0.3246597358834966,-0.8820857820376015,0.958207070543484,1.621411256461109,0.3791162677726757,-0.9885827732341216,-0.3857436590513398,0.8127233251059798,0.4424164668091868,-0.1838593588924186,0.6564926573961544,11.27837398468455,-1.2477716843665514,0.1199282239283045,-0.9522430747662348
1.48,-0.8669302012269596,0.9241303977004716,1.6100113189350098,0.0264024513890296,0.1455866283863328,0.0098049234407716,0.3783858051085434,-0.8906014712482488,-0.3128114164711278,-0.8746732504667662,0.938835415084762,1.613709051407276,0.3960956462345135,-1.028582773830168,-0.3870104717707445,0.6665056558787796,0.2860137943562546,-0.107094428018245,0.5924159706184373,11.113108142694728,-1.2564999866445692,0.1217606115035585,-0.9471620645984754
1.5,-0.8593341089714537,0.9063104105587776,1.603857498517843,0.0252115693822252,0.1385148934892929,0.0095529164845998,0.3807775735509303,-0.8914812591672261,-0.3031415109219352,-0.8672607188959311,0.91946375962604,1.6060068463534434,0.4130750246963512,-1.0685827744262144,-0.3882772844901492,0.500004140969557,0.1195884221193405,-0.0439893959488624,0.4834952774596307,10.972861801016734,-1.2641101668608885,0.1228308486035023,-0.941922618622183
1.52,-0.8521009814348219,0.8893740926929992,1.5981746898140248,0.0252670411963696,0.1324824253155022,0.0094281318369272,0.3804025524403169,-0.8914504690014886,-0.2955247095355327,-0.8589992184020041,0.8980921041375157,1.5982413006636405,0.430054403158189,-1.1085827750222608,-0.3895440972095539,0.3813045116033092,-0.0187510555306663,0.0015395082868741,0.3808400693201264,10.839207536507274,-1.270919841709769,0.1228993088544118,-0.9368958695520876
1.54,-0.8445196384173048,0.8715512156498247,1.5923411306995117,0.026976866567565,0.1274669326731266,0.0094487394576119,0.3775844576165512,-0.8910266583850426,-0.2882629493449014,-0.8507377179080771,0.8767204486489913,1.5904757549738375,0.4470337816200268,-1.1485827756183074,-0.3908109099289586,0.3900462630912701,-0.1409047411882857,0.0211905308223014,0.3630880095315675,10.737027047071024,-1.2759482871515908,0.1215270805570464,-0.932662528411118
1.56,-0.8370167417074926,0.8537201682492429,1.5866471525261747,0.0301989279913815,0.1245077749854393,0.0096242794121788,0.3727528822776787,-0.8925329291928855,-0.2815265672220481,-0.842051732952604,0.854348793145566,1.5826785389660494,0.4640131600818645,-1.1885827762143537,-0.3920777226483633,0.4212832067233929,-0.2415787669436259,-0.0753135403921467,0.3368191061426634,10.66816440166167,-1.2787858023212957,0.118885629737417,-0.9305877975029432
1.58,-0.8296190767359946,0.8358281804964877,1.5810848093914245,0.0336874692401335,0.1240323138291458,0.0098891446745504,0.36760558824244,-0.8966126008104488,-0.2750612098323178,-0.8329412635355852,0.8309771376272393,1.574849652640276,0.4809925385437023,-1.2285827768104,-0.393344535367768,0.4608123331935011,-0.2573647017619335,-0.2039835808781642,0.3232678694865154,10.66816440166167,-1.2765923955573948,0.1159918232939343,-0.9323180589345964
1.6,-0.8226728021527487,0.8187405019661768,1.5759192829085886,0.0366015334093631,0.1253372378876386,0.0101748727183498,0.364044522400022,-0.9017844318814412,-0.2690130093336425,-0.8112387973238726,0.7909975504559652,1.5673317488998084,0.421287718072562,-0.9966126023005648,-0.2600460473047566,0.4359178702264143,-0.1780532921208999,-0.2585915535496141,0.3024100249337635,10.65196599319097,-1.2726834870452088,0.1132884295462821,-0.9363778531146386
1.62,-0.8154039503600359,0.8005671636192422,1.5707372804006905,0.0368739034485964,0.128002080943761,0.010335286269565,0.3633313902006836,-0.9145832223722764,-0.2488005728816731,-0.8112387973238726,0.7909975504559652,1.5673317488998084,0.421287718072562,-0.9966126023005648,-0.2600460473047566,1.196724887857405,-0.0356566099669192,-0.6399395245417605,1.0106218225984689,10.64933702473718,-1.262860660384994,0.112661852554885,-0.9401700499408652
1.64,-0.8081309699410013,0.7821736679593356,1.5659725347650808,0.0335445610892948,0.1315557505382448,0.0102809740083015,0.3641702699015935,-0.9235588428696924,-0.2288578372688539,-0.8112387973238726,0.7909975504559652,1.5673317488998084,0.421287718072562,-0.9966126023005648,-0.2600460473047566,1.0942785136667017,0.041943985045495,-0.448781024870809,0.9971367806409588,11.479259619004551,-1.256931139762911,0.1153808239497388,-0.9510014892688018
1.66,-0.8008275516715019,0.7636547362875791,1.5615798935497167,0.0291044476150111,0.1355022652122918,0.0101599310496052,0.3662669022638384,-0.9277303229216656,-0.2115370360037014,-0.807025920143147,0.7810314244329596,1.5647312884267608,0.4320241440385864,-1.0166126025985882,-0.2570430147992443,0.8969493708584273,0.1048316181122416,-0.2085740025986548,0.8660400632576267,11.479259619004551,-1.2526671990650748,0.1190591766238646,-0.9611715817192852
1.68,-0.7938396780477206,0.7460145365192172,1.557702203438076,0.0254204076109949,0.1392433578729273,0.0100787361766749,0.369283140087411,-0.9291393320667096,-0.1975258525865408,-0.7986001657816957,0.7610991723869482,1.5595303674806658,0.4534969959706352,-1.0566126031946346,-0.2510369497882199,0.7200629453882542,0.1508118911786288,-0.070450457252208,0.7005591708580283,11.313905646841704,-1.249149300074733,0.1226129827216376,-0.9710452763053418
1.7,-0.7864121565413986,0.7274304814551712,1.5538904119769128,0.022617863790653,0.1429142777754856,0.0100609333230444,0.3733850651386584,-0.9294122280911752,-0.1844865778731354,-0.7901744114202445,0.741166920340937,1.5543294465345705,0.474969847902684,-1.096612603790681,-0.2450308847771954,0.6835988341452081,0.20509625256237,-0.013644801223267,0.6519637356702731,11.174534037861122,-1.2463449836058254,0.1252974500655916,-0.9804090650612528
1.72,-0.7788935612211934,0.7088486578041359,1.5503239039781698,0.0210676943225134,0.1461315448623699,0.0101233951734472,0.3783133354898975,-0.9289406089767894,-0.172888528643575,-0.7806750144621908,0.7192346682651234,1.5494288288390266,0.4964426998347328,-1.1366126043867273,-0.2390248197661709,0.6305256124362888,0.2464135175619553,0.0235809557192823,0.5799024614780198,11.08151728293342,-1.244218861078451,0.1269310213203087,-0.9888074402918848
1.74,-0.7716519567878664,0.691212796650744,1.547145536455896,0.0210061365860387,0.1486383303610521,0.0102753322432858,0.3837107210599422,-0.927736164132514,-0.1622705033541072,-0.7711756175041371,0.6973024161893098,1.5445282111434826,0.5179155517667816,-1.176612604982774,-0.2330187547551464,0.5985919299122016,0.2698692785022355,0.0602222422137754,0.5309012644733879,11.009801393943237,-1.2425337508993055,0.1272283009474346,-0.9958649090541116
1.76,-0.7639108740510783,0.6726668459201,1.5440173850200398,0.0224186586779246,0.1505891543143968,0.0105312832804981,0.3901050936905555,-0.9270430241023592,-0.1511103219751873,-0.7611393992477822,0.674370164098595,1.5397777450732144,0.5393884036988305,-1.2166126055788202,-0.227012689744122,0.6440459860346354,0.319718631530666,0.0346570015077318,0.5580090689459957,11.002577595329058,-1.2414870800073483,0.1262182715212857,-1.0027616516217075
1.78,-0.7560363256418495,0.6541251250967605,1.541112836739738,0.0250797943793283,0.1517229861068268,0.0108623918850469,0.3969850994590833,-0.9274053179490808,-0.1399084203701451,-0.7505663596931261,0.6504379119929791,1.5351774306282218,0.5608612556308792,-1.2566126061748666,-0.2210066247330975,0.6575491156092367,0.3440002884263882,-0.0181146923360742,0.5600950802521126,11.013989515828143,-1.2415047471697154,0.1240768159746529,-1.0089832353003392
1.8,-0.7480214830928932,0.6355512279207821,1.5384332915464032,0.0281935966859834,0.1519927288226586,0.0112063705189173,0.4040458001987816,-0.9300550382912482,-0.1286126946028336,-0.7361870706688953,0.6077548591993064,1.5341174157212307,0.4627310194019391,-0.99406206391933,-0.1360654309216871,0.6790948634719169,0.3530350369849194,-0.1324860171083741,0.5647862883655708,11.04087308839098,-1.2420346506699231,0.1216022704015021,-1.0137162971680131
1.82,-0.7402788778327904,0.6176723561745395,1.536107403481198,0.0254160796715697,0.1516413845684563,0.0111203545311763,0.4105514313099195,-0.9487972938308956,-0.1166730703792675,-0.7361870706688953,0.6077548591993064,1.5341174157212307,0.4627310194019391,-0.99406206391933,-0.1360654309216871,1.1577456601814684,0.3252815555568916,-0.9371127769823628,0.5969812111783059,11.04087308839098,-1.2417550443160743,0.1241593056208586,-1.0166528694163088
1.84,-0.7320055586400331,0.5986174059042273,1.5339013450219772,0.0164223021626527,0.1510178044158864,0.0106216506449725,0.4163865112452831,-0.9547272273234048,-0.10459505438701,-0.7361870706688953,0.6077548591993064,1.5341174157212307,0.4627310194019391,-0.99406206391933,-0.1360654309216871,0.7332986079812506,0.2917539967681792,-0.2964966746254682,0.6039007996128769,11.17550577898146,-1.2418074805042147,0.1326152584744981,-1.0169760174570537
1.86,-0.723625944007556,0.579534327306252,1.5319128181293624,0.0067611966925027,0.1504508968476537,0.0101083085240125,0.4212505141972901,-0.9531748475169252,-0.0949946353846858,-0.7315597604748759,0.5978142385601131,1.532756761412014,0.4758802033905103,-1.0073934131133797,-0.1352968330319955,0.5436829333372675,0.2432001476003503,0.0776189903239799,0.4800209501162104,10.918547548544666,-1.244495215417363,0.1419603118352898,-1.019055250253687
1.88,-0.71515862529791,0.5605302422488767,1.5300878455967697,-0.0015242941043772,0.150129323374034,0.0097219763462228,0.4252706773542293,-0.9476645985977408,-0.0879907112611666,-0.7223051400868372,0.5779329972817265,1.53003545279358,0.5021785713676526,-1.0340561115014797,-0.1337596372526123,0.4888238642082592,0.201008157846963,0.2755124459592195,0.3501962061759567,10.918547548544666,-1.247477785856379,0.1497824390690031,-1.0211665548653204
1.9,-0.7070453492480427,0.5426000002993199,1.5284663232421472,-0.0075789339544789,0.1501580194104764,0.0095034771620021,0.4286032957244413,-0.9404520084628336,-0.0830542287973519,-0.7130505196987984,0.5580517560033399,1.5273141441751463,0.528476939344795,-1.060718809889579,-0.1322224414732291,0.4676982487972012,0.1666309185105963,0.3606295067453691,0.2468241231907357,10.68121411422362,-1.2501749633324442,0.1563203539943729,-1.023507641470903
1.92,-0.6984388344672624,0.5238827346815118,1.5268503109338347,-0.0120504434278162,0.1505928901067353,0.0094210988381397,0.4319144613574124,-0.9319860831318668,-0.0788532512051647,-0.7024809809119025,0.5368373798055484,1.5246696953456818,0.5547753073219374,-1.0873815082776788,-0.1306852456938459,0.500709302611129,0.1655582816485562,0.4232962665483286,0.2100488796093584,10.68121411422362,-1.251785987510588,0.1610315505024702,-1.0260256092972078
1.94,-0.6897654445402689,0.5053396664635483,1.5253120404834328,-0.0147521038640453,0.1514347717576715,0.0094716531540315,0.4353155176081406,-0.9230852002016516,-0.0752058650122394,-0.6919114421250065,0.5156230036077567,1.5220252465162172,0.5810736752990797,-1.1140442066657783,-0.1291480499144628,0.5101380367076133,0.1700528125364087,0.4450441465107702,0.1823693096462651,10.629661258099077,-1.252762145116873,0.1641061376865888,-1.0288436570060977
1.96,-0.6814571748729517,0.4878872665517045,1.523916329304486,-0.0159616141385734,0.1524576210993782,0.0096220588417188,0.4391027953284517,-0.9146730465183724,-0.0718971147882205,-0.6806844441386821,0.4937420599502627,1.519419227581237,0.607372043276222,-1.140706905053878,-0.1276108541350796,0.4900398712523762,0.1893638860155588,0.4206076841639594,0.165437511200945,10.605703226276091,-1.2531016440395406,0.1657611042725033,-1.0318551405063163
1.98,-0.6726283699268182,0.4696896624010524,1.5225159799151875,-0.0159469776230194,0.1535394451731323,0.0098803483811889,0.4436044364869962,-0.9056439660546822,-0.0683087019655368,-0.6687999869529291,0.4711945488330661,1.5168516385407418,0.6336704112533643,-1.1673696034419776,-0.1260736583556964,0.5354105287676305,0.2250820579272255,0.4514540231845054,0.179420641134187,10.61581535125606,-1.253627407943408,0.1663249537325286,-1.035120638645202
2.0,-0.6637040690936573,0.4516745979072821,1.521189428594108,-0.0144645568137943,0.1544464625678041,0.0102528555259123,0.4485871251155665,-0.8965171643698304,-0.0645284706055473,-0.6504481481024683,0.4244074640983183,1.5191005448169108,0.5057960532307992,-0.8992825006192071,-0.0618839559550843,0.5532084690669172,0.2491344314285104,0.4563400842425902,0.1890115679994766,10.61581535125606,-1.2544627023369004,0.1656118534861861,-1.0383731402332803
2.02,-0.6546305930985972,0.4335542465244119,1.5199911542852849,-0.0206530770790985,0.1539315312899795,0.0101256468323883,0.4582724469103912,-0.9105535601605174,-0.0554919466796489,-0.6504481481024683,0.4244074640983183,1.5191005448169108,0.5057960532307992,-0.8992825006192071,-0.0618839559550843,0.96499304366075,0.4842660897412393,-0.701819789534347,0.4518261962949174,10.965906460014594,-1.2514904065155046,0.1711775578734559,-1.0404232953453103
2.04,-0.6458435568044644,0.416274611303407,1.5190119200237029,-0.0333985398544598,0.1513389827837397,0.009617485734798,0.4660174304322617,-0.9066098743983184,-0.0480517905812331,-0.6504481481024683,0.4244074640983183,1.5191005448169108,0.5057960532307992,-0.8992825006192071,-0.0618839559550843,0.5720431581485137,0.3872491760935237,0.1971842881099472,0.3720078049207917,10.848411764245611,-1.2563010992962402,0.1843690185361764,-1.0361159637471054
2.06,-0.6364592872365928,0.3982777478346495,1.5181084059679937,-0.0474227850187121,0.1470359895681664,0.009182960526303,0.4717680134797779,-0.8931023080091961,-0.0428132474938003,-0.6453901875701603,0.4154146390921262,1.51848170525736,0.5182343765795598,-0.8980102075321121,-0.0605990067529938,0.7793681556585074,0.2875291523758094,0.6753783194561158,0.2619271543716397,10.848411764245611,-1.2651450817810015,0.1985649351597314,-1.0316009469938598
2.08,-0.6269922095332219,0.3806139716331981,1.517278703950916,-0.0595606647980568,0.1419250544548614,0.0090239719312509,0.4744624287839961,-0.8743829487051678,-0.0403857293949689,-0.6352742665055444,0.3974289890797421,1.5172440261382585,0.543111023277081,-0.8954656213579221,-0.0580291083488128,0.9533718197863202,0.1347207652109078,0.9359679652014176,0.1213759049415716,10.549700605233738,-1.2749531374809178,0.2105253124297331,-1.026622188848949
2.1,-0.6179798881000181,0.3642091537331879,1.5165175254725431,-0.068658555775774,0.1372542803399004,0.0091195029873395,0.4739449767238396,-0.8539340751573333,-0.0398239489136074,-0.6251583454409284,0.3794433390673579,1.5160063470191565,0.5679876699746023,-0.892921035183732,-0.0554592099446318,1.023156614745662,-0.0258726030078232,1.0224436773917212,0.0280890240680706,10.549700605233738,-1.2851565236515623,0.2207680928828446,-1.0214442956947305
2.12,-0.608534104183867,0.3473720238689534,1.5157187306995314,-0.0757514090873732,0.1336080952075382,0.0093742202863263,0.4704852127838792,-0.8312392228267232,-0.0400925655751001,-0.6137985920414364,0.3615849183636833,1.514897162820264,0.5928643166721235,-0.8903764490095419,-0.0528893115404508,1.1479312302347209,-0.1729881969980196,1.134742616530504,-0.0134308330746308,10.45952379233131,-1.2934487614345638,0.2285091977167762,-1.0171172055813071
2.14,-0.599183245197421,0.3309982303888149,1.5149117192394626,-0.0805472460968149,0.1323424385606219,0.0096518114117879,0.4648949240825826,-0.8076819220822988,-0.0405783132353351,-0.6024388386419443,0.3437264976600086,1.5137879786213713,0.6177409633696447,-0.8878318628353519,-0.0503194131362698,1.210819657212138,-0.2795144350648315,1.1778650372212207,-0.0242873830117538,10.420970400108672,-1.297297831703064,0.2340414252423161,-1.0164292803772048
2.16,-0.5899374886800851,0.3151011021601022,1.5140975756282091,-0.0832875419684389,0.1335696522408294,0.0098949009013693,0.4602843200806638,-0.7837610348916207,-0.0407893760238953,-0.5904571690750142,0.3259316916106887,1.5127430418825831,0.6426176100671659,-0.8852872766611619,-0.0477495147320888,1.2181041219374182,-0.2305302000959408,1.1960443595339043,-0.0105531394280104,10.420970400108672,-1.2972678074016226,0.2375596724226137,-1.019984322963769
2.18,-0.5812218244228786,0.3004450958678976,1.5133261841940546,-0.0842224600654022,0.1362752785911024,0.0101270744188898,0.4575944800457926,-0.7604998342870439,-0.0403914078822156,-0.5778535833406461,0.3082005002157236,1.5117623526038997,0.6674942567646871,-0.8827426904869718,-0.0451796163279078,1.1709793674755251,-0.134492001743558,1.1630600302288407,0.0198984070839857,10.43975304622927,-1.295867271715519,0.2396680402984179,-1.0259301606909523
2.2,-0.5720827979049387,0.2854990231644491,1.5125301011746644,-0.0832679087347513,0.1400130701535924,0.0104455132330801,0.4566358578770714,-0.735538172806815,-0.0391951290679176,-0.558342100420589,0.2624201041535454,1.5113066137999438,0.5052763891003104,-0.7123718254445757,-0.0124216116716882,1.2504345077986363,-0.0479311084360611,1.2480830740114468,0.0598139407149027,10.484046792328629,-1.2941780391439537,0.2399763079920526,-1.033451364671092
2.22,-0.5628723539419674,0.2709382638791757,1.5118057115641692,-0.083861802926786,0.1420320427615014,0.0108141905971943,0.464485425223555,-0.7210389753958123,-0.033166692737796,-0.558342100420589,0.2624201041535454,1.5113066137999438,0.5052763891003104,-0.7123718254445757,-0.0124216116716882,0.8777591891808058,0.392478367324181,0.7249598705501348,0.3014218165060762,10.824995596801273,-1.2890484680566383,0.2414905820891109,-1.0403851937726598
2.24,-0.5539744602209071,0.2574164870337662,1.511243311534931,-0.0876113793360744,0.1403029928352747,0.0112674274511133,0.4714530188316763,-0.7023448125463252,-0.0264002821375606,-0.558342100420589,0.2624201041535454,1.5113066137999438,0.5052763891003104,-0.7123718254445757,-0.0124216116716882,1.0533320912016,0.3483796804060635,0.9347081424743552,0.33832053001177,10.824995596801273,-1.2950681426925776,0.2467761179527474,-1.041259305940322
2.26,-0.5444900584284301,0.2436191211034064,1.5107898530737056,-0.0919832175306551,0.1355252415283702,0.0120111085866661,0.4761229005879462,-0.6783568531776331,-0.0192680402141669,-0.5532893365295859,0.2552963858990996,1.5111823976832268,0.5148127709112139,-0.702746223676082,-0.0068276524295827,1.2728892971753112,0.2334940878134961,1.1993979684346068,0.3566120961696881,10.89106945769072,-1.3068737792993392,0.2527796238357718,-1.0380452081812472
2.28,-0.5349557338096037,0.2303272566610565,1.510477955816025,-0.0955354751770576,0.1291824378174217,0.0130012837740396,0.4767506803787182,-0.6522192159582174,-0.0122548320757907,-0.5431838087475797,0.2410489493902081,1.510933965449793,0.533885534533021,-0.6834950201390947,0.0043602660546281,1.353472640351172,0.0313889895386026,1.3068818609707822,0.3506604069188074,10.89106945769072,-1.3194689504909816,0.2581916221144152,-1.034213168062828
2.3000000000000003,-0.5254490862940445,0.2175708702498496,1.5103048392532192,-0.0978013079876584,0.1227086414576163,0.0141324760024584,0.4737491819328607,-0.6251213840089291,-0.0053668352987875,-0.5330782809655734,0.2268015128813166,1.5106855332163591,0.5529582981548281,-0.6642438166021074,0.0155481845388391,1.4060103030137798,-0.1500749222928754,1.3548915974644138,0.3443998388501615,10.884935230395968,-1.3303295388213028,0.2622264815971019,-1.0310165147455828
2.32,-0.5165041815221136,0.205959918383675,1.5102681567310678,-0.0986799867790554,0.1174350146992308,0.0152340192052816,0.4678773159096654,-0.5987050734117697,0.0011816127512214,-0.5220191150024769,0.2135166365492744,1.510996496907136,0.5720310617766352,-0.6449926130651201,0.0267361030230501,1.3921049242277146,-0.2935933011597669,1.3208155298579716,0.3274224025004503,10.881055837157874,-1.3410838811250474,0.2653823484244535,-1.0298673388519377
2.34,-0.5072379299407227,0.1942834881731547,1.510368074425219,-0.0980336386136016,0.1138333480138325,0.0163224875288602,0.4589033807166049,-0.5704988550381347,0.0084966939135348,-0.5109599490393802,0.2002317602172323,1.5113074605979129,0.5911038253984423,-0.6257414095281327,0.0379240215072611,1.5244939161912618,-0.448696759653025,1.4103109186817508,0.3657540581156701,10.892777228851628,-1.3490762269694705,0.2669287978348882,-1.031269921592145
2.36,-0.4981694101272017,0.1831775586331645,1.5106195856869555,-0.0953550628790814,0.1131064316404432,0.0172742225412113,0.4487173645910333,-0.5418186076804173,0.0163266467878005,-0.4994239639857385,0.1874281639736148,1.511898122250795,0.6101765890202494,-0.6064902059911454,0.049111939991472,1.5713208416993327,-0.5093008062785814,1.4340123678858674,0.3914976437132846,10.938252735593778,-1.350981466654074,0.2664335101705263,-1.0378865816020195
2.38,-0.4892902983181038,0.1726252258127573,1.5110389706315472,-0.0908658843517183,0.1149157236501343,0.0181139513334099,0.4400438049048036,-0.5154567760365715,0.0252508716350037,-0.4874111598415516,0.1751058478184221,1.5127684818657825,0.6292493526420565,-0.5872390024541582,0.060299858475683,1.45758241136865,-0.4336779843114813,1.3180915821922934,0.4462112423601581,10.97177755476514,-1.3498269950493778,0.2642547606696679,-1.047740527957717
2.4,-0.4809955941598567,0.1630640634670206,1.5116140156011992,-0.0860073490321368,0.1181847547189646,0.0188222796918385,0.4337492820727762,-0.4925553307596821,0.0348239470529821,-0.4672881080728636,0.1468523870109287,1.5123015142132974,0.4662435331553072,-0.4696102765339126,0.0389661462669807,1.2803720029854355,-0.3147261416013708,1.145072263844468,0.4786537708989196,11.02283740108942,-1.347021604877075,0.2614699933333527,-1.0621678866356246
2.42,-0.4723292239666635,0.1534371299072629,1.5123144330032376,-0.0810035914568216,0.1207595841284949,0.0196454049429738,0.4331358411851422,-0.471444444703031,0.0341688478075763,-0.4672881080728636,0.1468523870109287,1.5123015142132974,0.4662435331553072,-0.4696102765339126,0.0389661462669807,1.0564977222418144,-0.0306720443816993,1.0555443028325533,-0.0327549622702889,11.08573733119465,-1.3486552943556211,0.2593927583236636,-1.0794672299649055
2.44,-0.4636766485018275,0.144217918939043,1.512998563709607,-0.0764837497822743,0.1206525533041573,0.0206545460619364,0.4319716553529706,-0.4515353585120421,0.0344378272458216,-0.4672881080728636,0.1468523870109287,1.5123015142132974,0.4662435331553072,-0.4696102765339126,0.0389661462669807,0.9972454456529912,-0.0582092916085796,0.9954543095494456,0.0134489719122662,10.389486383103758,-1.352340714097104,0.2567331838189773,-1.0832696305259726
2.46,-0.4554894528221305,0.1358212784171914,1.5136730003812895,-0.0726897203807115,0.1187901502171501,0.0217044226876948,0.4297453840406565,-0.4332993430796139,0.0365259707213083,-0.4626256727413105,0.1421562842455896,1.5126911756759671,0.4714834788054079,-0.4604409766333808,0.0417092011933762,0.9244848376014748,-0.1113135656157088,0.91180077162141,0.1044071737743356,10.62366101598036,-1.357932589587629,0.2546179191070724,-1.0865351439142583
2.48,-0.4469343359986455,0.1273503485610615,1.5144376450305723,-0.0691767623898777,0.1156753408167498,0.0228447041937911,0.4257036859130598,-0.4147588449518551,0.0398692443010985,-0.4533008020782044,0.1327640787149114,1.5134704986013068,0.4819633701056093,-0.4421023768323173,0.047195311046167,0.9634091457026028,-0.2020849063798319,0.9270249063879382,0.1671636789895094,10.62366101598036,-1.3649825206668154,0.253254449301557,-1.0907513440525156
2.5,-0.4384832595776168,0.1192443194293161,1.5152784512847872,-0.0661038102555704,0.1122161732332921,0.023960825719844,0.4194656330539454,-0.3967671048423301,0.0440270935567672,-0.4439759314150982,0.1233718731842331,1.5142498215266464,0.4924432614058107,-0.4237637770312538,0.0526814208989578,0.9745559579555468,-0.3119026429557192,0.8995870054762517,0.2078924627834329,10.6927594120325,-1.372575737987932,0.2523895561412567,-1.0953070551510355
2.52,-0.4301818229233444,0.1114927438803772,1.5162076343691506,-0.063386601721091,0.1093620208342349,0.0249963477828097,0.4108937866700083,-0.3792971612070048,0.0486681242329475,-0.434127066186982,0.114896597643608,1.5153034499446256,0.5029231527060122,-0.4054251772301902,0.0581675307517487,1.000268272500563,-0.4285923191968549,0.873497181766264,0.2320515338090144,10.779159762372728,-1.3789208203675969,0.2518131475337488,-1.1001110415682436
2.54,-0.4224747580126708,0.1044473872753128,1.5171757335781302,-0.0610866139440947,0.1081036895233119,0.0258571692606205,0.4008986370027605,-0.3631948682961792,0.0529887976427568,-0.4242782009588658,0.1064213221029829,1.5163570783626048,0.5134030440062136,-0.3870865774291266,0.0636536406045395,0.971924730330164,-0.4997574833623924,0.8051146455412828,0.2160336704904689,10.781062702052624,-1.382262533411186,0.2512633582608555,-1.1066119432981354
2.56,-0.4145659286603044,0.0973599988244429,1.5182831343237773,-0.0588435572916219,0.108584240168077,0.0266332608410979,0.390710329825342,-0.3464481523452168,0.0575143923480338,-0.4141673384482445,0.0984045115573844,1.517547859526904,0.5238829353064149,-0.3687479776280631,0.0691397504573303,1.0059014684849663,-0.5094153588709266,0.8373357975481166,0.2262797352638464,10.784341293346188,-1.381502634404484,0.2505808537574663,-1.1145379432791076
2.58,-0.4068509835951566,0.0906052672728658,1.5194823740442225,-0.0566431767241295,0.1105079181031348,0.0273173187334725,0.3815133337526559,-0.3299581572975119,0.0621667954317904,-0.4037944786551183,0.0908461660068125,1.5188757934375223,0.5343628266066164,-0.3504093778269996,0.0746258603101212,0.972303357867398,-0.4598498036343046,0.8244997523852493,0.232620154187834,10.784341293346188,-1.379245291727602,0.2498854971324562,-1.1242993433112116
2.6,-0.3993059115975677,0.0841763872912069,1.5207771413113538,-0.0544319628381729,0.1134008306269613,0.0279453954473249,0.3736388321018451,-0.3138525997705994,0.0670570261785179,-0.3877753169075238,0.0741073594079902,1.522590713815812,0.3972374152987241,-0.2986530379022558,0.05081397045326,0.9291274350937362,-0.3937250825405386,0.8052778763456225,0.2445115373363705,10.819100632441405,-1.3762417502798183,0.24918556330304,-1.1348760818422303
2.62,-0.3922524563931318,0.0783965576018876,1.5220052453367,-0.0511059994272045,0.1156796317665957,0.0286511860430047,0.3690555205393363,-0.2963008044227249,0.062023591263203,-0.3877753169075238,0.0741073594079902,1.522590713815812,0.3972374152987241,-0.2986530379022558,0.05081397045326,0.9412859977969044,-0.2291655781254398,0.8775897673937244,-0.2516717457657403,10.819100632441405,-1.3804927404959295,0.2478331247789623,-1.1472436816400735
2.64,-0.3849265689287967,0.0726289201727811,1.5231953379119925,-0.0466359353942275,0.1167998747965534,0.0295223974216657,0.3636984271038343,-0.2815715786769349,0.0573329196906804,-0.3877753169075238,0.0741073594079902,1.522590713815812,0.3972374152987241,-0.2986530379022558,0.05081397045326,0.818002049123983,-0.2678546717751001,0.7364612872894999,-0.2345335786261344,10.21955961596359,-1.3817687666212009,0.2443523646645056,-1.150322002886468
