t,x,y,z,roll,pitch,yaw,v_x,v_y,v_z,ref_x,ref_y,ref_z,ref_v_x,ref_v_y,ref_v_z,a_com,a_x,a_y,a_z,thrust,wind_x,wind_y,wind_z
0.0,-0.4444396629835255,0.7492716007961672,2.7634730518622432,0.0317945393462602,0.1492297186208803,0.0293827578233329,0.0007028772769665,0.0177591685007898,-0.0268578591409373,-0.4444100603764018,0.7491160200104076,2.7636555340819102,-0.0312263423615577,-0.0995609750797973,-0.1035215402313391,1.6103002048844453,0.0351438638483255,0.8879584250394921,-1.342892957046868,10.662891206828135,-1.4078706464554949,0.1573177767837346,-1.2768720593721306
0.02,-0.4444561340324784,0.749643660582032,2.762679491687174,0.0461072371332297,0.1471420066270829,0.030254394752316,-0.0024203670051064,0.017650997896592,-0.0511027424316859,-0.4444100603764018,0.7491160200104076,2.7636555340819102,-0.0312263423615577,-0.0995609750797973,-0.1035215402313391,1.2222732115888943,-0.1561622141036474,-0.0054085302098902,-1.2122441645374271,9.203213871381196,-1.4097857133322431,0.1405645472667289,-1.2699786143896197
0.04,-0.4445489855309671,0.7499316640956535,2.7613995560659093,0.0609323115507046,0.1449324428503783,0.0310890016539331,-0.0067604226939682,0.01080028371604,-0.0756931214781863,-0.4444100603764018,0.7491160200104076,2.7636555340819102,-0.0312263423615577,-0.0995609750797973,-0.1035215402313391,1.2946573965885753,-0.2170027844430903,-0.3425357090275985,-1.2295189523250194,9.302892877854902,-1.4112029311966925,0.1241505466229654,-1.262890466173411
0.06,-0.4447287308197403,0.7500439547452956,2.759727341745473,0.07450786514855,0.1432038652832932,0.0318071079165114,-0.0119740218705164,0.0010875884838842,-0.0991030437156567,-0.4447223238000173,0.7481204102596096,2.762620318679597,-0.0378465743774058,-0.1195609753778205,-0.1235215405293623,1.293775989314671,-0.2606799588274087,-0.485634761607793,-1.1704961118735244,9.274531882135308,-1.4122474216737817,0.1076750443509683,-1.2542770515190154
0.08,-0.4450344033001289,0.7499343883433622,2.7574846822596464,0.0881270498494025,0.1422662877662668,0.032527021268138,-0.0182805909509432,-0.0118324298753089,-0.1239501286448912,-0.4453468506472485,0.7461291907580136,2.76054988787497,-0.0510870384091021,-0.1595609759738669,-0.1635215411254088,1.4353373448850577,-0.3153284540213419,-0.646000917959658,-1.2423542464617237,9.274623950364912,-1.4117929632965551,0.0921652948010618,-1.2458307836281568
0.1,-0.4454650873623144,0.7495395987488688,2.7547440265291665,0.1010691477978382,0.1423620988942461,0.0332481824142477,-0.0243558488716204,-0.0272791885847025,-0.1488876574889709,-0.4459713774944797,0.7441379712564177,2.7584794570703437,-0.0643275024407985,-0.1995609765699134,-0.2035215417214552,1.4978246378317157,-0.3037628960338583,-0.7723379354696788,-1.2468764422039849,9.264408293095585,-1.4105742187466184,0.0776396924291328,-1.2385758845888124
0.12,-0.4460127909716784,0.7488114917085025,2.7514957417759147,0.1133645643395467,0.1432803383189462,0.0339774655969124,-0.0299863839183164,-0.0450209298189444,-0.1747214813826356,-0.4472579275432956,0.7401467517250194,2.754409026235914,-0.0775679664724948,-0.2395609771659598,-0.2435215423175017,1.592057445496042,-0.2815267523348014,-0.8870870617120977,-1.2916911946832337,9.2641418468138,-1.4093071702499342,0.0645214992590572,-1.235174720137732
0.14,-0.4466314281891659,0.7477704834081825,2.747924295644296,0.1244743151497198,0.14468978274877,0.0346712620427552,-0.03474741452508,-0.0638882619537683,-0.1999492534918505,-0.4485444775921116,0.7361555321936212,2.750338595401485,-0.0908084305041911,-0.2795609777620064,-0.2835215429135482,1.5930192402469414,-0.2380515303381807,-0.9433666067411915,-1.2613886054607448,9.222655631789166,-1.4043799129214871,0.0512891611218441,-1.2311783899699724
0.16,-0.4473729406522,0.7462576121733874,2.7436401830004407,0.1353110407283261,0.1465367046665463,0.0353702586118977,-0.039059976067874,-0.0864893046932778,-0.227157420171976,-0.45016203924172,0.7311643126473217,2.745268164552155,-0.1040488945358874,-0.3195609783580528,-0.3235215435095946,1.781635241896483,-0.2156280771396998,-1.1300521369754777,-1.3604083340062758,9.19517321902731,-1.3988000357882409,0.0391234041334729,-1.2271483849618885
0.18,-0.4481924600758803,0.7442538696803817,2.7388071205691213,0.1445077764990102,0.1485991015575352,0.035967743968935,-0.0425975551173492,-0.1125043420355406,-0.2547460750656448,-0.4521106124921208,0.7251730930861212,2.739197733687924,-0.1172893585675837,-0.3595609789540992,-0.3635215441056411,1.9042259006565925,-0.1768789524737576,-1.3007518671131388,-1.379432744683437,9.176396471088085,-1.3939233457368423,0.0289513870233495,-1.2230637883379625
0.2,-0.4490745990584378,0.7417071182759527,2.733421680403137,0.1515025688833235,0.1507403905409955,0.0364052305402485,-0.0453761730583903,-0.1403444179011664,-0.2823357378183262,-0.4503223378317478,0.7386286525786047,2.7260698168158397,-0.06029432875071,-0.2125043435256567,-0.3547460765557609,1.9646755665203208,-0.1389308970520558,-1.3920037932812912,-1.3794831376340744,9.196022519237886,-1.389112540971685,0.0216778276026864,-1.218460804272013
0.22,-0.4499525985204499,0.7386480918774889,2.727919711384527,0.1531520211739056,0.1533462036195807,0.036539657277493,-0.0466629689959279,-0.1790624103340258,-0.2944236093070861,-0.4503223378317478,0.7386286525786047,2.7260698168158397,-0.06029432875071,-0.2125043435256567,-0.3547460765557609,2.0290733223226503,-0.0643397968768805,-1.935899621642968,-0.6043935744379919,9.196022519237886,-1.3837932293733284,0.0205195051989608,-1.2074129477424314
0.24,-0.4508878251734176,0.734700389926687,2.721902301902232,0.1489496692367919,0.1570147890643426,0.0363803735545066,-0.0466443176397041,-0.2124874956292294,-0.3067264030549465,-0.4503223378317478,0.7386286525786047,2.7260698168158397,-0.06029432875071,-0.2125043435256567,-0.3547460765557609,1.780867351087045,0.0009325678111904,-1.671254264760179,-0.6151396873930182,10.20697995761202,-1.3779098728078911,0.0251318814662731,-1.2063500414362387
0.26,-0.4518098824615508,0.7301562990873628,2.715612064052694,0.1426378943988219,0.1609347493569494,0.0360771820843606,-0.0454602817375456,-0.2397835056906155,-0.3215976191769816,-0.4509252811192549,0.7365036091433481,2.722522356050282,-0.0638336834773822,-0.23250434382368,-0.3747460768537841,1.5553353137162824,0.059201795107926,-1.3648005030693064,-0.7435608061017562,10.02780188793895,-1.372441193320309,0.0315858332391928,-1.2064675899039026
0.28,-0.452655044330586,0.7253726788123511,2.709337329496805,0.1364208764386354,0.164431350695849,0.0357096716355485,-0.0435187693660295,-0.2622895013677792,-0.3381329321924503,-0.4521311676942691,0.7322535222728349,2.7154274345191665,-0.0709123929307266,-0.2725043444197264,-0.4147460774498305,1.3997373755715623,0.0970756185758047,-1.1252997838581815,-0.8267656507734339,9.842910755474804,-1.3665384893994068,0.0386033258968363,-1.205813515292674
0.3,-0.4534990630509484,0.7199020019953607,2.702369667000436,0.1303868610503799,0.167606412392758,0.0352609171677686,-0.0409607672514017,-0.2835720858523903,-0.3578732366475345,-0.4533370542692833,0.7280034354023218,2.708332512988051,-0.0779911023840709,-0.3125043450157729,-0.454746078045877,1.4570272793795491,0.127900105731387,-1.064129224230556,-0.9870152227542116,9.68078255969158,-1.361178335710095,0.0450221767443102,-1.203999304155637
0.32,-0.4542880691308398,0.7140226718656558,2.6949855826856037,0.1251260173138214,0.1701374610440612,0.0347592583043092,-0.0380668815008765,-0.3033206882664848,-0.3796263997374965,-0.4548968763169647,0.7217533485020063,2.6992375914271336,-0.0850698118374152,-0.3525043456118193,-0.4947460786419234,1.4761283620213734,0.1446942875262612,-0.987430120704727,-1.0876581544981028,9.533950968496356,-1.3565061526729143,0.0505512056273869,-1.2008811397041907
0.34,-0.4549812440623009,0.7080830864616063,2.6875565423624885,0.1208925479637832,0.1719026709690436,0.0342403755012141,-0.0350656155577893,-0.3210268176652414,-0.4012816990213187,-0.4564566983646461,0.7155032616016909,2.690142669866216,-0.0921485212907596,-0.3925043462078658,-0.5347460792379699,1.4066508118742178,0.1500632971543614,-0.8853064699378299,-1.08276496419111,9.420028033181552,-1.3521312452805274,0.0548648639913571,-1.1967719478958845
0.36,-0.4556487653880605,0.7014678205765835,2.679283578912837,0.116950786164031,0.173145709890642,0.0336439346375442,-0.0318648178046675,-0.3395080229238916,-0.4248913943117871,-0.4581934881486611,0.7082531746864742,2.6800477482903973,-0.0992272307441039,-0.4325043468039122,-0.5747460798340163,1.5076619032275695,0.1600398876560885,-0.9240602629325106,-1.180484764523415,9.364352316948498,-1.3479285566700654,0.0587930649391491,-1.191090240243815
0.38,-0.4562523809351966,0.6944866666173961,2.6705323408916426,0.1132128031905438,0.1738514931447398,0.0329904081278351,-0.0286817997313611,-0.3575746912424329,-0.449047401523118,-0.4601072456690098,0.7000030877563564,2.6689528266996776,-0.1063059401974483,-0.4725043473999587,-0.6147460804300627,1.5166153043710937,0.1591509036653216,-0.9033334159270628,-1.2078003605665466,9.314065329157527,-1.3442088932223968,0.0624095336311939,-1.1848354708529314
0.4,-0.4567936007552599,0.6871509420925321,2.661292652028508,0.1095451604165465,0.1741171217765726,0.0322867776201903,-0.0256279941421091,-0.3749772297550331,-0.4737099571762733,-0.4576864709217647,0.6766079320552745,2.6480799708154867,-0.0130803817502729,-0.457574692732549,-0.5490474030132342,1.516917702616445,0.1526902794625983,-0.8701269256300104,-1.233127782657764,9.278205255586728,-1.341130326616975,0.0657168539222862,-1.1783396281394225
0.42,-0.4572705333576725,0.6798596219599471,2.652281543856692,0.1067004652763068,0.1758543350991532,0.0318210452938928,-0.024180709223418,-0.3919240468939149,-0.4736724347090406,-0.4576864709217647,0.6766079320552745,2.6480799708154867,-0.0130803817502729,-0.457574692732549,-0.5490474030132342,0.8504273230413604,0.0723642459345558,-0.8473408569440927,0.0018761233616326,9.24042434009607,-1.3385678253275526,0.0691831764911186,-1.1665700541461963
0.44,-0.4577181633701589,0.6718467999757437,2.6427701380106523,0.1048126000715151,0.1802296632361977,0.0316721256629567,-0.0203531879404485,-0.40861018611874,-0.4778596370632875,-0.4576864709217647,0.6766079320552745,2.6480799708154867,-0.0130803817502729,-0.457574692732549,-0.5490474030132342,0.8812063109131155,0.1913760641484721,-0.8343069612412546,-0.2093601177123427,10.663093051025498,-1.331807166594482,0.0703890102293883,-1.1724534932743476
0.46,-0.4580693277453562,0.6635010852409631,2.6331197348170567,0.1038204330076327,0.1859030400488463,0.0317117368114421,-0.0147207323832941,-0.4251352882800129,-0.4871850085518351,-0.4578172747392674,0.6720321851279489,2.6425894967853543,-0.0099600981540553,-0.4775746930305722,-0.5690474033112574,0.9896541194316844,0.2816227778577215,-0.8262551080636421,-0.4662685744273809,10.303576979650645,-1.323638442463488,0.0707806354227715,-1.1786771795866866
0.48,-0.4582925955721314,0.6548296786609877,2.623237890055088,0.1034857824677187,0.1921231160179987,0.0318455278368054,-0.0076576604106942,-0.441213516911086,-0.5005396822599328,-0.4580788823742728,0.662880691273298,2.6316085487250898,-0.00371953096162,-0.5175746936266187,-0.6090474039073038,1.10311347042467,0.3531535986299948,-0.8039114315536583,-0.6677336854048865,10.032767624104054,-1.3151623492491125,0.0705749653714644,-1.1841657206280154
0.5,-0.4583614310455076,0.6462974913774261,2.613574983205806,0.1037486805959071,0.1981533868178557,0.0320203398814246,0.0002292647535009,-0.4561466890653246,-0.5159569163671678,-0.4583404900092783,0.653729197418647,2.6206276006648253,0.0025210362308152,-0.5575746942226651,-0.6490474045033503,1.1433441374440052,0.3943462582097618,-0.746658607711928,-0.7708617053617473,9.836434906710563,-1.3059635396089535,0.0697492406148252,-1.1892470893559546
0.52,-0.4582601943894082,0.6370132361486002,2.6030636443186994,0.1047062934438051,0.2044051565904476,0.0322393066130913,0.0096325819646906,-0.4715418897667133,-0.534486678448705,-0.458290069284662,0.6425777035341937,2.607646652574758,0.0087616034232504,-0.5975746948187116,-0.6890474050993968,1.2930454961143762,0.4701658605594854,-0.7697600350694334,-0.9264881040768612,9.691105392877034,-1.2969172577570962,0.0681761666105342,-1.194038350357031
0.54,-0.457955624865455,0.6274191880091643,2.592169837692208,0.1063843185142693,0.2103672219171999,0.0324785491272743,0.0204894296711585,-0.4871702404975228,-0.5539837312940221,-0.4582396485600457,0.6314262096497404,2.594665704484691,0.0150021706156857,-0.6375746954147581,-0.7290474056954432,1.3622147025521687,0.5428423853233921,-0.7814175365404741,-0.9748526422658554,9.571109525770224,-1.2880953836691007,0.0658126512516777,-1.1982142020571582
0.56,-0.4574119408262678,0.6174961339353844,2.580879060390814,0.1083026389081681,0.2156379850172233,0.0326617351269156,0.0333640728349782,-0.5042786879532143,-0.574115831341412,-0.4580332136556185,0.619274715750386,2.580684756379723,0.021242737808121,-0.6775746960108044,-0.7690474062914896,1.4694870391211028,0.6437321581909868,-0.8554223727845756,-1.0066050023694928,9.54221920126838,-1.2802931646766322,0.0632832224708854,-1.2012711211779905
0.58,-0.4566421509769903,0.6077399005763172,2.5697746015186063,0.1097190260498132,0.2196092588771296,0.0326924438359306,0.0469802437293963,-0.5217131771512746,-0.5937477271741374,-0.4576707645713805,0.6061232218361303,2.565703808259854,0.0274833050005562,-0.7175746966068509,-0.8090474068875361,1.4788279627886598,0.6808085447209064,-0.8717244599030172,-0.98159479163627,9.521289948890626,-1.2735981778408574,0.0610820078681256,-1.202575665625087
0.6,-0.4555443420922091,0.5971046618243429,2.557676187188376,0.1103045835804843,0.222523697108815,0.0325149844422903,0.0620443509902282,-0.5408053834129503,-0.6150632089681075,-0.4542931387905205,0.5816542417187535,2.5400872151598994,0.0839670678544478,-0.5953690283365964,-0.6937477286642535,1.616933387320953,0.753205363041591,-0.9546103130837812,-1.0657740896985068,9.521289948890626,-1.2686521608131438,0.0598887532232668,-1.2018118223040346
0.62,-0.4541175014612255,0.5859441018840148,2.5453837381034754,0.1059834563805679,0.2252088961443308,0.0319555545856771,0.0802732261748085,-0.5726199858551096,-0.6116241030420563,-0.4542931387905205,0.5816542417187535,2.5400872151598994,0.0839670678544478,-0.5953690283365964,-0.6937477286642535,1.8413909610796024,0.911443759229018,-1.5907301221079695,0.1719552963025616,9.494059201315396,-1.2664023799005593,0.0643712952876703,-1.1922383837346129
0.64,-0.4524160217765385,0.5748396072925877,2.533783020692125,0.0971842598899544,0.2284131273055847,0.0311457632392582,0.0980386430633596,-0.5937019813076128,-0.609731473115298,-0.4542931387905205,0.5816542417187535,2.5400872151598994,0.0839670678544478,-0.5953690283365964,-0.6937477286642535,1.3817042171925198,0.8882708444275522,-1.0540997726251555,0.0946314963379157,11.142947281791749,-1.261734880556738,0.073690378612263,-1.1934713184294057
0.66,-0.4502599042215204,0.5627915721258466,2.521560056861289,0.0868687568814039,0.2320335217652875,0.0302193692402756,0.1167002480173447,-0.6095880215944398,-0.6129012095338757,-0.453453468111976,0.5757005514353875,2.533149737873257,0.0913644326794581,-0.6101001985736608,-0.7137477289622767,1.2355858978805905,0.9330802476992583,-0.7943020143413526,-0.1584868209288881,10.789562009793372,-1.2575052440402767,0.0842503250338105,-1.1961817932291248
0.68,-0.4477247552257299,0.5504703332504689,2.5092196734171632,0.0768182762811901,0.2353832270872637,0.0292653585951427,0.1358922764507407,-0.6215381955426204,-0.6211763732369767,-0.4517741267548871,0.5637931708686555,2.519274783299972,0.1061591623294787,-0.6395625390477895,-0.7537477295583231,1.2037638338698038,0.9596014216697972,-0.5975086974090271,-0.4137581851550498,10.147370210634108,-1.2532703030533918,0.0945209678387877,-1.1983787007112232
0.7000000000000001,-0.4448032729674988,0.5379419316285048,2.496668902004504,0.0675604603602705,0.2379347432758048,0.0282913618115408,0.1552471366051798,-0.6306187395263929,-0.633643119517789,-0.4500947853977981,0.5518857903019236,2.505399828726687,0.1209538919794993,-0.6690248795219182,-0.7937477301543696,1.2374233849710343,0.9677430077219564,-0.454027199188628,-0.6233373140406118,10.147370210634108,-1.2501958132096849,0.1035041249974291,-1.1989917850063188
0.72,-0.4416708949624461,0.5258947593057829,2.484479359425149,0.0597351274035949,0.2393769527419286,0.0273655349238693,0.1734197911606958,-0.6371261280937072,-0.6488143529035971,-0.4476757075582081,0.5385052927114853,2.4895248741236,0.1357486216295199,-0.698487219996047,-0.8337477307504161,1.2275563143974162,0.9086327277757974,-0.3253694283657127,-0.7585616692904085,9.917125431757086,-1.248247926078944,0.1118602899582027,-1.1977678142750816
0.74,-0.4380044781430465,0.513097478134742,2.4713202571895496,0.0525989751955766,0.2398634727869127,0.0264155344684778,0.1921733193953619,-0.6423141249779863,-0.6663530705172727,-0.4452566297186181,0.5251247951210469,2.473649919520512,0.1505433512795405,-0.7279495604701757,-0.8737477313464626,1.3097869563901996,0.9376764117333042,-0.2593998442139589,-0.8769358806837768,9.734785081293012,-1.247419608475416,0.1189518322340462,-1.1948539327047782
0.76,-0.4339628064766558,0.5002039649140192,2.4577976153666725,0.0463951004206711,0.2392361143427981,0.0254903300157866,0.2110140975825102,-0.6467519592917129,-0.6850629926029201,-0.4424676836377776,0.5110077390187553,2.4567749649025235,0.1653380809295611,-0.7574119009443044,-0.9137477319425088,1.3460409359900718,0.942038909357415,-0.2218917156863287,-0.935496104282374,9.643872230212764,-1.2468970340156995,0.1249224311519097,-1.19095431369138
0.78,-0.4295422322253124,0.4872317372438697,2.443888311636396,0.0408736244117141,0.2371227822152064,0.0245704020083757,0.2299924043096275,-0.6502460301262599,-0.7048966204407622,-0.4393088693156866,0.4961541244046105,2.438900010269634,0.1801328105795817,-0.7868742414184331,-0.9537477325385554,1.3836161411636183,0.9489153363558656,-0.1747035417273501,-0.991681391892102,9.580996956761735,-1.247842220639723,0.1298675021025568,-1.185739557842458
0.8,-0.424992841969428,0.4748523597918864,2.430297440395069,0.0361654410074958,0.2333860224881745,0.0236959095391815,0.2478097329365189,-0.6526801713010949,-0.7246898121255517,-0.418042612009831,0.4547194357375567,2.408643480614358,0.2657074143267841,-0.6708242357117397,-0.8048966219308783,1.3371169355449934,0.890866431344571,-0.121707058741749,-0.9896595842394772,9.456371203777053,-1.25104235743157,0.1344437661715282,-1.177923982323089
0.8200000000000001,-0.4198163955011874,0.4616471169400067,2.4158629343904567,0.027732663077544,0.2286070536256745,0.0225490656778482,0.2688694368165832,-0.665549584027894,-0.716098072842323,-0.418042612009831,0.4547194357375567,2.408643480614358,0.2657074143267841,-0.6708242357117397,-0.8048966219308783,1.306666460271776,1.0529851940032142,-0.6434706363399545,0.429586964161438,9.456371203777053,-1.2592918626797147,0.1428487537506501,-1.1569807314302685
0.84,-0.414241726526152,0.4482856767098271,2.4016068861806668,0.0156687859222621,0.224509974469312,0.0212500628560326,0.2873086835264869,-0.6691283907293881,-0.7103918284441748,-0.418042612009831,0.4547194357375567,2.408643480614358,0.2657074143267841,-0.6708242357117397,-0.8048966219308783,0.9815483963701832,0.9219623354951856,-0.1789403350747065,0.2853122199074076,10.854986435646424,-1.2652483637781438,0.1550546404542089,-1.1516859314104306
0.86,-0.4083250120924111,0.4349229608088594,2.387381640987908,0.0032078823595716,0.221060157674263,0.0200234755188775,0.3033429815263287,-0.6666800938732969,-0.7123611748423033,-0.4153855378665632,0.4480111933804392,2.4005945143950496,0.2728504163302154,-0.6749398768288356,-0.8248966222289015,0.816962659916444,0.8017148999920926,0.1224148428045635,-0.0984673199064256,10.406684735410636,-1.2695832994729963,0.1670549710982823,-1.14748609740908
0.88,-0.402425396623447,0.4223133347672776,2.3737726958056022,-0.0077923055538184,0.2181985999964503,0.0189948924357785,0.3167969417989283,-0.6607773877800168,-0.7200344387549353,-0.4100713895800275,0.4345947086662045,2.384496581956432,0.2871364203370781,-0.6831711590630275,-0.864896622824948,0.8287490049967392,0.6726980136299798,0.2951353046640015,-0.3836631956316005,10.406684735410636,-1.273329475230286,0.1787914745883718,-1.1431196699781911
0.9,-0.3959558090505431,0.4091878813812827,2.359242174616923,-0.0180600811519469,0.2155282633970082,0.0180724490865447,0.3293428131585456,-0.6520938723324843,-0.7328127993117348,-0.4047572412934918,0.4211782239519697,2.368398649517814,0.3014224243439407,-0.6914024412972194,-0.9048966234209944,0.9950990242422716,0.6272935679808606,0.4341757723766271,-0.6389180278399742,10.055425402670153,-1.2763008266848257,0.1891363790256685,-1.139123028652692
0.92,-0.3892506079653369,0.3962587162637699,2.34440988535327,-0.0267983355932271,0.2131741861895472,0.0173150010437977,0.3404983239010781,-0.6414561629050073,-0.7497425355938542,-0.3987287928066129,0.4073501751260253,2.3503007170493944,0.3157084283508033,-0.6996337235314113,-0.9448966240170408,1.1447950169924537,0.5577755371266285,0.5318854713738497,-0.8464868141059678,9.782226490271569,-1.2783324862087893,0.1974989530895888,-1.1358776068176313
0.94,-0.3826823861002388,0.3841878754429499,2.329988005340156,-0.0336859590942923,0.2112221711110856,0.0167376001327214,0.3502962845166654,-0.6299244163413208,-0.7674828298877072,-0.3927003443197341,0.3935221263000809,2.3322027845809745,0.329994432357666,-0.7078650057656032,-0.9848966246130872,1.165867973513949,0.4898980307793621,0.5765873281843248,-0.8870147146926521,9.571406205366657,-1.2800129596198566,0.2047378617371708,-1.1319693133833992
0.96,-0.3755722406222881,0.3717261073201716,2.3144301960970206,-0.0396032800178299,0.2094190251538031,0.0162607293519378,0.3601583328897074,-0.6169823175384002,-0.7874086326273662,-0.3863147457326837,0.3794882954182817,2.3131048520976534,0.3442804363645286,-0.7160962879997951,-1.0248966252091336,1.2862693481116043,0.4931024186521027,0.6471049401460316,-0.9962901369829468,9.482148937961938,-1.2811543299389818,0.2105713534547199,-1.128551061261163
0.98,-0.3682679739477376,0.3595332640130056,2.298461105265666,-0.0442570756743341,0.2077143279850995,0.0159100083729013,0.3697334588198219,-0.6031906378986404,-0.8084799257276671,-0.3795719970454618,0.3652486824806277,2.293006919599432,0.3585664403713913,-0.724327570233987,-1.06489662580518,1.347119943418279,0.4787562965057224,0.6895839819879901,-1.053564655015049,9.411896404409164,-1.281924741034007,0.2149140576077257,-1.125497469595085
1.0,-0.3611538108512593,0.3482114597830766,2.2828909914820743,-0.0476121759205779,0.2060235345499323,0.0156891196667379,0.3786076594206395,-0.5895006107138472,-0.8294040900279769,-0.3497813010067465,0.3293737321180736,2.258037108979283,0.3788659176482115,-0.5737560724439189,-0.865791024750294,1.3266394878510557,0.4437100300408808,0.6845013592396587,-1.0462082150154872,9.354499232834314,-1.2827027716496409,0.2183647757493257,-1.122274906499336
1.02,-0.3533524618539002,0.3364764387167837,2.266452830514789,-0.0540903353093339,0.2024328100338933,0.0153816141065044,0.401478022022165,-0.5825983834646457,-0.811357834462986,-0.3497813010067465,0.3293737321180736,2.258037108979283,0.3788659176482115,-0.5737560724439189,-0.865791024750294,1.4969649014270827,1.1435181300762736,0.3451113624600765,0.902312778249542,9.302774733499064,-1.2826914168813977,0.2230646348459134,-1.098693850365846
1.04,-0.3450968849800092,0.3249772888034353,2.2504001532188256,-0.0636970659126631,0.1950975790013638,0.0151505719810848,0.4221031303085592,-0.5670828995830738,-0.7952945646572617,-0.3497813010067465,0.3293737321180736,2.258037108979283,0.3788659176482115,-0.5737560724439189,-0.865791024750294,1.51999504008755,1.031255414319712,0.7757741940785934,0.8031634902862184,11.90535790192098,-1.295598576825325,0.2331936392436121,-1.0946118638780018
1.06,-0.3369237040048177,0.3143946340534158,2.23537405982186,-0.072751300973066,0.1855523593441161,0.0152260058734995,0.4366603594435534,-0.5476698668884522,-0.7870941768659727,-0.3459926418302644,0.3236361713936344,2.24937919873178,0.3806924094138895,-0.5678691593529747,-0.8772532445548193,1.280649364989001,0.7278614567497121,0.970651634731079,0.4100193895644477,11.440422901073362,-1.3110990079939318,0.2438120108688926,-1.0859413804566067
1.08,-0.3280767798414266,0.3036811705321059,2.219670400333452,-0.0810717943329169,0.1738433510737521,0.0156567632266238,0.4467137051081181,-0.5248043734482943,-0.7838837999162173,-0.3384153234773002,0.312161049944756,2.232063378236774,0.3843453929452453,-0.5560953331710861,-0.9001776841638701,1.259173408900303,0.5026672832282308,1.1432746720078937,0.1605188474877728,10.989787676005108,-1.3274612762286058,0.253077173964499,-1.0736320687216012
1.1,-0.3190830455079909,0.2934428519008519,2.203979326121891,-0.087785812990459,0.1613882276878865,0.0163992853591365,0.4516967120259,-0.5003957054833252,-0.7855186700886095,-0.330838005124336,0.3006859284958776,2.214747557741768,0.3879983764766012,-0.5443215069891975,-0.9231021237729208,1.2482850538312045,0.2491503458890959,1.220433398248455,-0.0817435086196138,10.636370129929674,-1.3431582676659124,0.2605939461689516,-1.0593817244823125
1.12,-0.3100400194981296,0.2837038718194561,2.1882100585084694,-0.0927599597508041,0.1490116603314257,0.0173708268180839,0.4520431953860037,-0.47513181543665,-0.7912309575079527,-0.3230780375948039,0.2897994983560936,2.1962855152663097,0.391651360007957,-0.5325476808073089,-0.9460265633819716,1.295197300192627,0.0173241680051838,1.2631945023337587,-0.2856143709671577,10.344465874800337,-1.3570915908884438,0.2661121944420965,-1.0459300367366309
1.14,-0.3014797268851371,0.2749251068537792,2.1731100339112404,-0.0959815602362042,0.1379401231945653,0.0184143239556155,0.4488398302320684,-0.4506032191636658,-0.7978947363963879,-0.3153180700652719,0.2789130682163097,2.177823472790851,0.3953043435393129,-0.5207738546254203,-0.9689510029910224,1.2809367007257402,-0.1601682576967605,1.2264298136492129,-0.3331889444217584,10.117475767644464,-1.3703223255763035,0.2701822727408448,-1.0312363654574588
1.16,-0.292565953497185,0.2661893904590427,2.1570704634236137,-0.0979178563062097,0.1274472987383534,0.0195593006674969,0.442508999733799,-0.4245447949881125,-0.8057104407767156,-0.3074667779474559,0.268320983731073,2.1587883193251662,0.3989573270706688,-0.5090000284435318,-0.9918754426000732,1.396608499429557,-0.3165415249134717,1.3029212087776632,-0.3907852190163874,10.040587517019958,-1.381620405156956,0.2727171343661859,-1.017706277187209
1.18,-0.2838068813144551,0.2579819800568494,2.1408654685565662,-0.0982041975809044,0.1184260541775739,0.0207088803983175,0.4335899808866948,-0.3977090304187989,-0.8144054709795114,-0.2995241612413561,0.2580232449003835,2.1391800548692554,0.4026103106020246,-0.4972262022616431,-1.014799882209124,1.479282518184204,-0.4459509423552082,1.3417882284656817,-0.4347515101397914,9.933585745293383,-1.3909233965495589,0.273683855072837,-1.0063104478224691
1.2,-0.2752500664423448,0.250322128855518,2.124477106170436,-0.0961780412987552,0.1110953705857696,0.0218623663782776,0.4225317126392122,-0.3700453145558881,-0.8239476202532049,-0.2621273822701203,0.2380965285359095,2.1001451950075904,0.391768095032689,-0.392020072083131,-0.7984023875418302,1.564144402491816,-0.5529134123741314,1.383185793145539,-0.4771074636846728,9.933585745293383,-1.3978431255005097,0.2728524689055576,-0.999708785760792
1.22,-0.2672199786704823,0.2436583532439977,2.10908953283739,-0.0896148021546001,0.1032111378777713,0.0233404862947735,0.4225291166434311,-0.3353495059189466,-0.7950342955607014,-0.2621273822701203,0.2380965285359095,2.1001451950075904,0.391768095032689,-0.392020072083131,-0.7984023875418302,2.2581958996534133,-0.0001297997890559,1.7347904318470777,1.4456662346251758,9.890270121838512,-1.4018783980121123,0.2671730735891365,-0.9906083871338492
1.24,-0.2588136226566304,0.2372530885203302,2.0935027055241986,-0.0793290945816449,0.0923326485676412,0.0252631128478499,0.4174738795926241,-0.3078522567962097,-0.7653905915897817,-0.2621273822701203,0.2380965285359095,2.1001451950075904,0.391768095032689,-0.392020072083131,-0.7984023875418302,2.0374023388086746,-0.2527618525403508,1.374862456136844,1.4821851985459822,12.474470034363549,-1.4202337598408352,0.2598803063888935,-0.983557334751686
1.26,-0.2505659293120501,0.2313440848582343,2.0784620954222714,-0.0678310685429461,0.08035827701395,0.0272057187494325,0.4071019737104526,-0.2851980442320379,-0.7400538123664104,-0.2582097013197934,0.2341763278150782,2.092161171132172,0.3834037178618878,-0.3908822804159975,-0.795201770854294,1.7767541754173282,-0.5185952941085759,1.1327106282085913,1.2668389611685649,12.161346297513774,-1.4362086548070665,0.2516196164731318,-0.974131111581273
1.28,-0.2425777531915452,0.2258419929277855,2.0638907957468007,-0.0559580931484792,0.0684192983621536,0.0290005896964166,0.3919170125704247,-0.2667182701540906,-0.7182906258838089,-0.2503743394191396,0.2263359263734155,2.0761931233813358,0.3666749635202855,-0.3886066970817303,-0.7888005374792215,1.6168807784377748,-0.759248057001391,0.9239887038973632,1.088159324130078,11.859315168154351,-1.452233222697937,0.2425313148249641,-0.9637991339444908
1.3,-0.2353112030299544,0.2209202617541156,2.0504223916477518,-0.0447970601329246,0.0579250483788641,0.0304932675537816,0.3735864422633076,-0.2526454323076105,-0.7004979527263655,-0.2425389775184858,0.2184955249317529,2.0602250756304987,0.3499462091786832,-0.3863311137474632,-0.782399304104149,1.458281343675743,-0.916528515355855,0.7036418923240056,0.8896336578721686,11.614696459502738,-1.4660921183167703,0.233402283049532,-0.9538732198270858
1.32,-0.2280722349840815,0.2159925736899978,2.036587628832912,-0.0335219244444356,0.048364373832477,0.0318179060715323,0.3511172933521428,-0.241157674555406,-0.6840094554042297,-0.2355400533349122,0.2107689026568036,2.044577089548416,0.3332174548370809,-0.384055530413196,-0.7759980707290766,1.507234035333856,-1.123457445558243,0.5743878876102212,0.8244248661067877,11.419294728645582,-1.4772833910552412,0.2245613445633351,-0.945444869669937
1.34,-0.2213141418094239,0.2112610203913477,2.023073908290741,-0.0230193097099263,0.0408506958683517,0.0328969444024621,0.3257805020676177,-0.2327173852533429,-0.6681791495617003,-0.2285411291513385,0.2030422803818544,2.0289291034663326,0.3164887004954785,-0.3817799470789289,-0.7695968373540041,1.5522484169472732,-1.266839564226252,0.4220144651031557,0.7915152921264712,11.275587507107955,-1.485490815291741,0.2166882822829253,-0.9396077361165478
1.36,-0.2150932605854797,0.2066693286181916,2.00987279384444,-0.0134726520438445,0.0361096257153903,0.033757809599469,0.297542150902061,-0.2269278263980102,-0.6527347535040212,-0.2219604238263049,0.1953725476902618,2.0134411482186265,0.2997599461538762,-0.3795043637446618,-0.7631956039789316,1.6351244890490124,-1.4119175582778392,0.2894779427666361,0.7722198028839555,11.26136288410362,-1.4917763366051413,0.2091410583259427,-0.9366185481201392
1.38,-0.2097261704803242,0.2023917291191292,1.9976137957920117,-0.0053938263336154,0.0350073077792337,0.0344147131069422,0.269271154141696,-0.2235836529831375,-0.6384426734088411,-0.2157979373598114,0.1877597045820259,1.998113223805297,0.2830311918122739,-0.3772287804103946,-0.7567943706038591,1.592714904730559,-1.4135498380182463,0.1672086707436348,0.7146040047590063,11.240762707317115,-1.49323961372842,0.202303884088336,-0.9389798130064344
1.4,-0.2046420754475607,0.1979392189897914,1.985001495465595,0.0020245154159913,0.0371130403757678,0.0349988095793754,0.2409933513233817,-0.2218212960432282,-0.6235365213379959,-0.1962626127732394,0.1912125464699724,1.9656916621215692,0.2539206083851772,-0.2331927925075377,-0.6037371686337938,1.600729055598006,-1.4138901409157147,0.0881178469954641,0.7453076035422612,11.240762707317115,-1.4911086906021762,0.1962722065033052,-0.946077697469892
1.42,-0.2001394704315822,0.1934745509518029,1.9727855207955056,0.007378759667584,0.0431198148899415,0.0354591887226797,0.2112736512372797,-0.2241497642881928,-0.5982554352679146,-0.1962626127732394,0.1912125464699724,1.9656916621215692,0.2539206083851772,-0.2331927925075377,-0.6037371686337938,1.954364123224304,-1.4859850043051028,-0.1164234122482288,1.264054303504064,11.223043537555895,-1.4862487925103,0.1920232884567921,-0.9530936084656876
1.44,-0.1963741107281143,0.1892019717666418,1.96165925743482,0.0106426784568248,0.052581825986918,0.0358179654757904,0.1872148330160446,-0.2252075858029178,-0.5742433139160176,-0.1962626127732394,0.1912125464699724,1.9656916621215692,0.2539206083851772,-0.2331927925075377,-0.6037371686337938,1.7003879648316125,-1.2029409110617548,-0.0528910757362485,1.2006060675948504,11.99600195345829,-1.4766464361751233,0.1892081949570355,-0.97348869300681
1.46,-0.1928479455992198,0.1846895786297583,1.9504294695677469,0.0131138533299379,0.0646545632185391,0.0361743164253965,0.1672318104249658,-0.2258619272646062,-0.550064509264517,-0.1937234066893877,0.188880618544897,1.9596542904352316,0.2508504992338734,-0.2351146204124178,-0.5967960676787843,1.568728744078684,-0.999151129553938,-0.0327170730844192,1.2089402325750287,11.878269563005231,-1.4649594272196,0.1872172700063064,-0.9974054043274116
1.48,-0.1896724765720604,0.1801641271887973,1.9396692699892624,0.0149135989916284,0.0775310219181028,0.036513651230133,0.1517835871484372,-0.226523153463455,-0.527192447498036,-0.1886449945216841,0.1842167626947462,1.947579547062556,0.2447102809312659,-0.2389582762221779,-0.5829138657687654,1.3804130106033925,-0.7724111638264308,-0.0330613099424434,1.1436030883240522,11.716823563165237,-1.4534568746001977,0.1858744952659956,-1.020461151608123
1.5,-0.1867626885775863,0.1756236300737435,1.9293546470069884,0.0161393922483306,0.0903989350846913,0.0368254412429026,0.1403601665016065,-0.2274209134497599,-0.5054546896882564,-0.1835665823539806,0.1795529068445955,1.93550480368988,0.2385700626286583,-0.242801932031938,-0.5690316638587465,1.2286482682851934,-0.5711710323415344,-0.0448879993152434,1.08688789048898,11.716823563165237,-1.4413252602244415,0.1849452936762478,-1.0441226941605477
1.52,-0.1841698354263197,0.1712908929182832,1.9199483989986472,0.0166700727715373,0.1019620006539908,0.0370710366562801,0.1333654386952122,-0.2285370831639893,-0.4858048725183268,-0.1787951811014074,0.1746968682039567,1.9241241704127048,0.2324298443260508,-0.2466455878416981,-0.5551494619487276,1.0443746534747076,-0.3497363903197159,-0.0558084857114699,0.9824908584964764,11.62016316791869,-1.4295393072040177,0.1846137416969917,-1.066395340213254
1.54,-0.1815473894984899,0.1667068373030687,1.9104457182467287,0.0164464852057941,0.1128155696386819,0.0372487410261446,0.1294639326712,-0.2297455072005628,-0.4655429503389455,-0.1740237798488342,0.169840829563318,1.91274353713553,0.2262896260234433,-0.2504892436514582,-0.5412672600387086,1.0334741509961405,-0.1950753012006117,-0.0604212018286753,1.0130961089690664,11.62016316791869,-1.4190716751767576,0.1850445225979005,-1.0859399115912651
1.56,-0.1789713879459638,0.1620990615294346,1.9013414682725955,0.015304210990881,0.1218763604621487,0.0373205358768136,0.1283736996381115,-0.2308522805858778,-0.4459346691020987,-0.1694058840538262,0.1648886995274352,1.9017099589061053,0.2201494077208357,-0.2543328994612183,-0.5273850581286897,0.9834864621032616,-0.0545116516544236,-0.0553386692657503,0.9804140618423384,11.622789091282357,-1.4109981349612823,0.1863108495753827,-1.101777808301429
1.58,-0.1765243830036342,0.1577058309036371,1.893049287665643,0.0133473351874963,0.12865084939707,0.037283709492997,0.1292258080058248,-0.2314271725555067,-0.4279313868794185,-0.1649414937163835,0.1598404780963084,1.8910234357244315,0.2140091894182282,-0.2581765552709784,-0.5135028562186708,0.901630135139327,0.0426054183856675,-0.0287445984814463,0.9001641111340108,11.608202451838224,-1.4046315738637014,0.1885806345719048,-1.1152187240001044
1.6,-0.173918415170289,0.1530848242637312,1.884685185304246,0.0106736921237152,0.133838480073494,0.0371588306861314,0.1312979871367419,-0.2304280119455281,-0.4094578233261365,-0.170063092603343,0.1461344722758617,1.871652718321672,0.1536950830333383,-0.228966011091054,-0.4262890451538902,0.930812546424212,0.1036089565458545,0.0499580304989311,0.9236781776641,11.590020302922312,-1.400434627534924,0.1915209946417071,-1.1256719930125878
1.62,-0.1713200807802746,0.1484828946670477,1.876626129583029,0.00749278653244,0.1386643633606776,0.0369777654158408,0.1285395937235515,-0.2294846405019867,-0.3977191461267295,-0.170063092603343,0.1461344722758617,1.871652718321672,0.1536950830333383,-0.228966011091054,-0.4262890451538902,0.60476281775234,-0.1379196706595212,0.0471685721770698,0.5869338599703511,11.1323870552078,-1.4000131804405576,0.1953014390103357,-1.1348200307799547
1.64,-0.1687643800801057,0.1439233262674638,1.8687762914457504,0.0040933978071552,0.1444709205713113,0.0367704413045574,0.1274534655690065,-0.2264423923627745,-0.3878484699706012,-0.170063092603343,0.1461344722758617,1.871652718321672,0.1536950830333383,-0.228966011091054,-0.4262890451538902,0.5192908527207898,-0.0543064077272489,0.1521124069606097,0.4935338078064122,11.1323870552078,-1.3940563849499903,0.1987446371581497,-1.1447414719797393
1.66,-0.1663341820305713,0.1396619530740822,1.8614946030245465,0.0011538397441558,0.1502211432081249,0.0365765751283437,0.1285646099751024,-0.2223075967336312,-0.3791657203840786,-0.1685261417730096,0.1438448121649512,1.8673898278701333,0.158588938038841,-0.2284737787981634,-0.4259605768087846,0.4840488538573337,0.0555572203047929,0.2067397814571672,0.4341374793261299,11.06896567095646,-1.3875841264209328,0.2021149596153453,-1.155489084772576
1.68,-0.1637326768512907,0.1352699409079822,1.854002790147639,-0.0014806112019675,0.155983468394191,0.0363877188407581,0.1316698294402902,-0.2171395661487582,-0.3705121283946403,-0.1654522401123428,0.1392654919431301,1.858864046967056,0.1683766480498464,-0.2274893142123824,-0.4253036401185733,0.5273414035822387,0.1552609732593926,0.2584015292436487,0.4326795994719135,11.040578836601526,-1.3816042681780123,0.2050446454192508,-1.1657883218055334
1.7,-0.1610507642465951,0.1309885197737295,1.8466791015615327,-0.003591869488983,0.1610654219609278,0.0362235953127264,0.1364513553413511,-0.2113208702626538,-0.3623232465230666,-0.1623783384516761,0.134686171721309,1.8503382660639776,0.1781643580608518,-0.2265048496266012,-0.424646703428362,0.556277803943482,0.2390762950530436,0.2909347943052198,0.4094440935786869,11.028153935440969,-1.3764918364907823,0.2074587357148516,-1.175131233681137
1.72,-0.1582584704497264,0.126829728957399,1.8395151718795213,-0.0051321927518201,0.1651930300840275,0.0360944447108522,0.1425330037852646,-0.2049465554881059,-0.3544963716578884,-0.158815051290459,0.130156074728777,1.8418453319954105,0.1879520680718572,-0.2255203850408201,-0.4239897667381507,0.5892332025512762,0.3040824221956742,0.3187157387273959,0.3913437432589095,11.01753094776359,-1.3726798499523074,0.2092025657974949,-1.182685430765831
1.74,-0.1554849309117826,0.1230022327490542,1.8328495776562717,-0.0059768936153627,0.1681287563187967,0.03601574849057,0.1490739173273401,-0.1983463920686266,-0.3475457725644931,-0.155251764129242,0.125625977736245,1.8333523979268436,0.1977397780828627,-0.2245359204550391,-0.4233328300479394,0.5802080120220836,0.3270456771037752,0.3300081709739666,0.3475299546697646,11.012332417001744,-1.3698221277485805,0.2103459304972265,-1.1890926835109343
1.76,-0.152426035235264,0.1191125996690656,1.825971814423516,-0.0060464184139308,0.1701602294060276,0.035994426334193,0.1564306992069825,-0.1910266830438276,-0.3406138910919243,-0.1514437842177498,0.1211204923583575,1.8248758872755315,0.2075274880938681,-0.2235514558692579,-0.4226758933577281,0.6240019242400233,0.3678390939821196,0.3659854512399488,0.3465940736284395,10.993650519379116,-1.3685190085656662,0.2106067457088319,-1.1940825763238665
1.78,-0.1492169899547658,0.1153721436387036,1.819228568727492,-0.0050886397647099,0.1711042160051913,0.0360497947446492,0.1639952734184607,-0.1835240137794699,-0.3340531442742664,-0.1473911115559825,0.1166396185951145,1.8164158000414747,0.2173151981048734,-0.2225669912834769,-0.4220189566675168,0.6256121560054323,0.3782287105739107,0.3751334632178818,0.3280373408828946,10.97970205585898,-1.3686203491055524,0.2098276451834359,-1.1975529836856296
1.8,-0.1458585156157811,0.1117786304341606,1.8126140256374728,-0.0030386046231326,0.1710727127003546,0.0361827879017729,0.1713847470502001,-0.1763217112055881,-0.3277337986559516,-0.1410172262838427,0.1061959429497301,1.8025259115137784,0.1589173129831596,-0.1663842157492127,-0.3305273733064402,0.6050033304942045,0.3694736815869695,0.3601151286940912,0.3159672809157438,10.964637884803778,-1.3699723127481662,0.2078498618018183,-1.2001394724054475
1.82,-0.1424508241149408,0.1084384605092676,1.806498611842952,-0.0019228954976764,0.1680012658216481,0.0362525961901642,0.1866280275749758,-0.1750126290108698,-0.3162699535616858,-0.1410172262838427,0.1061959429497301,1.8025259115137784,0.1589173129831596,-0.1663842157492127,-0.3305273733064402,0.9558910001862874,0.7621640262387847,0.065454109735917,0.5731922547132895,10.952321396091063,-1.3699682907467323,0.2063096543477813,-1.200363264996987
1.84,-0.1385794207777189,0.1049611335967262,1.8002950397400057,-0.002781975707596,0.1596957680240469,0.0361940714269266,0.1988517017883114,-0.172652379443777,-0.3046716366650381,-0.1410172262838427,0.1061959429497301,1.8025259115137784,0.1589173129831596,-0.1663842157492127,-0.3305273733064402,0.8507495873166664,0.6111837106667808,0.1180124783546399,0.5799158448323849,11.373387830772115,-1.3846185509322553,0.2076749688347678,-1.1897921793773305
1.86,-0.1345281579581573,0.101538725259471,1.7943116050929897,-0.0052301560487791,0.1483224993646645,0.0360545139673297,0.2050391452477748,-0.1695232804403312,-0.2941673378938957,-0.1394280531540111,0.104532100792238,1.799220637780714,0.1579017208960994,-0.1629562561431613,-0.3298222191128749,0.629317109672947,0.3093721729731685,0.156454950172287,0.5252149385571198,11.27083869184753,-1.400752015492716,0.2104614878203526,-1.1752833742895632
1.88,-0.1306221317478405,0.0983654474723752,1.78881132494256,-0.0083475307582331,0.1364371959004234,0.0359130377722725,0.2054316613167049,-0.1644829034572351,-0.285289321585699,-0.1362497068943479,0.1012044164772537,1.7926100903145852,0.155870536721979,-0.1561003369310584,-0.3284119107257445,0.5108293319806044,0.019625803446506,0.2520188491548086,0.4439008154098339,11.162947414008158,-1.417929125635231,0.2141861619953913,-1.15780664179806
1.9,-0.1265556862831659,0.0951465150569685,1.7831934478227138,-0.0115306058932305,0.1242060576866062,0.0358180657553004,0.2008416130870123,-0.1576684549735617,-0.277000574699645,-0.1330713606346847,0.0978767321622695,1.7859995428484563,0.1538393525478586,-0.1492444177189555,-0.327001602338614,0.5835421489245929,-0.2295024114846292,0.340722424183669,0.414437344302701,11.06101745156775,-1.4341229563473037,0.2177569265393164,-1.1407759559490291
1.92,-0.1226299691111136,0.0920742513824286,1.7777275460537243,-0.0142384714766456,0.1133686955856091,0.0357836898314092,0.1918636040402323,-0.1499945044172203,-0.2699852403672161,-0.1299945735837276,0.0948918438078904,1.779459510801684,0.1518081683737381,-0.1423884985068526,-0.3255912939514834,0.6868571164750947,-0.4489004523390016,0.3836975278170715,0.3507667166214451,10.97586436412712,-1.4479081493575603,0.220756080436936,-1.125754638182013
1.94,-0.1189194135125828,0.0891607470789901,1.7723935202253636,-0.0163819349443829,0.1046287249488038,0.0357902003120523,0.1796633753856671,-0.1418552582951999,-0.2637605210042431,-0.1269177865327704,0.0919069554535112,1.7729194787549116,0.1497769841996177,-0.1355325792947497,-0.324180985564353,0.7966179099892658,-0.610011432728258,0.4069623061010163,0.3112359681486487,10.89489200571461,-1.4582223788383684,0.2230088613701144,-1.1142792030780162
1.96,-0.1156471705013954,0.0865481927025276,1.76743542021753,-0.0178465024205865,0.0987654114077034,0.0358144444640586,0.165361661375167,-0.133673792480746,-0.2584535057384919,-0.1238917790861662,0.0890934650794347,1.7664147044178178,0.1477458000254973,-0.1286766600826468,-0.3227706771772224,0.8655053690505462,-0.7150857005250046,0.4090732907226946,0.2653507632875612,10.846289607046856,-1.4664659485094498,0.2247832617248845,-1.105668407234949
1.98,-0.1125208936054804,0.0839691546631402,1.7623205689968473,-0.0186909033829177,0.0959247772114212,0.0358380363941683,0.1480537363893313,-0.1247063497136974,-0.2533349433056939,-0.1209165512439151,0.0864513726856607,1.759945187790402,0.1457146158513769,-0.1218207408705439,-0.321360368790092,1.0076941233257004,-0.8653962492917874,0.4483721383524298,0.2559281216399006,10.817057707166896,-1.4699383363552871,0.2257702151114489,-1.1026100566178831
2.0,-0.1097397974265154,0.0815744487102801,1.7573032891472051,-0.018624360757842,0.0966727995590785,0.0358605557931929,0.1313114747500153,-0.1152761113763081,-0.2486712747954142,-0.1051182067860138,0.0777338371774553,1.7496538218315627,0.1508388782019687,-0.1161673650201106,-0.2377447282038557,0.9886639012741548,-0.8371130819657998,0.4715119168694652,0.2331834255139817,10.793655522518748,-1.4679645261498735,0.2257618001856662,-1.1059884793813033
2.02,-0.1072832852847465,0.0794142438015933,1.7524522667044011,-0.0160892110834916,0.1006410440180916,0.0359981075689609,0.1156562317066517,-0.1017567082962991,-0.2362709814867862,-0.1051182067860138,0.0777338371774553,1.7496538218315627,0.1508388782019687,-0.1161673650201106,-0.2377447282038557,1.2058484238561502,-0.7827621521681773,0.6759701540004506,0.6200146654314009,10.760203877201093,-1.462601849613528,0.2234181715133715,-1.113065905824604
2.04,-0.1052096412761702,0.0775740391184864,1.7480805463202926,-0.0113225323578084,0.1068907056312804,0.0362687554407683,0.1038339517154874,-0.0931479589596374,-0.2245900923972291,-0.1051182067860138,0.0777338371774553,1.7496538218315627,0.1508388782019687,-0.1161673650201106,-0.2377447282038557,0.935841919414667,-0.5911139995582148,0.4304374668330848,0.5840444544778556,11.291364227464328,-1.4561068946266438,0.2187594793263565,-1.129540669752276
2.06,-0.1032323138582389,0.0757747982214479,1.743709341351484,-0.0059305671683615,0.1148506827813166,0.0365955618847805,0.0948877157740312,-0.0873521689943383,-0.2132113919942072,-0.1036098180039941,0.0765721635272542,1.747276374549524,0.1513959065644962,-0.1144595680813932,-0.2346266851834881,0.7795850526142045,-0.4473117970728128,0.2897894982649563,0.5689350201510956,11.214224231403024,-1.4466127676003402,0.2134146185106422,-1.147473886111183
2.08,-0.1013976866071629,0.0740695692260063,1.7395551858325604,-0.0009754398915324,0.1231989474783154,0.0369253929625746,0.089278660808114,-0.0834178931385565,-0.2028086713551098,-0.1005930404399547,0.074248816226852,1.7425214799854472,0.1525099632895512,-0.1110439742039585,-0.2283905991427529,0.6228094026569653,-0.2804527482958597,0.196713792789091,0.5201360319548681,11.161117545741035,-1.4369942080782292,0.2086099422350308,-1.1640687249384474
2.1,-0.0997297985819229,0.0725106025437974,1.735793784517182,0.0030807462630268,0.1307608669101937,0.0372223872420108,0.0867010298346013,-0.0807838819804296,-0.1936790169140863,-0.0975762628759153,0.0719254689264498,1.73776658542137,0.1536240200146062,-0.1076283803265238,-0.2221545131020176,0.492272247920926,-0.1288815486756335,0.1317005579063446,0.4564827220511741,11.11952525072229,-1.427214606324912,0.2041496064845326,-1.1800872494244932
2.12,-0.0980024187695064,0.0709161604577674,1.7320156452774864,0.0066303741592125,0.1378120567327185,0.0375036621248666,0.0862979110849123,-0.0787368829910817,-0.1846609604206442,-0.0945037824756232,0.0697729013199193,1.7333234951593297,0.1547380767396612,-0.104212786449089,-0.2159184270612824,0.4628121987039004,-0.0201559374844485,0.1023499494673924,0.4509028246721058,11.075954846835884,-1.4188383278185317,0.2004386708038464,-1.1944407944008133
2.14,-0.096262209291569,0.0693564606739217,1.7284145629847891,0.0094734942237303,0.1435957139599835,0.0377404212385597,0.0877970627713521,-0.0772605422282651,-0.1759217219319144,-0.0914313020753311,0.0676203337133888,1.7288804048972892,0.1558521334647161,-0.1007971925716543,-0.2096823410205471,0.4494477922679289,0.0749575843219885,0.073817038140829,0.4369619244364922,11.075954846835884,-1.412260294478095,0.1975618033848782,-1.2057900302007385
2.16,-0.0944764309020338,0.0678221531795574,1.7249857807656097,0.0116779182090978,0.1479098054421368,0.0379238665054033,0.0906411087417731,-0.0761363832256115,-0.1674092247149595,-0.0883309702569126,0.0655531559537942,1.7245932167862672,0.1569661901897711,-0.0973815986942196,-0.2034462549798119,0.4522580563510716,0.1422022985210491,0.056207950132682,0.4256248608477439,11.081050761369625,-1.4070977283349382,0.1951643950679328,-1.214896956129857
2.18,-0.0927197960121577,0.0663826764117314,1.7218841344631022,0.0132738797100655,0.1506434551919911,0.038046919210287,0.0940363542611564,-0.0753703478022784,-0.1595118308475262,-0.0852027870203677,0.0635713680411355,1.7204619308262636,0.1580802469148261,-0.0939660048167849,-0.1972101689390767,0.4315186331552396,0.1697622759691652,0.0383017711666544,0.3948696933716647,11.083680984887906,-1.4038643209816202,0.1933360195782005,-1.2214971855794423
2.2,-0.0907989099198652,0.0648797505567632,1.7187800107200115,0.0144327206782977,0.1522088724594325,0.0381185188528885,0.0977992159494811,-0.0749493345249394,-0.1513207639584983,-0.0880179782990999,0.0626141590216175,1.713908542920726,0.1069817920650209,-0.0734552561535806,-0.1570889220608419,0.4511927444166366,0.1881430844162361,0.0210506638669512,0.4095533444513938,11.083575003323858,-1.4024470223062675,0.1920888487817826,-1.225841032595302
2.22,-0.0888107799530913,0.0633943070766913,1.7158139434561963,0.0153719628459762,0.1527132973719066,0.0381534283952031,0.100729622977284,-0.073695068087448,-0.1458296897349808,-0.0880179782990999,0.0626141590216175,1.713908542920726,0.1069817920650209,-0.0734552561535806,-0.1570889220608419,0.317460098961241,0.1465203513901433,0.0627133218745704,0.2745537111758761,11.084242974455265,-1.4019788928787424,0.1910820950103894,-1.228116920509404
2.24,-0.086770133683626,0.0619269005766036,1.712948738514397,0.0162443079372382,0.152509106854747,0.0381657254641356,0.1031150230247927,-0.0731189853333781,-0.1409480818396634,-0.0880179782990999,0.0626141590216175,1.713908542920726,0.1069817920650209,-0.0734552561535806,-0.1570889220608419,0.2731853783139583,0.1192700023754364,0.0288041377034961,0.2440803947658679,10.906736578687742,-1.4028172490690178,0.1901050544070723,-1.2292775013502082
2.26,-0.0847923035960857,0.0605385575980896,1.710315141283293,0.016779441261769,0.1519124063764862,0.0381437734363182,0.1049060197555331,-0.0730270970107817,-0.1365130698892116,-0.0869481603784497,0.0618796064600817,1.7123376537001176,0.1095708796257938,-0.073072237823841,-0.1566043403035051,0.239193665018552,0.089549836537018,0.0045944161298175,0.2217505975225922,10.88922308025667,-1.404076356068672,0.189445129046125,-1.2295806626419812
2.28,-0.0826790125494648,0.0590762949769674,1.707632517424693,0.0169013795835142,0.1510729764684882,0.0380801847512688,0.1062831516936052,-0.0731811873134012,-0.1319868369771373,-0.0848085245371493,0.0604105013370101,1.7091958752589007,0.1147490547473396,-0.0723062011643618,-0.1556351767888314,0.2366802725754943,0.0688565969036089,-0.0077045151309747,0.2263116456037134,10.877449863456604,-1.40553723304594,0.1892713408901507,-1.2293868879102097
2.3000000000000003,-0.0805433014774471,0.0576099971263622,1.7050385467326994,0.0164958881384772,0.1501892621334572,0.0379742326969884,0.1071873377218488,-0.073402471066877,-0.1276427332005969,-0.0826688886958488,0.0589413962139385,1.7060540968176838,0.1199272298688853,-0.0715401645048827,-0.1546660132741577,0.2221359746561541,0.0452093014121787,-0.0110641876737885,0.2172051888270201,10.868421519954609,-1.4069680171901144,0.1896708553190558,-1.2289876268060522
2.32,-0.0783940788157041,0.0561406924659802,1.7025294209508828,0.0155478364482428,0.1493923373236905,0.0378288188841568,0.107681380548712,-0.0734593577714242,-0.1234848342549242,-0.0802703440984711,0.0575105929238408,1.7029607765522006,0.1251054049904311,-0.0707741278454036,-0.1536968497594839,0.2093766824073045,0.0247021413431587,-0.0028443352273622,0.207894947283637,10.856607354716289,-1.408173505936011,0.1906030809535157,-1.2286194251572682
2.34,-0.0763464605310767,0.0547476296809912,1.7002202875365988,0.0142083545849858,0.1487927599903094,0.0376611873400598,0.1078375999301064,-0.0731313494863226,-0.1197895203413753,-0.0778717995010934,0.0560797896337432,1.6998674562867175,0.1302835801119769,-0.0700080911859244,-0.1527276862448102,0.1856565299813527,0.0078109690697179,0.0164004142550786,0.1847656956774461,10.84522904168989,-1.4091725380892317,0.1920945763679951,-1.2284081034767482
2.36,-0.0741896364821445,0.0532941082508601,1.6978631921020808,0.0124682059834682,0.1483528410771234,0.0374641867333054,0.1078369704953175,-0.0721897926342075,-0.1161256206124985,-0.0753438005256771,0.0546681372601325,1.6967983651091012,0.1354617552335227,-0.0692420545264453,-0.1517585227301365,0.1891473692998155,-3.1471739442984203e-05,0.047077842605759,0.1831949864438374,10.82808474614376,-1.4098565859798893,0.1939624316466111,-1.2284799806376243
2.38,-0.0720342905875846,0.0518683631891147,1.6955765460213252,0.0106175130259615,0.1480982398018105,0.0372622352365849,0.1077097979756342,-0.0703784939580353,-0.1127235764055373,-0.0726863471722221,0.0532756358030088,1.6937535030193516,0.1406399303550685,-0.0684760178669661,-0.1507893592154628,0.192813903351028,-0.0063586259841652,0.0905649338086067,0.1701022103480602,10.813602466091652,-1.4102400291140778,0.1958546134730811,-1.228837620467809
2.4,-0.0699897526931053,0.0505562333649304,1.6934651635166285,0.0090532976093492,0.1480064050173121,0.0370859696291499,0.1075258996814157,-0.0678774607314667,-0.1097009497693119,-0.0666488006888029,0.0483494384912129,1.6899403672010485,0.1133967553647505,-0.0634534563616606,-0.1206005518673779,0.1963750083706924,-0.0091949147109256,0.1250516613284312,0.1511313318112682,10.798653372390618,-1.4105430106976014,0.1976422849011032,-1.2296255341868738
2.42,-0.0678302981748377,0.0492251612792996,1.6913024943929942,0.0075526715933705,0.14769755143316,0.0369092767166802,0.1083855927059898,-0.0653082232598647,-0.1067289311018237,-0.0666488006888029,0.0483494384912129,1.6899403672010485,0.1133967553647505,-0.0634534563616606,-0.1206005518673779,0.2010780211875744,0.0429846512287043,0.1284618735801025,0.148600933374414,10.78634463614526,-1.41049908003736,0.1992093320632091,-1.230268388410035
2.44,-0.0656593190136891,0.0479530158806787,1.689192372533803,0.0062294142795473,0.1469498428019112,0.0367428134514198,0.1086057436337153,-0.0620404086668304,-0.1044283474139477,-0.0666488006888029,0.0483494384912129,1.6899403672010485,0.1133967553647505,-0.0634534563616606,-0.1206005518673779,0.20012348656734,0.0110075463862747,0.1633907296517144,0.1150291843937993,10.775881840784676,-1.4118576834440872,0.2006454704544145,-1.229906181199008
2.46,-0.0634913878007752,0.0467528035582998,1.68712190539197,0.0053302085015658,0.1460376054730554,0.0366060945697138,0.1081445756863297,-0.0581839794594919,-0.1027305378793712,-0.0655148331351554,0.0477149039275963,1.688734361682375,0.1145341468425737,-0.0620684488423856,-0.1221759469597461,0.2119391382131202,-0.0230583973692792,0.1928214603669247,0.0848904767288237,10.734785998339248,-1.41324168431925,0.2015644090576254,-1.2294167826651534
2.48,-0.061446099071882,0.0456877728087501,1.6851815744172185,0.0050393746805388,0.1452016319322368,0.0365157830400156,0.1071655037226866,-0.0541723409779165,-0.1015984931214531,-0.0632468980278603,0.0464458348003631,1.6863223506450271,0.1168089297982203,-0.0592984338038357,-0.1253267371444823,0.2140873101726144,-0.048953598182156,0.200581924078768,0.0566022378959044,10.698914991049604,-1.414614305399314,0.201870020785634,-1.2290628119104576
2.5,-0.0593176521311547,0.0446496960509751,1.6831582851566762,0.0054199404766577,0.1444862599272751,0.0364679252820892,0.1057243955272181,-0.0498938843612929,-0.100808684350043,-0.0609789629205653,0.0451767656731299,1.6839103396076796,0.1190837127538668,-0.0565284187652858,-0.1284775273292186,0.2291603245916096,-0.0720554097734214,0.2139228308311796,0.0394904385705038,10.66888475761698,-1.4157266369061967,0.2013805905012118,-1.2290799913404624
2.52,-0.0572215468604823,0.0436957972829555,1.681146522677642,0.0065355685010653,0.1440302418309765,0.0364694510304863,0.1039858452239982,-0.0457864212507579,-0.1004074824938184,-0.058597288665488,0.0440461972978242,1.6813407890610952,0.1213584957095133,-0.0537584037267359,-0.1316283175139548,0.2239127804004818,-0.0869275151609963,0.2053731555267484,0.0200600928112304,10.644163897381077,-1.4164412099692203,0.2001433258332079,-1.229534126605913
2.54,-0.0552638253508981,0.0428610658682194,1.679239909305974,0.00821225239839,0.1438699277861664,0.0365113426195178,0.1022103847720535,-0.0423458778053381,-0.100310796967836,-0.0562156144104106,0.0429156289225184,1.6787712385145108,0.1236332786651598,-0.050988388688186,-0.1347791076986911,0.1936423707971453,-0.0887730225972341,0.1720271722709929,0.004834276299119,10.622837951303154,-1.4167958674694596,0.1980981565679508,-1.2304704534169737
2.56,-0.0532389582028643,0.0420446625754885,1.6772324391246185,0.010446595704958,0.143971511813536,0.0365849659998208,0.1004018569169128,-0.0396491481686735,-0.1004557694508449,-0.0537770705814421,0.0418543109231765,1.676122918213308,0.1259080616208063,-0.0482183736496361,-0.1379298978834273,0.1625126207169359,-0.0904263927570335,0.1348364818332302,-0.0072486241504417,10.60586471361148,-1.4168554720346958,0.1954993806496325,-1.231800432043779
2.58,-0.0512487938950459,0.0412675640819671,1.6752195284206974,0.0126766323801559,0.1443017452139555,0.0366549559080975,0.098734970432506,-0.0382123525010976,-0.1008396121656971,-0.0512816571785825,0.0408622432997983,1.6733958281574868,0.1281828445764528,-0.0454483586110862,-0.1410806880681636,0.1116940863699616,-0.0833443242203399,0.0718397833787964,-0.0191921357426134,10.591881237376583,-1.4164616511982924,0.1928684234752845,-1.23312318485793
2.6,-0.0492900364442113,0.0405109555485845,1.6731967097009786,0.0146047854725313,0.1448035452164856,0.0367007953899215,0.0972526399048456,-0.0374895492688103,-0.1014327703782375,-0.0463120453734206,0.0393569464569122,1.6701775478124126,0.0995699473375316,-0.0317229754979345,-0.1053073937988358,0.0876296891889828,-0.074116526383023,0.0361401616143602,-0.0296579106270199,10.579971323337304,-1.4158180804668603,0.1906596878634053,-1.234354828097525
2.62,-0.0474337286344766,0.0397969742846738,1.6713077507241183,0.0159401888525347,0.1449390939846205,0.036699945352975,0.0981015410546488,-0.03760834339024,-0.0973701688983916,-0.0463120453734206,0.0393569464569122,1.6701775478124126,0.0995699473375316,-0.0317229754979345,-0.1053073937988358,0.2076022398089059,0.0424450574901619,-0.0059397060714803,0.2031300739922963,10.876512285496574,-1.4154338345408797,0.1889012984717243,-1.2358138775955052
2.64,-0.04546713737581,0.0390391680562133,1.6694003160820017,0.0166547786485796,0.1444203302998032,0.0366356172140104,0.0984255026344239,-0.0381293648779296,-0.0936375993534629,-0.0463120453734206,0.0393569464569122,1.6701775478124126,0.0995699473375316,-0.0317229754979345,-0.1053073937988358,0.1891328230605,0.0161980789887557,-0.026051074384481,0.1866284772464338,10.876512285496574,-1.4165514259665746,0.1879858936022,-1.23605257025272
