t,x,y,z,roll,pitch,yaw,v_x,v_y,v_z,ref_x,ref_y,ref_z,ref_v_x,ref_v_y,ref_v_z,a_com,a_x,a_y,a_z,thrust,wind_x,wind_y,wind_z
0.0,0.3691475245052432,1.4209074249277387,2.460306291542976,0.0182019069920155,0.1363977562890763,0.0261823288233891,0.0012040956412406,-0.0087328840825032,0.0012711214296542,0.36917838337754,1.42069799007059,2.4603414043890357,-0.0989238857731358,-0.1074990656341896,-0.0988047108692954,0.4453337523718027,0.0602047820620328,-0.4366442041251633,0.0635560714827148,10.548770222506391,-1.283170982028549,0.1573206221342338,-1.161813861011067
0.02,0.3692927596766046,1.4210113920724523,2.460081294271682,0.0244357128512441,0.1312510260507096,0.0264974342272375,0.0127713209582655,0.0151240702052538,-0.0249986772230753,0.36917838337754,1.42069799007059,2.4603414043890357,-0.0989238857731358,-0.1074990656341896,-0.0988047108692954,1.8661841352596429,0.5783612658512427,1.192847714387858,-1.3134899326364828,9.016301886404108,-1.2970706398956302,0.1514258002466425,-1.1684143195787793
0.04,0.3696265161909962,1.4213573069724894,2.459241211206133,0.0387951754038894,0.1165461516293318,0.0269773976039873,0.0186838611939076,0.0173397868139352,-0.0576056644717276,0.36917838337754,1.42069799007059,2.4603414043890357,-0.0989238857731358,-0.1074990656341896,-0.0988047108692954,1.6606347804091726,0.2956270117821052,0.1107858304340654,-1.6303493624326162,9.016301886404108,-1.325907151214318,0.138014585434536,-1.1371111454887233
0.06,0.369954305910542,1.4216437380356006,2.457847155810704,0.0530647956738686,0.0972488403930953,0.0269776236027889,0.014687593175876,0.0123848951730378,-0.0873887145940896,0.3681891445198086,1.4196229994142482,2.4593533572803423,-0.118923886071159,-0.1274990659322128,-0.1188047111673186,1.5227862488183463,-0.1998134009015804,-0.2477445820448654,-1.4891525061180972,8.73490395896988,-1.3556389798743518,0.1233934557721432,-1.092871743302093
0.08,0.3701211344222186,1.4218033459090258,2.455785606532815,0.0675457591855102,0.0751250877013403,0.0264749352020285,0.0015174575055042,0.0034989109917933,-0.1171078704609693,0.3662106668043459,1.4174730181015642,2.4573772630629565,-0.1589238866672055,-0.1674990665282593,-0.158804711763365,1.6849639565026446,-0.658506783518587,-0.4442992090622261,-1.4859577933439871,8.757335646726006,-1.3788359139749753,0.1095457908112983,-1.0459472319573224
0.1,0.3699384304384525,1.421753066734859,2.4531466119153884,0.0813305263318826,0.0539976106914668,0.0256204546123788,-0.0193764635957335,-0.0083838465751701,-0.1452912013213854,0.3642321890888832,1.4153230367888805,2.4554011688455706,-0.198923887263252,-0.2074990671243057,-0.1988047123594115,1.852063717024646,-1.044696055061893,-0.5941378783481754,-1.4091665430208011,8.80689900378593,-1.3929700417923825,0.0973606766879161,-1.001134083702639
0.12,0.3693208955279162,1.4214592700906856,2.4501280044280884,0.0938032314919496,0.0365478993422437,0.0246752188571198,-0.0445685873035183,-0.0221935047997049,-0.1710387840791822,0.3602537113436181,1.4111730554463944,2.451425074598382,-0.2389238878592984,-0.2474990677203522,-0.2388047129554579,1.928916648702316,-1.25960618538924,-0.690482911226739,-1.2873791378898407,8.934232643392079,-1.3989093515008777,0.0856007869086182,-0.9560516488569732
0.14,0.3681166479950528,1.4208418955254587,2.446419205567991,0.106312121607574,0.0218028662826218,0.0237183738468487,-0.0745313442746786,-0.0390855438941523,-0.1984972196074603,0.3562752335983531,1.4070230741039085,2.447448980351194,-0.2789238884553449,-0.2874990683163987,-0.2788047135515045,2.200609842601455,-1.4981378485580146,-0.8446019547223695,-1.372921776413906,8.916138399233205,-1.3985657669009193,0.0748363905055867,-0.918053734133462
0.16,0.3662812577339854,1.4198623222969224,2.442159412552068,0.1182137737884717,0.0112500085440308,0.0229658047051948,-0.107431426591868,-0.0582791009416658,-0.2261083049982862,0.351296755838187,1.401873092746521,2.4424728860891047,-0.3189238890513913,-0.3274990689124451,-0.3188047141475509,2.3522223986442463,-1.6450041158594706,-0.9596778523756792,-1.380554269541294,8.916138399233205,-1.3956419350743114,0.0653665288513849,-0.8915007608294234
0.18,0.3637597175986534,1.4184755900288228,2.4373475685232617,0.1295329504745961,0.0055812123809033,0.0226216773842812,-0.1429067739485731,-0.0796720072073155,-0.2536905853242849,0.3453182780631196,1.3957231113742328,2.436496791812114,-0.3589238896474377,-0.3674990695084915,-0.3588047147435973,2.488442734197297,-1.7737673678352517,-1.0696453132824826,-1.3791140162999371,8.950470304673672,-1.387550678186063,0.0562955567833716,-0.8692968259348868
0.2,0.360702145315274,1.416724675187906,2.432264858861997,0.1392049346138417,0.0051628321224583,0.0228076982982719,-0.1764726973799098,-0.1033603465450974,-0.2798499865301789,0.3566143789012247,1.4144919896684571,2.424663039257048,-0.2429067754386892,-0.1796720086974316,-0.3536905868144011,2.4352222218060464,-1.6782961715668356,-1.184416966889093,-1.3079700602946998,8.950470304673672,-1.368134300171459,0.0477801499856349,-0.8554028395396132
0.22,0.3567933176400258,1.4142279635011177,2.4265039424118924,0.1437597361781223,0.0101802446273092,0.0233692412337046,-0.2119552764617958,-0.1431560240942072,-0.2937871242513207,0.3566143789012247,1.4144919896684571,2.424663039257048,-0.2429067754386892,-0.1796720086974316,-0.3536905868144011,2.755427905858312,-1.774128954094302,-1.9897838774554888,-0.6968568860570873,8.956613293512419,-1.3376037402516057,0.0426060863381485,-0.8538670857496088
0.24,0.352231700276639,1.411006373689306,2.420490472647625,0.1421082916563585,0.0200634651464286,0.024194161584312,-0.2417065469151823,-0.1764552111811689,-0.3069229548301055,0.3566143789012247,1.4144919896684571,2.424663039257048,-0.2429067754386892,-0.1796720086974316,-0.3536905868144011,2.32729671466573,-1.4875635226693218,-1.6649593543480847,-0.6567915289392434,9.723394775648558,-1.3138170573134564,0.0420487298780436,-0.8647109600239705
0.26,0.3474013567943927,1.4073755209151984,2.4145106764011346,0.1375747104925723,0.0317646535204979,0.0250617615382129,-0.2647858416887028,-0.2033197307239042,-0.3217331138611008,0.3541853111468378,1.4126952695814827,2.421126133388904,-0.2629067757367124,-0.1996720089954548,-0.3736905871124243,1.919438113113074,-1.1539647386760234,-1.3432259771367694,-0.7405079515497626,9.723394775648558,-1.2904101991013266,0.044298322677258,-0.8786698308586754
0.28,0.341895904657279,1.403054205134163,2.4078885725294588,0.1320183752527911,0.0447971699103256,0.0259512206898704,-0.2841229498336016,-0.2271873249630085,-0.3398145201837868,0.349327175638064,1.409101829407534,2.4140523216526155,-0.3029067763327588,-0.2396720095915013,-0.4136905877084707,1.7822198663297009,-0.9668554072449403,-1.1933797119552114,-0.9040703161343006,9.524479284923473,-1.2695260652862306,0.0476342339202379,-0.89267350142423
0.3,0.3360494899768632,1.398284071753175,2.400876523358477,0.1266758512274587,0.0572885484590618,0.0267116546233782,-0.299269799069128,-0.2485572043350429,-0.3606060211213779,0.3444690401292902,1.4055083892335856,2.4069785099163274,-0.3429067769288053,-0.2796720101875478,-0.4536905883045172,1.672113406274319,-0.7573424617763197,-1.068493968601722,-1.0395750468795566,9.341324198798247,-1.2515223733904437,0.0512840168191809,-0.903700304018906
0.32,0.329937348790143,1.3931067482127777,2.3934202141232515,0.1219185768039817,0.068362308588087,0.0272712654042959,-0.3110880577611722,-0.268166312717419,-0.3839920819747776,0.3376109045907141,1.3999149490298346,2.397904698150237,-0.3829067775248517,-0.3196720107835942,-0.4936905889005636,1.6363803136058876,-0.5909129346022113,-0.9804554191188016,-1.1693030426699835,9.18486708434466,-1.2372368684431472,0.0545744751287324,-0.9113668458515568
0.34,0.3239364811989224,1.3878370153090571,2.385889181446295,0.118042243514302,0.0771303208399709,0.0275905383514277,-0.3199949689825032,-0.2856599424662115,-0.4075936623253695,0.330752769052138,1.3943215088260836,2.388830886384147,-0.4229067781208983,-0.3596720113796407,-0.5336905894966102,1.53492242828258,-0.4453455610665513,-0.8746814874396297,-1.180079017529592,8.97867600036534,-1.2256019036950587,0.0577113035097687,-0.9161972957034964
0.36,0.317449764861956,1.38193223566808,2.377464438538395,0.1144137711493268,0.0844604768141161,0.0277019377022369,-0.3281847301771731,-0.3038356799640745,-0.4336858263638732,0.3228946334986607,1.3877280686074316,2.3787570746031554,-0.4629067787169447,-0.3996720119756871,-0.5736905900926565,1.6418211277641752,-0.4094880597334926,-0.9087868748931472,-1.3046082019251892,8.97867600036534,-1.2170147434144365,0.0606251569264556,-0.9175633704991034
0.38,0.3108078410400219,1.375668412942672,2.3685081328192936,0.1109683877302357,0.0900615549721798,0.0276051006149973,-0.3356026045835187,-0.3215395479344197,-0.460657666269034,0.3140364979302824,1.3801346283738782,2.3676832628072626,-0.5029067793129911,-0.4396720125717335,-0.613690590688703,1.6552431465568378,-0.3708937203172835,-0.8851933985172589,-1.348591995258036,8.914289666809054,-1.2103624908643131,0.0633988867324281,-0.9165014582296448
0.4,0.3040226553856155,1.369056833517943,2.359004167736539,0.1075817345586065,0.0941873809488604,0.0273327043147522,-0.3425915610844787,-0.3386157198559519,-0.488365115671074,0.2940277108108459,1.3595914355459509,2.3454752495058417,-0.4070524655139615,-0.4215395494245358,-0.5606576677591502,1.664439780250883,-0.3494478250479993,-0.8538085960766106,-1.3853724701020005,8.828618620907037,-1.2049935967318612,0.0658705980068378,-0.9144493120292418
0.42,0.2974210470365718,1.362458096292792,2.349671094553008,0.1049042060968033,0.0985695377501621,0.027149351308959,-0.3514792757551066,-0.355361002206351,-0.4927134891210409,0.2940277108108459,1.3595914355459509,2.3454752495058417,-0.4070524655139615,-0.4215395494245358,-0.5606576677591502,0.972502319690624,-0.4443857335313939,-0.8372641175199536,-0.2174186724983456,8.828618620907037,-1.1919477818809956,0.0674182920609039,-0.9129252081395678
0.44,0.2903173647893491,1.355181066055422,2.3397369530285537,0.1031409072473513,0.1046494153591391,0.0271731659540764,-0.35813354101904,-0.3716184956917195,-0.5008067072189606,0.2940277108108459,1.3595914355459509,2.3454752495058417,-0.4070524655139615,-0.4215395494245358,-0.5606576677591502,0.967064527074184,-0.3327132631966711,-0.8128746742684267,-0.4046609048959843,10.127880440382796,-1.1838698678566375,0.0681508261562269,-0.9193580893650616
0.46,0.2831063247340513,1.3475794053085284,2.329587748617191,0.1023270963262594,0.1110852406416512,0.0272916935381388,-0.3624582119414569,-0.3877535486334757,-0.5139121745751796,0.2899571861557063,1.3553760400517054,2.33986867282825,-0.4213424377000501,-0.441539549722559,-0.5806576680571733,1.0615978365715932,-0.216233546120842,-0.8067526470878106,-0.655273367810949,9.825841902651518,-1.1766906632047365,0.0683501068215515,-0.924315834557448
0.48,0.275829290784146,1.3396598966089477,2.319129943207637,0.1022341268938175,0.1170848700770014,0.0274113436811331,-0.3649511116916488,-0.4034428716393753,-0.5311976473380466,0.2818161368454271,1.3469452490632148,2.328655519473067,-0.4499223820722272,-0.4815395503186054,-0.6206576686532198,1.1738366306515748,-0.1246449875095978,-0.7844661502949796,-0.8642736381433536,9.56223999544818,-1.17095001948222,0.0681324345003603,-0.9272368808069672
0.5,0.2688833348089952,1.3318487410382498,2.3088456531061907,0.1027861650539067,0.1219444431926962,0.0274823583023697,-0.3660739657926991,-0.4180535306965026,-0.550488400080913,0.2736750875351478,1.338514458074724,2.317442366117884,-0.4785023264444044,-0.5215395509146519,-0.6606576692492663,1.211265145212094,-0.0561427050525142,-0.7305329528563664,-0.96453763714332,9.204347056100232,-1.166057079156785,0.0674225525519285,-0.9283933504873584
0.52,0.261557536104568,1.3233293552691032,2.2975996596467416,0.1040993690584064,0.1259408121176862,0.027493244748763,-0.3664551248794255,-0.4331792100912821,-0.5732058071764062,0.2641050410062597,1.328083667056431,2.304229212732899,-0.5070822708165815,-0.5615395515106983,-0.7006576698453127,1.3647454383010549,-0.0190579543363211,-0.7562839697389745,-1.1358703547746596,9.204347056100232,-1.162316174737209,0.0659974929497141,-0.9293620046486994
0.54,0.2542309632261186,1.314504434849877,2.285887471575038,0.1061697868675783,0.1286970879031236,0.0274278533590844,-0.3662236204439888,-0.4486591248752021,-0.5969013569715408,0.2545349944773716,1.317652876038138,2.2910160593479136,-0.5356622151887587,-0.6015395521067448,-0.7406576704413592,1.4152388809974377,0.0115752217718367,-0.7739957391959984,-1.1847774897567276,9.035412557317612,-1.1594614356887645,0.0639360051773824,-0.928447066749486
0.56,0.2469103084853046,1.3053484062074026,2.273695090907049,0.1083798736473508,0.1303097106896729,0.0272486844725594,-0.3659369180967129,-0.4661099114053629,-0.6211287078092735,0.2442504493391791,1.306222085004944,2.2768029059480277,-0.5642421595609357,-0.6415395527027912,-0.7806576710374056,1.4929640630066794,0.0143351173637923,-0.87253932650804,-1.2113675418866376,9.035412557317612,-1.157801640429661,0.0619014059273895,-0.9257545925572088
0.58,0.2395937629597173,1.2958295308264058,2.261014545382267,0.1099584283845224,0.1310316861491387,0.0269243783194355,-0.3658100522652041,-0.4847109456243931,-0.6456776854030455,0.2332514055916822,1.2937912939568486,2.26158975253324,-0.5928221039331129,-0.6815395532988376,-0.820657671633452,1.5400218097938223,0.0063432915754446,-0.9300517109515128,-1.2274488796885974,9.019030573774216,-1.156718031573846,0.0602509643638896,-0.9217695942952626
0.6,0.2326427957628495,1.2864339814858896,2.24850995924796,0.1105044167618965,0.13109312968293,0.026476483429106,-0.3659400561279842,-0.5031914176992892,-0.6693327994008268,0.2213032603464571,1.2715939835451862,2.228730661112115,-0.3865461393788229,-0.5847109471145093,-0.7456776868931616,1.5009240215308868,-0.0065001931390085,-0.924023603744803,-1.1827556998890654,9.004668056226365,-1.1560809885005106,0.0594210802000365,-0.9169593914163692
0.62,0.2252708130345983,1.2761194379138223,2.2350832447687035,0.1092633963636202,0.1332197936174607,0.026102951239755,-0.3707469267138649,-0.5271452193337166,-0.6709261426191077,0.2213032603464571,1.2715939835451862,2.228730661112115,-0.3865461393788229,-0.5847109471145093,-0.7456776868931616,1.2241623260235377,-0.2403435292940348,-1.1976900817213698,-0.0796671609140431,8.986019022820983,-1.146476545788092,0.0597645975453302,-0.911999355025754
0.64,0.2178353492205337,1.2653437287071658,2.221626456159656,0.1060370027618347,0.1390501792378088,0.0259870511787021,-0.372098270459148,-0.5487338375910084,-0.675035591976274,0.2213032603464571,1.2715939835451862,2.228730661112115,-0.3865461393788229,-0.5847109471145093,-0.7456776868931616,1.1008884391664098,-0.0675671872641558,-1.0794309128645874,-0.2054724678583197,10.416857949813677,-1.139035987200783,0.0616020829043392,-0.9195237550189028
0.66,0.2104038885201395,1.254170226136086,2.208026795643427,0.1019778478083071,0.1466995709034083,0.025984017185036,-0.3706161200720382,-0.567266253685953,-0.6846945186182524,0.2174377989526689,1.265746874074041,2.221273884243183,-0.3906933568015467,-0.6047109474125325,-0.7656776871911848,1.047547230392609,0.0741075193554929,-0.9266208047472302,-0.4829463320989158,10.06921353072903,-1.132207932139221,0.0643282767249322,-0.926759839011812
0.68,0.203393089658548,1.2432338914982963,2.1948867623215595,0.0980386739785764,0.1546832312123459,0.0260209800564628,-0.3671795270910457,-0.5828998359911002,-0.6979839544538524,0.2097068761650924,1.2540526551317508,2.20636033050532,-0.3989877916469942,-0.644710948008579,-0.8056776877872313,1.0402261434867783,0.1718296490496262,-0.781679115257361,-0.6644717917800025,9.769178121733605,-1.1251617505202445,0.0674809909935859,-0.9337942960742692
0.7000000000000001,0.1961026749363376,1.2314188988892754,2.1807468958950365,0.0941528391482682,0.1632763146755171,0.0260664334250504,-0.3618157507342738,-0.5977272820338612,-0.7154770755044375,0.201975953377516,1.2423584361894606,2.191446776767457,-0.4072822264924418,-0.6847109486046254,-0.8456776883832777,1.1775318860299242,0.268188817838591,-0.7413723021380492,-0.8746560525292546,9.536512435902296,-1.1179236139806863,0.0704289448197912,-0.9412432714157398
0.72,0.1889361275320808,1.2193195313161989,2.166225270838353,0.0906751375493986,0.1717469180578005,0.0261005897825944,-0.3549095522166067,-0.6114462988102424,-0.7359415926895732,0.1938303088476671,1.228664217217368,2.174533222999792,-0.4155766613378893,-0.7247109492006719,-0.8856776889793242,1.2793586898293696,0.3453099258833553,-0.6859508388190605,-1.0232258592567822,9.346711814042465,-1.1108096565340182,0.0730621688529215,-0.9484160857534338
0.74,0.1819241732880895,1.2069552161384638,2.151277878299574,0.0876442262111104,0.1799186240250606,0.0261147708872522,-0.3464457858360165,-0.6243107129735326,-0.7578370549113989,0.1856846643178183,1.2149699982452755,2.1576196692321257,-0.4238710961833368,-0.7647109497967184,-0.9256776895753708,1.3384130145598436,0.4231883190295105,-0.6432207081645103,-1.094773111091285,9.20237998474022,-1.10449815030621,0.0752827509337324,-0.954071760947678
0.76,0.1754334675557601,1.1949694037470395,2.136662115654036,0.0849405765993048,0.1873217743390464,0.0260902201966292,-0.3370588803936872,-0.6365865572426352,-0.7795730329102348,0.1773316589168333,1.200275779258282,2.139706115449559,-0.4321655310287844,-0.8047109503927647,-0.965677690171417,1.3334758020567663,0.469345272116467,-0.6137922134551332,-1.0867988999417988,9.144062441602728,-1.0985295759145126,0.0775072808774019,-0.9590959121091248
0.78,0.168806860236088,1.1821063228239337,2.1208209443816903,0.0820655004210836,0.1946993577612277,0.0260090373229092,-0.3259454175833037,-0.6489531957459176,-0.8034501622025608,0.1687712926447121,1.184581560256387,2.1207925616520917,-0.4404599658742319,-0.8447109509888112,-1.0056776907674634,1.4547852992375667,0.555673140519175,-0.6183319251641173,-1.1938564646162997,9.107423367106094,-1.0934069012581509,0.0797989134096157,-0.963490173741809
0.8,0.1624157005822094,1.1690012210452,2.1044924870016013,0.0790914197746752,0.2016152048055272,0.0258657187006671,-0.3135914987493591,-0.660774372635751,-0.8282017819452048,0.1525095893569228,1.149658663036638,2.0806484362715625,-0.3223410869951715,-0.7489531972360337,-0.8583858931963085,1.5041627351294675,0.61769594169723,-0.5910588444916709,-1.2375809871321974,9.05991292199451,-1.0892157201505075,0.082084797758717,-0.966948482514323
0.8200000000000001,0.156659380101807,1.156308364797523,2.088853048692456,0.0759953309062493,0.2076119708176858,0.0256501090892804,-0.2928663527143995,-0.674448936485473,-0.816823671063945,0.1525095893569228,1.149658663036638,2.0806484362715625,-0.3223410869951715,-0.7489531972360337,-0.8583858931963085,1.3656379295742749,1.036257301747978,-0.6837281924860994,0.5689055440629864,9.024459610677695,-1.0788812342089271,0.0846447945108881,-0.9588227942662378
0.84,0.1510333794390889,1.142687304477574,2.0726175984803,0.0727376729037561,0.2133087146879923,0.0253618480530139,-0.270788848219353,-0.6868726730001564,-0.8076863370174074,0.1525095893569228,1.149658663036638,2.0806484362715625,-0.3223410869951715,-0.7489531972360337,-0.8583858931963085,1.346529156009157,1.1038752247523265,-0.6211868257341713,0.4568667023268802,11.225895428981858,-1.0790972836674144,0.0873528466504064,-0.9655923956214868
0.86,0.1458565832061547,1.1288311051478526,2.056510583835217,0.0697900293649918,0.2182343121021689,0.0250281453151105,-0.2479777471444566,-0.6980959863312965,-0.8036777553656291,0.1492861784869711,1.1421691310642776,2.0720645773396,-0.3216202208775451,-0.7689531975340569,-0.8693730393950581,1.2868350916464195,1.1405550537448184,-0.5611656665570064,0.2004290825889154,10.901835254349862,-1.0794977491520794,0.0897679903373622,-0.971338958816002
0.88,0.1411480163940063,1.114761391512972,2.0404355623420365,0.0672019498099985,0.2217456039957811,0.0246146289027139,-0.2241598615486973,-0.708351325555786,-0.8039881476026848,0.1428393567470677,1.127190067119557,2.054896859475673,-0.3201784886422922,-0.8089531981301034,-0.8913473317925572,1.2966880891359838,1.190894279787963,-0.5127669612244701,-0.0155196118527822,10.396096016205776,-1.0811628079737523,0.0917873963410444,-0.9747286967410352
0.9,0.1371199660793009,1.1012126477895394,2.0251292520892976,0.0650951493940604,0.2233351789531796,0.0241282501422849,-0.2012355697205743,-0.7173800259413511,-0.8071509646091406,0.1363925350071642,1.1122110031748362,2.037729141611747,-0.3187367564070394,-0.8489531987261498,-0.9133216241900562,1.242018516256482,1.146214591406154,-0.4514350192782568,-0.158140850322791,10.396096016205776,-1.0850344518590302,0.0936245654674725,-0.9753196158647404
0.92,0.1333489510806776,1.08677250809599,2.008930240521729,0.0633028434728379,0.2229367134073387,0.023515581362168,-0.1771665281086815,-0.7262050891599248,-0.8126606480969452,0.1300177998790234,1.0952319392003131,2.0194627091279456,-0.3172950241717865,-0.8889531993221963,-0.9352959165875552,1.3110655180640598,1.2034520805946372,-0.441253160928684,-0.2754841743902281,10.231988544528576,-1.0906105304350353,0.0950271143809397,-0.9733472488558664
0.94,0.1300639004190782,1.072161266979491,1.992615360784065,0.0620398368225244,0.2199359572472775,0.0227834363009361,-0.152655147175741,-0.7345060784016239,-0.8185145430403359,0.1236430647508826,1.0782528752257905,2.0011962766441447,-0.3158532919365337,-0.9289531999182428,-0.9572702089850544,1.3266332421196698,1.225569046647025,-0.4150494620849543,-0.2926947471695362,10.09228421687476,-1.0982555931876887,0.0959114956009142,-0.967825054298134
0.96,0.1272641128092562,1.0573788446347687,1.9761856058928855,0.0611477950514306,0.2138815341325878,0.0218979958056309,-0.1291885499681584,-0.7432761524319884,-0.8240470776372232,0.1173043729286232,1.060273811236366,1.982380486850406,-0.3144115597012808,-0.9689532005142892,-0.9792445013825536,1.2827746509683176,1.1733298603791324,-0.438503701518228,-0.2766267298443647,10.09228421687476,-1.1098783330703104,0.0965544776650887,-0.9583425641805032
0.98,0.1250105853300947,1.0431699250847462,1.9604794640954823,0.0603642964190911,0.2058943628454965,0.0209365169570227,-0.1096584767237622,-0.7518925526327875,-0.82886274125457,0.111001724412245,1.0412947472320406,1.9630153397467296,-0.3129698274660279,-1.0089532011103357,-1.0012187937800527,1.0941397641837742,0.9765036622198104,-0.4308200100399562,-0.2407831808673433,10.092539916608985,-1.1235005436104886,0.0970708576013587,-0.94607242560562
1.0,0.1230047301516546,1.0280357340084496,1.9438499244277223,0.0594642110133374,0.1959282328475074,0.0198411865577214,-0.0923974550387011,-0.7610230619013973,-0.8337744528373826,0.1195276614939066,1.0055752974531067,1.919036327032754,-0.1379177838698345,-0.8518925541229037,-0.820878818296196,1.0067695612565128,0.8630510842530525,-0.4565254634304905,-0.245585579140628,10.083385901182735,-1.1376890432903168,0.0975706057643611,-0.9321199448709316
1.02,0.1214057486099758,1.0126573615839545,1.9274356168551705,0.0569674408493314,0.1840181499501066,0.0185471496286982,-0.0686502218383202,-0.7757817639086679,-0.8056065260437539,0.1195276614939066,1.0055752974531067,1.919036327032754,-0.1379177838698345,-0.8518925541229037,-0.820878818296196,1.9844284249273831,1.1873616600190449,-0.7379351003635293,1.4083963396814336,10.053305782083044,-1.1406077475025826,0.0986818958529267,-0.9062146905049246
1.04,0.1202424718222548,0.9970214343788438,1.9116246914957584,0.0528236557291991,0.1698647516404008,0.0170775008042624,-0.049642668783443,-0.786719048453982,-0.7769476230991025,0.1195276614939066,1.0055752974531067,1.919036327032754,-0.1379177838698345,-0.8518925541229037,-0.820878818296196,1.8043308900739985,0.9503776527438622,-0.5468642272657032,1.4329451472325727,12.298577064878373,-1.1584355068928307,0.1016249851577688,-0.8918208056141389
1.06,0.1194351395445359,0.981993207443254,1.8970984417650925,0.048813327762177,0.1551809862004405,0.0156932266066695,-0.0368675016490002,-0.7946288894833984,-0.7534731060632186,0.1181484836552082,0.9970563719118776,1.910827538849792,-0.143569645299049,-0.8718925544209268,-0.8192820337045212,1.3935776175832366,0.6387583567221383,-0.3954920514708193,1.173725851794194,12.000872518931828,-1.1770715359512116,0.1046936636376179,-0.8751590914329206
1.08,0.1187898722051425,0.9660295554881172,1.8822584631522687,0.0450931687190025,0.1391451797906836,0.0143302155002666,-0.0289254714668552,-0.8013565272481452,-0.7318599927818733,0.1153901279778115,0.9800185208294196,1.894409962483868,-0.154873368157478,-0.9118925550169732,-0.8160884645211716,1.1994411396771567,0.3971015091072506,-0.3363818882373415,1.0806556640672649,11.68786423135225,-1.1944772955484608,0.1072467210597955,-0.8572594195610223
1.1,0.1182454845935462,0.9499422107583084,1.8678188520539325,0.0420843844105556,0.123243778176225,0.0131017595887605,-0.0264105228103318,-0.8071191677561718,-0.7132790317564556,0.1126317723004149,0.9629806697469616,1.877992386117944,-0.1661770910159069,-0.9518925556130198,-0.812894895337822,0.9807970037140586,0.1257474328261702,-0.2881320254013275,0.9290480512708864,11.441284988681218,-1.2101115787930734,0.1091513421910936,-0.8392993918043179
1.12,0.1176970364091449,0.93374764360764,1.853720861727084,0.0398322732382869,0.1081747220212548,0.0120245796259936,-0.0289013063648626,-0.8122177490919241,-0.6974100501586656,0.1093082304800967,0.9439428186347012,1.861734488211188,-0.1774808138743359,-0.9918925562090662,-0.8097013261544724,0.8426507451248696,-0.1245391777265424,-0.254929066787618,0.7934490798894966,11.225502280723047,-1.2227793925626542,0.1103467040351256,-0.8230485864688994
1.14,0.117088698906405,0.9182734329613365,1.840614178798385,0.0384021891507212,0.0951607302851969,0.0111466288954149,-0.0352026156506623,-0.816518622534686,-0.6830198918692545,0.1059846886597786,0.9249049675224408,1.8454765903044312,-0.1887845367327648,-1.0318925568051127,-0.8065077569711228,0.8143719461650618,-0.3150654642899847,-0.2150436721380932,0.7195079144705574,11.05368317012926,-1.2328119661008854,0.1109487720594715,-0.8072773076584913
1.16,0.1162824011443367,0.90189304868884,1.827108538040672,0.0375199172566435,0.0832678636150777,0.010367145460955,-0.0452899589377185,-0.8212958204506334,-0.6683187272719817,0.1023785537679997,0.9048671163952792,1.8292985316272583,-0.2000882595911938,-1.071892557401159,-0.8033141877877732,0.922903509359398,-0.5043671643528105,-0.238859895797372,0.7350582298636388,11.005005850091038,-1.2401340087278965,0.111035947042834,-0.7939921737367509
1.18,0.1152408113838708,0.8854156212512083,1.8138890778050096,0.0370633157517664,0.0736156426105331,0.0097246889189558,-0.0583559015090228,-0.8261905637650404,-0.6543580487467908,0.0984898258047601,0.8838292652532164,1.8132003121796696,-0.2113919824496228,-1.1118925579972054,-0.8001206186044235,0.9868864071845852,-0.6532971285652139,-0.2447371657203489,0.6980339262595447,10.974074516537256,-1.2447889306934805,0.1107936101016821,-0.7839019393012732
1.2,0.1139113785075539,0.8688390800678885,1.8009407062636775,0.0368979598451988,0.0664962086652135,0.0092141456103363,-0.0739649915042148,-0.8311944314064506,-0.6411788094986057,0.1123230163084197,0.8441060930629563,1.78117117536767,-0.0702718525449396,-0.9261905652551564,-0.6041298143663072,1.0516353087116963,-0.7804544997596019,-0.2501933820705071,0.6589619624092546,10.93101142301566,-1.2473411442783011,0.1104018471176259,-0.7771957229033226
1.22,0.1122861356818771,0.8529421984537945,1.7890687004386043,0.0353908069649666,0.0646739067214774,0.0088324369443107,-0.0955953050146616,-0.8412248293572304,-0.6091521035340831,0.1123230163084197,0.8441060930629563,1.78117117536767,-0.0702718525449396,-0.9261905652551564,-0.6041298143663072,1.996364971986092,-1.0815156755223363,-0.5015198975389934,1.6013352982261309,10.894788183673882,-1.2353218842952889,0.1102369311681975,-0.7777669345248513
1.24,0.1101677917982766,0.8360430710296087,1.7772307201668354,0.0321316119778234,0.0690993502349761,0.0085513423803212,-0.114349726184942,-0.8477995454119202,-0.5764927415585036,0.1123230163084197,0.8441060930629563,1.78117117536767,-0.0702718525449396,-0.9261905652551564,-0.6041298143663072,1.911536770038696,-0.937721058514024,-0.3287358027344866,1.6329680987789752,12.391467793023368,-1.2253584133849884,0.1117672871269152,-0.7916895094464433
1.26,0.1077274160587939,0.819047230976476,1.766011968672953,0.0289168405931738,0.0775795976235612,0.0084011094927884,-0.1280894602271148,-0.851540055328057,-0.5470230616322297,0.1116202977829703,0.8348441874104047,1.775129877224007,-0.072655042752123,-0.9461905655531796,-0.5940841674902104,1.6364853657605605,-0.6869867021086363,-0.1870254958068418,1.473483996313696,12.160473503878166,-1.215166453226302,0.1134627975294742,-0.8081131067570664
1.28,0.1052017946784494,0.8028474468017617,1.755874639664306,0.0265287454520917,0.0875805936810764,0.0083518705997869,-0.1366318106407184,-0.8537178483936089,-0.5215645634490894,0.1102148607320715,0.8163203761053016,1.7630472809366808,-0.0774214231664897,-0.9861905661492262,-0.573992873738017,1.347079863042757,-0.4271175206801827,-0.108889653277594,1.2729249091570138,11.920800001403222,-1.203611641275029,0.1149219350317395,-0.82630948641964
1.3,0.1024098518134841,0.7857592854701061,1.7457071988207828,0.024958110554271,0.0989048755048867,0.0083805802063253,-0.1416820975300775,-0.8551220662495723,-0.4966327203367257,0.1088094236811727,0.7977965648001984,1.7509646846493547,-0.0821878035808564,-1.0261905667452726,-0.5539015799858236,1.2738465630045035,-0.2525143444679509,-0.0702108927981726,1.246592155618184,11.741539236425524,-1.1918506202773151,0.1157852691835599,-0.8444546452583729
1.32,0.099561864611535,0.7686513437653351,1.736019360508946,0.0246193696901812,0.1100812747841517,0.0084952427853137,-0.1425376278948842,-0.8557245924691576,-0.4735099868797729,0.1071656676095556,0.777272753465293,1.7398866530496382,-0.0869541839952231,-1.066190567341319,-0.5338102862336301,1.157319934775686,-0.0427765182403366,-0.0301263109792615,1.1561366728476408,11.631425692317862,-1.1804255654309312,0.1157940880322144,-0.8632944572603407
1.34,0.0967379359351078,0.7515373413215346,1.7267860339120542,0.0258676830911514,0.1201924381265336,0.0087119276436794,-0.13959877157844,-0.8558184373818409,-0.4510329686619713,0.1055219115379384,0.7567489421303875,1.728808621449922,-0.0917205644095899,-1.1061905679373656,-0.5137189924814366,1.1334262561804878,0.146942815822211,-0.0046922456341691,1.1238509108900812,11.537698450427342,-1.1701810265948502,0.1146775226188893,-0.8809476767680001
1.36,0.0941405800695945,0.7352679269191591,1.7184280008938824,0.0284974576283784,0.1281975176812106,0.0090047584217438,-0.1339422119961809,-0.8570120560696892,-0.4299293123554339,0.1037589959559621,0.7352251307805809,1.71823287219401,-0.0964869448239566,-1.146190568533412,-0.4936276987292432,1.094058615184854,0.282827979112954,-0.0596809343924142,1.055182815326866,11.533322635030345,-1.1614488480154788,0.1123117413976222,-0.8976582460660583
1.38,0.0915447672715103,0.7180910650818951,1.7100634017150735,0.0319014363473141,0.1346471853731529,0.0093327438918442,-0.1259138009981198,-0.8607756072207827,-0.4076592623447425,0.1018769208636267,0.7127013194158732,1.7081594052819034,-0.1012533252383233,-1.1861905691294583,-0.4735364049770498,1.1985145262984742,0.4014205499030532,-0.1881775575546751,1.1135025005345716,11.54800031861032,-1.1546365370329528,0.1093634156860321,-0.9116415729937248
1.4,0.0891272718223634,0.7008180997235042,1.7021444238348622,0.0350479110917929,0.1389025481007689,0.0095981738365078,-0.1163922887391011,-0.8662711711493826,-0.3853769581494742,0.0852490772216043,0.675052284720856,1.6896804385978363,-0.0955191239253564,-0.9341440820619006,-0.3672000318025596,1.24233801644565,0.4760756129509373,-0.2747781964299922,1.1141152097634166,11.58551425389669,-1.150064430616461,0.1067108823608691,-0.9227476743449654
1.42,0.0869581685416506,0.6841425876552554,1.694992911441172,0.0324861187475271,0.1425585945039956,0.0094630645061519,-0.1120847552198366,-0.8860513112930998,-0.3684451550625719,0.0852490772216043,0.675052284720856,1.6896804385978363,-0.0955191239253564,-0.9341440820619006,-0.3672000318025596,1.319559343965166,0.2153766759632226,-0.9890070071858604,0.8465901543451115,11.611214318062594,-1.1498205690110532,0.108837234363307,-0.9303073849236904
1.44,0.0847835027009208,0.6663236416249734,1.68781426498387,0.023993322727343,0.1471589182209351,0.0089332029257773,-0.1053896822592425,-0.8938418966519444,-0.3502863257173806,0.0852490772216043,0.675052284720856,1.6896804385978363,-0.0955191239253564,-0.9341440820619006,-0.3672000318025596,1.0431446512455778,0.3347536480297071,-0.3895292679422291,0.9079414672595654,11.381968473147936,-1.1429277370451776,0.1158055765273053,-0.9396771844119416
1.46,0.0827638544013934,0.6484331641677239,1.6809890053456598,0.014770621936055,0.1517480537750203,0.0083339565566243,-0.0967912904968851,-0.8946621682791182,-0.3332365893531497,0.0842938859823507,0.6657108439002369,1.6860084382798108,-0.0894401885108037,-0.9488177770301242,-0.359108185694123,0.9556394410695652,0.429919588117867,-0.0410135813586898,0.852486818211548,11.304184341025575,-1.1384222415253875,0.1237068829954817,-0.9494287023776504
1.48,0.0809330429594325,0.6305719110979157,1.6744900558584146,0.0066775010065476,0.1557813281378172,0.0077917198814439,-0.0866967985269935,-0.8916751606475166,-0.3175416739028838,0.0823835035038436,0.647027962258999,1.6786644376437596,-0.0772823176816983,-0.9781651669665714,-0.3429244934772498,0.9449224223612872,0.5047245984945838,0.1493503815800767,0.7847457725132956,11.304184341025575,-1.135365266850075,0.1305041530467417,-0.9580252641709188
1.5,0.0793917950710764,0.6136816610709006,1.668598033987924,0.0005762654019398,0.1587965508548757,0.0073791148346704,-0.0760781777922632,-0.8867622841595583,-0.3034769365739336,0.0804731210253365,0.628345080617761,1.6713204370077084,-0.0651244468525929,-1.0075125569030186,-0.3267408012603767,0.9147517393073672,0.5309310367365108,0.2456438243979175,0.7032368664475097,11.24165180201635,-1.13353482523787,0.1363771068963641,-0.9659000495037118
1.52,0.0779943362651668,0.5960147536309598,1.6626816178922996,-0.0041086760237985,0.1609671800555525,0.0070727392538371,-0.0642587728165599,-0.8804737633028096,-0.288921471014165,0.0791706320882846,0.6081948294797006,1.664785620982501,-0.0529665760234875,-1.0368599468394657,-0.3105571090435035,0.988819253209418,0.5909702487851665,0.3144260428374346,0.7277732779884277,11.208784853935867,-1.1329961609748,0.1407849767225104,-0.972539635076649
1.54,0.0768381069270569,0.5784826610124639,1.657053962056266,-0.0070522655636614,0.1620458162117755,0.0069066339490894,-0.0520711868790166,-0.8735111853786307,-0.2745779963225938,0.0778681431512328,0.5880445783416401,1.6582508049572935,-0.0408087051943822,-1.0662073367759128,-0.2943734168266303,1.003431622686631,0.6093792968771654,0.3481288962089435,0.7171737345785606,11.207929600887836,-1.1337836014921248,0.1437384501455406,-0.9781427742468984
1.56,0.0759262777355382,0.56108515368331,1.651713526151236,-0.0086980636902841,0.1620625396715716,0.0068558902483027,-0.0398224106825115,-0.8667329788319433,-0.2601762780711764,0.0768696009849085,0.5671606424551686,1.6521205812375075,-0.0286508343652768,-1.09555472671236,-0.2781897246097571,1.004223693823786,0.6124388098252543,0.3389103273343685,0.7200859125708725,11.207929600887836,-1.135512749191939,0.1455145052498707,-0.98246534397781
1.58,0.0752870007220768,0.5446868278931658,1.6469094561012747,-0.0091353138359188,0.161075890565872,0.0069107682942392,-0.0281881464999822,-0.8599107196074833,-0.2462345283940534,0.0761750055893119,0.5455430218202859,1.6463949498231438,-0.0164929635361714,-1.1249021166488071,-0.262006032392884,0.969886215045573,0.5817132091264641,0.3411129612230001,0.6970874838561472,11.2210044569847,-1.1381777914120386,0.1463609835996963,-0.9861542532755864
1.6,0.0748506551044376,0.5275673257046306,1.6421431200543812,-0.0082950961036882,0.1589209790028335,0.0070825859679881,-0.0161513911382099,-0.8525249080115858,-0.2311066462849769,0.0738775933970777,0.5016912919127916,1.634597729681572,-0.0133124271762279,-0.8722382956636061,-0.2076141607478361,1.0347542095533713,0.6018377680886186,0.3692905797948786,0.7563941054538267,11.243038984497616,-1.1418413760793704,0.14602779900218,-0.98887705600708
1.62,0.0746750212141034,0.5103652765946532,1.6376381410972989,-0.0133554162655327,0.1545835469678335,0.0068842602818592,-0.0021250269569119,-0.8648799024258969,-0.2203399302819789,0.0738775933970777,0.5016912919127916,1.634597729681572,-0.0133124271762279,-0.8722382956636061,-0.2076141607478361,1.07854873859885,0.7013182090648952,-0.6177497207155547,0.5383358001499,11.275343676236844,-1.1450917093109894,0.1505018775715838,-0.9899744946776196
1.64,0.0747558717584171,0.4930835085997046,1.633347060504193,-0.0249250839176794,0.147296719036614,0.0063665399944411,0.0089398351297336,-0.8617145337621642,-0.2092116886793497,0.0738775933970777,0.5016912919127916,1.634597729681572,-0.0133124271762279,-0.8722382956636061,-0.2076141607478361,0.8004506432946317,0.5532431043322815,0.1582684331866313,0.5564120801314604,11.006504367035632,-1.1562316772433656,0.1612617078263543,-0.981324683723086
1.66,0.0749951954494425,0.4768144024100181,1.6294737691506374,-0.0362822697904975,0.138991231443094,0.0060175020409234,0.0153718952381756,-0.8509959429921391,-0.1990449502195309,0.0737444691253154,0.4929689089561555,1.6325215880740938,-0.0103372833114771,-0.8747038108748306,-0.1998900872185926,0.8056397399648247,0.3216030054220991,0.5359295385012564,0.5083369229909374,11.006504367035632,-1.1684814803370105,0.172584116963497,-0.9724142750842572
1.68,0.0753380171790708,0.4599567898091898,1.6256011416627671,-0.04667547824259,0.1300180885615212,0.0059117514098053,0.0182769280803243,-0.8354999519081494,-0.1887600413539625,0.0734782205817908,0.4755241430428834,1.628369304859137,-0.0043869955819753,-0.8796348412972798,-0.1844419401601056,0.9412017661772872,0.1452516421074343,0.7747995541994845,0.5142454432784201,10.964775274848762,-1.180226976002572,0.182507897389119,-0.9636642749221732
1.7,0.0757019733732358,0.4434388927369642,1.6219297416210086,-0.0548301544836173,0.1217457102056657,0.0060531859318237,0.017792950438663,-0.8173966431844085,-0.1788964961838469,0.0732119720382663,0.4580793771296113,1.6242170216441802,0.0015632921475263,-0.8845658717197289,-0.1689937931016187,1.0310838283423085,-0.0241988820830617,0.9051654361870444,0.4931772585057822,10.921854193097715,-1.1904622145181103,0.1904697588581262,-0.956240497926552
1.72,0.0760248674582561,0.4273017983143946,1.6184543667950235,-0.060589961819079,0.1149063223612756,0.0063722146366677,0.0144566131155117,-0.797808428348078,-0.169108391424484,0.0732432378812168,0.4403880596952167,1.6208371457821478,0.007513579877028,-0.889496902142178,-0.1535456460431318,1.107515577755403,-0.1668168661575659,0.9794107418165277,0.4894052379681407,10.921854193097715,-1.198405000445154,0.1960903795280883,-0.951023666296866
1.74,0.0762454800512031,0.4123406409320503,1.6153350253423686,-0.0640770415820231,0.110346762012203,0.0067492753486726,0.0088789857512723,-0.778551839189314,-0.1597105589444243,0.0732745037241673,0.4226967422608221,1.6174572699201155,0.0134638676065298,-0.8944279325646272,-0.1380974989846448,1.1070743068635942,-0.2788813682119689,0.9628294579381969,0.4698916240029882,10.928536238639026,-1.204607535888552,0.200220633810816,-0.9481371545446547
1.76,0.0763441370577427,0.3969855670461483,1.6122482620453131,-0.0660128661871402,0.1082890401237227,0.0071236202860546,0.0013881240450804,-0.7582519428445696,-0.149436939276741,0.0734545267603554,0.4048821490658663,1.6144635977345452,0.0194141553360315,-0.8993589629870762,-0.1226493519261579,1.1976498463499958,-0.3745430853095955,1.0149948172372192,0.513680983384164,10.948425334782767,-1.206062947786164,0.202793707328706,-0.9499065901469306
1.78,0.0762996521917931,0.3820421376924452,1.6093706527198872,-0.0662019670495393,0.1089804338299992,0.0074579796588481,-0.0051704800745504,-0.7372996721756925,-0.1388246414499498,0.073783306989781,0.3869442801103492,1.6118561292254372,0.0253644430655332,-0.9042899934095252,-0.107201204867671,1.219255714918376,-0.3279302059815476,1.0476135334438583,0.5306148913395605,10.977518674169003,-1.2038183781281862,0.2039042675190399,-0.9562919654530296
1.8,0.0761423303582403,0.3675256872025862,1.606710717508142,-0.0642090260465305,0.1115992003088684,0.0078326618004455,-0.0099575274475915,-0.7157622809806914,-0.1277008197420713,0.0760411281880655,0.3451771540836605,1.6024294206473897,0.0015059865953368,-0.7018152166498174,-0.1089594119476295,1.2354295320119628,-0.2393523686520505,1.0768695597500544,0.5561910853939269,11.000761224944654,-1.200577632426579,0.2032629460953609,-0.965140435742719
1.82,0.0759296517802214,0.3539494614475491,1.6043096430979056,-0.0657097780233898,0.1146420338289651,0.0079304021242709,-0.0121934946302159,-0.7122509827729595,-0.1257375503210673,0.0760411281880655,0.3451771540836605,1.6024294206473897,0.0015059865953368,-0.7018152166498174,-0.1089594119476295,0.2301260044239015,-0.1117983591312224,0.1755649103865941,0.0981634710501971,11.035953489641544,-1.1997782176453695,0.205797487637832,-0.975841932500116
1.84,0.0756696553648496,0.3398343744117688,1.6018195526928465,-0.072489681193023,0.1175450241619724,0.0076973904145462,-0.0136366446734368,-0.6984708913060711,-0.1233387559929079,0.0760411281880655,0.3451771540836605,1.6024294206473897,0.0015059865953368,-0.7018152166498174,-0.1089594119476295,0.7030786177801686,-0.072157502161043,0.6890045733444206,0.1199397164079706,10.42248975716484,-1.1970869479726851,0.2124541621049207,-0.9787740670057092
1.86,0.0753888340554195,0.3260745485438715,1.5993856954518035,-0.0799699061114033,0.1200628407971019,0.0074491391739017,-0.014354603031102,-0.6781905666420063,-0.1201940152885661,0.0760561880540189,0.3381590019171624,1.6013398265279133,0.0028412799293142,-0.6947183255446424,-0.1029863660471654,1.0267624199160696,-0.0358979178832615,1.014016233203241,0.15723703521709,10.509265807586416,-1.1960565597084694,0.2196087506983587,-0.9818994264054034
1.88,0.0751142932089794,0.313414507645242,1.597138080119166,-0.0860663293236643,0.1220763200774422,0.0073229951790683,-0.0145009323003363,-0.6557605453475258,-0.1165491021196556,0.0760863077859256,0.324122697584166,1.5991606382889607,0.0055118665972691,-0.6805245433342924,-0.0910402742462373,1.1362357364723867,-0.0073164634617171,1.1215010647240231,0.1822456584455248,10.639119074637165,-1.1958548827465203,0.226371922397543,-0.985313996999021
1.9,0.0748269598659018,0.3005648187612577,1.5948556255882835,-0.0909533629468503,0.1238020356037273,0.0073445475973424,-0.014206957976113,-0.6306348040728579,-0.1118306915228097,0.0761164275178324,0.3100863932511697,1.596981450050008,0.0081824532652241,-0.6663307611239423,-0.0790941824453092,1.278331621748913,0.0146987162111648,1.2562870637333967,0.2359205298422956,10.639119074637165,-1.1963396284344718,0.2318503725698504,-0.9888436645189728
1.92,0.0745495923346899,0.2882294746318077,1.592677731504754,-0.0941969148877318,0.1251411049785088,0.0075325989023942,-0.013537349370431,-0.6044681893097862,-0.1061313888961231,0.0762800765831369,0.2967597780286908,1.595399566401102,0.010853039933179,-0.6521369789135922,-0.0671480906443811,1.3394235273750803,0.0334804302841021,1.3083307381535847,0.2849651313343269,10.70983089560832,-1.1974499981396145,0.2359761906401911,-0.9926337134538183
1.94,0.0742883536060412,0.2764261927955037,1.5906217831935665,-0.0957538187715073,0.1261165886107339,0.0078900795637134,-0.0126381879233709,-0.5775714239265388,-0.0997274220006904,0.0764437256484413,0.283433162806212,1.593817682752196,0.0135236266011339,-0.6379431967032422,-0.055201998843453,1.3831623832608486,0.0449580723530072,1.3448382691623684,0.320198344771639,10.780159383376484,-1.1991013057325737,0.2385886325938244,-0.9965249933809892
1.96,0.0740581196124711,0.2657205524932026,1.5887932723106666,-0.0954550310674447,0.1267429515865616,0.0083977502009804,-0.0116636223397068,-0.5510218935912438,-0.0930459534253397,0.0766741393804447,0.2704613921389919,1.5925344513983128,0.0161942132690888,-0.6237494144928922,-0.0432559070425248,1.3697347931488535,0.0487282791832005,1.3274765167647529,0.3340734287675332,10.827882086183308,-1.2013861913172563,0.239792029674485,-1.0012639799301533
1.98,0.073836298308139,0.2549992330204583,1.5870138013532542,-0.0928496588430179,0.1271308364842811,0.0091308269851244,-0.0105839044401399,-0.5228165640176717,-0.0851884641133545,0.0769713177791469,0.2578444660270306,1.5915498723394532,0.0188647999370437,-0.6095556322825422,-0.0313098152415967,1.4649629222137526,0.053985894978345,1.4102664786786012,0.3928744655992584,10.87787094795658,-1.2039538140442017,0.2389327513701493,-1.006707032786463
2.0,0.0736368307912629,0.2448206541309831,1.5854033538373808,-0.0882104378459131,0.1272821930228939,0.0100357892516006,-0.0094270810502627,-0.4970463435789859,-0.0761624194844192,0.073307103086132,0.2288584048195747,1.5827543781475866,0.0047420767521507,-0.489352813983101,-0.0462619856380223,1.3664845255777318,0.0578411694938604,1.288511021934291,0.4513022314467658,10.936169284621428,-1.2063187609120851,0.2361930116708894,-1.0125355119367356
2.02,0.0734459636611932,0.2351195777426092,1.5839132572588377,-0.0828429436749451,0.1273941974816257,0.0109986725918642,-0.0097614538028024,-0.4746371490764451,-0.0736226890689966,0.073307103086132,0.2288584048195747,1.5827543781475866,0.0047420767521507,-0.489352813983101,-0.0462619856380223,1.1277566603365357,-0.016718637626983,1.1204597251270376,0.1269865207711322,10.994999824099068,-1.212026603315893,0.2330630880344892,-1.017488207082622
2.04,0.0732589363936044,0.2262995222489701,1.5825562815658731,-0.077720954626388,0.1276466930265399,0.0119043816550419,-0.0098781788486545,-0.4550291974642231,-0.0693035214568576,0.073307103086132,0.2288584048195747,1.5827543781475866,0.0047420767521507,-0.489352813983101,-0.0462619856380223,1.0039180743782323,-0.0058362522926054,0.9803975806111004,0.2159583806069488,10.552031779487152,-1.2128083005619097,0.229092183862195,-1.0203320993801346
2.06,0.073063758245281,0.2174038871223094,1.5812408112024958,-0.0726256071700948,0.1280494525899388,0.0128276555537707,-0.0095993962888788,-0.4356469281165749,-0.0623725564952417,0.0733545238536535,0.2239648766797436,1.5822917582912064,0.0078072729906089,-0.4826600639761869,-0.0384766899429558,1.0293060284477689,0.0139391279887839,0.9691134673824126,0.3465482480807961,10.713543085983474,-1.213287702075559,0.2254639042151413,-1.0241993039921031
2.08,0.0728784371304643,0.2088855734743778,1.580085054013988,-0.0679251122447125,0.1285560859597003,0.0137168934768511,-0.0089169160809121,-0.4172215266250318,-0.0534827941781861,0.0734493653886965,0.2141778204000816,1.5813665185784458,0.0139376654675252,-0.4692745639623586,-0.0229060985528229,1.0234611294677562,0.0341240103983356,0.9212700745771546,0.4444881158527792,10.85665700431582,-1.2137093904485765,0.2222648211639004,-1.0289863512178838
2.1,0.0727109585003729,0.2007264213943774,1.5791246604931637,-0.0636247419986824,0.1291177468696179,0.0145751464427149,-0.0078496779230836,-0.3996613847225312,-0.0430207704514075,0.0735442069237395,0.2043907641204196,1.5804412788656854,0.0200680579444415,-0.4558890639485303,-0.00733550716269,1.0234152644224648,0.0533619078914264,0.8780070951250302,0.5231011863389305,10.970426862059869,-1.214053725065725,0.2195974024362623,-1.03410856073071
2.12,0.0725748325724934,0.1932929615235171,1.5784168469054416,-0.0598885736287333,0.1296553078786744,0.015365981517207,-0.0065246436032137,-0.3837186796976349,-0.03202261082896,0.0739455680826283,0.195272982841449,1.5802945687224317,0.0261984504213578,-0.4425035639347021,0.0082350842274428,0.9706764066110296,0.0662517159934928,0.7971352512448154,0.5499079811223724,11.129516016783782,-1.214498737244732,0.2171563099679646,-1.0400033879243302
2.14,0.0724611302383819,0.1857876022460645,1.5779037152503683,-0.0563113674467082,0.1301875436521626,0.0161751082226717,-0.0049035910048348,-0.367696562142716,-0.0198570830158264,0.0743469292415172,0.1861552015624784,1.580147858579178,0.0323288428982742,-0.4291180639208737,0.0238056756175757,1.0091284970736838,0.0810526299189482,0.8011058777459418,0.6082763906566798,11.129516016783782,-1.2149552141669469,0.2151565305282851,-1.04731721311524
2.16,0.0723824038851381,0.178598077240743,1.577637880824662,-0.0529986474670865,0.1306388698365571,0.0169689577675546,-0.0030565986957057,-0.3521396701342191,-0.0073505629811158,0.0749015502123289,0.1773720577838535,1.5803904132206774,0.0384592353751905,-0.4157325639070455,0.0393762670077086,1.002298998468817,0.0923496154564506,0.7778446004248485,0.6253260017355325,11.1957133363303,-1.2158282726832923,0.2134443015499426,-1.0551537328214116
2.18,0.0723423325945585,0.1717135258826342,1.57762521915413,-0.0498455183317551,0.1309645542111613,0.017755895959434,-0.0010565293554134,-0.3371837374667675,0.0054464411728749,0.0756094309950635,0.1689235515055743,1.58102223264693,0.0445896278521068,-0.4023470638932172,0.0549468583978415,0.98924657522351,0.1000034670146159,0.7477966333725772,0.639850207699536,11.1957133363303,-1.2167389018028345,0.2119174724473821,-1.0624660924276523
2.2,0.0723422150454742,0.1654440751686565,1.5778529315372596,-0.0469766266122944,0.1311390730477711,0.0184980683694376,0.0009269128422106,-0.323579262284025,0.0178715396578273,0.0722895061267878,0.1548543390092958,1.5778975412127738,0.0019778597567312,-0.3199885033915789,0.0289232113205561,0.9265512132498944,0.0991721098812044,0.6802237591371246,0.6212549242476235,11.220448703282273,-1.2178276255393514,0.2104177404501577,-1.0702623769436843
2.22,0.0723938204532604,0.1591347116664378,1.5782195675140684,-0.0433480745075585,0.1302665643139437,0.0193639966118462,0.0040566150550022,-0.3085764884704947,0.0175075499973661,0.0722895061267878,0.1548543390092958,1.5778975412127738,0.0019778597567312,-0.3199885033915789,0.0289232113205561,0.7665030112687535,0.1564851106395822,0.7501386906765162,-0.0181994830230616,11.244556022722463,-1.2242913848266035,0.2085491678164956,-1.0763398983735917
2.24,0.0725041800743932,0.153099104921701,1.5785724315564675,-0.0391661767589507,0.1273556604143386,0.0203402071803309,0.0066537492162689,-0.2959099900834449,0.0178912387538395,0.0722895061267878,0.1548543390092958,1.5778975412127738,0.0019778597567312,-0.3199885033915789,0.0289232113205561,0.6467853281858658,0.1298567080633336,0.6333249193524931,0.0191844378236695,10.375329970849634,-1.229270039376987,0.2056281062560445,-1.0747890823980757
2.26,0.0726446857297258,0.1475838427323051,1.578936060241287,-0.035336059027613,0.123081986907179,0.0212924799521683,0.0078400007406297,-0.2853044642736425,0.0203727230771672,0.0723092847243551,0.15165445397538,1.5781867733259791,0.0025847375791601,-0.3165494565765412,0.0336185653500923,0.5478187082154852,0.0593125762180415,0.530276290490117,0.1240742161663852,10.49775039226006,-1.2360608031237903,0.2027420358152871,-1.0720485286955663
2.28,0.072794285675694,0.141984901790214,1.579387196834455,-0.0317053164113652,0.1176601871153076,0.0222694254569042,0.0067871528792645,-0.2751615996119502,0.0246884267687976,0.0723488419194898,0.1452546839075484,1.5787652375523906,0.003798493224018,-0.3096713629464657,0.0430092734091648,0.5536503646674038,-0.0526423930682613,0.5071432330846143,0.2157851845815194,10.71215623532862,-1.243807049404251,0.200289701467533,-1.0687057397323412
2.3000000000000003,0.0728941982470499,0.1365804880992898,1.5799391338919644,-0.0285512064425398,0.1122699162079058,0.0231819637537394,0.0030744109384635,-0.2657832045999677,0.0303368934690061,0.0723883991146244,0.1388549138397169,1.5793437017788017,0.0050122488688759,-0.3027932693163903,0.0523999814682373,0.5780223217643201,-0.1856370970400474,0.4689197505991282,0.2824233350104246,10.785551864491026,-1.2503716645445426,0.1982430146881671,-1.065982603216617
2.32,0.0728915373511594,0.1313567306929235,1.580615064774801,-0.0258655453177332,0.1079051255125703,0.0240068467956271,-0.0032672560540238,-0.2570230535908799,0.0369618554333337,0.0724886440920019,0.1327990484533891,1.5803917014081663,0.0062260045137338,-0.2959151756863148,0.0617906895273098,0.6341275640090348,-0.3170833496243703,0.438007550454389,0.3312480982163789,10.785551864491026,-1.255149477062252,0.1966808110211185,-1.0647354018404942
2.34,0.0727481810968628,0.1265515742367992,1.5813810610535948,-0.023696963030989,0.1056304716712152,0.0246974539527297,-0.0115337186761981,-0.2491857513343088,0.0433260643334174,0.0725888890693794,0.1267431830670612,1.5814397010375312,0.0074397601585917,-0.2890370820562393,0.0711813975863823,0.6524202362522273,-0.4133231311087181,0.3918651128285516,0.318210445004189,10.843966574383558,-1.257300485168309,0.1953423709461641,-1.0659591408532985
2.36,0.0724228125236571,0.1216515736412264,1.582317735950633,-0.021733493957672,0.1057327080930866,0.0253306604045998,-0.0202559974100095,-0.2412222720497623,0.0499919598691549,0.0727194779378784,0.1208592700214853,1.5827224683683727,0.0086535158034495,-0.2821589884261639,0.0805721056454548,0.678102705935954,-0.436113936690568,0.3981739642273274,0.3332947767868754,10.855935393054096,-1.2537402055090807,0.1940840962582812,-1.0709357568667333
2.38,0.0719376712375824,0.1169081565927663,1.583387306951934,-0.0200175553174678,0.1078422263157722,0.0258950552736505,-0.0275390695012978,-0.2335111510865659,0.0566131332800852,0.0728804106974988,0.1151473093166613,1.5842400034006912,0.0098672714483074,-0.2752808947960884,0.0899628137045273,0.62518889732136,-0.3641536045644128,0.3855560481598213,0.3310586705465131,10.848977402542914,-1.2487029452113727,0.1930645913480788,-1.0780504438499667
2.4,0.0713261044129174,0.1123161222281555,1.5845893883016902,-0.0185025523899065,0.1112377837830085,0.0264144102958042,-0.0330242829523858,-0.2260948372716502,0.0632435204333538,0.0705607177625175,0.105232599038438,1.586217963615938,-0.0143921037368348,-0.2084172193818063,0.0466234404505359,0.5680037654090325,-0.2742606725544036,0.3708156907457821,0.331519357663431,10.854166686244753,-1.2431427794718215,0.1922765639588726,-1.0860198081716088
2.42,0.0706307922334423,0.1080510320649452,1.5857351709556569,-0.0183707585890177,0.1155846146935634,0.0267913311340281,-0.0397632224912927,-0.2229988971710082,0.0563397398521636,0.0705607177625175,0.105232599038438,1.586217963615938,-0.0143921037368348,-0.2084172193818063,0.0466234404505359,0.5066071888776947,-0.3369469769453417,0.1547970050321007,-0.3451890290595102,10.854166686244753,-1.2453398467297554,0.1933775839629582,-1.0934990651543643
2.44,0.0697790056907727,0.1036312580732239,1.5867771387817646,-0.0205471781273554,0.1213131011250592,0.0269937415322822,-0.0447668137505302,-0.2189213047593443,0.0483392243912326,0.0705607177625175,0.105232599038438,1.586217963615938,-0.0143921037368348,-0.2084172193818063,0.0466234404505359,0.5139818406465702,-0.2501795629618778,0.2038796205831972,-0.4000257730465521,9.97712210802456,-1.235869562946163,0.1956413279634899,-1.094746278839872
2.46,0.0688536936183087,0.0993198915358893,1.587670461932481,-0.0242640513369278,0.1274923593351274,0.027057516149328,-0.0473111286741207,-0.2119767847847889,0.041417515153332,0.0704167967251492,0.1031484268446199,1.5866841980204436,-0.0117627105839422,-0.2033984330408543,0.044625501884626,0.5064828597332832,-0.1272157461795219,0.3472259987277667,-0.346085461895031,10.028736559832396,-1.2286738743892835,0.1995962584995339,-1.0995654845944562
2.48,0.067901447786226,0.0951813066996008,1.5884351865444992,-0.0280101971696687,0.1335120581085657,0.0270974023496927,-0.0476620043537862,-0.2022727013589846,0.0353790970260969,0.0701289546504125,0.0989800824569838,1.5876166668294542,-0.006503924278157,-0.1933608603589505,0.0406296247528063,0.5717404182775423,-0.0175437839832769,0.4852041712902141,-0.301920906361755,10.09388748231686,-1.2224781980481472,0.203938029401795,-1.10461699684584
2.5,0.067008245406436,0.0914447124709025,1.5890563429437958,-0.0309811595822777,0.1386935452207329,0.0271708398153252,-0.0462859036573617,-0.1916952288191008,0.0302976551928375,0.0698411125756758,0.0948117380693476,1.588549135638465,-0.0012451379723719,-0.1833232876770467,0.0366337476209866,0.5907572038568267,0.0688050348212225,0.5288736269941918,-0.2540720916629671,10.149924579788603,-1.21816254839464,0.2077823452570486,-1.109279966442992
2.52,0.0661103752278297,0.0877350488026471,1.5896114616661934,-0.0333545430564264,0.143347181667043,0.0273098220851218,-0.0435129864295355,-0.1799413143583695,0.0255039715384013,0.0698162098162283,0.0911452723158067,1.5892818105908846,0.0040136483334132,-0.1732857149951428,0.0326378704891669,0.6496594840402393,0.1386458613913111,0.5876957230365631,-0.2396841827218113,10.199173455482196,-1.2156853032439412,0.2109479988020822,-1.1134660537925785
2.54,0.0652784261033658,0.0842663790864818,1.5900717384362255,-0.0349310571305613,0.1470712288133607,0.0275245504886452,-0.0398046658538794,-0.167618367820599,0.020760522996364,0.0697913070567809,0.0874788065622658,1.5900144855433045,0.0092724346391984,-0.163248142313239,0.0286419933573471,0.6857604482170522,0.185416028782807,0.6161473268885261,-0.2371724271018645,10.241255511187774,-1.2152160477181009,0.2134348694395815,-1.117352632158244
2.56,0.0645275707053869,0.0810521400374598,1.5904374502569758,-0.0355183812606057,0.1498333021994881,0.0278349862057235,-0.0354832721919792,-0.1545174967497232,0.0160518114564595,0.0698978739549781,0.0840632801257724,1.5906472635674287,0.0145312209449836,-0.1532105696313351,0.0246461162255274,0.728833366351409,0.2160696830950093,0.6550435535437895,-0.2354355769952238,10.249201127852755,-1.2165368077812877,0.2150016653890845,-1.121139372985061
2.58,0.0638977453728825,0.0782477611889357,1.5906990856963952,-0.0348226465130958,0.1515867499014169,0.0282437916427781,-0.0310906864808657,-0.1415259342637204,0.011730146147818,0.0701359105108199,0.0808986930063267,1.5911801446632574,0.0197900072507688,-0.1431729969494313,0.0206502390937077,0.7189441843723152,0.2196292855556761,0.6495781243001403,-0.2160832654320745,10.25968109376754,-1.219353817233836,0.2153644825784185,-1.1245508720153008
2.6,0.0633245683906495,0.0755607821455334,1.590887893276254,-0.032607831530405,0.1526449801994293,0.0287997338351766,-0.0265067180125699,-0.1280106939753457,0.0073926526809834,0.0623432110488392,0.0711714644757496,1.591285593003786,-0.0206332834543445,-0.1276337139305018,0.008576816665516,0.7458021462587613,0.2291984234147861,0.6757620144187362,-0.2168746733417318,10.274672886243934,-1.2234363656371632,0.2142553291619172,-1.1283229218032094
2.62,0.0628702871928585,0.0731653904841346,1.5909996642135735,-0.0279858848976237,0.1521815828196259,0.0295614828002761,-0.0191220101985209,-0.1132361849802615,0.0041037490644877,0.0623432110488392,0.0711714644757496,1.591285593003786,-0.0206332834543445,-0.1276337139305018,0.008576816665516,0.8420761731329585,0.3692353907024528,0.7387254497542094,-0.1644451808247851,10.289858007327894,-1.224682262703583,0.210496358614906,-1.1300417193147558
2.64,0.062574796486882,0.0711141052824309,1.591054250060727,-0.0223281970920841,0.149542256726062,0.0304103515921176,-0.0125243210184653,-0.1036682899573706,0.0018191378899956,0.0623432110488392,0.0711714644757496,1.591285593003786,-0.0206332834543445,-0.1276337139305018,0.008576816665516,0.5922279246715267,0.3298844590027808,0.4783947511445445,-0.1142305587246053,10.3634210252485,-1.2333680386101176,0.2055646529466928,-1.1304918113166362
