t,x,y,z,roll,pitch,yaw,v_x,v_y,v_z,ref_x,ref_y,ref_z,ref_v_x,ref_v_y,ref_v_z,a_com,a_x,a_y,a_z,thrust,wind_x,wind_y,wind_z
0.0,1.0079930844370302,0.5494710681620557,2.3932309180087645,0.0243028517218495,0.1501083400689075,0.0289092166815918,0.0004423352281374,-0.0038138380552926,-0.0015243949839299,1.0080011023010893,0.549466683777724,2.3931858544240687,-0.0996864823855386,-0.1011174884367362,-0.1015090296063933,0.2065478227498471,0.0221167614068705,-0.1906919027646348,-0.0762197491964968,10.662888991600994,-1.4129365576361756,0.1665769413156493,-1.2800111134333794
0.02,1.0081156400781024,0.5496457650509563,2.39296793802061,0.0314912626670922,0.1452196931580463,0.0292549816937684,0.0114069304737639,0.0168054684653423,-0.0261655840993524,1.0080011023010893,0.549466683777724,2.3931858544240687,-0.0996864823855386,-0.1011174884367362,-0.1015090296063933,1.6974733807296774,0.548229762281329,1.030965326031753,-1.2320594557711242,10.663579079509873,-1.408679498837816,0.1573356733922714,-1.2738074826697323
0.04,1.0084201260364418,0.5500048821068022,2.39211984490177,0.0457160434932538,0.1311520654181568,0.0296378977757587,0.017231828837854,0.0172624604977954,-0.0573387966687633,1.0080011023010893,0.549466683777724,2.3931858544240687,-0.0996864823855386,-0.1011174884367362,-0.1015090296063933,1.585802213839562,0.291244918204501,0.0228496016226518,-1.5586606284705455,9.187213302850978,-1.4251445057024943,0.1407222683140568,-1.2479054174381483
0.06,1.0087380910541817,0.5502890748009798,2.390653219650898,0.0604020135921198,0.1115885104103134,0.0294985082681945,0.0133351879357714,0.0107629069449568,-0.0876270303331695,1.007004237477234,0.5484555088933566,2.392170764128005,-0.1196864826835618,-0.1211174887347594,-0.1215090299044165,1.5610934510909888,-0.1948320451041298,-0.32497767764193,-1.5144116832203105,8.913995619206617,-1.447921259827888,0.125010254863119,-1.2116900773599066
0.08,1.0088798324959545,0.5504023285930653,2.388715075415258,0.0738174207975675,0.0914257794701295,0.0289019436410234,0.0012981373746125,0.0012038430034044,-0.1148418121315464,1.0050105078295233,0.5464331591246219,2.390140583535877,-0.1596864832796083,-0.1611174893308059,-0.1615090305004629,1.5627784855697318,-0.6018525280579423,-0.4779531970776201,-1.3607390899188463,8.922487909786469,-1.473189805094987,0.1097413185405531,-1.1696929175790074
0.1,1.0087069469378949,0.5502954389513791,2.386125654594319,0.0872682453889674,0.0710842339103801,0.0279503350018409,-0.0183836599515264,-0.0116955113034301,-0.142643656996752,1.0030167781818125,0.5444108093558871,2.388110402943749,-0.1996864838756547,-0.2011174899268523,-0.2015090310965094,1.8212008850133916,-0.984089866306953,-0.6449677153417284,-1.390092243260279,9.009039495890647,-1.4965425211429295,0.0957401111153193,-1.1306105495583116
0.12,1.0080780870085926,0.5499023374135164,2.382987440211733,0.1000621903489902,0.0533412094144807,0.0268693438836663,-0.0436727215135386,-0.0272504147963538,-0.1697808780922069,0.9990230485042992,0.5403884595573502,2.384080222321819,-0.2396864844717012,-0.2411174905228988,-0.2415090316925558,2.011169079257765,-1.2644530781006091,-0.7777451746461839,-1.3568610547727429,9.009039495890647,-1.516417646912593,0.0829179086668495,-1.095954235954015
0.14,1.0069725160325715,0.5492177977376614,2.3795014830390264,0.1116446056883743,0.0398785887739698,0.0259066066606873,-0.0712886589105365,-0.0442536276766122,-0.1958242591700308,0.9950293188267862,0.536366109758813,2.3800500416998887,-0.2796864850677477,-0.2811174911189453,-0.2815090322886023,2.0796676083758223,-1.3807968698498925,-0.8501606440129202,-1.3021690538911943,9.053646890955406,-1.5260288237252162,0.0712409551337684,-1.0687672100619678
0.16,1.0052165251423144,0.5481255558575063,2.3752925352568632,0.1232639027740533,0.0296740958004536,0.0251112773338891,-0.1028085249330373,-0.0643241924785014,-0.2237265779487078,0.990035589134372,0.5313437599453749,2.3750198610630573,-0.3196864856637941,-0.3211174917149917,-0.3215090328846487,2.3317744952986703,-1.5759933011250429,-1.0035282400944572,-1.395115938933851,9.05096843448746,-1.5327229904091462,0.0600515920298295,-1.0449285764645564
0.18,1.002802628362213,0.5465995880833265,2.370522593962081,0.1340142916906209,0.024108270280927,0.0247025085628189,-0.1368880049059229,-0.0872862964958405,-0.2518572460044457,0.9840418594270566,0.5253214101170355,2.368989680411325,-0.3596864862598405,-0.3611174923110381,-0.3615090334806952,2.489981757657835,-1.7039739986442772,-1.148105200866957,-1.406533402786894,9.061584503251652,-1.5344893602977063,0.0505601011920052,-1.0277759047972377
0.2,0.9998693476144962,0.5446872107694983,2.36546815213493,0.1426786304538941,0.0235919303381855,0.0247910162095778,-0.1695605671643096,-0.1124461678712867,-0.2786753114525078,0.9959582281169164,0.5422352732585345,2.3579297316618586,-0.236888006396039,-0.1872862979859566,-0.3518572474945618,2.459534552783156,-1.6336281129193344,-1.25799356877231,-1.3409032724031071,9.061584503251652,-1.5288241808044367,0.0418733741351425,-1.018841187611281
0.22,0.996102049121264,0.54200439207348,2.359734279840858,0.1460841236350686,0.0284868891697258,0.025255276053485,-0.2048149115771805,-0.1527838596346609,-0.2921573978939079,0.9959582281169164,0.5422352732585345,2.3579297316618586,-0.236888006396039,-0.1872862979859566,-0.3518572474945618,2.762139040486417,-1.7627172206435449,-2.0168845881687094,-0.6741043220700016,9.06986066313766,-1.5171146836724194,0.0395416477588471,-1.0096313597683486
0.24,0.9916809323310138,0.5385839967346036,2.353758444826361,0.1432326075937381,0.0383400183861134,0.025994439330652,-0.2348725795888686,-0.1863669406042266,-0.3047785773541731,0.9959582281169164,0.5422352732585345,2.3579297316618586,-0.236888006396039,-0.1872862979859566,-0.3518572474945618,2.340182100113944,-1.5028834005844052,-1.6791540484782832,-0.6310589730132626,10.07448600845919,-1.5022139952648903,0.04155081247386,-1.019949025655785
0.26,0.9867132873344844,0.5345583240948273,2.3475039507039845,0.1376737229166076,0.050735614996492,0.02685583093608,-0.2598361920862961,-0.2138948226836724,-0.319913774225028,0.993589348052956,0.5403624102786749,2.354411159186913,-0.2568880066940622,-0.2072862982839798,-0.371857247792585,2.0062654516670566,-1.2481806248713745,-1.376394103972292,-0.7567598435427425,9.68230591732663,-1.486986402878497,0.0458858878906643,-1.0336666250433943
0.28,0.9815787451553142,0.5302674670714165,2.3412562976533056,0.1319199001919385,0.0632609775504348,0.0276720842953117,-0.2790581249112539,-0.2362544196785586,-0.3369543743804337,0.9888515879250354,0.5366166843189558,2.3473740142370216,-0.2968880072901086,-0.2472862988800263,-0.4118572483886314,1.7028038150043352,-0.9610966412478912,-1.1179798497443092,-0.8520300077702853,9.68230591732663,-1.470081124823846,0.0510035838450995,-1.0492405007771362
0.3,0.9758221321405172,0.5253210974630934,2.334302140298328,0.1262537995320283,0.0760133683126144,0.0284241625246324,-0.2952924768267127,-0.2571642249022859,-0.3577156140416223,0.9841138277971144,0.5328709583592367,2.3403368692871305,-0.3368880078861551,-0.2872862994760727,-0.4518572489846779,1.682114152546197,-0.81171759577294,-1.0454902611863646,-1.0380619830594295,9.323141834797752,-1.4536619493322689,0.055877822381778,-1.0636666710036389
0.32,0.9697773519931856,0.5199763905559791,2.3269018735801628,0.1213252944974467,0.0874569543875705,0.0289955200969893,-0.3082481549767741,-0.2763501566627854,-0.3812881815092163,0.9773760676393914,0.5271252323697152,2.331299724307437,-0.3768880084822015,-0.3272863000721192,-0.4918572495807243,1.651980259310619,-0.6477839075030689,-0.9592965880249744,-1.1786283733797005,9.323141834797752,-1.4384924835921953,0.0601696126996024,-1.0751902853349549
0.34,0.9638197171806312,0.514555242662825,2.319419768201868,0.1173703407637774,0.0966806417983451,0.0293422040910994,-0.3181956078560868,-0.2934549328858959,-0.4051441697989888,0.9706383074816683,0.5213795063801938,2.3222625793277434,-0.4168880090782481,-0.3672863006681657,-0.5318572501767709,1.5497042989798082,-0.4973726439656351,-0.8552388111555287,-1.1927994144886267,9.184393702682428,-1.425785206173235,0.0636213514330442,-1.0828975803993346
0.36,0.9573585509427625,0.5084989578930919,2.31104064284374,0.1137224109154392,0.1045900971874932,0.0294969945326356,-0.3273451060359398,-0.3112252219607924,-0.4315669145920324,0.962900547309044,0.5146337803757711,2.3122254343331488,-0.4568880096742945,-0.4072863012642121,-0.5718572507728172,1.6565460551602749,-0.45747490899265,-0.8885144537448209,-1.3211372396521786,9.109299885689325,-1.4145177136530855,0.0668302882820448,-1.0874651306103256
0.38,0.950724656001856,0.5020914956171426,2.302122784481177,0.1103040771731447,0.1108558558882555,0.0294549796648702,-0.335561094277218,-0.3285439850725032,-0.4589205263930712,0.9541627871215186,0.5068880543564475,2.301188289323653,-0.4968880102703409,-0.4472863018602585,-0.6118572513688637,1.6700764182083894,-0.4107994120639086,-0.8659381555855411,-1.3676805900519395,8.998890245902658,-1.4050569258334145,0.0698256214629421,-1.0891563126724044
0.4,0.9439334266433912,0.4953439180570067,2.292649136687796,0.1069789128343777,0.1157145667614549,0.029245495910464,-0.3431644379755409,-0.3452428616042584,-0.4870569390544614,0.9339466012879952,0.4856642963635174,2.2791767581615234,-0.4355610957673341,-0.4014944599903918,-0.5589205278831872,1.6795245088042592,-0.380167184916147,-0.8349438265877612,-1.4068206330695137,8.998890245902658,-1.3972651685710669,0.0724682009453944,-1.0897318445440396
0.42,0.9373748947514936,0.4885434579883949,2.2833287275557845,0.1017666540011626,0.1191859611453351,0.0287669528426368,-0.3468942529931106,-0.3681722226451421,-0.492443897970767,0.9339466012879952,0.4856642963635174,2.2791767581615234,-0.4355610957673341,-0.4014944599903918,-0.5589205278831872,1.1923573753015977,-0.1864907508784874,-1.1464680520441832,-0.2693479458152764,8.95837234281771,-1.3904294171521605,0.0772572226102753,-1.088098904781851
0.44,0.9304025161938544,0.4809896126989739,2.2733943096511697,0.0946201846440408,0.1214868989069966,0.0279988339775594,-0.3502532140532605,-0.3856789219827263,-0.5009867168483627,0.9339466012879952,0.4856642963635174,2.2791767581615234,-0.4355610957673341,-0.4014944599903918,-0.5589205278831872,0.9883659437116143,-0.1679480530074939,-0.8753349668792099,-0.4271409438797863,10.268455069604896,-1.3873958979317644,0.0836626498408198,-1.0882841789403188
0.46,0.9233584438261664,0.4731241966455108,2.263232859307809,0.0875303915599119,0.122250084177686,0.0270894756595016,-0.3541209050940407,-0.3998845492655684,-0.5146857273385629,0.9295909903303218,0.4816493517636135,2.273587552882692,-0.4555610960653573,-0.4160845549739695,-0.5789205281812104,1.0055120199388137,-0.1933845520390109,-0.7102813641421041,-0.6849505245100085,9.686761527880662,-1.385182317779443,0.0895940733169112,-1.086719094931384
0.48,0.9162303251528434,0.4649993523157182,2.2527556196600598,0.0810041076046404,0.1215839617825069,0.0261073524995487,-0.3585880554698469,-0.4118950603676704,-0.5323307362251388,0.9208797684149752,0.4736194625638057,2.262409142325028,-0.4955610966614038,-0.445264744941125,-0.6189205287772569,1.0903602019758487,-0.2233575187903069,-0.6005255551051025,-0.8822504443287971,9.46721403614265,-1.3835166920695698,0.0952181941265608,-1.0831653375665993
0.5,0.9093701716878372,0.4570745653224119,2.242445252374481,0.0755041800369604,0.1196291970453734,0.0251371689740597,-0.3633943488145674,-0.4217625234476,-0.5520720226186976,0.9121685464996284,0.4655895733639978,2.251230731767364,-0.5355610972574503,-0.4744449349082805,-0.6589205293733034,1.1293645025209824,-0.2403146672360245,-0.4933731539964792,-0.9870643196779384,9.46721403614265,-1.3826225012080349,0.1000296232463169,-1.0775862885022585
0.52,0.9020427408341656,0.4485432649186366,2.2311615413009345,0.0705250285426228,0.1161491726525734,0.0240944265209532,-0.3692100086505829,-0.4309005961237545,-0.5753652608066459,0.9014573245544794,0.4561006746658322,2.238052321179898,-0.5755610978534967,-0.5036251248754359,-0.6989205299693498,1.2844271260404538,-0.2907829918007754,-0.4569036338077231,-1.164661909397413,9.293383571632148,-1.3826578210755245,0.103951213124242,-1.0701540498149729
0.54,0.8945874482786244,0.4398383465655222,2.2193998720977626,0.0663760194762012,0.1112740698234404,0.0230452479735553,-0.3763005152711893,-0.4392113055350585,-0.5996490627140924,0.8907461026093304,0.4466117759676666,2.224873910592432,-0.6155610984495432,-0.5328053148425914,-0.7389205305653963,1.3313960813147456,-0.3545253310303226,-0.4155354705652037,-1.214190095372325,9.146159381388316,-1.3842341965575684,0.1070863735332385,-1.0599500792006311
0.56,0.8869632860080521,0.4309676882058508,2.207147412707584,0.0628135904962123,0.1056998262335919,0.0220253535781519,-0.3859266780083962,-0.4474345924716622,-0.6243564286706204,0.8790348806492803,0.4363933725203222,2.2106954999900648,-0.6555610990455896,-0.5619855048097468,-0.7789205311614427,1.3881096764977772,-0.481308136860345,-0.4111643468301812,-1.2353682978264002,9.092817915459818,-1.3861723829696695,0.1095129646341949,-1.0490819155364233
0.58,0.8795207232661673,0.4223913030457449,2.195046337502486,0.0597366730974604,0.1005260958103735,0.0211167745877982,-0.3970826924640732,-0.4548993759649955,-0.6481902661653767,0.8663236586743289,0.4254454643237988,2.1955170893727964,-0.695561099641636,-0.5911656947769023,-0.8189205317574891,1.3676909929366965,-0.5578007227838466,-0.3732391746666674,-1.1916918747378158,9.064400209907944,-1.3878735805403686,0.1117097019409175,-1.0386202356466834
0.6,0.8714390783204752,0.4132157521464225,2.1818123606114805,0.0567532213618078,0.0957639705026757,0.0202491295471561,-0.4106295397014542,-0.4622238496866668,-0.6739799926357763,0.8596665886429636,0.3996463342474951,2.1626368241942173,-0.4970826939541893,-0.4743252952444516,-0.6819626937540779,1.5018946174669068,-0.6773423618690544,-0.3662236860835638,-1.2894863235199838,9.035384190658988,-1.3887591191202266,0.1136387344767422,-1.029745157291709
0.62,0.8630813552439939,0.4037157491070717,2.168439824656333,0.0488116949287192,0.0931684165731726,0.019191227738342,-0.4245819266959841,-0.4846160713302656,-0.6597235606138276,0.8596665886429636,0.3996463342474951,2.1626368241942173,-0.4970826939541893,-0.4743252952444516,-0.6819626937540779,1.49943868412285,-0.6976193497264915,-1.1196110821799414,0.7128216010974353,8.989417574950494,-1.3890254913395916,0.119993963870284,-1.0129969775315328
0.64,0.8548806232069696,0.3943940094391429,2.1560427510972207,0.036555572327561,0.0938585795439741,0.0180488977586574,-0.4375752717389977,-0.4945040409095634,-0.6461261220664957,0.8596665886429636,0.3996463342474951,2.1626368241942173,-0.4970826939541893,-0.4743252952444516,-0.6819626937540779,1.0624138704577342,-0.6496672521506791,-0.4943984789648886,0.6798719273665987,11.584668636599416,-1.3902399274322197,0.1312661201976339,-1.0149874268361354
0.66,0.8460021172492153,0.3844622973569799,2.1432153504284,0.0229115310412411,0.0966182560268977,0.0168802785715137,-0.449371217960395,-0.4977214935723745,-0.6376070093327093,0.8546957617034218,0.3949030812950506,2.1558171972566766,-0.5170826942522125,-0.4782104791003428,-0.6887171792718182,0.7451033999829959,-0.5897973110698645,-0.1608726331405546,0.425955636689318,11.20047258408431,-1.3886692647722392,0.1433795311064339,-1.0203231267154376
0.68,0.8369050577089566,0.3745190921809873,2.1304981061768653,0.0100131877879129,0.1003321355496577,0.0157771516354223,-0.4595873653346388,-0.4962768432696891,-0.6347848191111183,0.8447541078243379,0.3854165753901615,2.142177943381595,-0.5570826948482589,-0.4859808468121253,-0.7022261503072986,0.5348397874975337,-0.5108073687121933,0.0722325151342684,0.1411095110795512,10.805235811922104,-1.3851405078206231,0.1549093695382269,-1.0267445874056311
0.7000000000000001,0.8276183062509602,0.3646431498084385,2.1177827169398022,-0.0014787835312318,0.1042212748804135,0.0147609264541192,-0.4684754322406702,-0.491484077844648,-0.6368946328953186,0.8348124539452542,0.3759300694852725,2.128538689506513,-0.5970826954443054,-0.4937512145239078,-0.7157351213427792,0.5157994958061737,-0.4444033453015694,0.2396382712520545,-0.1054906892100138,10.47686177318792,-1.3803434608585867,0.1652178892229612,-1.0329993802948565
0.72,0.8186419334116533,0.3553744540214111,2.105629205654952,-0.01089822769979,0.1076170294264684,0.013893447408526,-0.4759245225076739,-0.4845961523718793,-0.6423262854808729,0.822870800036368,0.3660550451947943,2.114223987079658,-0.6370826960403518,-0.5015215822356902,-0.7292440923782597,0.5754027131812652,-0.3724545133501844,0.3443962736384365,-0.2715826292777168,10.224057593614816,-1.375740701075873,0.1737101274907577,-1.0382321421340746
0.74,0.8090511010393119,0.3457778475698452,2.092712021761947,-0.0192096706701682,0.1105527895433788,0.0131014029467634,-0.4827422305473951,-0.4755586529957735,-0.6491522181812286,0.810929146127482,0.3561800209043162,2.0999092846528025,-0.6770826966363983,-0.5092919499474727,-0.7427530634137401,0.6609668961411312,-0.3408854019860602,0.4518749688052881,-0.3412966350177848,10.036430037100216,-1.37128106199262,0.1812331196506767,-1.042794854952649
0.76,0.7993273754353398,0.3363779262469385,2.079651014873126,-0.0259043192296369,0.1127685677453276,0.0124475647105425,-0.4892934962628399,-0.4651583076786365,-0.656613104758392,0.7979874922036947,0.3461107374210435,2.08525685795006,-0.7170826972324447,-0.5170623176592551,-0.7562620344492207,0.7189420938214578,-0.3275632857722393,0.5200172658568508,-0.3730443288581686,9.991539951168306,-1.3678245364228787,0.1870302653079567,-1.045897511031199
0.78,0.7899698931822878,0.3276505106676742,2.0671001583082487,-0.0309158234813477,0.1143586186463021,0.0119508038267829,-0.4953772369015837,-0.4542980431048499,-0.6641599905305221,0.7840458382650063,0.3358471947449762,2.07026670697143,-0.7570826978284911,-0.5248326853710377,-0.7697710054847011,0.7278611330977371,-0.304187031937192,0.5430132286893319,-0.377344288606507,9.969682239546271,-1.3646344147026717,0.1918739902569679,-1.0487171793042658
0.8,0.7799963188407835,0.3186924842578892,2.0537285916240187,-0.0349315211811143,0.1156035865706963,0.0115505526972556,-0.5016568870765715,-0.4422528672762,-0.6726223439036121,0.7652010313372086,0.3049356085124317,2.0338921587817227,-0.5507790203381205,-0.4454379849536644,-0.6585172379017487,0.8002057417851386,-0.3139825087493886,0.6022587914324917,-0.423117668654499,9.95112712909122,-1.3615843293567715,0.1955280191048516,-1.051097530561946
0.8200000000000001,0.7698488093177785,0.3099381619478729,2.040393947812704,-0.0393820751874353,0.1188497388412398,0.0110673312648857,-0.5123069009176632,-0.4330497189814862,-0.6593811022534029,0.7652010313372086,0.3049356085124317,2.0338921587817227,-0.5507790203381205,-0.4454379849536644,-0.6585172379017487,0.966244293371472,-0.5325006920545827,0.4601574147356929,0.6620620825104617,9.927452246547546,-1.3589978029650889,0.1989730126075224,-1.0439359905499106
0.84,0.7595252379371332,0.3014120958670783,2.027346193588182,-0.0444007630209572,0.1255535564502441,0.0104124382686837,-0.5190182999514207,-0.4199258761156,-0.6463305441615681,0.7652010313372086,0.3049356085124317,2.0338921587817227,-0.5507790203381205,-0.4454379849536644,-0.6585172379017487,0.9843718746834788,-0.3355699516878752,0.6561921432943096,0.6525279045917376,11.168354661639569,-1.3530984858930517,0.2039387738925865,-1.0579829734282074
0.86,0.7496271041716872,0.2935797448855915,2.015159135823917,-0.0485202349220127,0.1334614125562798,0.0097597875014151,-0.5222184181231194,-0.4053835931438562,-0.6371891237269603,0.7596932411338274,0.300481228662895,2.027306986402705,-0.5618593770254279,-0.4436659733234273,-0.657388687375994,0.8736193649201137,-0.160005908584937,0.7271141485871879,0.4570710217303875,10.982677363764196,-1.3453190755471265,0.2085742200974581,-1.0737010667790108
0.88,0.7391717054558419,0.2856442348232853,2.002492788247192,-0.0518282705000993,0.1424273377125115,0.0091065645208516,-0.5228378644311487,-0.3891124549585645,-0.6300547190110608,0.748677660727065,0.2915724689638218,2.0141366416446704,-0.5840200904000427,-0.440121950062953,-0.6551315863244845,0.8888663879116451,-0.0309723154014618,0.8135569092645845,0.3567202357949772,10.982677363764196,-1.3366025652515845,0.2122110019085522,-1.089501101923568
0.9,0.7287361034745997,0.2780416426715789,1.9899454459816952,-0.0539767716073133,0.1512896395824275,0.0085407455377007,-0.5204527950127978,-0.3721828624115597,-0.6251388126268764,0.7376620803203026,0.2826637092647485,2.0009662968866357,-0.6061808037746573,-0.4365779268024788,-0.6528744852729752,0.8894742766320173,0.1192534709175408,0.846479627350244,0.2457953192092188,10.851984959582296,-1.3275433923894946,0.2147708363821582,-1.1052984298092103
0.92,0.7183811203344974,0.2707861368953599,1.9774762942365012,-0.0547632391949167,0.1591874968044459,0.0081343466463021,-0.5151006605424732,-0.3544718527847608,-0.6220361344318162,0.7255384642448094,0.2739321507286989,1.987908807181176,-0.628341517149272,-0.4330339035420046,-0.6506173842214659,0.9380189461987204,0.2676067235162338,0.8855504813399445,0.1551339097530135,10.749062409417093,-1.3196380764708049,0.215967490861501,-1.1190103785001513
0.94,0.7086669953494468,0.2642287804536767,1.965684450580135,-0.0538858626852706,0.1651930107339305,0.0079655208965442,-0.5077545065302798,-0.3369319000580855,-0.6193669571377863,0.7134148481693163,0.2652005921926493,1.9748513174757163,-0.6505022305238868,-0.4294898802815304,-0.6483602831699564,0.9601307565272476,0.3673077006096703,0.876997636333765,0.1334588647014911,10.678665765875849,-1.3130288929042269,0.2154885964514623,-1.130849100956133
0.96,0.6986061881192226,0.2576862345668699,1.953328476025939,-0.0509142553918169,0.1696837529086515,0.0080598250205722,-0.4987409279495465,-0.3186912339454335,-0.6163394388220891,0.7007372142594578,0.2565576342381115,1.9618502552965444,-0.6726629438985015,-0.4259458570210562,-0.6461031821184471,1.0285090741167338,0.4506789290366603,0.912033305632598,0.1513759157848626,10.692530239539336,-1.308683245652796,0.2128550097613961,-1.1402242690193982
0.98,0.6887365473091277,0.2514838830343233,1.941038642517243,-0.0463823378277221,0.1722504852043138,0.0083916246321655,-0.4888390730112244,-0.3029687034023071,-0.6127696554682086,0.687505562515234,0.2480032768650857,1.9489056206436608,-0.6948236572731161,-0.422401833760582,-0.6438460810669376,0.9460286083052144,0.4950927469161065,0.7861265271563223,0.1784891676940236,10.722661983464604,-1.3067149532958513,0.2088139352422806,-1.146630641724859
1.0,0.6790691433991441,0.2455721104851818,1.9288264120258731,-0.0412761493571742,0.1729636532962041,0.0088710044257176,-0.4785669619335987,-0.2893010471457205,-0.6086098515237354,0.6642945936585665,0.236335447864208,1.9104001597438325,-0.5091635155468632,-0.3086370143164957,-0.5711400690994094,0.8798083063880247,0.5136055538812856,0.6833828128293279,0.2079901972236619,10.757046130443996,-1.306858861809502,0.2039352340285875,-1.150617014907752
1.02,0.6700214623415263,0.2402016208376936,1.9174015636426496,-0.0361147040292166,0.1741781317138527,0.0093423744137076,-0.4738751822842346,-0.2770237712053546,-0.5942531511518917,0.6642945936585665,0.236335447864208,1.9104001597438325,-0.5091635155468632,-0.3086370143164957,-0.5711400690994094,0.9732152207515172,0.2345889824682034,0.6138637970182936,0.7178350185921833,10.79235394116222,-1.309673254894567,0.1983514441260678,-1.1474356670550647
1.04,0.660624475023954,0.2347819000283195,1.9056830197749115,-0.030556048022458,0.1773684934365715,0.0097990208891509,-0.4658039030372783,-0.2658070305086001,-0.5783942689272379,0.6642945936585665,0.236335447864208,1.9104001597438325,-0.5091635155468632,-0.3086370143164957,-0.5711400690994094,1.0517425611289313,0.4035639623478138,0.5608370348377273,0.7929441112326907,11.480135188225177,-1.3080602728288595,0.1932044220902886,-1.157267642362435
1.06,0.6514200605461077,0.2295719103054183,1.8942794178203808,-0.025034579847622,0.1809951563152857,0.0102670279883866,-0.4549726942277837,-0.2559673349987435,-0.5627795909589753,0.6592029585030978,0.233249077721043,1.9046887590528383,-0.513228404053991,-0.3097706764993334,-0.5628141518256495,1.0699916589092056,0.541560440474731,0.4919847754928291,0.7807338984131273,11.496487669960516,-1.3067487252808403,0.1883179388166579,-1.1668347719574994
1.08,0.6428973939262915,0.2247913151751937,1.883733263078312,-0.0199090213604527,0.1839254158882672,0.0107399987506132,-0.4427351572766919,-0.2478979788174202,-0.5481289800683044,0.6490196881921606,0.2270763374347131,1.8932659576708504,-0.5213581810682465,-0.3120380008650089,-0.5461623172781299,1.0362338289211646,0.6118768475545933,0.4034678090661658,0.7325305445335495,11.49274884255101,-1.305634971678037,0.1831979312566019,-1.1754951022315543
1.1,0.6341912124362192,0.2199107665339356,1.872933192335432,-0.014730119863831,0.1858749108848183,0.0112638994550854,-0.4285828758886208,-0.2407166285086027,-0.5326400356946169,0.6388364178812234,0.2209035971483832,1.881843156288862,-0.529487958082502,-0.3143053252306843,-0.5295104827306102,1.1087901723909246,0.7076140694035532,0.3590675154408737,0.7744472186843709,11.496687554578784,-1.3056108204979404,0.1782397646995386,-1.1822458557118378
1.12,0.6257770743327139,0.2151603794945756,1.8624442289916967,-0.0098512586739472,0.1863003381491461,0.0117993773066599,-0.4136437789588885,-0.2347855461625428,-0.5170148056233429,0.6282466587195733,0.2146174906437695,1.8712529466342496,-0.5376177350967576,-0.3165726495963598,-0.5128586481830905,1.120828008273267,0.7469548464866166,0.2965541173029926,0.7812615035637016,11.515869927809035,-1.3073632978230154,0.1738053445388215,-1.1867071040405546
1.14,0.6176695073425145,0.2105159257687673,1.8522741900212396,-0.0053447030857995,0.1848298998567821,0.0123273524192417,-0.3980290316325723,-0.2300144303634944,-0.5007552209401067,0.6176568995579232,0.2083313841391558,1.8606627369796376,-0.5457475121110131,-0.3188399739620352,-0.4962068136355708,1.1521262670644623,0.780737366315809,0.2385557899524243,0.8129792341618092,11.533601980527235,-1.3110604354243118,0.1694909962818387,-1.189066908696877
1.16,0.6102583072718893,0.2061812666665212,1.8429206484775564,-0.0014722039213769,0.1813094182393996,0.0128022633504106,-0.3830627695852401,-0.2265106418607937,-0.4846167915851608,0.6068638959709168,0.2019885945254002,1.850488823188713,-0.5538772891252686,-0.3211072983277107,-0.4795549790880511,1.1143545616024215,0.7483131023666073,0.1751894251350333,0.806921467747293,11.579985367764491,-1.3176386663761426,0.1656321767347704,-1.187954867766268
1.18,0.6027530638162044,0.201680970958119,1.8334154998972103,0.0021351107749738,0.1752213525120751,0.0132540271261864,-0.3687416227521677,-0.2237248550741267,-0.4666482883672969,0.5958676479585541,0.1955891218025028,1.8407312052614773,-0.5620070661395241,-0.3233746226933861,-0.4629031445405314,1.1572844967050857,0.7160573416536226,0.1392893393333497,0.8984251608931987,11.62562592818358,-1.3281014855382816,0.1622843682574855,-1.1812064198509238
1.2,0.5955018720984582,0.1972272818799964,1.8242806547923776,0.0052425422240654,0.1674211082077466,0.0136429924379332,-0.3574921721472892,-0.2217789264380852,-0.4476588940951343,0.5843159826785961,0.1904947282044127,1.8100830854788457,-0.4091562578441877,-0.2346299299611044,-0.4084578941743628,1.1078513799149785,0.5624725302439265,0.0972964318020755,0.9494697136081282,11.676438729382426,-1.340558389365729,0.159493570266656,-1.1719126083640885
1.22,0.588441401160129,0.1927835834420326,1.8155115023978812,0.0071562010206096,0.1586724559633279,0.0139217978616981,-0.3495032154969128,-0.2223804701108649,-0.43025825904994,0.5843159826785961,0.1904947282044127,1.8100830854788457,-0.4091562578441877,-0.2346299299611044,-0.4084578941743628,0.9578196374160136,0.3994478325188177,-0.0300771836389837,0.8700317522597145,11.714998085574734,-1.3527838403822243,0.1580023822497029,-1.162002986328427
1.24,0.5818551222710453,0.1885584342952187,1.807514086597526,0.0077390550705164,0.1499693811489735,0.0140905837238416,-0.3444870302865218,-0.2222508168634459,-0.4123950985212598,0.5843159826785961,0.1904947282044127,1.8100830854788457,-0.4091562578441877,-0.2346299299611044,-0.4084578941743628,0.9277276379720932,0.2508092605195494,0.006482662370949,0.8931580264340128,11.574413198966797,-1.3661247808154189,0.1578091706855756,-1.1495282735990828
1.26,0.57499697549722,0.1841172897458388,1.799477677098877,0.0074971125530766,0.1408455424958736,0.0142129602347705,-0.3418823491484007,-0.2218298812051167,-0.3921005459219895,0.5802244201001542,0.1881484289048016,1.805998506537102,-0.4172391848625917,-0.2368109449384999,-0.396819815335776,1.0232673353824553,0.1302340569060533,0.0210467829164576,1.0147276299635133,11.659735743211968,-1.3793708191014835,0.1585632505146127,-1.1371747398012326
1.28,0.5681621173939636,0.1796877040837528,1.7918598376246166,0.0065270712746026,0.1321711545814297,0.0143011904991559,-0.3419567951203365,-0.2210990907865635,-0.3706792477062967,0.5720412949432705,0.1834558303055796,1.7978293486536148,-0.4334050388993997,-0.241172974893291,-0.3735436576586024,1.071694469151809,-0.0037222985967866,0.03653952092766,1.0710649107846415,11.78904893897743,-1.3914459326945912,0.1599955058050786,-1.126086745694076
1.3,0.5612993404995738,0.1752785624796536,1.7846782772857674,0.0049886979216386,0.1242808011813945,0.0143748999648777,-0.3444760348164208,-0.2198115518319087,-0.3485331839406331,0.5638581697863867,0.1787632317063575,1.7896601907701275,-0.4495708929362078,-0.245535004848082,-0.3502674999814288,1.116302451756375,-0.1259619848042154,0.0643769477327388,1.107303188283179,11.78904893897743,-1.4032026922028296,0.1620875616182947,-1.1156438435392966
1.32,0.5547118037741844,0.1711212551024476,1.778270598817341,0.0032033158714433,0.1177485285620804,0.0144488182785376,-0.3489308822189569,-0.2178440509088914,-0.3270599039260625,0.5548667519276625,0.1738525316093958,1.782654840770499,-0.4657367469730158,-0.2498970348028731,-0.3269913423042552,1.1009296978532672,-0.2227423701268077,0.0983750461508656,1.0736640007285303,11.821613079634515,-1.413825752758202,0.1645669881688942,-1.107005246395172
1.34,0.5476653440596485,0.1667966806234707,1.771969690908504,0.0013156480719702,0.11215504315153,0.0145524113747102,-0.3556576676597321,-0.2146867330945173,-0.3041463906065832,0.5458753340689384,0.1689418315124342,1.7756494907708704,-0.4819026010098238,-0.2542590647576642,-0.3037151846270816,1.2044162390854989,-0.3363392720387576,0.1578658907187086,1.1456756659739635,11.8419955231293,-1.423112319690378,0.1670891320450716,-1.1004872502173242
1.36,0.5404575911301156,0.1625443805223185,1.7661265451700696,-0.0002253603392931,0.1084681346515115,0.0147008825077975,-0.3648597805943019,-0.2107689540276482,-0.2813178252283687,0.536479769859294,0.1639220806666028,1.7692260447131711,-0.4980684550466318,-0.2586210947124553,-0.2804390269499079,1.2461653908137431,-0.4601056467284925,0.195888953343451,1.141428268910724,11.860785511579708,-1.4301609932362933,0.1691835350122428,-1.09658541814759
1.38,0.5334239675570513,0.158583200837643,1.7609963247077367,-0.0012016490843189,0.1073355071616736,0.0148866658284199,-0.3747815195055095,-0.2064490656299216,-0.2598613977928178,0.5266800592987294,0.1587932790719016,1.763384502597401,-0.5142343090834398,-0.2629831246672464,-0.2571628692727343,1.201541319605825,-0.4960869455603783,0.2159944198863297,1.0728213717775437,11.86049541788998,-1.4338667685621844,0.1708923601065835,-1.0979959237447157
1.4,0.5258272869451719,0.154507011793313,1.756034332741406,-0.0015261021361431,0.1083095432233474,0.0151358539757003,-0.384141558578029,-0.2014398413972773,-0.2374905459324169,0.5146848915817759,0.1482607475561469,1.7480032548180957,-0.3860488239259807,-0.217637937788449,-0.2252500422794836,1.2381010376903872,-0.4680019536259738,0.2504612116322163,1.1185425930200457,11.840064327720938,-1.434480122101298,0.1719154702840928,-1.10450658949508
1.42,0.5179947951304404,0.1505278826936415,1.75139305859838,-0.0011206299466849,0.112380568003097,0.0154372412616011,-0.3982632801587816,-0.1967529187606854,-0.2284339649741771,0.5146848915817759,0.1482607475561469,1.7480032548180957,-0.3860488239259807,-0.217637937788449,-0.2252500422794836,0.8709361670909697,-0.7060860790376294,0.2343461318295978,0.4528290479119914,11.82504283734852,-1.4321735678345893,0.1722619898231603,-1.1157521607088687
1.44,0.5099192508380659,0.1466461131364638,1.746909635922468,9.037134472121852e-05,0.1197873453800356,0.015800163576086,-0.4080465520280004,-0.1917410243003098,-0.2202808377740821,0.5146848915817759,0.1482607475561469,1.7480032548180957,-0.3860488239259807,-0.217637937788449,-0.2252500422794836,0.684297043852156,-0.4891635934609395,0.2505947230187794,0.4076563600047489,10.938880600615448,-1.423599675156075,0.1716052475242653,-1.1298393616982745
1.46,0.5021066495142255,0.1430495151131507,1.74280921037715,0.0021298532333963,0.1282494753085106,0.0162225725269522,-0.4135044173476965,-0.1872211516335185,-0.2117896308103701,0.5108244033425161,0.1460843681782624,1.7457507543953008,-0.3883022848100749,-0.2198757122201545,-0.2183277711768167,0.5529876546373784,-0.2728932659848082,0.225993633339562,0.4245603481855986,10.965811181483332,-1.4133673132072704,0.1699684002655797,-1.1464989468920288
1.48,0.4938059429443044,0.1393424059259086,1.738673214509319,0.0049214736546608,0.1376859643625883,0.0167377533684813,-0.4159353314352223,-0.1839425697908732,-0.2022620249307712,0.5031034268639965,0.1417316094224934,1.7412457535497112,-0.3928092065782634,-0.2243512610835654,-0.204483228971483,0.5182511842649848,-0.1215457043762885,0.1639290921322658,0.4763802939799486,11.018042484535728,-1.402517475581807,0.1676008352700249,-1.163712520519746
1.5,0.4854877894164031,0.1356851401519298,1.7347328069404822,0.0077397630077457,0.1471255735823902,0.0172826507900281,-0.4154721120598737,-0.1819944366988138,-0.1923083910745968,0.4953824503854768,0.1373788506667244,1.7367407527041214,-0.3973161283464519,-0.2288268099469764,-0.1906386867661493,0.5076529859974631,0.02316096876743,0.0974066546029731,0.4976816928087185,11.072640457747184,-1.3917632536406932,0.165169951389411,-1.18062341419787
1.52,0.477205926925327,0.1320572665835207,1.7309943812226114,0.0103009829003298,0.156281166333174,0.0178328697759498,-0.4124826326205048,-0.1808714114349227,-0.1820824386239212,0.4874361278185478,0.1328023144677849,1.7329279789687984,-0.4018230501146403,-0.2333023588103873,-0.1767941445608156,0.5356497843396012,0.1494739719684445,0.0561512631945537,0.5112976225337781,11.11716838319262,-1.3818767653184163,0.163083297302712,-1.1961245630081592
1.54,0.4694249694764873,0.128626176748343,1.727628701625036,0.0124170123660593,0.1642536173707458,0.0183450836011708,-0.4066219771480109,-0.1803136468922136,-0.1727485553589957,0.4794898052516188,0.1282257782688453,1.7291152052334753,-0.4063299718828289,-0.2377779076737983,-0.1629496023554819,0.5517693373494773,0.2930327736246962,0.0278882271354544,0.4666941632462743,11.15816194740728,-1.3718521921802402,0.1611962948392437,-1.2120088657539507
1.56,0.4613811287255658,0.1250215349207032,1.7242743412454271,0.0142822653043908,0.1712856697253034,0.018856343326561,-0.3979864861859817,-0.1801462693785137,-0.1632069037757346,0.471430809640485,0.1235373533483205,1.7256485450532857,-0.4108368936510173,-0.2422534565372092,-0.1491050601501481,0.6435115273321241,0.4317745481014601,0.0083688756849928,0.4770825791630545,11.159896128070612,-1.363606939817576,0.159689878019748,-1.2254519135613235
1.58,0.4535321345415374,0.1214151699546338,1.7211091270380718,0.0157152380846547,0.1765143399959512,0.0193200807704233,-0.3874361202345505,-0.1804602640317832,-0.1538080006089006,0.4632591409851465,0.1187370397062105,1.7225279984282291,-0.4153438154192058,-0.2467290054006202,-0.1352605179448144,0.7066615085932632,0.5275182975715581,-0.0156997326634739,0.4699451583417016,11.18657028159032,-1.3576705165559932,0.1586425878851051,-1.2359680489416451
1.6,0.4459064848357377,0.1177975244228101,1.7181329604145068,0.0165871945640938,0.179811157385974,0.0197172101222277,-0.3758071971856209,-0.1812407868375069,-0.1442812059297916,0.4341603285298099,0.1123921567530447,1.7134187270076269,-0.3717786710934058,-0.1692825798513447,-0.138229917846242,0.7526634108053901,0.5814461524464798,-0.0390261402861857,0.4763397339554526,11.18657028159032,-1.354355668879775,0.1582168920864961,-1.2430933739175491
1.62,0.4388312163277452,0.114262434473966,1.71538934213695,0.0141423077811343,0.1823075466721158,0.0198539874813301,-0.369611701022525,-0.1900140439993282,-0.145523466303864,0.4341603285298099,0.1123921567530447,1.7134187270076269,-0.3717786710934058,-0.1692825798513447,-0.138229917846242,0.5405955622537414,0.3097748081547946,-0.4386628580910656,-0.0621130187036231,11.212703484864504,-1.3527857247403192,0.1615879467186307,-1.248880617054857
1.64,0.4315165505840902,0.1104288929080086,1.7124657875019775,0.0074416223518528,0.1853250381553182,0.0197073409100048,-0.362032752210892,-0.1920002371741004,-0.1466348401468167,0.4341603285298099,0.1123921567530447,1.7134187270076269,-0.3717786710934058,-0.1692825798513447,-0.138229917846242,0.3956658319708228,0.3789474405816534,-0.0993096587386097,-0.0555686921476339,10.50355798590408,-1.3491451430375403,0.1696931637005576,-1.2515647772378302
1.66,0.4243700876724741,0.106620025804352,1.709536450792953,8.356815358094665e-05,0.1882397756717526,0.0195036094047817,-0.3529501388746919,-0.1886690902918695,-0.1462702104940674,0.4304425418188758,0.1106993309545312,1.7120364278291644,-0.3686471812651768,-0.167047043015257,-0.1351143012937103,0.4840541275249581,0.4541306668100014,0.1665573441115453,0.0182314826374638,10.586301351259864,-1.345652660321067,0.1781713368681137,-1.255017214640929
1.68,0.417418386918629,0.1029120596536894,1.706625945712413,-0.0065272288143006,0.1907255760453434,0.0193452228099734,-0.3426709829005039,-0.1824302653082556,-0.1448191724383292,0.4230069683970077,0.1073136793575043,1.7092718294722395,-0.3623842016087189,-0.1625759693430816,-0.1288830681886469,0.6055771960639085,0.5139577987093996,0.3119412491806944,0.0725519027869131,10.673344318028285,-1.3425101470500511,0.1863688459882112,-1.258881780605435
1.7,0.4110136920070935,0.0995229540162645,1.7038967909146767,-0.0116983216363702,0.192501855822348,0.019275048072732,-0.3320518669728734,-0.17485169903315,-0.1425443920456695,0.4155713949751396,0.1039280277604774,1.7065072311153149,-0.356121221952261,-0.1581048956709062,-0.1226518350835834,0.6621459727761199,0.530955796381527,0.3789283137552807,0.1137390196329829,10.748245667836272,-1.3402078742931294,0.1932815805088775,-1.262491515569858
1.72,0.4044954804423777,0.0961203522308161,1.7010793225028111,-0.0159513767937033,0.1936754181985782,0.0192966007394706,-0.3203483187722489,-0.1659547983217752,-0.1392844539709155,0.4084489705360944,0.1007659298470593,1.704054194413643,-0.3498582422958031,-0.1536338219987308,-0.11642060197852,0.7529194495489442,0.5851774100312263,0.4448450355687403,0.1629969037377013,10.815744063831517,-1.3389030526173096,0.1988428114026843,-1.2655667895057643
1.74,0.3982143873078845,0.0929036517904708,1.6983318833022714,-0.0190571242221269,0.1941232353535245,0.0194174646740952,-0.3083950649777166,-0.156334653379424,-0.1356071850303868,0.4013265460970491,0.0976038319336412,1.7016011577119712,-0.3435952626393452,-0.1491627483265554,-0.1101893688734565,0.7889071108966553,0.5976626897266135,0.4810072471175625,0.1838634470264319,10.879486355400331,-1.3385456974715353,0.2031362538075377,-1.2682075613907122
1.76,0.3921736224098864,0.0898855727596873,1.6956624750869174,-0.021066941783856,0.1938468306317653,0.0196376723710712,-0.2963792337168131,-0.146235794473355,-0.1315106415869946,0.3943606961494154,0.0945535108620274,1.699303901837926,-0.3373322829828873,-0.14469167465438,-0.1039581357683931,0.8110931208541889,0.6007915630451777,0.5049429453034479,0.204827172169611,10.908428786085096,-1.339074943317375,0.2060643506092886,-1.2700672842863243
1.78,0.386656405771449,0.0872096069439895,1.6932067928073595,-0.0220083465004281,0.1929525512016593,0.0199356340230658,-0.2850552689487852,-0.1361119860798831,-0.1271838116003339,0.3875514206931931,0.0916149666322181,1.6971624267915075,-0.3310693033264294,-0.1402206009822046,-0.0977269026633297,0.7896916046608542,0.5661982384013914,0.5061904196735952,0.2163414993330351,10.93707946468112,-1.340660181888867,0.2080643095086588,-1.2722174705594564
1.8,0.3810787884539209,0.0846046725070217,1.6907154631922037,-0.0217928173395297,0.1913570027310357,0.0203536255815045,-0.2733666941555567,-0.1250273299115028,-0.1221496293516965,0.3724036423240098,0.0804040076399954,1.6868476022273429,-0.2813428427762158,-0.1176645422369952,-0.1104885487361019,0.8438533254965082,0.5844287396614273,0.5542328084190168,0.2517091124318721,10.967989586528349,-1.3432535209768044,0.2086882037588324,-1.2743592281270486
1.82,0.3757408840008021,0.0822092475505558,1.688273862619605,-0.0205441817192623,0.1884627066700358,0.0208725021830412,-0.2610672368429403,-0.1151165824821721,-0.1225212812972687,0.3724036423240098,0.0804040076399954,1.6868476022273429,-0.2813428427762158,-0.1176645422369952,-0.1104885487361019,0.7899963448673414,0.6149728656308168,0.495537371466534,-0.0185825972786136,11.000954632096182,-1.345286637823781,0.2080486775694052,-1.2754271207929664
1.84,0.3706457134551761,0.0800101859894035,1.6858298236719318,-0.0184908474160212,0.1834524251883611,0.0214838666180373,-0.2493561605734105,-0.1053958085917097,-0.1217897145550286,0.3724036423240098,0.0804040076399954,1.6868476022273429,-0.2813428427762158,-0.1176645422369952,-0.1104885487361019,0.7618693167443349,0.5855538134764915,0.4860386945231193,0.0365783371120094,10.646864106141948,-1.3520596114032375,0.2064470776819106,-1.2709241051593456
1.86,0.3659992655495137,0.078092053025368,1.6835399458683302,-0.0158988934887053,0.1772544420387929,0.0221197169146942,-0.2406253337978517,-0.0972561291127856,-0.1192465344392075,0.3695902138962476,0.0792273622176254,1.685742716739982,-0.280600357541702,-0.1139750534684177,-0.1071494961632554,0.6102243097950538,0.436541338777939,0.4069839739462059,0.1271590057910505,10.74236519756596,-1.3614388267219362,0.2040565255415736,-1.263871601431027
1.88,0.3612583471374417,0.0762223604182126,1.681197824888097,-0.0131064668221347,0.1702259657898536,0.0227772743730059,-0.2341700468128779,-0.0902004149555273,-0.1150169550336156,0.3639633570407233,0.0768740713728855,1.6835329457652597,-0.2791153870726742,-0.1065960759312625,-0.1004713910175626,0.5228364330158973,0.3227643492486901,0.3527857078629133,0.2114789702795994,10.910933232517891,-1.3713789201972608,0.2015850430583641,-1.256210855945373
1.9,0.3566190211379981,0.0744831545755925,1.6789543841661476,-0.0105747892668991,0.1634943456280082,0.0233878359071561,-0.2302175282633447,-0.0840610408838682,-0.1095278833790604,0.358336500185199,0.0745207805281456,1.6813231747905375,-0.2776304166036464,-0.0992170983941073,-0.0937932858718698,0.4567390516066185,0.197625927476662,0.3069687035829569,0.2744535827277558,10.966383568419587,-1.3803873552228187,0.1995200755612003,-1.2493722386746755
1.92,0.3520348247719114,0.072859755463725,1.6768296107456386,-0.0083945333429,0.1576573622598691,0.0239432862427617,-0.2285175685623224,-0.0785505843716242,-0.1032151108127239,0.3527838918531261,0.0725364385602635,1.6794473090731004,-0.2761454461346187,-0.0918381208569522,-0.087115180726177,0.4275105011362983,0.0849979850511162,0.2755228256121997,0.3156386283168277,10.966383568419587,-1.3889044658387786,0.1977467270078758,-1.2433181040668448
1.94,0.3476899576537355,0.0714149269649086,1.6749312509612777,-0.0066582774727823,0.1535106612236287,0.0244209882603219,-0.2290044702005113,-0.073768393229899,-0.0969253247926981,0.3472312835210531,0.0705520965923813,1.677571443355663,-0.2746604756655909,-0.084459143319797,-0.0804370755804841,0.3958150878218821,-0.0243450819094451,0.2391095570862589,0.3144893010012896,11.00585630639398,-1.3956976219958872,0.1963904675893137,-1.2392762820545524
1.96,0.3430876626151086,0.0699893346981256,1.6730635977312054,-0.0051398694133262,0.1512701997624483,0.0248778177488348,-0.2312457719592634,-0.0690610066406785,-0.0901714339303068,0.3417157994507059,0.0687522290629281,1.675862530266868,-0.2731755051965632,-0.0770801657826419,-0.0737589704347913,0.4266086141161814,-0.1120650879376058,0.2353693294610263,0.3376945431195661,11.0200096654371,-1.399363306046852,0.1953679997073026,-1.2385568920305283
1.98,0.3384392597516832,0.0686537671862862,1.6713300743739314,-0.003964280881014,0.1514184108191991,0.0252923700936204,-0.2331784272575896,-0.0647240016726053,-0.0835450056267042,0.3362374396420843,0.0671368359719037,1.6743205698067152,-0.2716905347275354,-0.0697011882454868,-0.0670808652890985,0.4075975976929485,-0.0966327649163101,0.2168502484036577,0.3313214151801295,11.02606764857319,-1.398944015806932,0.194667812058251,-1.2420421673609736
2.0,0.3337676923129975,0.0674021416877869,1.669726626408187,-0.0031816466089631,0.153234744193991,0.0256697899692883,-0.2336672885146498,-0.0606442005882857,-0.0771551275397688,0.3267803383888037,0.065417567102656,1.667152824092596,-0.242571250350229,-0.0591741968994236,-0.0792513445277769,0.3798496550681822,-0.024443062853012,0.2039900542159831,0.3194939043467668,11.013784923739877,-1.3967419350048402,0.1944167055910541,-1.247596470611224
2.02,0.3293398319971697,0.0663241094178312,1.6682498146935991,-0.0016521343115131,0.1553557760642932,0.0260799131058394,-0.2324017997645116,-0.0535379375644409,-0.0786216232716717,0.3267803383888037,0.065417567102656,1.667152824092596,-0.242571250350229,-0.0591741968994236,-0.0792513445277769,0.3682765457929646,0.0632744375069105,0.355313151192238,-0.0733247865951441,11.003249516003962,-1.3925525612747522,0.1931685035183655,-1.2543841222332015
2.04,0.3247138947984064,0.065310022981254,1.6666625123234322,0.0011046048488557,0.157144278799122,0.0265901833903275,-0.2302363518314865,-0.0485057720532271,-0.0799814652515913,0.3267803383888037,0.065417567102656,1.667152824092596,-0.242571250350229,-0.0591741968994236,-0.0792513445277769,0.282227854282866,0.1082723966512572,0.251608275560691,-0.0679920989959781,10.519932802368205,-1.3898211951785948,0.1905049691273354,-1.258204685840027
2.06,0.3201375800939117,0.0643761467442322,1.6650565967214612,0.0039937085579323,0.1584038985154131,0.0271050628075315,-0.2275330290803039,-0.0451755109181311,-0.0805495594622895,0.3243546258853015,0.0648258251336617,1.6663603106473184,-0.2444498149687569,-0.0580642359447873,-0.0783926123079915,0.2163407275411928,0.1351661375591298,0.1665130567547988,-0.028404710534912,10.56431339410574,-1.38813803180146,0.1878213464740216,-1.260970458758378
2.08,0.315843194996969,0.0635403628661499,1.6635265524914138,0.006479693097911,0.1591319320631458,0.0275685113544748,-0.2246793540318224,-0.0429335481472707,-0.0804824245740711,0.3195032008782969,0.0636423411956733,1.6647752837567629,-0.2482069442058127,-0.0558443140355146,-0.0766751478684206,0.1814825435232408,0.1426837524240734,0.1120981385430215,0.003356744410924,10.652662897895423,-1.38718807341337,0.1852942758131963,-1.263097253213641
2.1,0.3113824443552668,0.0627004149305687,1.6619224236000094,0.0087077010823323,0.1594582709004119,0.0280186575603447,-0.2215741534874738,-0.0411517393787557,-0.0799114318453523,0.3146517758712923,0.0624588572576848,1.6631902568662074,-0.2519640734428685,-0.053624392126242,-0.0749576834288497,0.1812673826452879,0.1552600272174298,0.0890904384257484,0.0285496364359358,10.652662897895423,-1.3869115143785364,0.1832149972205264,-1.2645158840655186
2.12,0.3069838628528792,0.061891496260342,1.660334456212987,0.0105223738242781,0.1594022402354745,0.0284277854116434,-0.2184742236865278,-0.0397923921712851,-0.0788950506497533,0.309612494402435,0.0613863694151599,1.6616911031976305,-0.2557212026799243,-0.0514044702169693,-0.0732402189892788,0.1767089438598004,0.1549964900472988,0.067967360373531,0.0508190597799509,10.685246673082474,-1.3871844422686548,0.1816000892564831,-1.2653409343597088
2.14,0.30264575144083,0.0611053853934695,1.6587681442401454,0.0119107754287638,0.159042191413045,0.0287947595042118,-0.2155305935918441,-0.038883171533544,-0.0777845449485124,0.3045732129335776,0.0603138815726351,1.6601919495290534,-0.2594783319169801,-0.0491845483076966,-0.0715227545497079,0.1637441847433854,0.1471815047341854,0.0454610318870538,0.0555252850620434,10.715893067354044,-1.387838834578521,0.1805081913321747,-1.2656293135936518
2.16,0.2985766002739053,0.0603710771278902,1.6573013338077829,0.0127336308037298,0.1585080093176625,0.029098243839402,-0.2129820483917661,-0.0384217153854077,-0.0766695987304781,0.2994400032337938,0.0592968917778421,1.6587357324714658,-0.2632354611540358,-0.046964626398424,-0.0698052901101369,0.1409887360979833,0.1274272600039025,0.0230728074068146,0.0557473109017166,10.7193307686166,-1.3888347278742788,0.179944822083108,-1.2654521052430974
2.18,0.2943426958423273,0.05960527886917,1.65578106581786,0.0130009813105789,0.1578465434794465,0.0293670004157736,-0.2105717404933214,-0.0381571257618592,-0.0754099349233315,0.2942128653030836,0.0583354000307809,1.6573224520248673,-0.2669925903910916,-0.0447447044891513,-0.0680878256705661,0.1366230648648821,0.1205153949222354,0.0132294811774236,0.0629831903573296,10.724005911963104,-1.389955557264245,0.1800771863808207,-1.2649812347189708
2.2,0.2901541859320417,0.0588441599603113,1.654287111277943,0.012604002341916,0.1571669125924835,0.0295828505317308,-0.208420838915468,-0.0379139740110388,-0.0740461643947476,0.2838141088176612,0.0576974225810771,1.6520105690716935,-0.1998541371153235,-0.0402370328680949,-0.0599364434110925,0.1279196078223847,0.1075450788926665,0.0121575875410222,0.0681885264291963,10.724005911963104,-1.3910459375278623,0.180905217920665,-1.264418763747679
2.22,0.2859711630113823,0.0581157272898994,1.6528388706711885,0.012429001915023,0.1576869456776263,0.029823767783961,-0.2096185461957388,-0.035232719854748,-0.0708789539467667,0.2838141088176612,0.0576974225810771,1.6520105690716935,-0.1998541371153235,-0.0402370328680949,-0.0599364434110925,0.2159562953564912,-0.0598853640135385,0.1340627078145414,0.1583605223990467,10.728891228680368,-1.392647316650215,0.1817370006995755,-1.265436139068756
2.24,0.28198951723317,0.0574682545392996,1.6515248903313624,0.0129183521262134,0.159836622293359,0.0301132965035179,-0.2092261430151788,-0.0331318784938827,-0.0676198965600085,0.2838141088176612,0.0576974225810771,1.6520105690716935,-0.1998541371153235,-0.0402370328680949,-0.0599364434110925,0.194865143944595,0.0196201590280012,0.1050420680432647,0.1629528693379095,10.8387337474569,-1.389263164530875,0.1815432919041025,-1.27049434176218
2.26,0.2778256561487562,0.056826178532158,1.6502099471498888,0.0139188178033277,0.1630579379563461,0.0304590449088394,-0.2069991679288442,-0.0312354571891068,-0.0640558330016617,0.281815567446508,0.0572950522523961,1.6514112046375826,-0.1977106164397239,-0.040653014289342,-0.0568417451086447,0.230534058483221,0.1113487543167285,0.0948210652387921,0.1782031779173389,10.853075047829408,-1.3848743486794504,0.1807786183910205,-1.277126044377629
2.28,0.2737255921341669,0.0562182109121421,1.648967524267728,0.0153147221426367,0.1666097906924404,0.0308326605214739,-0.2030073276822424,-0.0297083298614944,-0.0603876738795843,0.2778184847042015,0.0564903115950342,1.6502124757693608,-0.1934235750885247,-0.0414849771318362,-0.0506523485037491,0.2816127561653145,0.1995920123300881,0.0763563663806214,0.18340795610387,10.869527026369724,-1.3804514560804284,0.1795585607975973,-1.2839477842333844
2.3000000000000003,0.2697220680060025,0.0556353035464246,1.647799371709806,0.0169769161716457,0.16998389058075,0.0312182406277226,-0.1974937021836161,-0.0286986227131996,-0.0566297331951114,0.273821401961895,0.0556855709376723,1.649013746901139,-0.1891365337373256,-0.0423169399743305,-0.0444629518988536,0.3374229276902982,0.2756812749313178,0.0504853574147388,0.1878970342236444,10.884933532321156,-1.3766592539290188,0.178105428449341,-1.290358712999196
2.32,0.266032865778404,0.055094180728226,1.6467603185217097,0.0186486387752063,0.172702946813716,0.0315785561271417,-0.1911213545292134,-0.0283312259893671,-0.0529433861861711,0.2700386712871485,0.0548392321381857,1.648124487863162,-0.1848494923861265,-0.0431489028168247,-0.038273555293958,0.3685476538101204,0.3186173827201349,0.018369836191626,0.1843173504470163,10.901781699528328,-1.3734348789225863,0.1764365253350696,-1.2963210196235246
2.34,0.2622888231083344,0.0545253231965904,1.6457444755167483,0.0203187742320487,0.1748692448826486,0.0319326817848493,-0.1836169490579534,-0.0285973675020297,-0.0488269460857352,0.266255940612402,0.0539928933386991,1.647235228825185,-0.1805624510349273,-0.043980865659319,-0.0320841586890624,0.4281705614656246,0.375220273562997,-0.0133070756331286,0.2058220050217957,10.920366147073764,-1.3711467249649063,0.1748432403715217,-1.3011084950215277
2.36,0.2587019919083018,0.0539435733873589,1.6448136756471636,0.0216737094669315,0.176212777860691,0.0322402157507305,-0.1755151918236717,-0.0295422592899737,-0.0444615034065763,0.2625803859714355,0.0531257554681501,1.6465007047023303,-0.1762754096837281,-0.0448128285018132,-0.0258947620841668,0.4625699421687018,0.4050878617140874,-0.0472445893972005,0.2182721339579436,10.945380547550483,-1.369882916621007,0.1736404077298205,-1.304394085778233
2.38,0.2552798807207009,0.0533370418941603,1.643972890793305,0.0225137959603233,0.1767256000146243,0.0324846153878588,-0.167194499765272,-0.0310211762922364,-0.0398317441582229,0.2590120073642489,0.0522378185265388,1.645920915494598,-0.171988368332529,-0.0456447913443075,-0.0197053654792712,0.4818085266161532,0.4160346029199846,-0.0739458501131377,0.2314879624176698,10.9666467594825,-1.3696922700316034,0.1729459484321208,-1.3065263273899483
2.4,0.2521825702107755,0.0527301452857166,1.6432625567565708,0.0226935505050838,0.1765072877117225,0.0326491390873941,-0.1593469754458078,-0.0327340719100559,-0.035165148656556,0.2469201557324373,0.0517859830795485,1.6419813035853943,-0.1728935750580679,-0.0316506561144735,-0.0426541873026188,0.4644748726204266,0.39237621597321,-0.0856447808909756,0.2333297750833424,10.987380988174664,-1.370599763072245,0.1730294243789678,-1.3073948242224611
2.42,0.2490947978441859,0.05204758676012,1.6425257403090991,0.0218131277403626,0.1747113833607805,0.0327051032677859,-0.1498771910322049,-0.035283870440667,-0.0391863647994262,0.2469201557324373,0.0517859830795485,1.6419813035853943,-0.1728935750580679,-0.0316506561144735,-0.0426541873026188,0.5299728027326068,0.4734892206801441,-0.127489926530553,-0.201060807143507,11.006453099140344,-1.3721474412669323,0.174255249461881,-1.3046779221228282
2.44,0.2461945899496466,0.051321805636299,1.641698911180454,0.0196770466659329,0.1701541272930561,0.0326140912061032,-0.1408886395439365,-0.0370663230328509,-0.0431557028177412,0.2469201557324373,0.0517859830795485,1.6419813035853943,-0.1728935750580679,-0.0316506561144735,-0.0426541873026188,0.4993166315182099,0.4494275744134204,-0.0891226296091965,-0.1984669009157526,10.432677932702973,-1.3777659392062762,0.1768299416444356,-1.2967370515503125
2.46,0.2435798011282215,0.0506148396373887,1.6408545015857436,0.0169939184390307,0.1638478932637812,0.0324553234973867,-0.1351614557211041,-0.0370984178172948,-0.045485207041339,0.2451912199818567,0.0514694765184038,1.641554761712368,-0.1740333901166271,-0.0317765520789209,-0.043218675931498,0.3091450086264593,0.2863591911416191,-0.0016047392221947,-0.1164752111798901,10.54390730241994,-1.3871020417890554,0.1804081538535331,-1.2854397461941474
2.48,0.2409092007401918,0.0498868462520367,1.6399296027681656,0.0143020069555021,0.1564124883154776,0.0323037789747669,-0.1324774880958138,-0.0357179721973223,-0.0468159652337825,0.2417333484806953,0.0508364633961143,1.6407016779663155,-0.1763130202337454,-0.0320283440078157,-0.0443476531892564,0.1649259658912387,0.134198381264515,0.0690222809986255,-0.0665379096221746,10.587051469880862,-1.3972671424866652,0.1838041889460466,-1.2733540061559718
2.5,0.2382596813162685,0.049194997275238,1.6389874661938015,0.0120770550209252,0.1491898941196219,0.0322065909795051,-0.1327853652625784,-0.0336061486921692,-0.047289168119063,0.2382754769795339,0.0502034502738248,1.6398485942202634,-0.1785926503508638,-0.0322801359367105,-0.0454766304470148,0.109298991731052,-0.0153938583382279,0.1055911752576545,-0.0236601442640239,10.587051469880862,-1.4068368959285336,0.1866208466764488,-1.2619600738234804
2.52,0.2355754761478121,0.0485503338719876,1.638042473121276,0.0104220649285121,0.1429830227439359,0.0321741616088207,-0.1356950075695887,-0.0310800310373959,-0.0471772529342668,0.2347036239725166,0.0495578475550906,1.638939061611323,-0.1808722804679821,-0.0325319278656053,-0.0466056077047732,0.1927421449053744,-0.1454821153505148,0.126305882738667,0.0055957592398115,10.618757636451846,-1.4147383816698946,0.188676044012947,-1.2525305006927512
2.54,0.2329483145150426,0.0479881284325704,1.6371469075917648,0.0094192009333864,0.1386688783468222,0.0322049656188649,-0.1407647274205697,-0.0282968693412044,-0.0470936657512519,0.2311317709654994,0.0489122448363564,1.6380295290023827,-0.1831519105851005,-0.0327837197945002,-0.0477345849625315,0.2892016390502626,-0.2534859925490532,0.1391580848095748,0.0041793591507442,10.640073784709784,-1.4209657822275077,0.1901584193440123,-1.2451860264593675
2.56,0.2300582500260498,0.0474561197894854,1.636204717727687,0.009084064719584,0.1365393490594979,0.0323097350832824,-0.1479805012908623,-0.0250952343257619,-0.0471411352843724,0.2275029272055541,0.0482603473193998,1.6370917719619986,-0.1854315407022189,-0.033035511723395,-0.0488635622202899,0.3947154439462638,-0.360788693514627,0.1600817507721223,-0.0023734766560264,10.633819974187643,-1.4236830923920154,0.190773196545024,-1.2419511797378484
2.58,0.227023637629598,0.0469903578911228,1.635258795050023,0.0096155427226895,0.1371030495653547,0.0324948851957946,-0.1547632712678865,-0.0217269877621597,-0.0474676582981756,0.2238170926926809,0.0476021550042209,1.6361257904901705,-0.1877111708193372,-0.0332873036522898,-0.0499925394780483,0.3790041911146318,-0.3391384988512103,0.1684123281801135,-0.0163261506901584,10.621940714563609,-1.4222857178241195,0.1903975045826221,-1.243662732899794
2.6,0.224030705965906,0.0466088424964898,1.634351344291631,0.0109492834740415,0.1394299656073395,0.0327413844386118,-0.1597055993840028,-0.0186813219646574,-0.0480526019996593,0.2192854740662037,0.0459040085030148,1.6328854121351142,-0.1378234971122697,-0.0229890484779766,-0.0369348134864977,0.2917398091250766,-0.2471164058058153,0.1522832898751137,-0.0292471850741875,10.600711212505304,-1.41862973823947,0.1890153945817517,-1.2481345108874604
2.62,0.2207705322588323,0.0462622948625249,1.6334178117876164,0.0131251777501999,0.1440458424515464,0.0330778024851671,-0.1656563957101876,-0.0162236697605753,-0.0451195091936186,0.2192854740662037,0.0459040085030148,1.6328854121351142,-0.1378234971122697,-0.0229890484779766,-0.0369348134864977,0.3537480200680009,-0.2975398163092418,0.1228826102041053,0.1466546403020352,10.58418678860562,-1.4134315896919982,0.1868166980662612,-1.255902861810057
2.64,0.2174263691504268,0.0459507883430625,1.6325473139653794,0.0156931488017876,0.1508343992918377,0.0334755845408534,-0.1680637564472337,-0.0151636429724377,-0.0421392829536161,0.2192854740662037,0.0459040085030148,1.6328854121351142,-0.1378234971122697,-0.0229890484779766,-0.0369348134864977,0.1987510437170092,-0.120368036852303,0.0530013394068809,0.1490113120001288,10.825594227340844,-1.4041126395784018,0.1840474175144285,-1.2679048489336606
