t,x,y,z,roll,pitch,yaw,v_x,v_y,v_z,ref_x,ref_y,ref_z,ref_v_x,ref_v_y,ref_v_z,a_com,a_x,a_y,a_z,thrust,wind_x,wind_y,wind_z
0.0,1.817869295374872,0.8640846496794572,2.511382027839179,0.0126507441699283,0.1362727904440333,0.0257909216868926,0.000358810225651,-0.0055406467995781,0.001456217239903,1.817880426117946,0.8638549422695521,2.511425143640757,-0.0996405606908882,-0.106940470715591,-0.0985926539363278,0.2870020922637086,0.017940511282553,-0.2770323399789094,0.0728108619951505,10.546499100115398,-1.283676302648905,0.1632596455936564,-1.162064464566175
0.02,1.8179936667257652,0.8642539444944202,2.511159648311023,0.0195207719078176,0.1312183753947169,0.0261890716369872,0.0115604307093451,0.0184733590081772,-0.0248920634776655,1.817880426117946,0.8638549422695521,2.511425143640757,-0.0996405606908882,-0.106940470715591,-0.0985926539363278,1.8684088639584624,0.5600810241847058,1.2007002903877704,-1.3174140358784276,10.545552539781056,-1.297524697402807,0.156762214827866,-1.16835148602942
0.04,1.8183000718283249,0.8646734655828425,2.510319386509713,0.0342000210109805,0.1167847224355533,0.0267792723357741,0.0171992080594395,0.0213614714216708,-0.0577401230245127,1.817880426117946,0.8638549422695521,2.511425143640757,-0.0996405606908882,-0.106940470715591,-0.0985926539363278,1.6726715302997583,0.2819388675047193,0.1444056206746811,-1.642402977342361,9.01079187341793,-1.3277916653354205,0.1422321721344593,-1.135721304286086
0.06,1.818611538267645,0.8650605582101599,2.508832686055588,0.0494647496932161,0.0967625052379492,0.0269009461168323,0.0127224865416097,0.0168261777130149,-0.0891551523069379,1.816884020511037,0.8627855375623962,2.510439217101394,-0.1196405609889114,-0.1269404710136142,-0.118592654234351,1.6027429530242898,-0.2238360758914927,-0.2267646854327966,-1.5707514641212603,8.721217012525358,-1.355352191524991,0.1280184342863108,-1.09403789930594
0.08,1.8187344427441647,0.8653066939104461,2.506857864607801,0.0634265739792911,0.0761511531832608,0.0265513254719618,-3.517603007251906e-05,0.0090237770483206,-0.1171120115030139,1.8148912092972196,0.8606467281480843,2.508467364022668,-0.1596405615849579,-0.1669404716096607,-0.1585926548303974,1.5852613243047202,-0.6378831285841114,-0.3901200332347128,-1.3978429598038,8.753316436824207,-1.378163279525584,0.1138787255621403,-1.0477205452148766
0.1,1.81852645069934,0.8653749336867009,2.504217613982389,0.0774267317428186,0.0553836599756253,0.0258337515732153,-0.0204956253341498,-0.0021040198264033,-0.1453869421508482,1.8128983980834013,0.8585079187337725,2.506495510943941,-0.1996405621810043,-0.2069404722057071,-0.1985926554264439,1.8316178314195863,-1.0230224652038673,-0.5563898437362008,-1.4137465323917144,8.8197753889267,-1.3927367227865506,0.1007941411425098,-1.001578537251192
0.12,1.817847280450106,0.8651914452773496,2.5010235386609656,0.090739635688183,0.0372962707617072,0.0249498353252056,-0.0465609053846668,-0.015981132679858,-0.1725542606993511,1.8089055868397812,0.8543691092896584,2.5025236578354124,-0.2396405627770508,-0.2469404728017536,-0.2385926560224903,2.0062628705974834,-1.3032640025258475,-0.6938556426727319,-1.3583659274251438,8.931253593128076,-1.398524568116263,0.0888349500789545,-0.957186484061098
0.14,1.8166781928938929,0.8647363331961866,2.497485812606368,0.1027865842013439,0.0235979354282245,0.0241380258499941,-0.0750199415888193,-0.0314645812211658,-0.198465953037651,1.8049127755961611,0.8502302998455442,2.4985518047268838,-0.2796405633730973,-0.2869404733978001,-0.2785926566185369,2.074288866235425,-1.422951810207625,-0.7741724270653921,-1.2955846169149925,8.926104065203617,-1.398113418420361,0.0784412874267357,-0.9211782168052024
0.16,1.81483797983046,0.8639160171366436,2.493226610955229,0.1148654685866234,0.0132503062711825,0.0234678431770362,-0.1074336684892889,-0.0500091162657376,-0.2261049055983693,1.7999199643376402,0.8450914903865289,2.4935799516034534,-0.3196405639691437,-0.3269404739938465,-0.3185926572145833,2.3229621016340447,-1.620686345023483,-0.9272267522285926,-1.3819476280359178,8.926104065203617,-1.394589937966347,0.0682450306630554,-0.8938781718147356
0.18,1.8123221048717624,0.8627013150207866,2.488413794121945,0.1263526738076194,0.0076707783430066,0.0231755364300783,-0.142370029594312,-0.0707750211023435,-0.2537883753217987,1.7939271530642178,0.8389526809126124,2.487608098465122,-0.3596405645651901,-0.3669404745898929,-0.3585926578106297,2.458732715684833,-1.7468180552511523,-1.0382952418302918,-1.384173486171468,8.917703025981154,-1.386534331775089,0.0590276465968773,-0.8722029609422748
0.2,1.809101797902389,0.8610480617964581,2.4830497686035957,0.1372444278582445,0.0073302919819464,0.0234452611621767,-0.1771399767541699,-0.0937162322339556,-0.281168017221387,1.8052036033920469,0.8591625639656695,2.475724375355856,-0.2423700310844281,-0.1707750225924596,-0.3537883768119148,2.492435146716061,-1.7384973579928935,-1.1470605565806042,-1.3689820949794178,8.949015884642904,-1.3683023566042565,0.0503423764441894,-0.8597360400102694
0.22,1.8053970679564104,0.8588799036739567,2.477559222092323,0.1427013808333778,0.0120648105114378,0.0240529913910206,-0.2105306255794974,-0.1315434291530904,-0.2943631265245715,1.8052036033920469,0.8591625639656695,2.475724375355856,-0.2423700310844281,-0.1707750225924596,-0.3537883768119148,2.6076537180281125,-1.6695324412663748,-1.891359845956743,-0.659755465159223,8.949015884642904,-1.3382850321488535,0.0441639761962671,-0.8572050279492384
0.24,1.8008670394076054,0.8558961062528299,2.4715347046395464,0.1424352793510136,0.0218309874955411,0.0249602058955048,-0.239973189695045,-0.1642808469197565,-0.3074708453222848,1.8052036033920469,0.8591625639656695,2.475724375355856,-0.2423700310844281,-0.1707750225924596,-0.3537883768119148,2.296962883792034,-1.4721282057773817,-1.6368708883333054,-0.6553859398856665,9.897447547068625,-1.3133917830770945,0.0425570395707538,-0.8690126097382362
0.26,1.7958090733300045,0.8522926884541521,2.4652227015920736,0.1388773604148286,0.0340676100944287,0.0259623613731006,-0.2638102082501173,-0.1936570567787224,-0.3230805762998683,1.8027799030812024,0.8574548137397449,2.4721864915877365,-0.2623700313824513,-0.1907750228904828,-0.373788377109938,2.046233650188431,-1.191850927753614,-1.46881049294829,-0.7804865488791723,9.525382074924892,-1.2900597891040193,0.0440294329669792,-0.8821446779596515
0.28,1.79061150989588,0.8483710435126991,2.4589117044515665,0.1341429125044064,0.04636690160573,0.0268586081664724,-0.2817867134824494,-0.2173791831092645,-0.340398150300376,1.797932502459514,0.8540393132878957,2.4651107240514984,-0.3023700319784977,-0.2307750234865293,-0.4137883777059845,1.721766815856118,-0.8988252616166037,-1.1861063165271093,-0.8658787000253854,9.525382074924892,-1.2699923323484408,0.0467674835337448,-0.8953229029653315
0.3,1.7848152836762674,0.8437899015788385,2.4518882090933576,0.1291144558663278,0.0587750661655325,0.0276603796188987,-0.2966046485935333,-0.2393941928079712,-0.3611693159116967,1.793085101837825,0.8506238128360465,2.45803495651526,-0.3423700325745442,-0.2707750240825757,-0.4537883783020309,1.684987517641718,-0.740896755554199,-1.1007504849353351,-1.0385582805660376,9.352212949703244,-1.2519262314618396,0.050171804349722,-0.906310754663598
0.32,1.7787587362022148,0.8387882843432439,2.444423246162353,0.1245500445892586,0.0697838866690961,0.0282538784503762,-0.308146515820729,-0.2596485813625916,-0.3843984766400923,1.7862377011863344,0.845208312354395,2.4489591889492197,-0.3823700331705906,-0.3107750246786221,-0.4937883788980773,1.6454853865633288,-0.5770933613597845,-1.0127194277310194,-1.1614580364197795,9.191576888911186,-1.2368836610298544,0.0535096353523162,-0.913996406692253
0.34,1.772499633057255,0.8333957146429742,2.4364757508330195,0.1206078572932854,0.078867346294407,0.0286049673742086,-0.3171953001701754,-0.2786798397224461,-0.4091979056290909,1.7793903005348437,0.8397928118727435,2.4398834213831786,-0.4223700337666372,-0.3507750252746687,-0.5337883794941238,1.6271762129089609,-0.4524392174723196,-0.9515629179927236,-1.239971449449928,8.986755993591032,-1.2258350485900458,0.0563741588172908,-0.9185637881279533
0.36,1.7663980422165029,0.8279203299129534,2.4284556010564726,0.117186901573962,0.0856760143281657,0.0287109076430702,-0.3246532345720142,-0.296634869529285,-0.4337742971771598,1.7715428998684517,0.8333773113761908,2.429807653802237,-0.4623700343626836,-0.3907750258707151,-0.5737883800901702,1.5668462771045806,-0.3728967200919392,-0.8977514903419415,-1.228819577403445,8.986755993591032,-1.2172468738401845,0.059293173685774,-0.9197072623020552
0.38,1.7598294735025093,0.8217951987038684,2.4194988841596445,0.1137160467279107,0.0911533493756518,0.0286103769966293,-0.3318186761248896,-0.3148380991036137,-0.4606356648618896,1.7626954991871584,0.8259618108647369,2.418731886206394,-0.50237003495873,-0.4307750264667615,-0.6137883806862167,1.6615009731246309,-0.3582720776437703,-0.9101614787164396,-1.34306838423649,8.935337347188579,-1.210775992492787,0.0621202848557716,-0.9184432685610716
0.4,1.7531219556471311,0.8153124638937611,2.4099969039537124,0.1103132132025033,0.0951571757981954,0.0283303306726071,-0.338597086552614,-0.3324161648717231,-0.4882305310218162,1.7432385396962649,0.8060532937486877,2.39646710091655,-0.4318186776150057,-0.4148381005937299,-0.5606356663520058,1.670637514886849,-0.3389205213862212,-0.8789032884054693,-1.3797433079963284,8.877780127338156,-1.2054648743971397,0.0646189758855251,-0.9162241938477088
0.42,1.7466505001018393,0.8088249582390264,2.400666611912188,0.1075325249266785,0.0977802041292111,0.0279557215984946,-0.3423210090650961,-0.3497867602256924,-0.4925473957905258,1.7432385396962649,0.8060532937486877,2.39646710091655,-0.4318186776150057,-0.4148381005937299,-0.5606356663520058,0.9141122787459384,-0.1861961256241051,-0.8685297676984644,-0.2158432384354813,8.836359064039243,-1.1921299018466365,0.0659156432165275,-0.9147696674190168
0.44,1.7397698082146136,0.8016533024925606,2.3907348850563945,0.1055478592085931,0.0992046209016181,0.0274785072530726,-0.3456677403607734,-0.3666344933976168,-0.5007274582639771,1.7432385396962649,0.8060532937486877,2.39646710091655,-0.4318186776150057,-0.4148381005937299,-0.5606356663520058,0.9512625103873692,-0.1673365647838626,-0.842386658596217,-0.4090031236725661,10.126443373773329,-1.1903464798559105,0.0670497898697496,-0.9142779478212516
0.46,1.7328193111968857,0.7941452682641973,2.3805839518479948,0.104396751246583,0.0990792596029028,0.0268940683488575,-0.3493252764335104,-0.3833875583144392,-0.5139214927607617,1.7389203529201147,0.8019049127427504,2.39086074425303,-0.4518186779130289,-0.434838100891753,-0.580635666650029,1.0818101734280632,-0.18287680363685,-0.8376532458411245,-0.659701724839229,9.566647120814196,-1.189991075279895,0.0675565692326305,-0.910984754140852
0.48,1.7261452829280786,0.78670555633824,2.370662354776613,0.1038382422078257,0.0974783044130141,0.0262210339150267,-0.3531154428336869,-0.3989328856759888,-0.5297713353633406,1.7302839793678146,0.7936081507308758,2.3796480309259898,-0.4918186785090754,-0.4748381014877995,-0.6206356672460754,1.1260995456056435,-0.1895083200088271,-0.7772663680774783,-0.7924921301289467,9.566647120814196,-1.1906528483537944,0.0676380052503456,-0.9048851653384924
0.5,1.7190369382965565,0.7785604201095465,2.359866206590972,0.1038529776133877,0.0941022296155948,0.0253780074315992,-0.3576347210541211,-0.4147923178163083,-0.5491110487453928,1.7216476058155146,0.7853113887190012,2.3684353175989497,-0.5318186791051218,-0.514838102083846,-0.6606356678421219,1.2707969715369742,-0.2259639110217065,-0.7929716070159742,-0.9669856691026102,9.37767084953066,-1.192696335651408,0.0672299724767714,-0.8961648702350662
0.52,1.711826500960831,0.7700996914975676,2.3486616365810367,0.1045502896180275,0.0889691513729558,0.0243958530331339,-0.3635290813327113,-0.4305361423881295,-0.5704331670734553,1.711011232233412,0.7750146266773242,2.3552226042421074,-0.5718186797011683,-0.5548381026798924,-0.7006356684381684,1.3576120812275492,-0.2947180139295124,-0.7871912285910609,-1.0661059164031206,9.222420493948448,-1.1966684704883768,0.0663572169711386,-0.8845654767898294
0.54,1.704472720891752,0.7613217673332107,2.337023241019472,0.1059148398428623,0.0826892482281609,0.023330841400591,-0.3718189107158435,-0.446542448919262,-0.5923137299178048,1.7003748586513097,0.7647178646356474,2.3420098908852647,-0.6118186802972148,-0.5948381032759389,-0.7406356690342148,1.417464417856361,-0.4144914691566109,-0.8003153265566249,-1.0940281422174791,9.112246240647435,-1.2000299476255794,0.0648236397222241,-0.8738438773146074
0.56,1.6973074318100394,0.7526713217699051,2.325559527677019,0.1074381957008141,0.076452582363372,0.0222933337948866,-0.3821368762433434,-0.4631564820365578,-0.613274099283215,1.688738485054306,0.7534211025790692,2.327797177513521,-0.6518186808932611,-0.6348381038719852,-0.7806356696302612,1.433373287897904,-0.5158982763749931,-0.8307016558647878,-1.0480184682705065,9.083354694776062,-1.2028510220651978,0.0629454165372862,-0.8623623873914699
0.58,1.689531806572379,0.743214469636808,2.3130580986614024,0.1087406466484421,0.070285358333261,0.0212106852566772,-0.3949987016189278,-0.481609923750375,-0.6357688219726927,1.6761021114424013,0.74112434050759,2.3125844641268767,-0.6918186814893076,-0.6748381044680317,-0.8206356702263077,1.590572704997936,-0.6430912687792195,-0.922672085690862,-1.124736134473886,9.075010291592662,-1.2044102798354137,0.0612266176511216,-0.8518197243072294
0.6,1.6814792201526032,0.7333769588091436,2.300102944578678,0.1092344163340708,0.0650261175543154,0.0201640866454745,-0.4097369226781202,-0.5011213574113949,-0.6586129174852221,1.6697818714914323,0.7191339734492893,2.281269657562768,-0.4949987031090439,-0.5763087253870709,-0.716096533972109,1.673143675303742,-0.7369110529596185,-0.9755716830509908,-1.1422047756264708,9.050223484753587,-1.2047337233281823,0.060160821087914,-0.8427005913354453
0.62,1.6730848565577552,0.7230551816742881,2.2869884900591595,0.1067506327506541,0.062879655027374,0.0192541724888891,-0.4287795601166399,-0.5290907743625306,-0.6515863499682458,1.6697818714914323,0.7191339734492893,2.281269657562768,-0.4949987031090439,-0.5763087253870709,-0.716096533972109,1.7279199751956251,-0.9521318719259876,-1.3984708475567875,0.3513283758488139,9.03620165259008,-1.191209690162293,0.0603162366436653,-0.8363531210091857
0.64,1.6647697931252796,0.7127802512059666,2.27464575646547,0.1016056149830371,0.0648922004420083,0.0186372516269006,-0.4450528392388173,-0.5504099981044386,-0.6480027986531615,1.6697818714914323,0.7191339734492893,2.281269657562768,-0.4949987031090439,-0.5763087253870709,-0.716096533972109,1.352932698227882,-0.8136639561088704,-1.0659611870953989,0.1791775657542182,10.855553413712189,-1.183865327782951,0.0630257899053081,-0.8422462836506612
0.66,1.655714721888354,0.7015745262846999,2.261674322267633,0.0954846681397438,0.069545309281243,0.0181905622990775,-0.459256889068923,-0.5687663935499169,-0.6495632214553985,1.664831884460342,0.7133708861954186,2.274108692223047,-0.5149987034070671,-0.59524848571441,-0.7321620763719923,1.1631285447540198,-0.7102024915052824,-0.9178197722739144,-0.0780211401118502,10.486375740882067,-1.1756422184066382,0.0665988068650878,-0.8499543312544002
0.68,1.6464031652499669,0.690030963520744,2.248612160245504,0.0894287413692753,0.0754769580959145,0.0178523547403687,-0.4709161914738692,-0.5845323126498624,-0.6565399910501122,1.6549319103981612,0.7018447116876771,2.2597867615436047,-0.5549987040031136,-0.6331280063690884,-0.7642931611717588,1.0406474566510682,-0.5829651202473141,-0.7882959549972757,-0.3488384797356858,10.133160161326488,-1.167845025288123,0.0702080875276734,-0.8572412151360865
0.7000000000000001,1.6373632350205858,0.6787925523379997,2.236032844800509,0.0840376185300948,0.0814309050822248,0.0175643341833914,-0.4799172761836766,-0.5976341998838233,-0.667242906363262,1.6450319363359804,0.6903185371799357,2.2454648308641625,-0.59499870459916,-0.6710075270237668,-0.7964242459715254,0.9581640924771332,-0.4500542354903658,-0.6550943616980442,-0.535145765657491,9.839025316662628,-1.1599091520467986,0.0739052863526136,-0.8640974934679644
0.72,1.6276822958021429,0.6667112899185152,2.2225366274630063,0.0789316696094662,0.0873911565156169,0.017255920447434,-0.4875795932082221,-0.6097853825243864,-0.6819777382177864,1.6331319622439973,0.6768983866394604,2.229536345944732,-0.6349987051952065,-0.7088870476784451,-0.828555330771292,1.0289285829566486,-0.3831158512272781,-0.607559132028157,-0.73674159272622,9.602786465939062,-1.1528439068060925,0.0773013834851381,-0.8695850095004962
0.74,1.6178656280621506,0.654400488471388,2.208723204537969,0.0745163122803556,0.092567276153162,0.0169204420552553,-0.4936734058194437,-0.6207646860815744,-0.6986232121249315,1.621231988152014,0.663478236098985,2.2136078610253014,-0.674998705791253,-0.7467665683331235,-0.8606864155710585,1.0425347240440164,-0.3046906305610802,-0.5489651778594007,-0.8322736953572551,9.408591708820495,-1.1466270609201703,0.080098517531273,-0.8728684682278314
0.76,1.608433998937227,0.6425024761400092,2.1952804459077986,0.0707000637205619,0.0966617139588129,0.0165605502780252,-0.4988032150916947,-0.631020061623316,-0.715563122975131,1.6083320140451298,0.6491110975421428,2.196876098985877,-0.7149987063872993,-0.7846460889878017,-0.892817500370825,1.022800384098153,-0.2564904636125492,-0.5127687770870804,-0.8469955425099762,9.32218847909644,-1.1411806088822825,0.0827891378820488,-0.8747394169034354
0.78,1.5984061774784857,0.6297749787801761,2.18077117303206,0.0668729528112725,0.1002004620577732,0.0161387964959057,-0.5036825909128084,-0.6410948262561031,-0.7345177582691923,1.5944320399233445,0.6337969709689336,2.179341059826458,-0.7549987069833458,-0.8225256096424801,-0.9249485851705916,1.1006672861730291,-0.2439687910556848,-0.5037382316393557,-0.9477317647030636,9.26354399239426,-1.136681679401934,0.0853594290968991,-0.875481011610809
0.8,1.588284856039195,0.6168533661570447,2.165872139528446,0.0631867869139512,0.1030380563091075,0.0156821093417394,-0.5081910335220206,-0.6504615434827407,-0.7544687944844043,1.5732220479328451,0.5977202374673709,2.1440452851186,-0.6036825924029245,-0.6725067534495064,-0.7390611707459703,1.1248392023140994,-0.2254221304606063,-0.4683358613318755,-0.9975518107605996,9.147212322297491,-1.1329376237112736,0.087838509692459,-0.8752512141002158
0.8200000000000001,1.5781426834618877,0.6035197219032394,2.1509990958962697,0.0529847157937702,0.1048547180740698,0.0147141164429099,-0.5059829528419918,-0.6776167617692587,-0.7314792024091588,1.5732220479328451,0.5977202374673709,2.1440452851186,-0.6036825924029245,-0.6725067534495064,-0.7390611707459703,1.7824160879717108,0.1104040340014378,-1.3577609143259006,1.1494796037622768,9.147212322297491,-1.1145696693579892,0.0938062801906464,-0.8752411072329064
0.84,1.5685494358017813,0.5905151571765288,2.1372991153789256,0.0381318440553458,0.1053031954026262,0.0133863671104624,-0.5041191784925312,-0.6888836190253955,-0.7118358415951319,1.5732220479328451,0.5977202374673709,2.1440452851186,-0.6036825924029245,-0.6725067534495064,-0.7390611707459703,1.1360868709367216,0.0931887174730305,-0.5633428628068426,0.9821680407013422,11.806891858108427,-1.1165210094530762,0.1058430506802274,-0.8764308007774291
0.86,1.5584850018350065,0.57669092816886,2.123227022226911,0.0217557661490024,0.104307203509041,0.0119290298272753,-0.5025172273711608,-0.692450550625946,-0.6966612826158147,1.5671852220088158,0.5909951699328758,2.13665467341114,-0.6236825927009477,-0.678789138888187,-0.7399698532413259,0.7835121068864238,0.0800975560685202,-0.1783465800275219,0.7587279489658594,11.41461408210398,-1.1190278194080232,0.1185653224679515,-0.8758659542114563
0.88,1.54844952724299,0.5628583033072035,2.1093969277701725,0.0063599696938384,0.101367164760288,0.0105771813407143,-0.5012709289734757,-0.6905294847678652,-0.6870791103307968,1.5551115701607574,0.5775450348638858,2.121873449996221,-0.6636825932969942,-0.6913539097655483,-0.7417872182320372,0.492599683888756,0.0623149198842543,0.0960532929040358,0.4791086142508949,10.722696887983147,-1.1229248212304035,0.1305459725467029,-0.8725736779566249
0.9,1.538430766196006,0.5491084945414689,2.0957159548966997,-0.0073440781624957,0.0961054811954274,0.0094376803232909,-0.5010407189531555,-0.6846563926112091,-0.6814776529947002,1.543037918312699,0.5640948997948956,2.107092226581301,-0.7036825938930407,-0.7039186806429096,-0.7436045832227484,0.4059634602465534,0.0115105010160099,0.293654607832805,0.2800728668048313,10.722696887983147,-1.1288934066350187,0.1407042123261005,-0.8660783817961183
0.92,1.5288908799186642,0.5361849202686769,2.0827959747682177,-0.0185317432919244,0.0892659654757042,0.0086144649315491,-0.5035452857339162,-0.6762494400848823,-0.6787811414643953,1.5289642664348382,0.5500165261820373,2.0922201349168463,-0.7436825944890871,-0.7164834515202709,-0.7454219482134595,0.4588596734631153,-0.1252283390380359,0.4203476263163419,0.1348255765152461,10.495788320797146,-1.1366582299859205,0.1498443386537734,-0.8565498402084338
0.94,1.518767087343308,0.5227765440754251,2.0692489216726533,-0.0283284604969389,0.0809416421798264,0.0080343852965643,-0.5090442092887574,-0.6652045973620746,-0.6760491347782219,1.5148906145569774,0.5359381525691792,2.077348043252392,-0.7836825950851336,-0.7290482223976322,-0.7472393132041708,0.63184367442992,-0.2749461777420581,0.5522421361403851,0.1366003343086674,10.340518469832205,-1.1438895717156166,0.1572960503250883,-0.8462032324292372
0.96,1.5084975032347263,0.5096077289579857,2.0557591746527364,-0.0361458451216229,0.0723145342342568,0.0077184842548811,-0.5178741251529964,-0.6525650582573372,-0.6730514768369178,1.4998169626642155,0.5215456596843869,2.0624305174631687,-0.82368259568118,-0.7416129932749935,-0.749056678194882,0.7853523350745,-0.441495793211949,0.6319769552368681,0.1498828970652066,10.342859161095475,-1.150614502569452,0.1629389130440326,-0.836476237417128
0.98,1.4985494278968576,0.4973434245099747,2.043001835176459,-0.0419393899659722,0.0645898265261671,0.0076053351338323,-0.5289611560247167,-0.6393699727405466,-0.6699674496269167,1.4837433107565523,0.5068390475276607,2.0474675575491785,-0.8636825962772264,-0.7541777641523548,-0.7508740431855933,0.8754195553817679,-0.554351543586018,0.6597542758395303,0.1542013605000558,10.362005640426103,-1.1565858880368736,0.1675845433193656,-0.8275983500984953
1.0,1.487826957077682,0.484711682410953,2.029637500956919,-0.046509495236869,0.0574571335844133,0.0076237788131036,-0.5428170109477899,-0.6247233350323868,-0.6666162608120263,1.4676696588488891,0.4921324353709344,2.032504597635188,-0.9036825968732728,-0.7667425350297161,-0.7526914081763044,1.0219334350587477,-0.6927927461536587,0.7323318854079941,0.1675594407445191,10.381919438120349,-1.1611751220586743,0.1710685577399405,-0.8206313553683631
1.02,1.47676687546387,0.4723319782558688,2.016504505973784,-0.0514224131831825,0.0532880859398699,0.0075346856090126,-0.5627787213010653,-0.6132137802781538,-0.6460469811863796,1.4721013700956218,0.4653749258729474,2.009503462695113,-0.6289611575148328,-0.6398377507785473,-0.62883441465258,1.5443728461634474,-0.9980855176637716,0.5754777377116493,1.0284639812823348,11.60816212833288,-1.1605354275008593,0.1744578287587538,-0.8146133677495282
1.04,1.4653041360008632,0.460233788039963,2.0038053489408942,-0.0567408144316292,0.0539718305464556,0.0072074668143224,-0.5818538040436558,-0.5972151868949019,-0.6249893828655237,1.4721013700956218,0.4653749258729474,2.009503462695113,-0.6289611575148328,-0.6398377507785473,-0.62883441465258,1.630365157657798,-0.9537541371295256,0.7999296691625912,1.0528799160427926,11.60816212833288,-1.1573038954369848,0.1786172780555126,-0.8210523373682436
1.06,1.4540924299428248,0.4490627135260714,1.992112000707392,-0.0608903776056838,0.057540949992084,0.0068103657339108,-0.5970139305005799,-0.5797803022618425,-0.6069319587052535,1.4721013700956218,0.4653749258729474,2.009503462695113,-0.6289611575148328,-0.6398377507785473,-0.62883441465258,1.466181438006508,-0.7580063228462053,0.8717442316529711,0.9028712080135116,11.492243831682572,-1.1524468749694263,0.182424632951387,-0.830859869429044
1.08,1.4420127258335351,0.4376720210529581,1.980158063488036,-0.0639489431275605,0.062910086005385,0.0063931593612929,-0.6098537564903349,-0.5604698070795779,-0.589474182753017,1.4658117585204735,0.4589765483651619,2.003215118548588,-0.648961157812856,-0.6399313063861475,-0.6206078076577127,1.4513186218314866,-0.6419912994877486,0.9655247591132288,0.872888797611826,11.35382123909858,-1.146694162728728,0.185291731817085,-0.8421604484664226
1.1,1.429706206173447,0.4266761831011469,1.968537072801732,-0.065513448195411,0.0688113522605204,0.0060553500727235,-0.6199398887384365,-0.5403217064125482,-0.5735582491910531,1.4532325353701767,0.446179793349591,1.990638430255536,-0.6889611584089025,-0.6401184176013477,-0.6041545936679781,1.3793050472645711,-0.504306612405081,1.0074050333514883,0.7957966780981929,11.168376579199505,-1.141297626020872,0.1870732051972402,-0.8535270094628729
1.12,1.4172236337059974,0.4160920543147812,1.957221536487376,-0.0652298522296452,0.0744403671011122,0.0058802238077519,-0.6276763753973612,-0.5193199217536155,-0.5588353701876366,1.44065331221988,0.4333830383340201,1.978061741962484,-0.728961159004949,-0.640305528816548,-0.5877013796782434,1.3394881026283336,-0.386824332946234,1.0500892329466327,0.7361439501708256,11.1107362115481,-1.136887323077561,0.1874675060252713,-0.8637698532101105
1.14,1.4052419813624974,0.4064340248294446,1.946742492839356,-0.0626998969392857,0.0789875559763092,0.0059458823991736,-0.6331594689499209,-0.498819074616272,-0.5449428427365877,1.4260740890397812,0.4205769277576891,1.9663077143689192,-0.7689611596009954,-0.6404926400317483,-0.5712481656885088,1.2682186002746103,-0.2741546776279857,1.0250423568671756,0.6946263725524482,11.1107362115481,-1.1328262582528887,0.186028256942711,-0.8738619129543288
1.16,1.3925276487376874,0.3966620912787322,1.936002171908432,-0.0580513359263292,0.0827330865714885,0.0062465679320436,-0.6379577982517026,-0.4800374189664911,-0.5297782679801739,1.4114948658596822,0.4077708171813581,1.9545536867753543,-0.8089611601970419,-0.6406797512469485,-0.5547949516987741,1.2305881526511449,-0.239916465089085,0.9390827824890424,0.7582287378206876,11.121410401733556,-1.1296216672473145,0.1828916531617932,-0.8825882893739395
1.18,1.379724866181422,0.3872368575010677,1.9255706925931064,-0.052577680597919,0.0854600589364075,0.0066900973367231,-0.6420840372048916,-0.4637478631290546,-0.5141070310584711,1.395915642664682,0.3949600288246472,1.9432109895315328,-0.8489611607930883,-0.6408668624621489,-0.5383417377090395,1.1488724297500543,-0.2063119476594488,0.814477791871826,0.7835618460851401,11.154363139949057,-1.12747489542181,0.1792502612967856,-0.8898131019601696
1.2,1.3668441598370342,0.3781164765416382,1.915457214160242,-0.0468417638332194,0.0872574475851261,0.0072207400786169,-0.6458056239757269,-0.4493471792360176,-0.4980086688767471,1.3793364194547808,0.3821445626875562,1.9322796226374543,-0.8889611613891347,-0.6410539736773491,-0.5218885237193048,1.095886820814533,-0.1860793385417669,0.7200341946518501,0.8049181090862001,11.184672350218534,-1.1260283627137933,0.1751550959870002,-0.8963462647037777
1.22,1.3545291475021657,0.3696606030450496,1.906127278652408,-0.0427336868324764,0.0885010505967174,0.0076670868582998,-0.6503000760043269,-0.4406986087056365,-0.4849450452767435,1.3476206643211774,0.3640494643446149,1.899865341040183,-0.7420840386950077,-0.4682954539845637,-0.4631780732981371,0.8149480548153585,-0.2247226014299996,0.4324285265190547,0.6531811800001813,11.212846031336994,-1.1258526808905347,0.1721021227836943,-0.9012538698208896
1.24,1.3414857524784112,0.3609626626464238,1.896580168430298,-0.0397180700878384,0.0893829140040052,0.0080755431893532,-0.653817368954821,-0.4295415779309143,-0.4704001765802718,1.3476206643211774,0.3640494643446149,1.899865341040183,-0.7420840386950077,-0.4682954539845637,-0.4631780732981371,0.9332790188433696,-0.1758646475247038,0.5578515387361122,0.7272434348235851,11.05754881143821,-1.1244669069743056,0.1700901103748148,-0.9058525767672668
1.26,1.328379261307758,0.352493604459915,1.8873341093351568,-0.0369879044885983,0.0893987724171863,0.0085077487429863,-0.6567909740432393,-0.4180491816632844,-0.4549414393631055,1.3476206643211774,0.3640494643446149,1.899865341040183,-0.7420840386950077,-0.4682954539845637,-0.4631780732981371,0.9745384234901932,-0.1486802544209131,0.5746198133814939,0.7729368608583115,11.129983054452168,-1.1242533370798522,0.1684049148326294,-0.9091030905384196
1.28,1.315215547728744,0.3442517546165088,1.8784056211086304,-0.034225015503061,0.0884118752088925,0.0089848371722999,-0.6595491961866908,-0.4068762659326327,-0.4386811808515282,1.3401998239342274,0.3593665098047693,1.8952335603072012,-0.7620840389930309,-0.4692049721556655,-0.4529922817460703,0.9960394597858484,-0.137911107172578,0.5586457865325828,0.8130129255788682,11.185702287565618,-1.1247598133574308,0.166606934562139,-0.9116241903561064
1.3,1.3026598236528533,0.3366235842108696,1.870232212984258,-0.0315077756930842,0.0863699911595926,0.0094833027074194,-0.6620784964341621,-0.3967961805176468,-0.4224886100314409,1.3253581431603272,0.350000600725078,1.8859699988412388,-0.8020840395890774,-0.4710240084978691,-0.4326206986419367,0.9620353832874492,-0.1264650123735611,0.5040042707492948,0.8096285410043647,11.236056508641925,-1.1262248768540832,0.1647218971694425,-0.9129382086543152
1.32,1.289389693404119,0.3287931769629835,1.861969593081424,-0.0285845164345347,0.0828283215950649,0.0100519561537468,-0.6649187343620534,-0.3869014019732834,-0.4045854251010558,1.3105164623864272,0.3406346916453867,1.876706437375276,-0.8420840401851238,-0.4728430448400727,-0.4122491155378031,1.032590945850044,-0.1420118963945671,0.4947389272181746,0.8951592465192532,11.337895626223144,-1.1285700175230646,0.1628458590583432,-0.9143622784168368
1.34,1.2760554434296374,0.3211529723208651,1.8540726737561897,-0.0256452623370457,0.0776839707928159,0.0106572855401477,-0.668580392088755,-0.3777309715623196,-0.3859701929972198,1.2936747815827248,0.3311778307485853,1.86846145506452,-0.8820840407811703,-0.4746620811822763,-0.3918775324336694,1.0536026261232578,-0.1830828863350786,0.4585215205481885,0.9307616051918016,11.337895626223144,-1.13285729831895,0.1609682267561736,-0.9138404236664004
1.36,1.262620552723975,0.313687486535781,1.8465563860959056,-0.0227586464130887,0.0713782607140582,0.0112734395088154,-0.6750263040230459,-0.3693736301606122,-0.3665919969854742,1.2768331007790223,0.3217209698517838,1.860216472753764,-0.9220840413772168,-0.4764811175244799,-0.3715059493295358,1.103301201665892,-0.3222955967145446,0.4178670700853704,0.9689098005872808,11.379449380548976,-1.1385429160293132,0.1592365601032662,-0.9116952522824304
1.38,1.2497091735057466,0.3067426225682156,1.8397817875565163,-0.020134412975605,0.0652456604148653,0.0118376343610818,-0.6838831449947093,-0.3621430532583306,-0.3474981238674801,1.2589914199604186,0.3122186330464273,1.8524807800206111,-0.9620840419732632,-0.4783001538666835,-0.3511343662254023,1.112767793593073,-0.4428420485831696,0.3615288451140785,0.954693655899702,11.427559552038474,-1.1438760428365582,0.1574801848838079,-0.9097286309729276
1.4,1.235910757305796,0.2995733475074525,1.8330492030768812,-0.0175430731203718,0.0593991241799712,0.012391500733605,-0.6956851111773242,-0.355220140964419,-0.3267430413765302,1.2401497391269138,0.3026708203325157,1.8452543768650616,-1.0020840425693096,-0.4801191902088872,-0.3307627831212686,1.2429667831552422,-0.5900983091307488,0.346145614695581,1.0377541245474964,11.47874960345871,-1.1480679976729131,0.1558134455573132,-0.9083440682138152
1.42,1.2217787972974925,0.2925221805506194,1.8265626955343288,-0.0154680520660745,0.0568534673870343,0.0128426061872712,-0.7170585336912465,-0.3501226490010093,-0.3238488616291817,1.215515016256011,0.2886354699052991,1.8224068813631424,-0.7838831464848254,-0.374446304100127,-0.3377457543816846,1.1081334426476208,-1.0686711256961134,0.2548745981704819,0.1447089873674228,11.532995034101075,-1.1561709426762907,0.154733368336671,-0.9035507406826142
1.44,1.2072339219108692,0.2855794896532538,1.820107509981275,-0.0137715622348892,0.0593707379730744,0.0131903455346002,-0.7357417952956092,-0.344441341882769,-0.3216419987208023,1.215515016256011,0.2886354699052991,1.8224068813631424,-0.7838831464848254,-0.374446304100127,-0.3377457543816846,0.98261355405521,-0.9341630802181368,0.2840653559120193,0.1103431454189701,10.46030615597465,-1.1483009716721797,0.1534605785921389,-0.9112367132534896
1.46,1.1923564430611555,0.2787488537691958,1.81370661093344,-0.0121449624051389,0.0648389902679715,0.0135012774779475,-0.750641660477221,-0.3389553970239822,-0.3185670543614071,1.215515016256011,0.2886354699052991,1.8224068813631424,-0.7838831464848254,-0.374446304100127,-0.3377457543816846,0.80863597532702,-0.7449932590805897,0.2742972429393364,0.1537472179697602,10.46030615597465,-1.139904532691359,0.1523483068523905,-0.920465708058831
1.48,1.1779823866845929,0.2723589118457309,1.807685494294554,-0.0106385139749261,0.0713601925693176,0.013788830132457,-0.7614096747380472,-0.3339900512393427,-0.3154009149248309,1.2076761847911628,0.2848910068642978,1.8190294238193256,-0.8038831467828486,-0.3769069542684863,-0.3357952804845255,0.6136554994747391,-0.5384007130413093,0.2482672892319765,0.1583069718288088,10.4883015216883,-1.1306846597468898,0.151241043362708,-0.9312324797130916
1.5,1.1626648825359729,0.2657315549924066,1.801412495782056,-0.0090881206694885,0.0784652210245781,0.0140988440342671,-0.7695470069612095,-0.3290550265929848,-0.3120805309929397,1.1919985218614664,0.2774020807822953,1.812274508731692,-0.843883147378895,-0.3818282546052048,-0.3318943326902073,0.5039731972670666,-0.4068666111581132,0.2467512323178933,0.1660191965945606,10.495766337089664,-1.1220065630907674,0.1501861533542198,-0.9417233265555728
1.52,1.147213844654535,0.2591995045448535,1.7952041582715044,-0.0075857904050444,0.0849573775328872,0.0144227438965628,-0.7750229163691238,-0.324444774384791,-0.3089411671889383,1.1763208589317695,0.2699131547002928,1.8055195936440585,-0.8838831479749415,-0.3867495549419234,-0.3279933848958891,0.3908184180687846,-0.2737954703957157,0.2305126104096916,0.1569681902000713,10.496474603486604,-1.1149062155234788,0.1492385095162119,-0.9505791350734232
1.54,1.1324542759306506,0.253076231869147,1.789356664899401,-0.0062287353215068,0.0900164448457763,0.014742750083278,-0.7783660817746978,-0.3203828903473925,-0.3067555893195802,1.158643195972271,0.2621781636014543,1.7989597259461405,-0.923883148570988,-0.391670855278642,-0.3240924371015709,0.2848350728286775,-0.1671582702787,0.2030942018699244,0.1092788934679039,10.492206330929548,-1.109257914428999,0.1483272615159253,-0.9580261375882168
1.56,1.116857902851231,0.2467093225433821,1.7832407493323643,-0.0049495512919134,0.0940485009458093,0.0150837846036287,-0.7810945651829474,-0.3165523713574755,-0.304979220787249,1.140965533012772,0.2544431725026159,1.7923998582482226,-0.9638831491670344,-0.3965921556153605,-0.3201914893072527,0.2513612072489756,-0.1364241704124802,0.1915259494958521,0.0888184266165603,10.450797024757776,-1.1053222967322551,0.1475506511602958,-0.9633169103091164
1.58,1.1012122814561147,0.2404149057679626,1.7771572263459736,-0.0039210829100963,0.0968939589443956,0.0154173163789776,-0.7833523488694601,-0.3130988324420617,-0.3034748278162009,1.1222878700383725,0.2465851488953594,1.7859375142451628,-1.003883149763081,-0.4015134559520791,-0.3162905415129345,0.2195889138065671,-0.1128891843256374,0.1726769457706861,0.0752196485524075,10.428673461103244,-1.102543937386108,0.1469874836212845,-0.9671215083283506
1.6,1.0855239726659347,0.2341865473161412,1.7711031263555244,-0.0032154098417576,0.0987340548226043,0.0157343768325273,-0.7853992357734265,-0.3099172094562153,-0.3020128670732776,1.102610207049071,0.238604092779685,1.779572693936961,-1.0438831503591273,-0.4064347562887976,-0.3123895937186163,0.202791765337897,-0.1023443451983185,0.1590811492923227,0.0730980371461631,10.420761544904964,-1.1007671812165682,0.1467104400676538,-0.9696343062793554
1.62,1.0705051121508404,0.2282495280364732,1.7654255689968046,-0.0053344449710176,0.1023629784073227,0.015834331022802,-0.7946479768506106,-0.3141002796096717,-0.2957093659279624,1.0620446640126415,0.2247599641458595,1.7619834849551637,-0.8373412191027575,-0.3076301649572419,-0.2738893769285208,0.5974349632188426,-0.4624370538592048,-0.2091535076728184,0.3151750572657597,10.424025478020669,-1.0980719676131765,0.1488065136414411,-0.9688976219861164
1.64,1.0545514475378752,0.221976898808181,1.759585691676997,-0.0108653896057099,0.1096191396742464,0.0156724868882981,-0.7997072707001203,-0.3122123124798051,-0.2886360356135456,1.0620446640126415,0.2247599641458595,1.7619834849551637,-0.8373412191027575,-0.3076301649572419,-0.2738893769285208,0.4449518959280621,-0.2529646924754825,0.0943983564933304,0.3536665157208407,10.77621836070557,-1.088651128486581,0.1540356184905248,-0.979563927089762
1.66,1.0385443241266947,0.215796110909955,1.753878547488914,-0.016893766006671,0.1183433649206703,0.0154201539956225,-0.8003903246682341,-0.3058527548833951,-0.282505656861723,1.0620446640126415,0.2247599641458595,1.7619834849551637,-0.8373412191027575,-0.3076301649572419,-0.2738893769285208,0.442978778233817,-0.0341526984056927,0.3179778798204996,0.3065189375911298,10.76383254085249,-1.0795428430103626,0.1595813305349554,-0.9905285366291112
1.68,1.0225657940591153,0.2097718369936418,1.7482814511251412,-0.0222299019344492,0.1270575164555608,0.0151736892968456,-0.7972479250483998,-0.2970416885846361,-0.2775408723399154,1.0536712518216145,0.2216836624962871,1.7592445911858785,-0.848138993149417,-0.3065364314602779,-0.2679722867509848,0.52952490507964,0.1571199809917156,0.440553314937947,0.2482392260903798,10.659405421592965,-1.0708395254806578,0.1649573739293348,-1.0016375820401917
1.7,1.0074749246743588,0.2042267145547605,1.743047839482509,-0.0263079511199266,0.134386081705936,0.0149996641088415,-0.7913864705300248,-0.2873187287340311,-0.2736338981734474,1.036924427439559,0.2155310591971422,1.753766803647308,-0.8697345412427359,-0.3043489644663499,-0.2561381063959128,0.6003270868137329,0.2930727259187526,0.4861479925302531,0.1953487083233979,10.659405421592965,-1.06388286153127,0.169468660391432,-1.0113625463219864
1.72,0.9917330770978622,0.1985964235455443,1.737614946989929,-0.0295324896402421,0.1404954732785533,0.014915255419516,-0.7830807393766236,-0.2763814338809973,-0.2698804029187142,1.0201776030575038,0.2093784558979974,1.7482890161087377,-0.8913300893360548,-0.302161497472422,-0.2443039260408407,0.711860792785505,0.4152865576700582,0.5468647426516898,0.1876747627366615,10.631994538806794,-1.0591397070546271,0.1730347798208151,-1.0191687153422957
1.74,0.9761741707713936,0.1931909269540732,1.7322579444029045,-0.0317138796937166,0.1446301920735215,0.0149554546872013,-0.7732878179099693,-0.2649018696853529,-0.2659947523232733,1.0023510012707828,0.2033352259485489,1.7434029375879208,-0.9129256374293738,-0.299974030478494,-0.2324697456857687,0.779069935121085,0.4896460733327168,0.5739782097822166,0.194282529772044,10.632201362041997,-1.0567483390707872,0.1756852638343563,-1.0249603027883003
1.76,0.96081798570995,0.1880219662817767,1.7269846097346806,-0.0328057896853326,0.1467522313524178,0.0151370539953396,-0.7630075568395311,-0.2527695322400003,-0.2615277637701741,0.9845243994840616,0.1972919959991005,1.738516859067104,-0.9345211855226928,-0.297786563484566,-0.2206355653306967,0.8258803882793655,0.5140130535219056,0.6066168722676318,0.2233494276549591,10.65872527798274,-1.0568538136499517,0.1773071463780074,-1.0285853740760722
1.78,0.9464201025619144,0.183342205454426,1.7220653162623474,-0.0326243649965351,0.1471197745140363,0.0154528726793034,-0.7532145457312241,-0.2406349878612915,-0.2565070719274618,0.9661579089950076,0.1913034527245003,1.733926635055164,-0.9561167336160116,-0.2955990964906381,-0.2088013849756247,0.8190811626843769,0.4896505554153496,0.6067272189354406,0.2510345921356183,10.70300693057834,-1.058594283046027,0.1778516535057321,-1.0312130548462266
1.8,0.9314632692106872,0.178666347953849,1.7169996154059253,-0.0309181623993251,0.1459236225995664,0.0159444293298809,-0.7430742515705488,-0.2277480257560419,-0.2502728087465549,0.9472515298036204,0.1853695961247482,1.7296322655521008,-0.9777122817093306,-0.2934116294967102,-0.1969672046205527,0.8771621790979924,0.507014708033765,0.6443481052624794,0.3117131590453431,10.757725525518254,-1.061712920377034,0.1769447962527031,-1.0328923493482776
1.82,0.9165956742568958,0.1742377570312985,1.712008338173402,-0.0276309504621846,0.146292674105563,0.0164979326460545,-0.744070531876436,-0.2162729627624483,-0.2494806663598872,0.9087593752753532,0.1713104560613614,1.7092399626659742,-0.7642170285776034,-0.2367750208679596,-0.2183986746522523,0.5772718915632296,-0.0498140152943582,0.5737531496796802,0.0396071193333846,10.460498322538117,-1.0700415885259902,0.1747165107326312,-1.0292419870379637
1.84,0.9024751074587952,0.1702187413240942,1.7072905486714869,-0.0238618123089248,0.1503956499254078,0.0169703783494869,-0.7417715230742113,-0.2075359759113641,-0.2471662096426763,0.9087593752753532,0.1713104560613614,1.7092399626659742,-0.7642170285776034,-0.2367750208679596,-0.2183986746522523,0.4663075449865871,0.1149504401112333,0.4368493425542089,0.1157228358605474,10.460498322538117,-1.0631452663335863,0.1713880221775678,-1.038048033384115
1.86,0.887702596943786,0.1661508772055437,1.7023872008037266,-0.0199018840585436,0.1566935802429875,0.0174377225196347,-0.7352391419662332,-0.1997931049348042,-0.2432536140833444,0.9087593752753532,0.1713104560613614,1.7092399626659742,-0.7642170285776034,-0.2367750208679596,-0.2183986746522523,0.5429835584767432,0.3266190553989079,0.387143548827995,0.1956297779665911,10.588508952765553,-1.0559366626623463,0.1680921102028758,-1.0483469033657642
1.88,0.8731016192317526,0.1622269300231502,1.6975733867887526,-0.0162079823351908,0.1635697589092669,0.0178971964341729,-0.7249444958776518,-0.1930316056877682,-0.2383097031296652,0.901117204989577,0.1689427058526818,1.7070559759194517,-0.7664175251468793,-0.2360030274692932,-0.2107769951972105,0.6635884750256048,0.5147323044290719,0.3380749623517989,0.2471955476839635,10.68296287758858,-1.0495489287551658,0.1652347386717592,-1.058793517257196
1.9,0.8587422375784615,0.1584297487996576,1.6928678869349876,-0.0128709034915229,0.169881213955664,0.0183608207647056,-0.7114649705246262,-0.1870295160486394,-0.2325206575925371,0.885832864418025,0.1642072054353227,1.7026880024264066,-0.770818518285431,-0.2344590406719604,-0.1955336362871267,0.7925208704033256,0.6739762676512773,0.3001044819564397,0.2894522768564028,10.757316382365389,-1.0443674298211014,0.1625775618837102,-1.0687979911854475
1.92,0.8453743332783072,0.1549276054422189,1.6885121417082036,-0.0100398458007842,0.1746689830756004,0.0188063022540385,-0.69642101117132,-0.1819103908329838,-0.2262831382595996,0.870548523846473,0.1594717050179634,1.6983200289333615,-0.7752195114239827,-0.2329150538746277,-0.1802902773770429,0.8535701544487396,0.7521979676653079,0.2559562607827803,0.3118759666468754,10.823975779871944,-1.0412203059438057,0.1602858176072595,-1.0771659355765792
1.94,0.8316265372235874,0.1513408969315468,1.6840615321711914,-0.0074019847842365,0.1780539341565185,0.0192750326158885,-0.679208910559067,-0.1770392648768314,-0.2190760555116883,0.8550441336179933,0.1548134039404709,1.6947142233858206,-0.7796205045625344,-0.2313710670772949,-0.1650469184669591,0.96426956462167,0.8606050306126545,0.2435562978076219,0.360354137395566,10.89056697345859,-1.0404627506723634,0.1583515514735846,-1.0835036192660803
1.96,0.8182327198308458,0.1478465958545014,1.6797640127476687,-0.0050957884189538,0.1795777750852568,0.0197353030261927,-0.661245820167944,-0.1726250948993166,-0.2110297587891801,0.8395397433895136,0.1501551028629783,1.6911084178382798,-0.7840214977010861,-0.2298270802799621,-0.1498035595568754,1.0085886227009178,0.8981545195561491,0.2207084988757407,0.4023148361254086,11.004421064152666,-1.0420212178885973,0.1567488633609507,-1.0877823147574974
1.98,0.8052013228985452,0.1444362953519147,1.6756376837292113,-0.0030839686861116,0.179261978753957,0.020179914979535,-0.6429542084349555,-0.1686145862334935,-0.2019972760484114,0.8239253283325702,0.1455354014554191,1.6878836962634909,-0.7884224908396379,-0.2282830934826294,-0.1345602006467916,1.0395347324781012,0.9145805866494215,0.2005254332911529,0.4516241370384366,11.004421064152666,-1.044346256143019,0.1554377099957457,-1.0906117408762657
2.0,0.7931621729668912,0.1412673731498329,1.6718951855213062,-0.0014222875731411,0.1771429069586252,0.0205825101271261,-0.6253908421214278,-0.1651428862965803,-0.1923895897404251,0.808200888447163,0.1409542997177932,1.6850400586614542,-0.7928234839781896,-0.2267391066852966,-0.1193168417367078,1.0159135948836768,0.8781683156763864,0.1735849968456604,0.4803843153993126,11.068864902697896,-1.0486302163358374,0.1543011970998443,-1.0919059000680014
2.02,0.7807939291269969,0.1379957455002629,1.6680424750535014,-8.763377142266406e-06,0.1737623297707277,0.0209740152884079,-0.6127167660711317,-0.1622090775597549,-0.1939642229314885,0.7730536124767974,0.13600556604024,1.6655378199267907,-0.647667310213135,-0.170688238577318,-0.1634081300601854,0.6552078050499732,0.6337038025148067,0.1466904368412708,-0.0787316595531661,11.136078589557656,-1.061784751234088,0.1538969865132345,-1.08761557956665
2.04,0.7686665754852416,0.1347809954123276,1.6641639376623083,0.0010091382391225,0.1702691355132604,0.0213276535911503,-0.6007106693544524,-0.1594282511476809,-0.1935704099517899,0.7730536124767974,0.13600556604024,1.6655378199267907,-0.647667310213135,-0.170688238577318,-0.1634081300601854,0.6165112378686312,0.6003048358339647,0.1390413206037,0.0196906489849296,10.346565309029756,-1.0660280455405775,0.1533265276640569,-1.0848433596911569
2.06,0.7573647707242479,0.1317761979070928,1.6605213126975515,0.0016241576456794,0.1668777509945997,0.0216310889330677,-0.589674236894092,-0.1570060700245954,-0.1898879157140308,0.7730536124767974,0.13600556604024,1.6655378199267907,-0.647667310213135,-0.170688238577318,-0.1634081300601854,0.5942023364483179,0.5518216230180173,0.1211090561542727,0.1841247118879549,10.735741137141304,-1.0706536113864549,0.1531099939215186,-1.082198518547148
2.08,0.7456879882234315,0.12866184907032,1.656788392788174,0.0018878030816853,0.1633860030926251,0.0219175193349656,-0.5786942917488322,-0.1545564260344339,-0.183481755909789,0.766576939374666,0.1342986836544668,1.6639037386261888,-0.6486099305687708,-0.1711029690460829,-0.1556903008625403,0.6472998426327086,0.5489972572629898,0.1224821995080768,0.3203079902120889,10.735741137141304,-1.075289802887137,0.1533114778292329,-1.080285341799701
2.1,0.7342233553494089,0.1255968604491495,1.6532066095837137,0.0017831747380069,0.160138473884678,0.022174313930175,-0.5684215561704729,-0.1520594045747135,-0.1749306380959426,0.7536235931704033,0.1308849188829205,1.6606355760249851,-0.6504951712800426,-0.1719324299836127,-0.1402546424672499,0.6798636412904341,0.5136367789179697,0.124851072986018,0.4275558906923174,10.885241276058878,-1.0794544453525052,0.153856974759885,-1.0792130022913684
2.12,0.722956832739675,0.1225839263329883,1.6498153303589878,0.001386712598974,0.1572964010494114,0.0224087823596676,-0.5588467177827267,-0.1493603799144478,-0.1646297491680495,0.7406702469661406,0.1274711541113741,1.6573674134237817,-0.6523804119913144,-0.1727618909211425,-0.1248189840719595,0.716014275299333,0.4787419193873099,0.1349512330132876,0.5150444463946552,11.006621505628573,-1.083490138754662,0.1547358447037266,-1.0789616958944144
2.14,0.7124239415589457,0.1197747214347243,1.6467917260787244,0.0008480021106691,0.1551034167667529,0.0226193440690294,-0.5504270139642327,-0.1464918072787368,-0.1541619223262073,0.7276226387263143,0.1240159162929513,1.6548710337423422,-0.6542656527025861,-0.1735913518586723,-0.1093833256766691,0.6868324398066556,0.4209851909246997,0.1434286317855498,0.5233913420921124,11.102527511869994,-1.0871608639226098,0.1558187835781475,-1.0795700554869572
2.16,0.7015029737900258,0.116879922667568,1.6438293078783024,0.0002388505228338,0.1534537237717155,0.0228370856251923,-0.5421356499673956,-0.143139299269621,-0.1426120601230851,0.7145750304864881,0.1205606784745284,1.652374654060903,-0.6561508934138579,-0.1744208127962021,-0.0939476672813787,0.7303857607291195,0.4145681998418526,0.167625400455787,0.5774931101561104,11.175345130001006,-1.0898565088271683,0.1569398501265886,-1.0812823134461833
2.18,0.69074794094809,0.1140565527925862,1.641102027994613,-0.0002611955744292,0.1524151389264792,0.0230605731197533,-0.533756795319179,-0.1393773950490377,-0.130686833390484,0.70148029122888,0.1170847041326673,1.6502641658393462,-0.6580361341251296,-0.1752502737337319,-0.0785120088860884,0.7526090638650462,0.4189427324108319,0.1880952110291683,0.5962613366300551,11.1991642586745,-1.0917808596113057,0.1579661938830964,-1.0843229792624844
2.2,0.6801631186024103,0.1113127840228118,1.638616974472248,-0.0004730291595646,0.1517155285769532,0.0233012034637002,-0.525149204709574,-0.1352421910293038,-0.1184247863718764,0.6640601011821311,0.1070876830401343,1.6345676863250884,-0.5420899763502273,-0.130385548234286,-0.1021998383640147,0.7770912518390688,0.430379530480246,0.2067602009866914,0.6131023509303786,11.1991642586745,-1.0934671826048257,0.158689888921137,-1.0875823867955705
2.22,0.6702362656571909,0.1087407864366835,1.6363544568311903,-0.001683244834264,0.151558049319965,0.0234565434307091,-0.5201190021685216,-0.135171193945141,-0.1203511821472417,0.6640601011821311,0.1070876830401343,1.6345676863250884,-0.5420899763502273,-0.130385548234286,-0.1021998383640147,0.2693463331535976,0.2515101270526232,0.003549854208143,-0.0963197887682641,11.22207740292015,-1.1005930722318,0.1607372810059463,-1.0869448048734198
2.24,0.6598985878725273,0.1060597793934239,1.6339390131646463,-0.0044990815870944,0.1519537495892956,0.0235114581737401,-0.513842998301201,-0.1325368265683765,-0.1209438621455879,0.6640601011821311,0.1070876830401343,1.6345676863250884,-0.5420899763502273,-0.130385548234286,-0.1021998383640147,0.3416115688864486,0.3138001933660317,0.1317183688382253,-0.0296339999173105,10.32919114680135,-1.1001118621034132,0.1638825033212239,-1.087383235867978
2.26,0.6496958194552872,0.1034606730476579,1.6315354440347063,-0.0075386255095848,0.1525168527406247,0.0235506761552756,-0.5067124548538895,-0.1274746212035408,-0.1192998180023821,0.6586392014186289,0.1057838275577915,1.6335456879414485,-0.5437566125564369,-0.1285871788713357,-0.0965024393587209,0.4448973312871663,0.3565271723655727,0.2531102682417852,0.0822022071602909,10.470093730953522,-1.0998708171956677,0.1673124531587489,-1.088536332665616
2.28,0.6396438248189454,0.1009783613300559,1.6291858285600538,-0.0101292207939161,0.152995696984951,0.0236225366913394,-0.4988612933526857,-0.1211287901608429,-0.1157585742382602,0.6477974018916243,0.1031761165931058,1.631501691174168,-0.5470898849688562,-0.1249904401454351,-0.0851076413481332,0.5349082069322354,0.392558075060187,0.3172915521348941,0.1770621882060917,10.60062030178051,-1.100034990298221,0.1702153070130837,-1.090242245284859
2.3000000000000003,0.6302448974299516,0.0987448454475983,1.6270331075904485,-0.0119998918488373,0.1532126468325976,0.0237350668971293,-0.4909295086580836,-0.1144441384305695,-0.1110259267030055,0.6369556023646198,0.10056840562842,1.6294576944068877,-0.5504231573812756,-0.1213937014195344,-0.0737128433375455,0.5700783496360928,0.3965892347301075,0.3342325865136698,0.2366323767627354,10.70757009379122,-1.1010130505589366,0.1727280006647762,-1.0923137362269213
2.32,0.6205168037225066,0.0965350376542458,1.6248762268967816,-0.013315847567593,0.1530960439194482,0.0239038063681657,-0.4823314000205128,-0.1069392364483497,-0.1048593176943079,0.6259471392169943,0.0981405316000293,1.6279834375401367,-0.5537564297936949,-0.1177969626936338,-0.0623180453269578,0.6486102307479181,0.4299054318785383,0.3752450991109907,0.3083304504348828,10.795686676055992,-1.1026869566875983,0.1746198033118977,-1.0945759991969122
2.34,0.6109612157541082,0.0944825794698372,1.6228492034179305,-0.0137614960195339,0.1525760705942918,0.0241383451219616,-0.4737354912230879,-0.0988085711585053,-0.0981558342800082,0.6149386760693688,0.0957126575716386,1.626509180673386,-0.5570897022061142,-0.1142002239677331,-0.0509232473163701,0.6799523071416808,0.4297954398712444,0.4065332644922196,0.3351741707149837,10.901908775103948,-1.1051153315214204,0.1756609881100048,-1.0967918987659406
2.36,0.6020402283614349,0.0926874272085654,1.6210516154622274,-0.013160658566784,0.1517390874921429,0.0244350222874321,-0.4658122432548499,-0.0907049075174403,-0.0913973542095105,0.6038468811114328,0.0933747020113955,1.6253197937568995,-0.5604229746185335,-0.1106034852418325,-0.0395284493057824,0.6597807886658671,0.3961623984119033,0.4051831820532495,0.337924003524883,10.92881632129047,-1.1081823174653078,0.175695045777195,-1.0990682005695265
2.38,0.592808716798274,0.0909624429962559,1.619303162776332,-0.0113133644622239,0.1505797630096832,0.0248296597906625,-0.4578169797643664,-0.0823466601176391,-0.0837778574576789,0.5926717543431864,0.0911266649192998,1.6244152767906783,-0.5637562470309528,-0.1070067465159318,-0.0281336512951947,0.6925338775643284,0.3997631745241731,0.4179123699900575,0.3809748375915828,10.92881632129047,-1.111478503844745,0.1744573625048852,-1.1013660161910486
2.4,0.5837332948608024,0.0893948289318843,1.61771259911611,-0.0083347671358876,0.1492200603433044,0.0252945973281383,-0.4501760984446895,-0.0752181352871715,-0.0756331466191731,0.5699178678100556,0.0868451099903739,1.615114269903448,-0.4595404251342284,-0.077435371964259,-0.0509915514638835,0.6624485795947758,0.3820440659838442,0.3564262415233797,0.407235541925291,10.961914820548373,-1.1149465277479962,0.1720286624274757,-1.103149926067444
2.42,0.5747765465693049,0.0879477511845361,1.6162174368905404,-0.0049511856761221,0.1483191305738534,0.0257708482608895,-0.4459040563544525,-0.0699959335162441,-0.0746619391040427,0.5699178678100556,0.0868451099903739,1.615114269903448,-0.4595404251342284,-0.077435371964259,-0.0509915514638835,0.3408261250054037,0.213602104511848,0.2611100885463721,0.0485603757565192,10.991710897857049,-1.122399852969861,0.1695872618109814,-1.103246839734255
2.44,0.5663502335428109,0.0866547596708631,1.6148183919052643,-0.0018584370902049,0.1482937151714049,0.0261994283282715,-0.4412098470029643,-0.0663665847856641,-0.0726222848502672,0.5699178678100556,0.0868451099903739,1.615114269903448,-0.4595404251342284,-0.077435371964259,-0.0509915514638835,0.3137194730914318,0.2347104675744116,0.1814674365289981,0.1019827126887723,10.514891108269694,-1.122330484171072,0.1665951155180235,-1.1047806685784325
2.46,0.5575858865717225,0.0853591992028239,1.6134051915242824,0.0010217129020454,0.148742781191255,0.0266141101438151,-0.4354112821879934,-0.0633694230564426,-0.0687354158035675,0.5653224635587133,0.0860707562707313,1.6146043543888091,-0.4598851142082008,-0.076453114333583,-0.0444342902651244,0.3798489282949233,0.2899282407485437,0.1498580864610743,0.1943434523349871,10.635969304382344,-1.1221149472249317,0.1640198153404923,-1.1073300248231883
2.48,0.54894653314879,0.0841166824194313,1.6120869172673442,0.0034418868724188,0.1493784114707387,0.0269884118154346,-0.4288003425863759,-0.0609683991561419,-0.0633048457793632,0.5561316550560288,0.0845220488314461,1.6135845233595316,-0.4605744923561456,-0.0744885990722309,-0.0313197678676062,0.4442986860599437,0.3305469800808758,0.1200511950150397,0.2715285012102164,10.744585734229986,-1.1219437973336268,0.1620216915361011,-1.1103926479893351
2.5,0.5404461033154992,0.0829181784104985,1.6108881856717097,0.0054398527197547,0.149965935781082,0.0273249469672571,-0.4215614987954438,-0.0589695365403635,-0.0567974706668187,0.5469408465533442,0.082973341392161,1.612564692330254,-0.4612638705040904,-0.0725240838108788,-0.0182052454700881,0.4968456552130566,0.3619421895466074,0.0999431307889167,0.3253687556272248,10.833034954223876,-1.1220903991569613,0.1603492101822071,-1.113890474438722
2.52,0.5325100167895401,0.0818127137242933,1.6098800142571004,0.0069492813065845,0.1503109901754762,0.0276087270443445,-0.4142138272762134,-0.0574520159353733,-0.0496623050317678,0.5377155691432624,0.0815228597159434,1.612200587420852,-0.4619532486520352,-0.0705595685495268,-0.0050907230725699,0.5176913515326707,0.367383575961519,0.0758760302495088,0.3567582817525411,10.904341828232646,-1.1226582490834518,0.1591054614913044,-1.1173831217512324
2.54,0.5243092213535561,0.0806764621168761,1.6089704666385665,0.0080988154017128,0.1503602161842417,0.0278664501219729,-0.4062836297209186,-0.0562494397731318,-0.0416501125371305,0.5284902917331806,0.0800723780397258,1.6118364825114504,-0.4626426267999801,-0.0685950532881747,0.0080237993249481,0.5668541506929247,0.3965098777647419,0.0601288081120782,0.4006096247318669,10.965065271168896,-1.1238010021730456,0.1583289422809509,-1.1206443013578602
2.56,0.5162677274487835,0.0795604565216543,1.608225738521143,0.0087003948371901,0.15005247899064,0.0280750222852135,-0.398328102225538,-0.0553752662618675,-0.0332292389239028,0.5192477798694002,0.078671009245042,1.6118002406619865,-0.4633320049479248,-0.0666305380268226,0.0211383217224663,0.5808737157668326,0.3977763747690294,0.0437086755632129,0.421043680661384,10.99977460581522,-1.1253730565089644,0.1581152822452552,-1.123533531969658
2.58,0.5083840177660685,0.0784604893003819,1.6076535907774487,0.0087024165847888,0.1494137562796992,0.0282318443630155,-0.3905094040140721,-0.0546240493504776,-0.0244095544848975,0.5099880335519211,0.077318753331892,1.612091861872461,-0.4640213830958697,-0.0646660227654706,0.0342528441199845,0.5905150340456424,0.3909349105732929,0.0375608455694943,0.440984221950267,11.053260506188051,-1.1273771445328142,0.1585073633916878,-1.1262947683069593
2.6,0.5010371008562511,0.0774304567793524,1.6072772886405693,0.0081526555091928,0.1485483704591441,0.0283350144329865,-0.3833018890246338,-0.053800953391256,-0.0156445309238072,0.5007282872344421,0.0759664974187421,1.6123834830829349,-0.4647107612438145,-0.0627015075041185,0.0473673665175026,0.5688835498314501,0.360375749471914,0.0411547979610814,0.4382511780545156,11.053260506188051,-1.1293241100252676,0.1594330014881299,-1.128516771744744
2.62,0.4934236331817499,0.0763985916927305,1.6069239572000698,0.0080774807651998,0.1474711949232482,0.0284728030709682,-0.3785797764363801,-0.0496485100825265,-0.0208644176403151,0.4888585475653648,0.075729286832858,1.606433113053204,-0.3985365477904889,-0.0600182026474251,-0.0133685288537677,0.408620698391346,0.2361056294126889,0.2076221654364728,-0.2609943358253953,10.14478169150334,-1.1382953735677133,0.1603914090951839,-1.1294208161845205
2.64,0.4858996171352479,0.0754464668299094,1.606455052859254,0.0093266920128285,0.1463045189275312,0.0286941884035976,-0.3740904217401901,-0.0459658902267848,-0.0256757401532771,0.4888585475653648,0.075729286832858,1.606433113053204,-0.3985365477904889,-0.0600182026474251,-0.0133685288537677,0.3770438267424679,0.224467734809497,0.184130992787089,-0.2405661256481022,10.259477525552027,-1.1401997968137738,0.1593719736638416,-1.1265264497181275
