t,x,y,z,roll,pitch,yaw,v_x,v_y,v_z,ref_x,ref_y,ref_z,ref_v_x,ref_v_y,ref_v_z,a_com,a_x,a_y,a_z,thrust,wind_x,wind_y,wind_z
0.0,-2.4540562483973187,2.4507519705032683,3.001817659359004,0.0131575673444569,0.1498957111075622,0.028108985594325,0.0020198811410974,-0.0046390138828611,-0.0020419038412526,-2.4539922640377174,2.4505363616159435,3.0017547942371268,-0.0033617294170135,-0.1065172285695907,-0.1020809902492993,0.2728082702488252,0.1009940570548729,-0.2319506941430589,-0.1020951920626347,10.66067673921316,-1.4134168721831897,0.179547969297905,-1.2774923092196129
0.02,-2.454082817893865,2.450934178497436,3.001554066794676,0.0203675947503434,0.1506005054169596,0.0286278326839168,-0.0044320218707458,0.0184749191848675,-0.0257612710463073,-2.4539922640377174,2.4505363616159435,3.0017547942371268,-0.0033617294170135,-0.1065172285695907,-0.1020809902492993,1.6870753798674023,-0.3225951505921636,1.1556966533864346,-1.185968360252733,10.6598516715394,-1.4081163422205405,0.170791315026935,-1.2753055764108865
0.04,-2.4542400733397063,2.4513491651173784,3.0007276448106914,0.0351593915706866,0.1527084662615819,0.0297033196173334,-0.0107526225303706,0.0210038258897127,-0.0557550833349149,-2.4539922640377174,2.4505363616159435,3.0017547942371268,-0.0033617294170135,-0.1065172285695907,-0.1020809902492993,1.537834628157792,-0.3160300329812398,0.1264453352422626,-1.4996906144303774,8.966781276782967,-1.4024391602194344,0.1532804142173134,-1.2755300014906863
0.06,-2.454508422302594,2.451728694088105,2.999299028701955,0.0505769543933041,0.1558756625286681,0.0308737428409895,-0.0155648233585569,0.0164664124875382,-0.0855751947514926,-2.454025881331888,2.4494711893302474,3.0007339843346337,-0.004454792082327,-0.1265172288676139,-0.1220809905473225,1.5272397012994867,-0.2406100414093156,-0.226870670108724,-1.4910055708288856,9.00849000691096,-1.3964396627904934,0.1351692535572785,-1.2761194169597008
0.08,-2.4548553963136674,2.451978272973814,2.997284524998191,0.0654521353412711,0.1596634451893916,0.0320628580539471,-0.0187168923170298,0.0084008184238738,-0.1144149553008713,-2.454093115920228,2.447340844758856,2.998692364529648,-0.0066409174129539,-0.1665172294636603,-0.162080991143369,1.5055905277201782,-0.1576034479236461,-0.403279703183224,-1.4419880274689365,9.00849000691096,-1.3900877271059104,0.1186243956559169,-1.2760949169349656
0.1,-2.4552275870333564,2.4520387100579577,2.994844801073452,0.0789295193533345,0.1634742547712609,0.0331866551752569,-0.0201873270847525,-0.0018968212211292,-0.1409815013757179,-2.4541603505085683,2.445210500187464,2.9966507447246618,-0.0088270427435809,-0.2065172300597068,-0.2020809917394154,1.4265210575131837,-0.0735217383861373,-0.5148819822501507,-1.3283273037423298,9.06799904915897,-1.383319516062772,0.1021268639711251,-1.2752528077364134
0.12,-2.455634847487155,2.451864446801627,2.991735894367833,0.0924266947476116,0.167408224722062,0.0343394449260963,-0.020347415984718,-0.015278666268249,-0.1685094589825347,-2.45433689136344,2.4410801555862696,2.9926091248898734,-0.0110131680742079,-0.2465172306557532,-0.2420809923354619,1.5304311935886885,-0.0080044449982731,-0.6690922523559935,-1.3763978803408377,9.124808475269674,-1.3775289811629423,0.0866287379840812,-1.2736369164110608
0.14,-2.456033026226138,2.451397028794874,2.9880732519671094,0.1052407629536578,0.1710339277026653,0.0354334265929827,-0.0194020377496361,-0.0310644821439012,-0.1964104172668482,-2.4545134322183118,2.436949810985076,2.988567505055085,-0.0131992934048348,-0.2865172312517997,-0.2820809929315084,1.6035501208649243,0.0472689117540949,-0.7892907937826096,-1.3950479142156789,9.159240658226736,-1.3724873653320684,0.0719006069448745,-1.273360861956781
0.16,-2.4564017576184685,2.450589613524137,2.983850430649041,0.1173992517285042,0.1741962479927471,0.0364404878218261,-0.0174841218007707,-0.0491453143196248,-0.2245009107010764,-2.4547446262064487,2.4318194663689803,2.983525885205396,-0.0153854187354618,-0.3265172318478461,-0.3220809935275548,1.6730740533012949,0.0958957974432725,-0.9040416087861786,-1.4045246717114088,9.14958876059154,-1.3672589169375355,0.0586123618370671,-1.2715637819436398
0.18,-2.4567084946663145,2.4494666889484025,2.979318503911175,0.1283673786020077,0.1766860076793672,0.0372935629126962,-0.0148899049213657,-0.0683667452850155,-0.251159265658129,-2.4550304733278514,2.425689121737984,2.977484265340805,-0.0175715440660888,-0.3665172324438925,-0.3620809941236012,1.648378945047894,0.1297108439702491,-0.9610715482695358,-1.3329177478526313,9.154532650209148,-1.3615337295162124,0.0453258145792971,-1.2684129861602742
0.2,-2.4569723609970446,2.4478689626441925,2.973999546019558,0.139325972893569,0.1787473781913205,0.0380658318654334,-0.0116156296943186,-0.0906301796149011,-0.2793527171869217,-2.4574529899123827,2.446048351684152,2.9667605406282687,-0.0093207039585838,-0.1683667467751317,-0.3511592671482452,1.803643600832744,0.1637137613523544,-1.1131717164942787,-1.4096725764396327,9.169600172734135,-1.3567122412300434,0.0327994828052587,-1.264284835526223
0.22,-2.457158729233537,2.445640470047409,2.9682493572190545,0.1450692422473531,0.1810194014299013,0.0384825001555289,-0.0069501012789579,-0.1291044743251145,-0.293174244247923,-2.4574529899123827,2.446048351684152,2.9667605406282687,-0.0093207039585838,-0.1683667467751317,-0.3511592671482452,2.057348487216543,0.233276420768032,-1.923714735510668,-0.691076353050063,10.170380256892711,-1.3532527566859294,0.0271242876551841,-1.255202842832873
0.24,-2.4572386647711517,2.442874211663519,2.962551041008648,0.1450274681899495,0.1838882430871641,0.038572994728788,-0.0015774443730019,-0.1595782425130886,-0.3059648101174562,-2.4574529899123827,2.446048351684152,2.9667605406282687,-0.0093207039585838,-0.1683667467751317,-0.3511592671482452,1.6741524460651516,0.2686328452978044,-1.5236884093987089,-0.63952829347666,10.170380256892711,-1.3485452186119569,0.0271448915945945,-1.253353162790197
0.26,-2.45720236585282,2.4393723171615287,2.9562669236652166,0.1419622927556955,0.1871236118732823,0.0384602177230253,0.0050019990221778,-0.1884775553841546,-0.3218205412756285,-2.4575461969519687,2.4443646842164006,2.963248947956786,-0.0082068637660274,-0.1883667470731549,-0.3711592674462684,1.6806721649167418,0.3289721697589859,-1.4449656435533005,-0.7927865579086146,10.027709076163774,-1.343755392308177,0.030711331116903,-1.2518514750996246
0.28,-2.457026329373804,2.4353360545059006,2.949644919622649,0.1374276725160358,0.1901298180078404,0.0381816280701645,0.0123090123651996,-0.2133844248164776,-0.3396329350744282,-2.4577326110311404,2.440997349280898,2.9562257626138213,-0.0059791833809146,-0.2283667476692013,-0.4111592680423148,1.5740282412947688,0.365350667151091,-1.2453434716161476,-0.8906196899399865,9.861097259181406,-1.339401431499195,0.035918525142286,-1.2497945398702623
0.3,-2.456699039012756,2.4308319703002392,2.9426457255445317,0.1327667250374662,0.1926090947523266,0.0377940102513348,0.0200482921351519,-0.2357111358395667,-0.3593626697798602,-2.457919025110312,2.437630014345395,2.949202577270857,-0.0037515029958019,-0.2683667482652478,-0.4511592686383613,1.539188835079091,0.3869639884976153,-1.1163355511544557,-0.9864867352716022,9.72719501078791,-1.3359679325784664,0.0409560956080255,-1.2469982135014646
0.32,-2.4562428333819195,2.4261563426834867,2.935615963264373,0.1287019271259191,0.1943695043368274,0.0373507819451342,0.027564367194125,-0.2553826742124773,-0.3796119904734754,-2.457994055170228,2.43226267938009,2.940179391898089,-0.0015238226106891,-0.3083667488612942,-0.4911592692344077,1.460732517268204,0.3758037529486536,-0.9835769186455277,-1.012466034680759,9.612645304840044,-1.3318571346860977,0.0456715887193243,-1.2428639155442882
0.34,-2.4556078020877483,2.420843160063,2.9277919643330663,0.1250188576576235,0.1956015334092244,0.0368280675708981,0.0355197811952934,-0.2749545872986417,-0.4017571584568307,-2.458069085230144,2.426895344414785,2.931156206525322,0.0007038577744236,-0.3483667494573407,-0.5311592698304543,1.5303241966927998,0.3977707000584217,-0.9785956543082204,-1.1072583991677654,9.45911524224357,-1.327974681610668,0.0496098370409289,-1.23737549237157
0.36,-2.4548122682753903,2.4151366736197493,2.919518908617565,0.121696078638183,0.1962247056530413,0.0362396700508587,0.043600316650501,-0.2946231655428504,-0.4244304846580854,-2.458088423280432,2.420528009434579,2.9211330211376536,0.0029315381595363,-0.3883667500533871,-0.5711592704265006,1.554210204911107,0.4040267727603776,-0.983428912210435,-1.1336663100627364,9.45911524224357,-1.3247701757218795,0.0530298137726979,-1.231430251444733
0.38,-2.453855307704917,2.409040310134974,2.910787558392103,0.1183917741109633,0.1962531055576101,0.0355688264158107,0.0516245241169338,-0.3138820444670142,-0.4475249509921085,-2.4580520693210928,2.413160674439472,2.910109835735084,0.0051592185446491,-0.4283667506494336,-0.6111592710225471,1.5561544734804456,0.4012103733216418,-0.962943946208189,-1.1547233167011532,9.399267081706055,-1.3223703299316354,0.0561940988985893,-1.225000028693528
0.4,-2.452799250976077,2.4028978763651643,2.90206110950212,0.115200004504207,0.1957789569836539,0.034861327109989,0.0590961015894099,-0.3315912865949199,-0.4698550911330944,-2.451274081499071,2.393346207911624,2.8884113108424976,0.0712691887174253,-0.4138820459571303,-0.5475249524822247,1.4731572263238522,0.3735788736238077,-0.8854621063952878,-1.1165070070492944,9.399267081706055,-1.32040384095548,0.0595104406375255,-1.217524086821169
0.42,-2.451537191355865,2.3960641186638347,2.892629669523316,0.1122088348125006,0.196128092800248,0.0342344426524975,0.0670580592647346,-0.3510392661916996,-0.4710536714134071,-2.451274081499071,2.393346207911624,2.8884113108424976,0.0712691887174253,-0.4138820459571303,-0.5475249524822247,1.052441536510193,0.3980978837662317,-0.9723989798389844,-0.0599290140156361,9.36544922518351,-1.3192018336688576,0.0631189276375988,-1.2033295953529657
0.44,-2.450106001185569,2.388852843946057,2.883176361943726,0.1100470861510175,0.1983672012396408,0.0338703999292179,0.075842082607157,-0.369237685891438,-0.4746194024714911,-2.451274081499071,2.393346207911624,2.8884113108424976,0.0712691887174253,-0.4138820459571303,-0.5475249524822247,1.0259824360419545,0.4392011671211199,-0.90992098498692,-0.1782865529041999,10.72298794719518,-1.3158322161758769,0.0647390199780147,-1.2052889498103667
0.46,-2.4484864403155733,2.3812792066546087,2.8735993637297854,0.1085178605748329,0.2015611810120629,0.0336447050564074,0.0858052461171475,-0.3871993736150712,-0.4830991676823646,-2.4505613896118965,2.3892073874520525,2.8829360613176758,0.0751981216375236,-0.4338820462551535,-0.5675249527802478,1.1110729848210508,0.4981581754995266,-0.8980843861816606,-0.4239882605436756,10.406465644763555,-1.3106939890657625,0.0657967578971662,-1.2077636883388168
0.48,-2.446753364462574,2.373757630689558,2.8643038721449154,0.1074421874162245,0.2047272447973328,0.033460082551883,0.0961892766929216,-0.4036542123700746,-0.4949312786409564,-2.449136005837548,2.38092974653291,2.871985562268031,0.0830559874777202,-0.4738820468511999,-0.6075249533762943,1.1386270890728425,0.5192015287887042,-0.8227419377501682,-0.5916055479295856,10.13894734405494,-1.3051934355751396,0.0664716160882153,-1.2092195896892295
0.5,-2.444708832087095,2.365510091676168,2.85424736087586,0.1067688406659763,0.2077270317462633,0.033251331019517,0.1077459345582247,-0.420235654936255,-0.5102200403911771,-2.4477106220631994,2.372652105613767,2.8610350632183863,0.0909138533179168,-0.5138820474472464,-0.6475249539723408,1.2671294472608372,0.5778328932651545,-0.8290721283090191,-0.7644380875110351,9.937975108159662,-1.3000528281722776,0.0666660116309758,-1.209346378050794
0.52,-2.442427715895446,2.3569358781888283,2.843858338412696,0.1066709817754367,0.2100897086961898,0.033004915591909,0.1197656763500766,-0.4364013381629419,-0.5278977222227721,-2.445892344996841,2.362374464664822,2.84808456413894,0.0987717191581134,-0.5538820480432929,-0.6875249545683872,1.3400596459369662,0.6009870895925952,-0.8082841613343467,-0.8838840915797508,9.778479287992011,-1.295584500235137,0.0662173122980039,-1.2082516548799032
0.54,-2.440033865753595,2.3484922692617154,2.8336527871369857,0.1071449250338202,0.2116121023021341,0.0327248687319956,0.1315685721668809,-0.451644088474461,-0.5454729081115113,-2.4440740679304827,2.352096823715877,2.835134065059493,0.1066295849983101,-0.5938820486393394,-0.7275249551644337,1.304355152695567,0.590144790840217,-0.7621375155759558,-0.8787592944369593,9.659901359489597,-1.2922462987540668,0.0651692027976338,-1.2058894838140866
0.56,-2.4372694869907776,2.3392818201188947,2.8225417259326653,0.107975664916323,0.2123990321342461,0.0323564715494349,0.1441922857717626,-0.4685824258570166,-0.564718210531062,-2.4420593442181198,2.340819182752031,2.821183565965145,0.1144874508385067,-0.6338820492353857,-0.7675249557604801,1.4288518849790892,0.6311856802440854,-0.8469168691277784,-0.9622651209775346,9.619047985876024,-1.2898156155483138,0.0636896296336429,-1.202235074698752
0.58,-2.434251179948319,2.3297219626581662,2.8110394262201748,0.1086098144466941,0.2122971528527964,0.0318678681529783,0.1569569536586378,-0.4864933579708766,-0.5845416728375918,-2.4398481738597515,2.328541541773284,2.806233066855896,0.1223453166787033,-0.6738820498314322,-0.8075249563565265,1.4804626753720742,0.6382333943437596,-0.8955466056930012,-0.9911731153264935,9.580279503686144,-1.2883357798062889,0.0624529946137323,-1.1974541610270553
0.6,-2.430976287997824,2.3197942519777337,2.7991337902879065,0.1084997688411801,0.2111657676198543,0.0312054030676502,0.16981428707836,-0.5052051832470219,-0.6049789953949415,-2.4264033322653877,2.305397294759622,2.781812342578295,0.1748160866190766,-0.5864933594609927,-0.684541674327708,1.527356851839189,0.6428666709861086,-0.9355912638072644,-1.0218661278674823,9.551657943084138,-1.2878367874677634,0.0618974132156477,-1.1908136250828627
0.62,-2.42758966417628,2.309962125510021,2.7876966751647845,0.1066135790071482,0.2095485850911989,0.0303875378029209,0.1859261837837289,-0.5283178087548157,-0.5978281203376349,-2.4264033322653877,2.305397294759622,2.781812342578295,0.1748160866190766,-0.5864933594609927,-0.684541674327708,1.453376832924971,0.8055948352684444,-1.1556312753896902,0.3575437528653302,9.518762898989737,-1.2897538738973566,0.0639774978359331,-1.1753821558850877
0.64,-2.423705793022007,2.2991748409900072,2.7757846488775835,0.1028844123377053,0.2078844040690675,0.0294135812413378,0.2014812239066341,-0.5487205182559727,-0.5940565961447553,-2.4264033322653877,2.305397294759622,2.781812342578295,0.1748160866190766,-0.5864933594609927,-0.684541674327708,1.296586116452806,0.7777520061452603,-1.0201354750578484,0.1885762096439813,11.22578203223202,-1.2919494229334587,0.067186751566539,-1.171952491721617
0.66,-2.419523230237863,2.288010583967724,2.7638870536703357,0.0987964861158658,0.206053115127819,0.0284083963715778,0.2159147923736662,-0.5665114511731295,-0.5961010052242676,-2.4246551713991966,2.2995323611650123,2.774966925835018,0.1783879132111643,-0.6064933597590159,-0.7045416746257311,1.1500269575532456,0.7216784233516044,-0.8895466458578416,-0.1022204539756155,10.826442589510409,-1.2939951323280494,0.0705326309806269,-1.1690718690912023
0.68,-2.415291956485988,2.277093628260465,2.752494607034063,0.0949801889593527,0.2037899495235998,0.0274198056584597,0.2286931690176724,-0.581693144470361,-0.6029436383129108,-2.421158849666815,2.2878024939757924,2.761276092348464,0.1855315663953398,-0.6464933603550623,-0.7445416752217776,1.049514588527812,0.6389188322003081,-0.7590846648615757,-0.3421316544321595,10.467315496194717,-1.2964684167294285,0.0740028439895571,-1.1643305841656677
0.7000000000000001,-2.410586859158597,2.2653063926347663,2.7403237558113926,0.0912885077164556,0.200596053392567,0.026342231860105,0.2410246373819402,-0.5962075812876352,-0.6139290475739676,-2.417662527934433,2.2760726267865725,2.7475852588619096,0.1926752195795153,-0.6864933609511088,-0.7845416758178241,1.099332985012383,0.6165734182133897,-0.7257218408637078,-0.5492704630528422,10.177781903287723,-1.2997410517114711,0.0771286788029046,-1.1577067486565271
0.72,-2.4056484488912497,2.2532397731810243,2.727898200369725,0.0880326461876873,0.1964260696092119,0.0252265226337117,0.252057981831008,-0.6097269026172583,-0.6281797532714873,-2.4138090235428438,2.2623427595675505,2.731894425345553,0.1998188727636908,-0.7264933615471553,-0.8245416764138706,1.1264871857046346,0.551667222453392,-0.675966066481154,-0.7125352848759869,9.9417044132324,-1.304008364630517,0.0797791805061516,-1.149355556664314
0.74,-2.4005048868817576,2.240911364445902,2.715167643027701,0.0852401499774313,0.1912812543245181,0.0240798590748479,0.2614929318285451,-0.6225047775762672,-0.644100980049443,-2.4099555191512527,2.2486128923485285,2.716203591829197,0.2069625259478663,-0.7664933621432017,-0.864541677009917,1.1244752465474583,0.4717474998768539,-0.6388937479504475,-0.7960613388977855,9.654044342992163,-1.3087524473061818,0.0818290650630636,-1.1395357359170264
0.76,-2.39546364747268,2.2289595355391643,2.7027677219577986,0.0827431578820301,0.1858441535632788,0.022976559844602,0.2685099461768025,-0.6348244436078117,-0.6603043811094909,-2.405923423430058,2.233883025114605,2.699512758297939,0.2141061791320418,-0.8064933627392481,-0.9045416776059634,1.076525507599796,0.3508507174128733,-0.615983301577222,-0.8101700530023903,9.654044342992163,-1.3139460381711916,0.0837434218482682,-1.1285991044385204
0.78,-2.390034381812224,2.216130585443309,2.689370412759412,0.080074526879698,0.1799697509004694,0.0218252560164058,0.2738644087628085,-0.6473067863378389,-0.678599506923474,-2.4017127363792588,2.2181531578657805,2.6818219247517803,0.2212498323162172,-0.8464933633352946,-0.9445416782020098,1.1392879115529528,0.2677231293002985,-0.624117136501362,-0.9147562906991592,9.575624488851645,-1.3190020573990957,0.0856684554177791,-1.1173983905301237
0.8,-2.384518084221687,2.203057121695964,2.6755939207486943,0.0773178499928663,0.1742782981312437,0.0207102086716514,0.2773552327551366,-0.6592834790327332,-0.6981555560167655,-2.3763411613740835,2.1837652461264176,2.655440437413238,0.2954103963390548,-0.747306787827955,-0.7785995084135902,1.159812566961332,0.1745411996164042,-0.598834634744716,-0.9778024546645724,9.398922807287818,-1.32354118499705,0.0876617019851316,-1.1063061322234635
0.8200000000000001,-2.378942065933745,2.1897205969525606,2.6617555174762173,0.0743383592283153,0.1706631836257433,0.0197664782006533,0.279996474402886,-0.6735084314360003,-0.6846779523506422,-2.3763411613740835,2.1837652461264176,2.655440437413238,0.2954103963390548,-0.747306787827955,-0.7785995084135902,0.988649620566,0.1320620823874713,-0.7112476201633522,0.6738801833061636,11.408306962962342,-1.3294634265464451,0.0904902255809865,-1.087148927079576
0.84,-2.373613210837905,2.176810509677046,2.648820950482748,0.0717150101523158,0.1709090574384621,0.0191766383597386,0.2813072697905719,-0.6848169348729829,-0.677662560376251,-2.3763411613740835,2.1837652461264176,2.655440437413238,0.2954103963390548,-0.747306787827955,-0.7785995084135902,0.6686107968896753,0.0655397693842929,-0.5654251718491321,0.350769598719558,11.408306962962342,-1.328966393571642,0.0924272606012765,-1.089627948729001
0.86,-2.3679589126460887,2.1629994661186407,2.6352801232020995,0.0694461316561484,0.1738734379825915,0.0187933051835455,0.2843240258952744,-0.6957077771006587,-0.6771073817476647,-2.373387057410693,2.176292178248138,2.6476544423291024,0.2997195938543041,-0.7673067881259782,-0.7985995087116133,0.5657284797785608,0.1508378052351239,-0.5445421113837889,0.0277589314293169,10.86934749865759,-1.3248831893652426,0.0939382113586133,-1.0947450460430324
0.88,-2.3622266686587112,2.1489786968169784,2.621688589342896,0.0676276830705797,0.1783182190584457,0.0185486421090297,0.2889590429760208,-0.7058482757322736,-0.682310174023238,-2.367478849483912,2.1613460424915787,2.6320824521608306,0.3083379888848025,-0.8073067887220247,-0.8385995093076598,0.615187254621226,0.2317508540373214,-0.5070249315807462,-0.2601396137786649,10.451495672658892,-1.318882087973464,0.0950719205808207,-1.100734715271082
0.9,-2.3563860070906526,2.134763534613167,2.607941167433444,0.0662615160254081,0.1832996057817248,0.0183752227211677,0.2950446848324403,-0.715206523868536,-0.6921685621819146,-2.361570641557131,2.14639990673502,2.6165104619925588,0.316956383915301,-0.8473067893180711,-0.8785995099037063,0.7446470003827278,0.3042820928209733,-0.4679124068131202,-0.4929194079338284,10.138593384044723,-1.3123688084311411,0.0957738212297155,-1.1062768439227602
0.92,-2.3507121791832226,2.1210934756494555,2.5946658574999897,0.065519004078034,0.187950096050219,0.0182480697617039,0.3019841530746701,-0.72334355928799,-0.7047470423082931,-2.355231513878825,2.129453770948658,2.598938471794485,0.3255747789457995,-0.8873067899141176,-0.9185995104997527,0.8255085208404345,0.3469734121114926,-0.4068517709726993,-0.6289240063189261,9.906697460015494,-1.3054475909082064,0.0959634303798399,-1.1114956133224947
0.94,-2.3445851886162425,2.106543837770557,2.580417874273206,0.0655770425909318,0.1923881982030286,0.0181497676133529,0.3104240504609049,-0.7312612400371743,-0.7194574660190812,-2.348892386200519,2.112507635162297,2.5813664815964104,0.3341931739762981,-0.927306790510164,-0.9585995110957992,0.9358393319463192,0.421994869311737,-0.3958840374592154,-0.7355211855394062,9.73210440564435,-1.298882812622156,0.0953084046284713,-1.115563172692662
0.96,-2.3382764365708315,2.091828174724851,2.5658642501320297,0.066389530438858,0.1960659295109901,0.0180634662872796,0.3200567279139741,-0.739925151708455,-0.7352048737633173,-2.3423377986464504,2.0945614993610344,2.562794491383435,0.3428115690067966,-0.9673067911062104,-0.9985995116918456,1.0195988071612394,0.4816338726534613,-0.4331955835640333,-0.7873703872118054,9.661691972138216,-1.2929929097711528,0.0938814958004943,-1.118740215461837
0.98,-2.331766220134317,2.0769319589052606,2.550985192358797,0.0675479328651119,0.1987503800390918,0.0179444432489488,0.3304701304474777,-0.749262554002542,-0.7519082883624264,-2.33556775121662,2.07561536354487,2.543222501155559,0.3514299640372951,-1.007306791702257,-1.038599512287892,1.0893003410402164,0.5206701266751823,-0.4668701147043541,-0.8351707299554534,9.6202739158216,-1.288323810904764,0.0921976140997563,-1.1202926213623792
1.0,-2.325383700582015,2.0626003448836574,2.5365317873375424,0.0686499974390307,0.2002693464555625,0.0177687609190164,0.3407649880434786,-0.7588076099936719,-0.768649395759915,-2.315242713611944,2.039468831205133,2.513389777940676,0.3634050941506332,-0.8492625554926582,-0.8519082898525425,1.092424898665793,0.5147428798000425,-0.4772527995564934,-0.8370553698744287,9.57944936200147,-1.2845473881149938,0.0904104935311161,-1.1203439985334227
1.02,-2.318416515694676,2.047259577732432,2.521277232271861,0.0685057402785693,0.2016657136145591,0.017485115938504,0.3557850802495356,-0.7745772539440009,-0.7543180787474177,-2.315242713611944,2.039468831205133,2.513389777940676,0.3634050941506332,-0.8492625554926582,-0.8519082898525425,1.3035254960215528,0.7510046103028495,-0.7884821975164491,0.7165658506248618,11.617138326705572,-1.280821293103582,0.0903385770099334,-1.1077915426576308
1.04,-2.3111395635939664,2.031619317578857,2.5063142967270604,0.0664950617759161,0.203491335311549,0.0171070376507684,0.3711482165138652,-0.7884879275121409,-0.7432111824591413,-2.315242713611944,2.039468831205133,2.513389777940676,0.3634050941506332,-0.8492625554926582,-0.8519082898525425,1.1756869695567775,0.7681568132164834,-0.695533678407001,0.5553448144138218,11.143582606087875,-1.2804203514810153,0.0918640863610256,-1.1130405717135086
1.06,-2.3035560648016125,2.0157210616149523,2.491497367828716,0.0633481234975965,0.2051245678646252,0.0166436800197756,0.3863911459830708,-0.8002461569339585,-0.7392981252142886,-2.311608662670437,2.030976205650207,2.5048706950421504,0.3699920868912644,-0.8692625557906813,-0.8719082901505657,0.9822358104609692,0.762146473460279,-0.5879114710908795,0.1956528622426345,10.7134305675645,-1.2794254734386277,0.0943900131642068,-1.1168616187137188
1.08,-2.296073664267224,2.000425952688612,2.4774308514242347,0.0601676133992548,0.2060348737277771,0.0161578310463332,0.4003941453302609,-0.8091388181677159,-0.74153593061567,-2.3043405607874243,2.0139909545403536,2.4878325292451,0.3831660723725266,-0.9092625563867278,-0.9119082907466122,0.8369157477760696,0.7001499673595063,-0.4446330616878713,-0.1118902700690704,10.369862217626178,-1.2785352283741285,0.0972842009018214,-1.1187939268080715
1.1,-2.2879183381251305,1.9841600026191424,2.4625313819581103,0.0571449603104729,0.2061731954448622,0.0156317619646507,0.414287657627483,-0.817005866604512,-0.748484755395745,-2.297072458904412,1.9970057034305004,2.4707943634480487,0.3963400578537888,-0.9492625569827744,-0.9519082913426586,0.8706410007634329,0.6946756148611039,-0.3933524218398043,-0.3474412390037484,10.369862217626178,-1.2781323699114495,0.0998531963554383,-1.1187580845767793
1.12,-2.2794937533011588,1.967746708834084,2.447450213512954,0.0546396789998811,0.2054411930308156,0.0151069437943043,0.4274041017773236,-0.8239816250269852,-0.7594306767621609,-2.289145657747336,1.9780204522908449,2.4517561976211955,0.409514043335051,-0.9892625575788206,-0.9919082919387052,0.9226531136677996,0.6558222074920295,-0.3487879211236611,-0.5472960683207961,9.873944960005248,-1.2781074418307432,0.1018802686794849,-1.1170095221908585
1.14,-2.270811267702229,1.9512012857512764,2.4321253355895878,0.052711464581023,0.2036918744590939,0.0145832688016548,0.4401072504753962,-0.8303488104652972,-0.7724767077180287,-2.2812188565902605,1.9590352011511896,2.432718031794342,0.4226880288163132,-1.0292625581748671,-1.0319082925347516,0.9645075958133442,0.6351574349036299,-0.318359271915597,-0.652301547793388,9.873944960005248,-1.2787318514945076,0.1032506440176867,-1.1135578666921648
1.16,-2.2623295012845577,1.9353604339571568,2.417311047577533,0.0511311879478345,0.2008706587803258,0.0140583393703851,0.4519775170479334,-0.8367381593272645,-0.7862367931682595,-2.272962705796153,1.939049949996633,2.412679865952588,0.4358620142975754,-1.0692625587709137,-1.071908293130798,0.9631549187185172,0.5935133286268601,-0.3194674430983646,-0.6880042725115387,9.769843930941532,-1.2804186108683389,0.1044002660809208,-1.1081188981336854
1.18,-2.2531643857076533,1.918556848199522,2.401420072595475,0.0494965018928021,0.1964197227994285,0.0134513106417047,0.4637508833301664,-0.8432250011112006,-0.8021710271940576,-2.264377205365014,1.918064698827175,2.3916417000959327,0.4490359997788376,-1.1092625593669598,-1.1119082937268443,1.0423424148694422,0.5886683141116483,-0.3243420891968052,-0.7967117012899094,9.688122491616925,-1.283959138707155,0.105529542740053,-1.1005744739298242
1.2,-2.243782288120996,1.9016259860338,2.3851940750562024,0.0478173367937911,0.1905156725293371,0.0127921944010445,0.4735303232333966,-0.8494491856117632,-0.8195590943389964,-2.229976841541145,1.8763955981439624,2.361311521235772,0.5057962456238867,-0.9432250026013168,-0.9021710286841738,1.0448956844523238,0.4889719951615134,-0.3112092250281306,-0.8694033572469395,9.593811323858972,-1.2889475999272275,0.1066552851809686,-1.0913255804878692
1.22,-2.2346996463920834,1.8853953969962052,2.369790346623452,0.0455866158976613,0.1858144318072968,0.0121889953390279,0.4820005397188363,-0.8582113602168897,-0.8009907748927944,-2.229976841541145,1.8763955981439624,2.361311521235772,0.5057962456238867,-0.9432250026013168,-0.9021710286841738,1.1105210018017928,0.4235108242719804,-0.4381087302563258,0.9284159723101038,9.50135257202146,-1.2938552095047136,0.1086641308801542,-1.07013424488996
1.24,-2.224992269210781,1.868164410046837,2.3539193438344825,0.0430303916891309,0.1841455673705133,0.0117147486923279,0.4884481244501052,-0.8644210608560603,-0.7876362578677166,-2.229976841541145,1.8763955981439624,2.361311521235772,0.5057962456238867,-0.9432250026013168,-0.9021710286841738,0.8038576613245949,0.322379236563447,-0.3104850319585295,0.6677258512538864,11.77733304969206,-1.2977118044179103,0.1108837679623382,-1.072061510629958
1.26,-2.215152848878453,1.8508238090812064,2.338226827503905,0.0409433299722317,0.1851119018662463,0.0114050922845434,0.4953710890128557,-0.86938426619219,-0.7826272949600175,-2.224918879084906,1.866963348117949,2.35228981094893,0.5142053180826307,-0.96322500289934,-0.9221710289821968,0.4940914767439125,0.3461482281375272,-0.2481602668064852,0.2504481453849572,11.173216086919638,-1.297388989314819,0.1126330512051476,-1.076372849699649
1.28,-2.205167167340803,1.833394827492206,2.3225586908080382,0.0394981075679433,0.1874742220192371,0.0112103292032214,0.5030332927101695,-0.8733854104864345,-0.7844212816961578,-2.2148029541724283,1.8480988480659224,2.3342463903752466,0.5310234630001188,-1.0032250034953865,-0.9621710295782434,0.441409417581741,0.383110184865687,-0.2000572147122237,-0.0896993368070142,10.675650235677494,-1.2950499883010236,0.1137283359375673,-1.0809551433801954
1.3,-2.195531248231092,1.8167715300913867,2.307594141880529,0.038919166648031,0.1902485694653023,0.0111123429682387,0.5109913363065238,-0.8763553085472452,-0.7907067394936822,-2.2046870292599507,1.8292343480138964,2.316202969801563,0.5478416079176069,-1.0432250040914328,-1.00217103017429,0.5283411116351443,0.3979021798177162,-0.1484949030405358,-0.3142728898762215,10.315930696543546,-1.291448278712623,0.1140804322881133,-1.0854422718481955
1.32,-2.1852188688020315,1.7992198632746013,2.2916758900181096,0.0394692957435634,0.1932339299565414,0.0111046542266746,0.519888161060934,-0.8787667127322912,-0.8009546595446704,-2.1937301971015986,1.808369847932068,2.296159549198077,0.5646597528350951,-1.0832250046874792,-1.0421710307703362,0.6891810832897797,0.4448412377205113,-0.120570209252302,-0.512396002549409,10.054230129773714,-1.2873946005268722,0.1132685150921247,-1.0893845079648952
1.34,-2.174720147983765,1.7816242082309457,2.2755333638783184,0.0415627774278778,0.1959529381820333,0.0112078490600402,0.5295729467597028,-0.8809137924629142,-0.8127801415618306,-2.1827733649432464,1.7875053478502392,2.2761161285945914,0.5814778977525832,-1.1232250052835258,-1.0821710313663828,0.7717626745621166,0.4842392849384369,-0.1073539865311501,-0.5912741008580136,9.852758893183818,-1.283434396866011,0.1110797054211763,-1.092065326263192
1.36,-2.164557334319546,1.7648497443441524,2.25997027255536,0.0446240595093117,0.1979970044980569,0.0113708291749053,0.5396806104850779,-0.8850096949686606,-0.8248562913540761,-2.171396079161957,1.7656408477535093,2.2550727079762045,0.5982960426700712,-1.163225005879572,-1.1221710319624292,0.8135949193649635,0.5053831862687541,-0.2047951252873159,-0.6038074896122736,9.78903503257152,-1.2795554245960652,0.1076228636740153,-1.0944210146136242
1.38,-2.1536474339873,1.7470865368129014,2.243330560938766,0.0479221333819591,0.1993591018325601,0.0115225120645606,0.5507348946968075,-0.8911390128636874,-0.8385131576254873,-2.1595983397577303,1.7427763476418785,2.2330292873429167,0.6151141875875593,-1.2032250064756185,-1.1621710325584755,0.9304242764018976,0.5527142105864802,-0.3064658947513399,-0.682843313570558,9.752035923681431,-1.2772858579975157,0.104119076615566,-1.0953846848258917
1.4,-2.1425140974711483,1.729188367215096,2.2264082990493894,0.0508387724038738,0.1998072186820985,0.0116101732764855,0.561968732694848,-0.8983356659386347,-0.8530485071325606,-2.1261106892524597,1.702529586169717,2.201404903057492,0.5973427280524727,-0.9911390143538036,-0.9385131591156034,0.986492925646386,0.5616918999020282,-0.3598326537473661,-0.7267674753536679,9.66225211476467,-1.276109824861006,0.1010030004410608,-1.0948758900571305
1.42,-2.131097550953791,1.7110649525895514,2.2095649204585666,0.0514289238089952,0.1999159334149812,0.0115231056003465,0.5791650953109307,-0.9127264148033178,-0.8305302508107865,-2.1261106892524597,1.702529586169717,2.201404903057492,0.5973427280524727,-0.9911390143538036,-0.9385131591156034,1.5889307787654796,0.8598181308041353,-0.7195374432341584,1.1259128160887089,9.66225211476467,-1.270168221541754,0.1000813558118525,-1.0792178697661643
1.44,-2.119936446318427,1.6936097509930113,2.1939421786586157,0.0494624578383455,0.2000293809573257,0.0112727303430413,0.594778660671373,-0.9237432293983132,-0.8151800142079959,-2.1261106892524597,1.702529586169717,2.201404903057492,0.5973427280524727,-0.9911390143538036,-0.9385131591156034,1.2255441555151714,0.7806782680221114,-0.5508407297497742,0.7675118301395278,12.002983137314004,-1.2728741068695062,0.1019741285369717,-1.083760915998096
1.46,-2.1078779253506115,1.6750382164946167,2.1777357516285245,0.045886403990445,0.1997824245793643,0.0108994084670442,0.6101280039562018,-0.932359541333864,-0.8065776026697036,-2.1201372619719345,1.6926181960261788,2.1920197714663354,0.6066642947236057,-1.0111390146518269,-0.9585131594136266,0.9795976915555392,0.7674671642414421,-0.4308155967775284,0.4301205769146166,11.43045296096534,-1.276300876087208,0.1054673466147931,-1.0869339302905765
1.48,-2.0955250786562942,1.6563279925472607,2.161627645240942,0.0421061097836692,0.1988639382059788,0.0104993720370201,0.6242820683378908,-0.9381642590442012,-0.8049243524799976,-2.108190407410885,1.6727954157391027,2.1732495082840235,0.6253074280658718,-1.0511390152478732,-0.998513160009673,0.7693593477814236,0.707703219084449,-0.2902358855168652,0.0826625094852984,10.937990822957545,-1.279256016537971,0.1089665025876668,-1.0880497551348294
1.5,-2.0829015428102293,1.6375207503412037,2.145485273096792,0.038755692225496,0.1969992013583066,0.0101112549336902,0.6372794846859966,-0.9423555466939472,-0.8093460358581576,-2.0962435528498355,1.6529726354520269,2.154479245101712,0.6439505614081379,-1.0911390158439196,-1.0385131606057194,0.7177238462417459,0.6498708174052903,-0.2095643824873039,-0.2210841689079978,10.527017536946914,-1.2824795447537922,0.112228711878229,-1.0866418421743012
1.52,-2.0706792741986217,1.6195866761980418,2.1300238628548964,0.0361689610388032,0.1941560437053218,0.0097646371336385,0.6485319438735843,-0.945369456942622,-0.8179186598941507,-2.083364541621673,1.6311498551351482,2.133708981889597,0.662593694750404,-1.131139016439966,-1.0785131612017658,0.7231724822230841,0.562622959379383,-0.1506955124337294,-0.4286312017996563,10.197295187723284,-1.28618496675545,0.1148364904545881,-1.0827162757701811
1.54,-2.0575946822309588,1.6006537768014275,2.113548864219568,0.0341612310293799,0.1899423266852336,0.0094291136965456,0.6591875565099015,-0.9478922753097236,-0.8292030252982276,-2.07048553039351,1.60932707481827,2.1129387186774826,0.68123682809267,-1.1711390170360123,-1.1185131617978123,0.7861990774310239,0.5327806318158601,-0.1261409183550832,-0.5642182702038478,9.9349658518895,-1.2907282253760954,0.1167000571703625,-1.0762158676679303
1.56,-2.0443109030159707,1.5816660019223268,2.0968282085255474,0.0326374932752623,0.1844773646835631,0.0091075515119386,0.668337306128898,-0.95074306529476,-0.8423268019787291,-2.0571404408317906,1.5865042944864904,2.0911684554504677,0.6998799614349361,-1.211139017632059,-1.1585131623938587,0.812524516535939,0.4574874809498253,-0.1425394992518203,-0.6561888340250732,9.688128879835858,-1.2964389879481466,0.1180859059871872,-1.0676378248359335
1.58,-2.0308694327134837,1.56262241396764,2.0798247774977723,0.0313422576734013,0.1781332761661747,0.0087957406542156,0.6750900569042713,-0.953441520262633,-0.8573029893581015,-2.0433292729365142,1.5626815141398096,2.0683981922085506,0.7185230947772022,-1.2511390182281052,-1.198513162989905,0.8324173993106082,0.3376375387686647,-0.134922748393651,-0.748809368968617,9.57456072934474,-1.3025645384409963,0.119194115066875,-1.058473159969878
1.6,-2.0179977340155157,1.5444834695558498,2.06337682178352,0.0302840746765014,0.1717366221261822,0.0085202409873036,0.6792999070596986,-0.9557590625947978,-0.8732713486227203,-1.9971149298682696,1.5149503379545084,2.036959628029867,0.7163343812009841,-1.053441521752749,-0.9188222955111603,0.8337900491077848,0.2104925077713648,-0.1158771166082428,-0.7984179632309407,9.57456072934474,-1.3091179328266394,0.1201804253883163,-1.0483189172518457
1.62,-2.0043053918898246,1.5253032176935293,2.0461765777662886,0.0284426264666235,0.1650237057496514,0.0082028732163258,0.6898813851772304,-0.9618191902645772,-0.8435513505790261,-1.9971149298682696,1.5149503379545084,2.036959628029867,0.7163343812009841,-1.053441521752749,-0.9188222955111603,1.6062153577922045,0.5290739058765925,-0.3030063834889629,1.4859999021847092,12.561343841891356,-1.307520394011838,0.1213060470551802,-1.0214596061191503
1.64,-1.9904181290527512,1.506028147657895,2.02958264962359,0.0258602574028778,0.1585374468423268,0.0078728950350853,0.6980662546020858,-0.965258528063188,-0.8175594949280339,-1.9971149298682696,1.5149503379545084,2.036959628029867,0.7163343812009841,-1.053441521752749,-0.9188222955111603,1.3733150514147332,0.4092434712427706,-0.1719668899305526,1.299592782549608,11.913570723079827,-1.3186579914660708,0.1238916232322022,-1.0195499238178176
1.66,-1.977103747946327,1.4876743197831883,2.014214649698844,0.023682745584936,0.152609786985797,0.0076160669575206,0.7028866841654899,-0.9666854762357396,-0.8013864709766153,-1.98995158605626,1.5044159227369809,2.0277714050747555,0.7245832460603268,-1.0734415220507725,-0.9311261567417722,0.8468167245573996,0.2410214781702058,-0.0713474086275811,0.808651197570931,11.913570723079827,-1.3290845573350754,0.1263333435122919,-1.0170694443051431
1.68,-1.9630183820215552,1.468337333927215,1.9983000643443856,0.0221242408237932,0.1467247999895299,0.0074330354099531,0.7051893323856746,-0.9670465071853368,-0.7912112007985167,-1.97562489843224,1.483347092301926,2.0093949591645326,0.7410809757790119,-1.1134415226468188,-0.955733879202996,0.5219402632720278,0.1151324110092333,-0.0180515474798581,0.5087635089049303,11.331371787339776,-1.3376420925542272,0.1280092884868931,-1.0124475858448672
1.7,-1.9489165631588716,1.449004111689753,1.9825191763141796,0.0216936212426812,0.1414465615135594,0.0073620248233518,0.7047499673915127,-0.9664561974883604,-0.7873381538616809,-1.9612982108082209,1.462278261866871,1.9910185132543088,0.757578705497697,-1.1534415232428652,-0.9803416016642196,0.1971167148631243,-0.021968249708093,0.0295154848488188,0.1936523468417883,10.538674381999044,-1.3443257960512378,0.1286092599020905,-1.0075651207265646
1.72,-1.9355517988764133,1.4306554737760662,1.967555305067173,0.0226738667018018,0.1373514137047225,0.0074204245362565,0.7020040283887194,-0.9652321405366736,-0.7879779926523728,-1.9461466366982667,1.439209431402014,1.9714116812210247,0.7740764352163821,-1.1934415238389116,-1.004949324125443,0.1536871018181768,-0.1372969501396648,0.0612028475843406,-0.0319919395345924,10.538674381999044,-1.3496788097122323,0.1279011922816583,-1.0028157749043332
1.74,-1.9215588717352765,1.4113674820516808,1.9517749338319277,0.0255078056595316,0.13448712284029,0.007640701582508,0.6973303409641166,-0.9640248008750532,-0.7900768404716554,-1.9309950625883128,1.4161406009371564,1.9518048491877404,0.7905741649350674,-1.233441524434958,-1.0295570465866666,0.2631833266466555,-0.2336843712301417,0.0603669830810282,-0.10494239096413,10.276816431206498,-1.3527128439817238,0.1254942811978869,-0.9991948661913798
1.76,-1.9076696476671968,1.3920715187161203,1.9359434664531676,0.0294309949329959,0.1334846026882578,0.0079809967057728,0.6919868384945204,-0.9658641035641125,-0.7930031222632311,-1.9154310452353915,1.392071770457398,1.9315828240929251,0.8070718946537525,-1.2734415250310045,-1.0541647690478904,0.318194822979058,-0.2671751234798125,-0.0919651344529648,-0.1463140895787862,10.15269022153825,-1.3529460198089347,0.1220712562915828,-0.9984186846302364
1.78,-1.8938788648040257,1.3727165250183264,1.9200463625129656,0.033315772970319,0.1340022029650011,0.0083641095863633,0.6875274250003829,-0.969566050145909,-0.7965662392656275,-1.8994545846395037,1.3670029399627384,1.91074560593658,0.8235696243724376,-1.3134415256270509,-1.078772491509114,0.3401712068170128,-0.2229706747068738,-0.1850973290898283,-0.178155850119821,10.15269022153825,-1.3515300687735676,0.1188389125838512,-0.9994697718185688
1.8,-1.88085055236084,1.3542491780930237,1.9048725681289769,0.0366138562392923,0.1353587108096532,0.0087345051317706,0.6842080420105691,-0.974127461113106,-0.8005014110312397,-1.8595024935540063,1.324238222511031,1.880218050549684,0.7336177335772052,-1.0695660516360253,-0.8133610679636666,0.3439125988881574,-0.1659691494906912,-0.2280705483598544,-0.19675858828061,10.121157618228608,-1.3491045376590347,0.115800153509227,-1.0015829869473158
1.82,-1.8671306236027985,1.3346295137973574,1.8891895802377816,0.0374542319411728,0.1369570456965197,0.008954076883928,0.6882809408316678,-0.986945632422498,-0.7656212336668877,-1.8595024935540063,1.324238222511031,1.880218050549684,0.7336177335772052,-1.0695660516360253,-0.8133610679636666,1.8691714698580235,0.2036449410549368,-0.6409085654696001,1.7440088682176005,10.091746820817209,-1.3376224537295978,0.1146807248032649,-0.9904061935335428
1.84,-1.85331754256488,1.3147792412417116,1.874234565577186,0.0347278886703329,0.1381497752629791,0.0089176889067733,0.6927357527471861,-0.9970024509212536,-0.7321229111430203,-1.8595024935540063,1.324238222511031,1.880218050549684,0.7336177335772052,-1.0695660516360253,-0.8133610679636666,1.7628971605234067,0.2227405957759165,-0.5028409249377697,1.674916126193371,12.818362598512069,-1.3408024719888767,0.1175135917754699,-0.9986841880344668
1.86,-1.839424176310973,1.2947764982774277,1.859871224481956,0.0303580512487986,0.1388491251340089,0.008759974477456,0.6963290008397104,-1.002433695350575,-0.7058522557286682,-1.8521663162182345,1.3135425619946708,1.872084439870048,0.7428357952925696,-1.0895660519340484,-0.8167200337032744,1.3532896805609422,0.1796624046262129,-0.2715622214660762,1.313532770717607,12.37610155265429,-1.3444567875028384,0.1216706208758259,-1.0052250415188306
1.88,-1.8261680274138887,1.2757062885405723,1.846655117056368,0.0263161056785972,0.1390882786272353,0.0086171460595798,0.6988335712511168,-1.0047519407921557,-0.6866204458775993,-1.8374939615466903,1.2921512409619502,1.8558172185107744,0.7612719187232986,-1.129566052530095,-0.82343796518249,0.9766135942899468,0.1252285205703196,-0.1159122720790328,0.9615904925534436,11.910422329259744,-1.3477124677900787,0.1259664619020074,-1.010020949629417
1.9,-1.812172258007168,1.2556029284666184,1.833091812382656,0.0228083552450832,0.1390035985006385,0.0085243595686468,0.7005481168343786,-1.0055760175973003,-0.6709256411775171,-1.8228216068751464,1.2707599199292297,1.8395499971515008,0.7797080421540274,-1.1695660531261414,-0.8301558966617056,0.7904834971578831,0.0857272791630892,-0.0412038402572312,0.784740235004111,11.528619501190406,-1.3504690056257986,0.129569367623802,-1.0134282351972743
1.92,-1.7981518830010783,1.2354945324338826,1.819795527685476,0.0202977023661327,0.1387030267122071,0.0085104697600888,0.7013779246608361,-1.0054808741149537,-0.6594732945528993,-1.8072274460320656,1.2473685988667067,1.8229468792182664,0.7981441655847563,-1.2095660537221875,-0.8368738281409213,0.5741382162020704,0.0414903913228792,0.0047571741173313,0.5726173312308902,11.001777727322406,-1.3528538811553985,0.1322623617855099,-1.0158992288519355
1.94,-1.7841203317934125,1.215394955430305,1.8067114687948744,0.0188246149978065,0.1382984828032571,0.0085795254403551,0.7017169545823145,-1.004711612277888,-0.6495038051767634,-1.7916332851889851,1.223977277804184,1.8063437612850328,0.8165802890154853,-1.2495660543182343,-0.8435917596201369,0.5002434994143068,0.0169514960739192,0.0384630918532802,0.4984744688067921,11.001777727322406,-1.35478281558777,0.1339338450512436,-1.017516185356708
1.96,-1.770785478108467,1.196311336340583,1.7944564777029384,0.018264472955497,0.1378260415867089,0.0087117630686737,0.7019018399653101,-1.004190453283638,-0.6409928369349965,-1.7755782212601363,1.19958595672676,1.789572695064818,0.8350164124462142,-1.289566054914281,-0.8503096910993525,0.4264456873814586,0.0092442691497773,0.0260579497125101,0.4255484120883446,10.92310226965128,-1.356418517935161,0.1348694841404596,-1.0188731603988923
1.98,-1.7567474126554656,1.176234291260615,1.7817229446625615,0.0184440263076625,0.1371959686520975,0.0089104114106339,0.7018552859096922,-1.003588851032634,-0.6328445481132978,-1.7590622542455194,1.1741946356344348,1.772633680557623,0.8534525358769431,-1.329566055510327,-0.8570276225785681,0.4085299966658737,-0.0023277027808965,0.0300801125501903,0.4074144410849356,10.866289426407093,-1.3580662649307649,0.135083471099171,-1.0198571452922274
2.0,-1.7427133377447,1.1561680043559377,1.76914271276115,0.0194086015068847,0.1364230068056078,0.009167249765246,0.7015102843087894,-1.003129866312787,-0.6256240396314235,-1.721654648359981,1.1260548487089832,1.7500807172568966,0.7528614912896551,-1.1035888525227502,-0.6436781141903514,0.3621651412494615,-0.0172500800451391,0.0229492359923533,0.3610254240937138,10.763417048153316,-1.3597532054428068,0.134578347324967,-1.0205796606358175
2.02,-1.7286598263341093,1.136051416227705,1.7569197785604405,0.0194482529990596,0.1355820662332841,0.0093634830905472,0.703812853173266,-1.0079374110763724,-0.5970287899202528,-1.721654648359981,1.1260548487089832,1.7500807172568966,0.7528614912896551,-1.1035888525227502,-0.6436781141903514,1.454392154882708,0.115128443223833,-0.2403772381792679,1.429762485558539,10.763417048153316,-1.3579241167910705,0.1346014094517174,-1.0167855214846393
2.04,-1.7152732059846332,1.1168774389779548,1.7458156647523546,0.0182042241762977,0.1348115581867592,0.0094695048506602,0.7051581217477882,-1.0101154981591125,-0.5733183072167477,-1.721654648359981,1.1260548487089832,1.7500807172568966,0.7528614912896551,-1.1035888525227502,-0.6436781141903514,1.1924143584664784,0.0672634287261109,-0.1089043541370071,1.1855241351752532,12.183930042563588,-1.3626996327863043,0.1364264987629146,-1.0218806022607765
2.06,-1.7011644745712335,1.096668726533383,1.7345700890100415,0.016613552586436,0.1340903184136418,0.0095737901518774,0.7055979790797791,-1.010657745834647,-0.552683141756503,-1.7141260334470845,1.1150189601837557,1.7436439361149931,0.7630627323656477,-1.1235888528207734,-0.6458448274057621,1.0323487305482146,0.0219928665995405,-0.0271123837767284,1.0317582730122343,11.854571542650774,-1.3668670826223703,0.1385153352044237,-1.026104472822138
2.08,-1.6870570872912365,1.0764658667341171,1.7236904095601784,0.0154801255387077,0.1335347924609183,0.0097230609668268,0.7051280494284266,-1.009757623982305,-0.5363037550901971,-1.6990688036212915,1.0929471831333006,1.730770373831186,0.7834652145176328,-1.16358885341682,-0.6501782538365835,0.8205415297086482,-0.0234964825676253,0.0450060926171058,0.8189693333152948,11.322266298260727,-1.3699594967939324,0.1401387645780169,-1.0295570885202423
2.1,-1.6736703263906585,1.0573009664904836,1.7136278676447287,0.0153565074762147,0.1332150036005559,0.0099421347746213,0.7040493572040611,-1.007842174688976,-0.5237293391242274,-1.6840115737954984,1.0708754060828456,1.7178968115473792,0.803867696669618,-1.2035888540128663,-0.6545116802674049,0.6382563352514732,-0.0539346112182703,0.0957724646664548,0.6287207982984877,11.322266298260727,-1.371712664855906,0.1407383601706761,-1.032130054367021
2.12,-1.6596057836364315,1.0371735770933104,1.7032716543039872,0.0167260451985371,0.1331465623884625,0.0102863862967713,0.7024724047853461,-1.0051797959305104,-0.5126523004334873,-1.667934219862106,1.0468036290025884,1.7048065779420312,0.8242701788216031,-1.2435888546089129,-0.6588451066982264,0.5750561401736601,-0.0788476209357513,0.1331189379232711,0.553851934537003,11.13478996538015,-1.3729124915789013,0.13995254399109,-1.0348249615753125
2.14,-1.6455743710128006,1.017097363184408,1.6931260132268238,0.0199338675931721,0.1333730521488664,0.0107654923826566,0.7007824479953032,-1.003119858286061,-0.5025025590434024,-1.6518568659287136,1.022731851922331,1.691716344336683,0.8446726609735884,-1.2835888552049592,-0.6631785331290477,0.5246821593518207,-0.0844978395021456,0.1029968822224725,0.5074870695042477,11.003824458566667,-1.3733988040534415,0.1375770840032929,-1.0376247012074753
2.16,-1.6322726785236248,0.9980309888772936,1.68367109554329,0.0237564335410825,0.1337667064588334,0.0112776250534407,0.6995007319924528,-1.004117062875301,-0.4932651122286481,-1.6352694499415217,0.9976600748271726,1.6785177750705644,0.8650751431255735,-1.3235888558010056,-0.6675119595598692,0.4689553191941023,-0.0640858001425215,-0.0498602294619843,0.4618723407377123,10.958537703908403,-1.373383452705715,0.1342483383039246,-1.0406760891016162
2.18,-1.618294130501181,0.9779207576302852,1.673905755290364,0.0276359227764932,0.1342111584557707,0.0118060107256347,0.6984343324642449,-1.0068924597713012,-0.4837679624234604,-1.61817197190053,0.971588297717113,1.6652108701436752,0.8854776252775587,-1.363588856397052,-0.6718453859906905,0.4975838881692899,-0.0533199764103931,-0.138769844800024,0.4748574902593838,10.934302743826263,-1.373302289538365,0.1310208759152936,-1.043445625245513
2.2,-1.6043345451327955,0.9577415560163216,1.6643264767564327,0.0310149065459426,0.1345775869696907,0.0122954592370051,0.6975762522079779,-1.0108505139551442,-0.474652481153394,-1.583372413877969,0.92757613464172,1.649717357169191,0.7669817303161889,-1.1068924612614173,-0.4894802592371868,0.4987346324283193,-0.0429040128133495,-0.1979027091921548,0.4557740635033197,10.915801835943968,-1.3732744700859685,0.1282410294386549,-1.0458759225433754
2.22,-1.5903819852534236,0.9373991467144692,1.655086528023171,0.0314945447933766,0.1352615349808549,0.0125920769376571,0.6978901512453423,-1.0224504700428938,-0.4489494368687594,-1.583372413877969,0.92757613464172,1.649717357169191,0.7669817303161889,-1.1068924612614173,-0.4894802592371868,1.4100567358631917,0.015694951868217,-0.5799978043874776,1.28515221423173,10.915801835943968,-1.370538338084448,0.1279262386171561,-1.0441943071959416
2.24,-1.5771192655920014,0.9178920955181644,1.646784727533732,0.0285019925436691,0.1365633977182075,0.0126564214261805,0.6982641499145821,-1.029852074980686,-0.4263005554800291,-1.583372413877969,0.92757613464172,1.649717357169191,0.7669817303161889,-1.1068924612614173,-0.4894802592371868,1.1915278624737615,0.0186999334619908,-0.3700802468896036,1.1324440694365168,12.104352581393869,-1.3714887253095671,0.1313617683694051,-1.0507020792400967
2.26,-1.5631504013237274,0.8972597726986694,1.6384723705606263,0.024166946961832,0.1384251147135301,0.0126577345105321,0.698676181098382,-1.0327978957670445,-0.4063131365327067,-1.575702596574807,0.9165072100291058,1.6448225545768191,0.7806912098865777,-1.1268924615594405,-0.4906227185999321,1.0103768430362348,0.0206015591899977,-0.1472910393179316,0.9993709473661184,11.836134828200557,-1.371721606430106,0.1360309637083181,-1.0571575861224338
2.28,-1.5491728853610076,0.8766017604039327,1.6305157082965038,0.0203250785972952,0.1406345184722955,0.0127027223384339,0.6991664597572376,-1.0330462818158594,-0.3903564213645767,-1.5603629619684831,0.8943693608038775,1.6350329493920754,0.8081101690273552,-1.166892462155487,-0.4929076373254227,0.7983088809311281,0.0245139329427768,-0.012419302440747,0.7978357584064982,11.573725167498196,-1.3712377966949576,0.1402613673095822,-1.0634462146521897
2.3000000000000003,-1.5351827240135634,0.855954195793513,1.622846344081395,0.0175111844488301,0.1430499408682208,0.0128241199206259,0.699925794719362,-1.0319959391514544,-0.3773938286640373,-1.5450233273621596,0.8722315115786492,1.6252433442073315,0.8355291281681329,-1.2068924627515334,-0.4951925560509133,0.6513613029982914,0.0379667481062218,0.0525171332202534,0.6481296350269727,11.340115939865427,-1.3703462118985723,0.1433862975111391,-1.0691847984785348
2.32,-1.5218743640949868,0.8363661565142936,1.6157792179350283,0.0159369393661006,0.1454299146282246,0.0130186415290419,0.7009948096257317,-1.0302255522295567,-0.367175759859313,-1.528312744798797,0.8480936623236185,1.6153394930863134,0.8629480873089105,-1.2468924633475795,-0.4974774747764038,0.5212628723143129,0.053450745318484,0.0885193460948841,0.5109034402362156,11.166255698519308,-1.3688778685199892,0.1455703790387312,-1.0749841158774311
2.34,-1.5078380638455022,0.8157900514257723,1.608541285836061,0.0156398385708784,0.1479398071933927,0.0133204708496596,0.702652989478738,-1.027626398314682,-0.3571961898959851,-1.5116021622354343,0.8239558130685878,1.605435641965295,0.890367046449688,-1.2868924639436263,-0.4997623935018944,0.5222474943718716,0.0829089926503157,0.129957695743732,0.4989784981663914,11.042155528385592,-1.3671712276810015,0.1463969003264002,-1.080603800862429
2.36,-1.4937583782927828,0.7952623706718878,1.6014964383741075,0.0168218709752833,0.150255051179365,0.0137256715724199,0.7052590477976051,-1.025426548684952,-0.3477989141279377,-1.4942061056935525,0.798817963798656,1.5954746678761396,0.9177860055904656,-1.3268924645396727,-0.502047312227385,0.4998491527838472,0.1303029159433533,0.1099924814865094,0.4698637884023721,10.982068065422029,-1.3654850206633748,0.1458295492352409,-1.0860204005706109
2.38,-1.4803267974284755,0.7757955368088686,1.5949749486978624,0.0191158653250399,0.1520409442432215,0.0141883451279918,0.7084480779748903,-1.0239615178842378,-0.3391514132192592,-1.4761245751731509,0.772680114513823,1.5854565708188468,0.9452049647312432,-1.366892465135719,-0.5043322309528756,0.4666248511499173,0.1594515088642611,0.0732515400357014,0.4323750454339276,10.982068065422029,-1.3640625605693764,0.144001197339615,-1.0911421660677316
2.4,-1.4661179882379936,0.7553152185715191,1.5882858044565338,0.0222698583891918,0.1533635095174926,0.0147177771910865,0.7122533936614377,-1.0243770158370538,-0.3302314006679195,-1.4449043935297312,0.7245974609146567,1.5780173780368991,0.7724488260727869,-1.120263088418944,-0.3300025109594921,0.4853341373196776,0.1902657843273703,-0.0207748976407962,0.4460006275669809,10.972242410040964,-1.363113458026185,0.1413789372267697,-1.095341054426016
2.42,-1.4517547000673738,0.734734856280903,1.5819319678300454,0.023109973142863,0.1525507657420236,0.0150364757548005,0.7240307894666932,-1.0329160674508138,-0.3047321975813994,-1.4449043935297312,0.7245974609146567,1.5780173780368991,0.7724488260727869,-1.120263088418944,-0.3300025109594921,1.4678486063485083,0.5888697902627749,-0.4269525806880003,1.2749601543260047,10.96905176700966,-1.3581172681897156,0.1405101135997435,-1.0947854238848036
2.44,-1.4378924771022883,0.715055587593271,1.5763803447588811,0.0208344093805783,0.1482357971540245,0.0150506164064406,0.7341168244611673,-1.0379446851564382,-0.2811082450295855,-1.4449043935297312,0.7245974609146567,1.5780173780368991,0.7724488260727869,-1.120263088418944,-0.3300025109594921,1.308726701902877,0.5043017497237068,-0.251430885281223,1.1811976275906966,12.17776942627279,-1.366604285151154,0.143506471229849,-1.0919179309160592
2.46,-1.4231405815772098,0.694278417376497,1.5709843975534932,0.01716654538373,0.1410696644010492,0.0149499714760104,0.7400267934887531,-1.0392415747415709,-0.2598525951079699,-1.4371799052690033,0.7133948300304672,1.5747173529273044,0.7852489756923662,-1.1395234025258851,-0.3281727305075387,1.105002613224657,0.2954984513792891,-0.0648444792566316,1.062782496080783,11.969989736387106,-1.3789240033580077,0.1478859584747491,-1.0850757185771869
2.48,-1.4083241284278516,0.6735080789215003,1.565971885617736,0.013911703593435,0.1328485533243305,0.0148981067322321,0.7409649289302648,-1.0378642330865957,-0.2426158064021076,-1.4217309287475477,0.6909895682620883,1.5681173027081146,0.8108492749315248,-1.1780440307397675,-0.3245131696036319,0.8658580325776413,0.0469067720755833,0.0688670827487691,0.8618394352931102,11.70027944384401,-1.3910934338084486,0.1517767057101323,-1.0763990737186937
2.5,-1.393537275420576,0.6527804273260216,1.561262455825518,0.011731492172894,0.124920122522145,0.0149566337227452,0.7375455631046122,-1.035317425197368,-0.2291601832267715,-1.406281952226092,0.6685843064937095,1.5615172524889247,0.8364495741706834,-1.21656465895365,-0.320853608699725,0.7057479863784859,-0.1709682912826304,0.1273403944613726,0.6727811587668067,11.426006567189688,-1.401357014668535,0.1544269491555046,-1.0677621658467145
2.52,-1.3795879309362231,0.6331437049987352,1.5570113285736455,0.0108437327561084,0.1185711824246874,0.0151253782904978,0.730922870763661,-1.0320690117799425,-0.2189897476554516,-1.3895529607426782,0.6442530133146365,1.5551001803149302,0.8620498734098421,-1.2550852871675324,-0.3171940477958182,0.6281918562106895,-0.3311346170475571,0.1624206708712772,0.5085217785659957,11.198008643162211,-1.410512160910086,0.1560091762606679,-1.0598514007295492
2.54,-1.3650703887214115,0.6125468161975434,1.5527339026206526,0.0115446471215167,0.1140197929212369,0.0154437778272564,0.7210211316977037,-1.0279770771119123,-0.2093299018613779,-1.3728239692592643,0.6199217201355635,1.5486831081409358,0.8876501726490007,-1.293605915381415,-0.3135344868919114,0.7212852879114756,-0.4950869532978685,0.2045967334015075,0.4829922897036834,11.031746555633616,-1.4169632562135834,0.1559623688185335,-1.0545169475595393
2.56,-1.350772562703638,0.5920237702259525,1.5486429248406928,0.0139935433236212,0.1125132334268607,0.0159134410151617,0.7094899914961869,-1.0247012811326466,-0.2002816814768379,-1.355454970294872,0.5946274112511435,1.542357524989539,0.9132504718881592,-1.3321265435952974,-0.3098749259880046,0.7509466122368766,-0.5765570100758399,0.1637897989632875,0.4524110192270031,10.97892457524722,-1.4193550066339713,0.1542215243765784,-1.0548241024198122
2.58,-1.3366949354788225,0.5715426412775182,1.5447323290278283,0.0175119457688314,0.1138336571805742,0.0164924680818483,0.6992064726909529,-1.0238692645865597,-0.1912468556401007,-1.3374459638495002,0.5683700866613763,1.5361234308607397,0.938850771127318,-1.3706471718091795,-0.3062153650840978,0.6856950642427265,-0.5141759402616963,0.0416008273043444,0.451741291836856,10.941458264482208,-1.4182984349245706,0.1515613957034782,-1.0593011088406454
2.6,-1.3234925223414378,0.5520788979485277,1.541188285621298,0.0208250049687302,0.1168723056812441,0.0170736537936451,0.691285586548243,-1.0249692032615332,-0.1822778495057136,-1.3017346118442747,0.5203491780481903,1.5351699862458232,0.78444733595456,-1.055875718309275,-0.1739654071715348,0.6008189690188501,-0.3960443071354957,-0.0549969337486744,0.4484503067193543,10.939313754431168,-1.4151651117371271,0.1487403745801253,-1.066287280440488
2.62,-1.3097304188598131,0.5312927272226466,1.5377423374893011,0.0154470905036323,0.1215686202437639,0.0170964356942917,0.6856427560326992,-1.0495826400831163,-0.162118409806235,-1.3017346118442747,0.5203491780481903,1.5351699862458232,0.78444733595456,-1.055875718309275,-0.1739654071715348,1.6156003662680185,-0.2821415257771908,-1.2306718410791673,1.0079719849739308,10.96630599085347,-1.4053717629962474,0.1540277217913122,-1.0695070847652275
2.64,-1.2960615534057414,0.5102262464200373,1.534710062655108,0.0010234391970516,0.1275022761155257,0.016461588684114,0.6817728784305196,-1.054390079863838,-0.1422779283522959,-1.3017346118442747,0.5203491780481903,1.5351699862458232,0.78444733595456,-1.055875718309275,-0.1739654071715348,1.03890824212875,-0.1934938801089802,-0.2403719890360811,0.9920240726969578,11.58543993978492,-1.4027977536241691,0.1688255942434385,-1.07910362529689
2.66,-1.2824530507229877,0.4891950850932814,1.5320351279018676,-0.0145100044746195,0.1340449744323715,0.0156736176309435,0.6794929107780963,-1.0481990608909073,-0.1264324989057679,-1.2938901384847292,0.5097904208650975,1.5334303321741078,0.8014955086072814,-1.062277009053818,-0.1705091174778216,0.8582024859614749,-0.1139983826211665,0.309550948646542,0.7922714723263987,11.58543993978492,-1.398314382877015,0.184927297210115,-1.0912325464488812
