t,x,y,z,roll,pitch,yaw,v_x,v_y,v_z,ref_x,ref_y,ref_z,ref_v_x,ref_v_y,ref_v_z,a_com,a_x,a_y,a_z,thrust,wind_x,wind_y,wind_z
0.0,-1.2709546271485108,-0.357179812123037,1.811323491333084,0.0218662030785213,0.1500749461085167,0.0287194120256696,0.0024991404546786,-0.006896894340271,-0.0008407484560453,-1.2708814945755904,-0.3573084877119942,1.8112963905048944,0.102394379288749,0.0857936875741066,-0.1008671860474186,0.3691873254846951,0.1249570227339343,-0.3448447170135515,-0.0420374228022692,10.66421253556291,-1.4130888954718557,0.1694462109322594,-1.2790973522811877
0.02,-1.2709968308410355,-0.3575620956568848,1.811097821987324,0.0119655805926592,0.1521956278062999,0.0280603122890178,-0.0066559448662557,-0.0269223787149502,-0.022668461330199,-1.2708814945755904,-0.3573084877119942,1.8112963905048944,0.102394379288749,0.0857936875741066,-0.1008671860474186,1.5502295483174424,-0.45775426604672,-1.0012742187339592,-1.0913856437076812,10.664271214799555,-1.4083054911439812,0.180586844837511,-1.2690918159627185
0.04,-1.271213000944076,-0.3581204120871592,1.8103337706271785,-0.00455884770296,0.1576866281452092,0.0269433824509486,-0.0140942124118702,-0.0270895837543676,-0.0528646193135891,-1.2708814945755904,-0.3573084877119942,1.8112963905048944,0.102394379288749,0.0857936875741066,-0.1008671860474186,1.5549628119051633,-0.3719133772807262,-0.0083602519708715,-1.5098078991695068,8.930037310606167,-1.3974723980448311,0.1992759519641254,-1.2686255405147095
0.06,-1.271542596575946,-0.3585971436810709,1.808966796361118,-0.0215224310522494,0.1647843746734294,0.0257058914060433,-0.0181834977870586,-0.0201744452741494,-0.0823250457724027,-1.269857550782703,-0.3564505508362531,1.81028771864442,0.1223943795867723,0.1039211692134918,-0.1208671863454418,1.5268088634595745,-0.2044642687594179,0.3457569240109089,-1.473021322940679,8.930037310606167,-1.3873615547690916,0.2176527383600439,-1.270048853178573
0.08,-1.2719029725896394,-0.3588835333743146,1.8071425544472728,-0.0370629825556392,0.1720926577781003,0.0244660393081829,-0.0193355575991901,-0.0100034382531758,-0.1082709546076013,-1.267809663196928,-0.354734677084771,1.808270374923472,0.1623943801828187,0.1401761324922623,-0.1608671869414883,1.3946028206230112,-0.0576029906065771,0.5085503510486832,-1.2972954417599325,9.013779761065052,-1.37659365570696,0.2363689830912249,-1.2728823257809136
0.1,-1.2722812863751205,-0.3589371706917989,1.8047062021587224,-0.0524812482944892,0.17985457815316,0.0231281639671684,-0.0182069675512098,0.0043530981940703,-0.1339600533949054,-1.265761775611153,-0.3530188033332889,1.806253031202524,0.2023943807788652,0.1764310957710327,-0.2008671875375347,1.4725094658111504,0.0564295023990153,0.7178268223623074,-1.2844549393652045,9.143371142511567,-1.3660340519179195,0.2540604538765804,-1.276497086091259
0.12,-1.2726147809022417,-0.3586538930410911,1.801772912882436,-0.0662297296999647,0.1874082357878084,0.0218319801811027,-0.0149915322254764,0.0231722243383583,-0.1580394467882999,-1.2617138879955756,-0.3494901814178682,1.8022356874517729,0.2423943813749116,0.2126860590498032,-0.2408671881335811,1.536486022847628,0.1607717662866705,0.9409563072144016,-1.203969669669723,9.370010380414897,-1.3560975699062958,0.2699304226152955,-1.2806699424039374
0.14,-1.2728653874864664,-0.3579614159096367,1.798365978368131,-0.0777701893308408,0.1946209003476905,0.0206474637597267,-0.0100527355522271,0.0447924671593698,-0.1814822678200238,-1.2576660003799984,-0.3459615595024476,1.7982183437010222,0.2823943819709581,0.2489410223285736,-0.2808671887296277,1.6135306552283364,0.2469398336624641,1.0810121410505718,-1.172141051586198,9.370010380414897,-1.347262582631443,0.2827786788228263,-1.2855448395185929
0.16,-1.2729975375394813,-0.3568772474400441,1.7946981041932315,-0.0865286676101656,0.2011113223523054,0.0196639283280676,-0.0039557103309117,0.0677544785018622,-0.2034401663397485,-1.25261811274952,-0.3415265635050576,1.7932009999353704,0.3223943825670045,0.2851959856073441,-0.3208671893256741,1.617542108296282,0.3048512610657684,1.1481005671246196,-1.097894925986234,9.42451817865549,-1.3385283474497367,0.2937603780738104,-1.2912223271136414
0.18,-1.2729972723289729,-0.3552543736837473,1.790388358292682,-0.0935187372273039,0.2075510051675397,0.0187956788877457,0.0038218310259186,0.0930080341892966,-0.2263633508684938,-1.2465702251041402,-0.3361851934256985,1.7871836561548171,0.3623943831630509,0.3214509488861145,-0.3608671899217205,1.7490744790849155,0.3888770678415209,1.2626777843717212,-1.1461592264372655,9.4714347239169,-1.3302895910945447,0.3021380726575987,-1.2971540910531796
0.2,-1.2728269786304476,-0.3531153292168209,1.785625362637195,-0.0984156264708774,0.2135926961453649,0.0181042702630626,0.0129701465448163,0.1192776033173807,-0.248750003420473,-1.272806180777677,-0.3506039719742825,1.7790701907492574,0.1038218325160347,0.1627429800825843,-0.2658596460225886,1.7853180049304436,0.4574157759448854,1.313478456404206,-1.1193326275989557,9.557475293854624,-1.3230412008328296,0.3081309696175009,-1.3029905908084405
0.22,-1.2724217198147914,-0.350234058780359,1.7805983537868657,-0.0952182874183121,0.2191932285282738,0.0180421871475903,0.027546641728452,0.1647699915518667,-0.2515285986771081,-1.272806180777677,-0.3506039719742825,1.7790701907492574,0.1038218325160347,0.1627429800825843,-0.2658596460225886,2.3925677580352582,0.7288247591817844,2.274619411724297,-0.1389297628317576,9.557475293854624,-1.3188893204877177,0.306056708366118,-1.3167054016368485
0.24,-1.2717440069650834,-0.3467895193438883,1.7758208125901158,-0.084475557318174,0.2240661018169368,0.0186225192875281,0.0431794219201311,0.1941273569477466,-0.251248170848868,-1.272806180777677,-0.3506039719742825,1.7790701907492574,0.1038218325160347,0.1627429800825843,-0.2658596460225886,1.6630674665173808,0.781639009583957,1.4678682697939969,0.0140213914120057,10.95028571165676,-1.3135876837547364,0.2939843844429672,-1.3350404900182786
0.26,-1.2707002819610125,-0.3426660972182504,1.7707897876169314,-0.0715013441771622,0.2287801235575169,0.019451831359522,0.060471842911241,0.2162079739711372,-0.2519475422300014,-1.2717679624525169,-0.3489765421734566,1.7764115942890315,0.1238218328140579,0.1766899692612418,-0.2737589050534075,1.40273892100078,0.8646210495554935,1.104030851169531,-0.0349685690566703,10.895564033609844,-1.307545973317073,0.279029112161246,-1.3502693175373748
0.28,-1.269303529695119,-0.3381593839724864,1.7657296813046606,-0.0590590220009348,0.233131887356637,0.0203299867413174,0.0784251292469715,0.2332126961103356,-0.2541201958669962,-1.269691525802196,-0.3457216825718049,1.77109440136858,0.1638218334101044,0.2045839476185569,-0.2895574231150454,1.2411703036956865,0.8976643167865241,0.8502361069599187,-0.1086326818497407,10.71031147814574,-1.3020532326618863,0.2650466527670913,-1.3624719382358037
0.3,-1.2676384104008962,-0.3335984862110299,1.7608682123227886,-0.0485305923406381,0.2369772110780998,0.0211362786924979,0.0960305872874854,0.2461524222023706,-0.2575376950756194,-1.2676150891518752,-0.3424668229701533,1.765777208448128,0.2038218340061509,0.2324779259758719,-0.3053559411766833,1.105744053787005,0.8802729020256965,0.6469863046017488,-0.1708749604311582,10.639143838045127,-1.296604417193442,0.2517212522489546,-1.3731039528769464
0.32,-1.2655180881638135,-0.3285562757859555,1.7556692688859492,-0.0390055503920546,0.2407561070310901,0.0219264407043796,0.1151493461636934,0.2574636718186561,-0.2622551644650161,-1.263538652471752,-0.3378172644506358,1.7596700896245945,0.2438218346021973,0.260371904333187,-0.3211544592383212,1.1354798834506004,0.9559379438103998,0.5655624808142745,-0.2358734694698355,10.639143838045127,-1.2916524324177965,0.2402692305691018,-1.3823446362577458
0.34,-1.263007163759691,-0.3233071054418127,1.7503735085547278,-0.0310834959912261,0.2442817073384725,0.0226435951704154,0.1350664088817582,0.2670113718985852,-0.2671071502599039,-1.259462215791629,-0.3331677059311184,1.7535629708010607,0.2838218351982438,0.2882658826905021,-0.3369529772999591,1.130696389714538,0.995853135903238,0.4773850039964555,-0.2425992897443885,10.594736459253,-1.2872122212653208,0.2307551018144888,-1.3904108350515385
0.36,-1.260089394245637,-0.317876298146501,1.7449823527684558,-0.024503454953773,0.2475681168514962,0.0232960339801036,0.1557864974898814,0.2757054034887043,-0.2717964233572634,-1.2543857790966049,-0.327820797952668,1.747060889025986,0.3238218357942902,0.3161598610478172,-0.3527514953615969,1.147712441555036,1.0360044304061622,0.4347015795059583,-0.2344636548679779,10.594736459253,-1.282989842321179,0.2232122556167093,-1.3970296082403504
0.38,-1.2569265593206682,-0.312564265497298,1.7397750498283036,-0.0191800672314636,0.2504813632821362,0.0238711265345592,0.1761652050773026,0.2830986734906004,-0.2761312995451168,-1.2483093423866796,-0.3217765405152848,1.7401638442993703,0.3638218363903366,0.3440538394051322,-0.3685500134232348,1.105376989785128,1.0189353793710596,0.3696635000948023,-0.2167438093926693,10.617691180428665,-1.2788176136924614,0.2164904653984745,-1.4036554647005803
0.4,-1.2531722048149472,-0.3068293913613628,1.7342046080951832,-0.0143905948311533,0.2533421806136455,0.0244350806002324,0.1982651028260612,0.2900263312951465,-0.2807001830815917,-1.2481182990668032,-0.298409331822768,1.7259684848510477,0.2761652065674188,0.3121964484879539,-0.2876823025169448,1.1803311187251049,1.104994887437928,0.3463828902273036,-0.2284441768237444,10.636799369483924,-1.2748613081118898,0.2107774808120834,-1.4092099610930884
0.42,-1.248912321476124,-0.3008769610834882,1.728659905749713,-0.0075976926805526,0.255120318534551,0.0251623172971059,0.2267574325828789,0.3034178553721093,-0.2728622326010433,-1.2481182990668032,-0.298409331822768,1.7259684848510477,0.2761652065674188,0.3121964484879539,-0.2876823025169448,1.622173880792873,1.4246164878408851,0.6695762038481434,0.391897524027418,10.64733156105649,-1.2723905002295548,0.2027549546654753,-1.420299899363991
0.44,-1.244073623254663,-0.2947355277271381,1.723292898354706,0.0011242490130266,0.2550378806293522,0.0260335953432381,0.255519329236622,0.3096693597899838,-0.2642865042391742,-1.2481182990668032,-0.298409331822768,1.7259684848510477,0.2761652065674188,0.3121964484879539,-0.2876823025169448,1.5328658809105484,1.4380948326871548,0.312575220893721,0.4287864180934575,11.547460807154494,-1.2716435844201353,0.1924544385776644,-1.4266833757141135
0.46,-1.2389460381017736,-0.2888283770442468,1.7183411957140784,0.0090516845219718,0.253334606924148,0.0268102253328285,0.2826610621480535,0.3118403431647286,-0.2573560992787665,-1.245356647001129,-0.2952873673378884,1.7230916618258785,0.296165206865442,0.3180160034874247,-0.2899925031113104,1.404828590223863,1.3570866455715758,0.1085491687372403,0.3465202480203849,11.419051118056814,-1.2732420149987418,0.1819094376170814,-1.429934314466951
0.48,-1.2329983706593874,-0.2825916511476308,1.713261895994176,0.0163167638939516,0.2497195537986678,0.0274942173170326,0.3105219101255836,0.3117694302418207,-0.2509496144846279,-1.2398333428697803,-0.2890434383681294,1.7173380157755394,0.3361652074614884,0.3296551134863661,-0.2946129043000416,1.4294010337263698,1.393042398876504,-0.0035456461453919,0.3203242397069289,11.419051118056814,-1.278427107042437,0.1727179972358998,-1.427605522931923
0.5,-1.2265065938061144,-0.276376110994123,1.708301478960824,0.0222180933966256,0.244223194707246,0.0280003984402263,0.3368674562474247,0.3100093001477794,-0.2453218126249125,-1.2343100387384325,-0.2827995093983703,1.7115843697252004,0.3761652080575349,0.3412942234853075,-0.2992333054887728,1.3498685233923944,1.3172773060920573,-0.0880065047020678,0.2813900929857699,11.35618855485336,-1.2865416843119917,0.1656259068693694,-1.4203973392160478
0.52,-1.2198795881425568,-0.2705152558032107,1.703689316345774,0.026594043641438,0.2378276570157438,0.028320425218285,0.3591111229953154,0.3072387677045422,-0.2403828460557637,-1.2267867345772816,-0.2759736249286642,1.705599703615425,0.4161652086535813,0.3529333334842489,-0.303853706677504,1.1476606109619416,1.1121833373945316,-0.138526622161858,0.2469483284574414,11.293584901896793,-1.2969145760785956,0.1598461176358663,-1.4104893333830375
0.54,-1.212477658354027,-0.264409654519047,1.698937063020334,0.0300336566899599,0.2306889807775952,0.0285197888528502,0.3796530599694974,0.3036220045395266,-0.2350606420007639,-1.219263430416131,-0.269147740458958,1.6996150375056496,0.4561652092496278,0.3645724434831904,-0.3084741078662352,1.0763108361971168,1.0270968487090997,-0.1808381582507789,0.2661102027499876,11.234207758518096,-1.3077903839054454,0.1556416148718125,-1.399927192860609
0.56,-1.2046884163296732,-0.258380653918116,1.694289107974238,0.0324476453909926,0.2236435681479858,0.0286138902959106,0.3980365864657883,0.2996612867173464,-0.2299488643088396,-1.210740126240079,-0.2620308782392783,1.6935148613661557,0.4961652098456742,0.3762115534821318,-0.3130945090549664,0.9743864778392888,0.9191763248145468,-0.1980358911090107,0.2555888845962153,11.172585433484528,-1.317747530023009,0.1527194010159742,-1.3902291590617184
0.58,-1.1965529751259976,-0.2524340927436375,1.6897405122269462,0.0340308853083809,0.2169063086218182,0.0286330367086086,0.4144155012674531,0.2953367439511742,-0.2251229606135971,-1.201216822049126,-0.2546230382696251,1.6872991751969435,0.5361652104417206,0.3878506634810732,-0.3177149102436976,0.8807097516951923,0.8189457400832406,-0.2162271383086111,0.2412951847621275,11.172585433484528,-1.3267075374181247,0.1509289234006817,-1.3812118567373906
0.6,-1.188538689514042,-0.2468695218079417,1.6855054372934692,0.0347325100421777,0.2109522599749543,0.0285932523240484,0.4282563678379717,0.2907300560084619,-0.2208839011193646,-1.175832200062625,-0.2376672555460787,1.6784843641962663,0.5144155027575692,0.3135983591381039,-0.2648062690659649,0.7595406286369285,0.6920433285259292,-0.2303343971356147,0.2119529747116239,11.090619509810494,-1.335529306613088,0.1501111407296602,-1.3720639371371852
0.62,-1.1798651021741926,-0.2410611539740041,1.6811332363080234,0.0360741003974128,0.2061767625774222,0.0286331776092367,0.4381176996531901,0.2900143717551691,-0.2165788140312008,-1.175832200062625,-0.2376672555460787,1.6784843641962663,0.5144155027575692,0.3135983591381039,-0.2648062690659649,0.5391934809438164,0.4930665907609183,-0.0357842126646412,0.2152543544081897,11.090619509810494,-1.3432341797439329,0.1486564529160957,-1.3647767680871474
0.64,-1.1710308597408456,-0.2352946012239222,1.6768278617563803,0.0385485374307695,0.2046957060161137,0.0288552155742426,0.4450051410423631,0.2864908519032947,-0.214308696229748,-1.175832200062625,-0.2376672555460787,1.6784843641962663,0.5144155027575692,0.3135983591381039,-0.2648062690659649,0.4031298670041687,0.344372069458651,-0.1761759925937189,0.1135058900726418,11.05565040012425,-1.3451830692845943,0.1457077840810939,-1.3626721226817289
0.66,-1.1620453251646523,-0.2296198256787633,1.6725448669704384,0.0408485216630889,0.2063492418072581,0.0291746151711034,0.4535704028090346,0.2812878204061331,-0.214132013230239,-1.1706880450350492,-0.2345312719546977,1.6758363015056066,0.5344155030555924,0.3172506821754898,-0.2727429307564384,0.5011648001764883,0.4282630883335747,-0.2601515748580807,0.0088341499754493,10.79638664466438,-1.342001369334115,0.1430312788988641,-1.365202414214325
0.68,-1.1533273218451832,-0.2243335100709466,1.6684667551745984,0.0424574481671993,0.2095637130920313,0.0294995308807935,0.4638945959106791,0.2755782975454758,-0.2151701136126841,-1.1603997349798978,-0.2282593047719356,1.6705401761242873,0.5744155036516388,0.3245553282502617,-0.2886162541373855,0.5921681916914445,0.5162096550822282,-0.2854761430328645,-0.0519050191222572,10.79638664466438,-1.3362163907654292,0.1409536731518052,-1.3691560520074944
0.7000000000000001,-1.14391891112928,-0.2188912002600518,1.6641447493342305,0.0433219991444625,0.2137710701942428,0.0298137198474578,0.4765934478900435,0.2690278871299443,-0.2170210221787924,-1.1501114249247464,-0.2219873375891735,1.665244050742968,0.6144155042476853,0.3318599743250336,-0.3044895775183326,0.7204071430895899,0.6349425989682161,-0.3275205207765752,-0.0925454283054155,10.734491445441565,-1.3297147213785787,0.1399757917137832,-1.3734873734533444
0.72,-1.134239744979998,-0.2135861044892188,1.6597804929385878,0.0430195652552368,0.2183069891932885,0.0300529624585135,0.4908455325177958,0.2619853669700578,-0.2193280681125432,-1.1378231148397926,-0.2153501381026728,1.6591542591926014,0.6544155048437318,0.3391646203998055,-0.3203629008992797,0.803183458774298,0.7126042313876174,-0.3521260079943217,-0.1153522966875403,10.703179202609135,-1.3236881512075802,0.1404478711068536,-1.377395310418125
0.74,-1.1242608402707917,-0.2084222932496176,1.6553679529830685,0.0413352859284271,0.2228709571568751,0.0301849276670052,0.5064633956934136,0.2549437411579484,-0.2218242220632739,-1.1255348047548388,-0.2087129386161721,1.6530644676422348,0.6944155054397783,0.3464692664745774,-0.3362362242802269,0.8656398338741004,0.7808931587808876,-0.3520812906054743,-0.1248076975365344,10.69271851414669,-1.3175900973370929,0.1426539072907865,-1.3811005091569095
0.76,-1.1144701817065292,-0.2036375033279315,1.6511283787385536,0.0385253582207157,0.226758561746058,0.0301928407678907,0.52334471556076,0.2494656458995308,-0.2243114820753289,-1.112246494654984,-0.2018931229778022,1.6465778430073443,0.7344155060358246,0.3537739125493492,-0.352109547661174,0.8960677297106644,0.8440659933673211,-0.273904762920879,-0.1243630006027465,10.694226151931616,-1.3113690211569742,0.1464571122283622,-1.384217374970542
0.78,-1.1038033281387951,-0.1986881144817349,1.6466141247772528,0.0351520389172051,0.2298327209072337,0.0301185316670382,0.5424411947413385,0.2458824541320894,-0.2269779051203113,-1.097958184540228,-0.1948906911875629,1.6396943852879304,0.7744155066318711,0.3610785586241211,-0.3679828710421211,0.9805924130230392,0.954823959028922,-0.1791595883720659,-0.1333211522491245,10.705092467955184,-1.3071005385513443,0.1508516413817622,-1.3858716228441867
0.8,-1.0927430782093586,-0.1937948846656658,1.64204581555446,0.0319375792628051,0.23152251588811,0.0299969067421183,0.5624775263913049,0.2436269566008831,-0.2296990521556367,-1.0766812684017282,-0.1863939917751304,1.635265229521237,0.6305784414096772,0.2433156231785063,-0.2376241785023194,1.0172837562457493,1.0018165824983216,-0.1127748765603189,-0.1360573517662666,10.705092467955184,-1.3049944262903816,0.154834739534916,-1.385738274673351
0.8200000000000001,-1.0817386094535342,-0.1890851375257199,1.637836119686238,0.0323460622339456,0.2291663894773927,0.029992290145266,0.5944454655659723,0.2507324372636628,-0.2132613535044451,-1.0766812684017282,-0.1863939917751304,1.635265229521237,0.6305784414096772,0.2433156231785063,-0.2376241785023194,1.832099156344819,1.5983969587333724,0.3552740331389845,0.8218849325595786,10.707824593706391,-1.304496196216445,0.1542853581629594,-1.384548811131766
0.84,-1.069534302892477,-0.1840422905946754,1.6337480215285292,0.0372792141348242,0.2206027072398794,0.0300691335890725,0.623366169532394,0.2520712913476233,-0.1964456042048148,-1.0766812684017282,-0.1863939917751304,1.635265229521237,0.6305784414096772,0.2433156231785063,-0.2376241785023194,1.674043811164715,1.4460351983210828,0.066942704198028,0.8407874649815169,12.144371193765435,-1.3198616605899698,0.1482844288356671,-1.374678751498578
0.86,-1.0568270204227612,-0.1790429668653625,1.6299641004457446,0.0433941044563374,0.2083969864603743,0.0300072879378998,0.6452221595578103,0.2475806557916922,-0.1826484659968909,-1.0703754839876314,-0.1839608355433453,1.6328889877362138,0.648205890743345,0.2428022569877897,-0.239753433178721,1.3116889212155467,1.0927995012708136,-0.2245317777965577,0.6898569103961943,11.93384559761489,-1.337443183539046,0.1410211292838245,-1.3599408369532011
0.88,-1.0444180441364892,-0.1744105145797801,1.626596755239512,0.0487131725886517,0.195442146550945,0.0297589448392351,0.65946938377782,0.2403833299289409,-0.1724076430722142,-1.0577639151594378,-0.1790945230797752,1.6281365041661675,0.6834607894106804,0.2417755246063564,-0.2440119425315243,0.9482343483080076,0.7123612110004895,-0.3598662931375632,0.5120411462338326,11.4226494640061,-1.3570221536181315,0.133967297193793,-1.3412205518057163
0.9,-1.0311275512404985,-0.1696993443189626,1.6232367635387428,0.0532838020288434,0.182051578968746,0.0293461564167548,0.668422892728703,0.2312395734949964,-0.1642111761407497,-1.0451523463312442,-0.1742282106162051,1.6233840205961212,0.718715688078016,0.2407487922249232,-0.2482704518843275,0.7598612939468551,0.4476754475441491,-0.4571878216972261,0.4098233465732279,11.213688905972049,-1.3754597699924982,0.1282316029881524,-1.3218352853733533
0.92,-1.0177143686504984,-0.1651823512283408,1.6200121681540944,0.0566790153591632,0.1701746768131514,0.0288609557615897,0.6722147593869161,0.2211087636192354,-0.1587461460997246,-1.0307780325696838,-0.1694132347717066,1.6184186115584347,0.7539705867453514,0.23972205984349,-0.2525289612371307,0.6059664075709761,0.1895933329106536,-0.5065404937880463,0.2732515020512541,11.021319189850146,-1.3912616443055936,0.1239576203954241,-1.3039547012288637
0.94,-1.0042690051919432,-0.1608749008805563,1.616877883377594,0.0589038148513402,0.1606960141509505,0.0283842962806083,0.6721868729996592,0.2104513258990277,-0.1549176758876849,-1.0164037188081236,-0.1645982589272082,1.6134532025207482,0.789225485412687,0.2386953274620567,-0.2567874705899339,0.5662131678422366,-0.0013943193628462,-0.5328718860103873,0.1914235106019846,11.021319189850146,-1.403078426334418,0.1212442665709529,-1.2897161484136466
0.96,-0.9915197407244768,-0.1569843334914939,1.6139611111509091,0.0599957727839226,0.1542464213757657,0.0279871184503445,0.6698123251977676,0.1998071668136429,-0.1522791552379708,-1.0011480325798798,-0.1598089513922456,1.6083813307492414,0.8244803840800226,0.2376685950806235,-0.2610459799427372,0.5610222614063878,-0.1187273900945806,-0.5322079542692384,0.1319260324857032,10.918564115892876,-1.4122096866780944,0.1197057972707386,-1.2781578712575683
0.98,-0.9781698120305272,-0.1531114626395873,1.610938723843666,0.0599044256801501,0.1505753479842747,0.0276591703327303,0.6652229770281736,0.188161929588966,-0.1501141307235098,-0.9850109738849528,-0.1550453121668188,1.6032029962439147,0.859735282747358,0.2366418626991902,-0.2653044892955404,0.6351397440504226,-0.2294674084796999,-0.5822618612338473,0.1082512257230508,10.85124121046738,-1.4172177623864834,0.1196855051896836,-1.2710039154160642
1.0,-0.9649173482671616,-0.1494755357675617,1.6079538296559257,0.0582417514262093,0.1503484526763275,0.0274250884730649,0.6606996526360577,0.1762654768993193,-0.1484883290207206,-0.9449086631791188,-0.143703366160139,1.6034330173074909,0.7118522717812482,0.1940509839767738,-0.1567271575622595,0.6415397129759489,-0.2261662196057945,-0.5948226344823351,0.0812900851394612,10.812649342849,-1.4166351992423916,0.1212532718735294,-1.269629121191335
1.02,-0.9516240955730206,-0.1460984038541262,1.605111428273062,0.0541423982147942,0.1497048206745144,0.0270003813406904,0.6685088121151246,0.1632131734968943,-0.135738451063313,-0.9449086631791188,-0.143703366160139,1.6034330173074909,0.7118522717812482,0.1940509839767738,-0.1567271575622595,0.9923519836822564,0.3904579739533453,-0.6526151701212513,0.6374938978703781,11.498478760298894,-1.4136150802321583,0.1253584200101943,-1.2699362819392894
1.04,-0.9388565047231664,-0.1430865467614583,1.6026455407081932,0.0489534351786226,0.1458895285167482,0.0263505496327318,0.6747313480506145,0.1547841878646195,-0.1244458423485615,-0.9449086631791188,-0.143703366160139,1.6034330173074909,0.7118522717812482,0.1940509839767738,-0.1567271575622595,0.7702122497111451,0.3111267967744968,-0.4214492816137394,0.564630435737578,11.498478760298894,-1.418656864931639,0.1314583043789591,-1.2636539014312853
1.06,-0.925327630688155,-0.1400602160320273,1.6002636166045563,0.0433720310334839,0.1395139936477685,0.0255820913529784,0.6773777801014577,0.1484349340352994,-0.1143969000829094,-0.9377901404613064,-0.1417628563203713,1.601865745731868,0.7211781307318631,0.1952287948543354,-0.1580497629300094,0.6088880591850867,0.1323216025421569,-0.3174626914660014,0.5024471132826016,11.372637106004731,-1.427404872479633,0.1377350620433814,-1.2535820798614552
1.08,-0.9117917448428914,-0.1371415469200101,1.5980599730452931,0.0381646047316209,0.1322390643131259,0.0248508352253178,0.6757802036853643,0.1438092950131072,-0.1065457066284807,-0.9235530950256812,-0.1378818366408358,1.5987312025806228,0.739829848633093,0.1975844166094585,-0.1606949736655092,0.4625743870658801,-0.0798788208046685,-0.2312819511096103,0.3925596727214375,11.22303409387041,-1.4363968827677474,0.1432461980340851,-1.242827696305583
1.1,-0.8989994939869597,-0.1344412704572447,1.5960896980786703,0.033754307344057,0.1256456620757217,0.0242507928214781,0.6707774338987147,0.1406335945873626,-0.1012203348325751,-0.9093160495900564,-0.1340008169613003,1.5955966594293778,0.7584815665343229,0.1999400383645817,-0.1633401844010091,0.3983477234054275,-0.2501384893324798,-0.1587850212872305,0.2662685897952772,11.06767697098894,-1.445152751157805,0.1483720540900963,-1.231972087512778
1.12,-0.8856676706582449,-0.1316546019446828,1.5941084069156746,0.029701148130871,0.1199211827657788,0.0237404365578882,0.6624803614612802,0.1381983047896504,-0.0972577189344376,-0.8941464182593698,-0.1300020161940087,1.5923298557413577,0.7771332844355527,0.2022956601197048,-0.165985395136509,0.4755900865951916,-0.4148536218717247,-0.1217644898856118,0.1981307949068762,10.928218767355249,-1.4525831317005082,0.1528262218026813,-1.222928610832931
1.14,-0.8725331883544675,-0.1289082680171842,1.592194643841731,0.0262397911667813,0.1164329158557605,0.0233663998372672,0.6512489871831609,0.1365348892144832,-0.0943551553966688,-0.8789767869286833,-0.1260032154267171,1.5890630520533373,0.7957850023367826,0.2046512818748279,-0.1686306058720088,0.5859513517385485,-0.5615687139059633,-0.083170778758361,0.1451281768884399,10.771043120321336,-1.4575078955814165,0.1566451920450231,-1.2173799585752088
1.16,-0.8596399576246403,-0.1261876174333931,1.5903307978827077,0.0233641345208442,0.1160064794308655,0.0231297092921726,0.6390748059441883,0.1355446343226262,-0.092183446304003,-0.8633408626504662,-0.1219455241155473,1.5857301180969297,0.8144367202380124,0.2070069036299511,-0.1712758166075087,0.620297537423306,-0.6087090619486313,-0.0495127445928486,0.1085854546332906,10.771043120321336,-1.4571452210538538,0.1595692035337368,-1.2169919690496869
1.18,-0.8476020103807745,-0.1236162231292164,1.5885969910020252,0.0211250597549763,0.117937103612861,0.022999893017922,0.6289743130752803,0.1351104180505374,-0.0904429625821772,-0.8472386454247182,-0.1178289422604996,1.5823310538721345,0.8330884381392423,0.2093625253850742,-0.1739210273430085,0.5129273426903393,-0.5050246434454009,-0.0217108136044391,0.0870241860912918,10.72324080699127,-1.4537743196167316,0.1621076046565753,-1.2205187149314307
1.2,-0.8351171413166403,-0.1209147103633843,1.5868064752116655,0.0192189447877106,0.1215793735774708,0.0229299235214346,0.620296620010066,0.1350290149859233,-0.0887165655930878,-0.8161532947270105,-0.1168607022266896,1.5840748428729163,0.6764389184961082,0.1411320131448904,-0.1138634286922874,0.4424065719361915,-0.4338846532607132,-0.0040701532307077,0.0863198494544671,10.699891969964485,-1.4485983234358255,0.1641785494087816,-1.226681408732922
1.22,-0.822765638909581,-0.1181738930518187,1.5850876854972071,0.0189300557320961,0.1256618854654855,0.0229822508679485,0.6153592312682747,0.138518177087087,-0.0832802559506264,-0.8161532947270105,-0.1168607022266896,1.5840748428729163,0.6764389184961082,0.1411320131448904,-0.1138634286922874,0.4065265129253064,-0.2468694370895641,0.1744581050581853,0.2718154821230722,10.69476189013676,-1.4428728136055222,0.1645052832552728,-1.2345772867096954
1.24,-0.81111615078728,-0.1155172016505881,1.5835442941854214,0.0206295613705118,0.1293204465677528,0.0231707482320077,0.6112418189419383,0.1407799820088333,-0.0794809001561895,-0.8161532947270105,-0.1168607022266896,1.5840748428729163,0.6764389184961082,0.1411320131448904,-0.1138634286922874,0.3020924950318352,-0.2058706163168222,0.1130902460873148,0.1899677897218413,10.928178299793217,-1.4381703319793735,0.1625844718788694,-1.2425837249143437
1.26,-0.7989304858518196,-0.1126908368182372,1.5819823724019686,0.023882176792647,0.1329793134589988,0.0234764750324626,0.6076361668738377,0.1413205266816274,-0.0769934514293129,-0.8093889055420495,-0.1154493820952407,1.5829362085859937,0.6859318395802737,0.142336332163761,-0.1185475219143095,0.2206825579215801,-0.1802826034050297,0.0270272336397078,0.1243724363438336,10.836303341102392,-1.4339247552627086,0.1589411125002698,-1.2498383688882164
1.28,-0.7868091195604413,-0.109885002682057,1.580454113517661,0.027411051344759,0.1363959018902374,0.0238058486485758,0.604760338244833,0.1392205012043663,-0.0759636153555182,-0.7958601271721273,-0.1126267418323428,1.5806589400121476,0.7049176817486049,0.1447449702015021,-0.1279157083583536,0.1853446765315754,-0.1437914314502353,-0.1050012738630562,0.0514918036897335,10.752085746684315,-1.429771915375314,0.1551142008684508,-1.2555223069001495
1.3,-0.7753407498539496,-0.1072733274638983,1.579010704522147,0.0303234263930867,0.1393876569120772,0.0240886722541946,0.6026366862501785,0.1359158486259162,-0.0760293029077792,-0.7823313488022051,-0.109804101569445,1.578381671438302,0.723903523916936,0.1471536082392433,-0.1372838948023977,0.1964366393597358,-0.1061825997327237,-0.1652326289225042,-0.0032843776130497,10.682133061722196,-1.425592607183565,0.1515659891662168,-1.26040526796624
1.32,-0.7633067692716136,-0.1045988230687796,1.5774813549219613,0.0327354562778661,0.1422681800135031,0.0243379970106413,0.600931767254329,0.131807161246674,-0.0769402759643329,-0.7678532783238664,-0.1068610294046602,1.575635993542254,0.7428893660852671,0.1495622462769845,-0.1466520812464418,0.2270348688666572,-0.0852459497924784,-0.2054343689621124,-0.0455486528276871,10.627337360529964,-1.4217292723622457,0.1487713650937653,-1.2643364560694663
1.34,-0.7513010897684442,-0.1020115394341919,1.5759275251536329,0.0344410459905447,0.1448812767066766,0.0245325002317272,0.599773652168932,0.1272175027526326,-0.0784177442154665,-0.7533752078455277,-0.1039179572398753,1.572890315646206,0.7618752082535983,0.1519708843147257,-0.156020267690486,0.2479370286789453,-0.0579057542698491,-0.229482924702068,-0.073873412556677,10.583623197310772,-1.4182637586885722,0.1467858129656548,-1.267452114320605
1.36,-0.7399099260573053,-0.099643389672051,1.5744193495778656,0.0353158840984513,0.1470387849042669,0.0246553589444934,0.5993653458706457,0.1223929984745212,-0.0802614789651849,-0.7384224913129807,-0.1009146691241469,1.569910433089057,0.7808610504219294,0.1543795223524669,-0.1653884541345301,0.2590459099756965,-0.0204153149143127,-0.2412252139055701,-0.0921867374859206,10.558354157892609,-1.4153204961493784,0.145750513002571,-1.269582700761914
1.38,-0.7279225663256902,-0.0972522721456257,1.5727898809954268,0.0353254787563562,0.1488753780492401,0.0247059119021271,0.5994036913132917,0.1170428038334425,-0.0826030294780021,-0.7229951287262254,-0.097851165057475,1.566696345870807,0.7998468925902606,0.1567881603902081,-0.1747566405785742,0.292014177200667,0.0019172721323013,-0.2675097320539332,-0.1170775256408594,10.538156033246196,-1.4128425992292462,0.1457176211769118,-1.2708105951817374
1.4,-0.7159307032991746,-0.0949690187012088,1.5711096672900664,0.0342693085557896,0.1502358328437439,0.024665209342809,0.5997743612122319,0.1116464498839215,-0.0853097583109747,-0.6979523817600256,-0.0914001319539536,1.5686597295215268,0.6217692371672642,0.1203715721370604,-0.0846731341813092,0.3024252514991781,0.0185334949470095,-0.2698176974760491,-0.135336441648632,10.517446573818232,-1.4109828928160393,0.1469187864249726,-1.2710111629179863
1.42,-0.7038066729917835,-0.0927822248126806,1.569527698734342,0.0324330924894281,0.1479952751763777,0.0244513375907809,0.6121310840163351,0.1072900769647055,-0.0727100607044255,-0.6979523817600256,-0.0914001319539536,1.5686597295215268,0.6217692371672642,0.1203715721370604,-0.0846731341813092,0.9088715025310288,0.617836140205158,-0.2178186459608017,0.629984880327461,11.513139822136509,-1.410429610901781,0.1486613778902634,-1.268802459522931
1.44,-0.6920909173599648,-0.0907818714752995,1.5682556279229165,0.0302164373163724,0.1405075537549716,0.024056206367732,0.6196814288950886,0.1036655480905767,-0.0617786097139001,-0.6979523817600256,-0.0914001319539536,1.5686597295215268,0.6217692371672642,0.1203715721370604,-0.0846731341813092,0.6885519916930218,0.377517243937675,-0.1812264437064406,0.5465725495262687,11.513139822136509,-1.4223536222495732,0.1514470092557774,-1.257492714575466
1.46,-0.6796735092772634,-0.0887372858866586,1.5671193078217944,0.0277625885493767,0.1295390641720595,0.0235687640718754,0.6210429010426382,0.101041719481073,-0.0524942899247826,-0.6917346893883529,-0.090196416232583,1.5678129981797138,0.6262423463380586,0.1210373257977839,-0.0850871551219707,0.4871772699110731,0.0680736073774779,-0.1311914304751846,0.4642159894558764,11.337612300560975,-1.4376292687289427,0.1543123432854481,-1.2412567148573286
1.48,-0.667296771360524,-0.0867364581836721,1.5661414385912866,0.0254905196810185,0.1176216628137857,0.0231037486724641,0.616126479145769,0.0991822423140821,-0.045845677572314,-0.6792993046450077,-0.0877889847898418,1.5661195354960875,0.6351885646796477,0.1223688331192311,-0.0859151970032935,0.4237714767890032,-0.2458210948434569,-0.0929738583495473,0.33243061762343,10.965547082673766,-1.4527886731846589,0.1568018578746958,-1.2242130533935145
1.5,-0.6550784992716798,-0.0847669246232315,1.5652675857876612,0.0235111933974639,0.1065325863837985,0.0227136192012921,0.6058165525334652,0.0978356344569557,-0.0418395482299039,-0.6668639199016624,-0.0853815533471006,1.5644260728124613,0.6441347830212366,0.1237003404406782,-0.0867432388846164,0.5571288266193086,-0.5154963306151894,-0.0673303928563177,0.2003064671205024,10.965547082673766,-1.4672852724386325,0.1590677684213143,-1.2071605031742862
1.52,-0.6437022779580766,-0.0829173145718105,1.564491893470568,0.0219113416749785,0.0978395701765638,0.0224307045400387,0.5922414457770021,0.0968975836966909,-0.0400001789872158,-0.6539812242412376,-0.082907546538287,1.562691208034769,0.6530810013628255,0.1250318477621253,-0.0875712807659392,0.686561617571852,-0.6787553378231559,-0.0469025380132423,0.091968462134407,10.807297180155729,-1.4789701089245917,0.160974843340116,-1.1929422660349336
1.54,-0.6320357443875826,-0.0809864772663396,1.56370413235737,0.0205234733243334,0.0913566688220225,0.0222307516452582,0.5749701522904871,0.0962463918940358,-0.0389044204003262,-0.6410985285808128,-0.0804335397294735,1.5609563432570768,0.6620272197044146,0.1263633550835725,-0.0883993226472621,0.8659132698225662,-0.8635646743257508,-0.0325595901327503,0.0547879293444797,10.682969945155492,-1.4879867230808448,0.1626070874505299,-1.1827873797333408
1.56,-0.6207444239031017,-0.079064208899101,1.5629317465552293,0.0195324624919413,0.0885387742547036,0.0221455655790097,0.5550935337349465,0.0960137006724425,-0.0384131576159774,-0.6279921774618484,-0.0779262452376237,1.5592007774323513,0.6709734380460035,0.1276948624050196,-0.089227364528585,0.9942025064471932,-0.9938309277770284,-0.0116345610796653,0.0245631392174379,10.64315671413533,-1.4920232061435792,0.1637828672210449,-1.1787712622379132
1.58,-0.6103850491188829,-0.0772387863838031,1.5622043482064063,0.0190696438002075,0.0894935613835376,0.0221744937147933,0.5368218422583506,0.0961238475291449,-0.038178203810947,-0.6146621708843443,-0.0753856630627378,1.5574245105605928,0.6799196563875926,0.1290263697264667,-0.0900554064099078,0.9136767002562328,-0.9135845738297954,0.0055073428351197,0.0117476902515203,10.614161460563082,-1.4902887376933227,0.1643117596647307,-1.181231677665834
1.6,-0.5998307153891993,-0.0753134686562285,1.5614443442243624,0.0191421260107746,0.0932955231133766,0.0223007005522236,0.51993730676244,0.0963822402587647,-0.0378352734029501,-0.5835439570059654,-0.0724325940073459,1.5602954380158591,0.5411389209977553,0.1025812545566279,-0.0358470454318542,0.8444997142985234,-0.8442267747955312,0.0129196364809874,0.017146520399848,10.592074808463622,-1.485299643658869,0.1642973298647349,-1.1884275744622332
1.62,-0.5895376798743555,-0.0733870527449525,1.5607526447471582,0.0196797316533828,0.0975786461166876,0.0224725705764326,0.510358728003136,0.096234364146024,-0.0310478114321594,-0.5835439570059654,-0.0724325940073459,1.5602954380158591,0.5411389209977553,0.1025812545566279,-0.0358470454318542,0.5870278494199374,-0.4789289379652006,-0.0073938056370341,0.3393730985395327,10.591201342741442,-1.4790377997730189,0.1637447352146548,-1.1974578955851265
1.64,-0.5794235686273516,-0.0714668844097549,1.5602025728017554,0.0205098108751399,0.1005625318324863,0.0226436943281711,0.501462933885804,0.0957847109873639,-0.024348310209439,-0.5835439570059654,-0.0724325940073459,1.5602954380158591,0.5411389209977553,0.1025812545566279,-0.0358470454318542,0.557271606970703,-0.4447897058665995,-0.0224826579330039,0.3349750611360211,11.00035754426699,-1.47619701569088,0.1630458713367621,-1.2039190795554957
1.66,-0.5699803550574033,-0.069655129221625,1.5597941852060468,0.0214518426083935,0.102517433681984,0.0228022159227598,0.4929771144192634,0.0949537477167734,-0.018980877378102,-0.5781325677959879,-0.0714067814617796,1.5599369675615409,0.5420023367456362,0.1038727359621245,-0.0353808137560357,0.5037582931692115,-0.4242909733270267,-0.041548163529527,0.268371641566849,10.95979311867086,-1.474163713272725,0.1621084450715096,-1.2090333402389095
1.68,-0.5602159220670145,-0.0677699755673332,1.5594655122824803,0.0224423017815005,0.103934752730276,0.0229576574926762,0.4838972405507353,0.0936022427279108,-0.0142105701336788,-0.5673097893760327,-0.069355156370647,1.5592200266529035,0.543729168241398,0.1064556987731177,-0.0344483504043985,0.5172680794556545,-0.4539936934264049,-0.0675752494431268,0.2385153622211615,10.904254857057822,-1.4728732209771405,0.1611572961795627,-1.2128052931288271
1.7,-0.550635274488586,-0.0659172990632622,1.559223239837453,0.0232393680819723,0.1049511911164691,0.0230922819326838,0.4746168910121066,0.0917463522577076,-0.0102908954638057,-0.5564870109560777,-0.0673035312795145,1.5585030857442663,0.54545599973716,0.1090386615841109,-0.0335158870527614,0.5121842112808707,-0.4640174769314387,-0.0927945235101611,0.1959837334936537,10.856268829254986,-1.4720474014295577,0.1604388777943194,-1.2155101019248409
1.72,-0.5412424056860156,-0.0641067402897351,1.5590511184205664,0.0236360474144639,0.1057887892419275,0.0231961901475238,0.4651540069070535,0.0894639028052189,-0.0071165222187034,-0.5455778909613345,-0.0651227580478322,1.5578327680032111,0.5471828312329219,0.1116216243951041,-0.0325834237011243,0.5119384645346853,-0.4731442052526513,-0.1141224726244359,0.1587186622551142,10.811270271794456,-1.4713839066893244,0.1601027291271492,-1.2179277628433425
1.74,-0.5324953038389485,-0.0624314148187317,1.5589433573034763,0.0235046218555703,0.1065677047943391,0.0232604923149458,0.4560980400319001,0.0870688531678349,-0.0043860314314094,-0.5346687709665913,-0.06294198481615,1.557162450262156,0.5489096627286837,0.1142045872060973,-0.0316509603494872,0.4878585316177939,-0.4527983437576738,-0.1197524818692022,0.1365245393647014,10.760798385550515,-1.4707390934144362,0.1603670590354473,-1.220063454594129
1.76,-0.5234728703304661,-0.060716102229527,1.5588839955883789,0.0227711544998585,0.1074530804018882,0.0232901564655939,0.4466545147241301,0.0846437494354845,-0.0017036244297842,-0.523716480184454,-0.060696637514193,1.5565154441048916,0.5506364942244456,0.1167875500170905,-0.03071849699785,0.5056100416168537,-0.4721762653884964,-0.1212551866175172,0.1341203500812604,10.760798385550515,-1.4699147784185418,0.1613063157550669,-1.22214978553468
1.78,-0.5146381107370828,-0.0590461761218456,1.5588760443094842,0.0214477270938598,0.1084432525762954,0.0232835226123171,0.4373322541824296,0.0825332946124115,0.0007635031042557,-0.5127210186149228,-0.0583867161419611,1.5558917495314184,0.5523633257202074,0.1193705128280837,-0.0297860336462129,0.4935718778374574,-0.4661130270850272,-0.1055227411536512,0.1233563767020017,10.751475273326832,-1.4689861113171012,0.1628125555219429,-1.224182360372701
1.8,-0.5059880628480427,-0.0574125197880054,1.5589151911888437,0.0196331259137134,0.1095610945371207,0.0232482001284023,0.4281921334471266,0.0809987709421812,0.0030246705826725,-0.4927714980279613,-0.0549195113912251,1.558914219464697,0.4499114782548263,0.0731937319951692,-0.0055599718207556,0.4769943613814075,-0.4570060367651507,-0.0767261835115121,0.1130583739208389,10.74056574257702,-1.4678029769701115,0.1649442266782624,-1.2264688155640595
1.82,-0.497941781638038,-0.0558167618287587,1.558999780878504,0.0197084156440143,0.1108514316201233,0.023346636255924,0.4193414559085433,0.0862080317580383,0.0057390641957937,-0.4927714980279613,-0.0549195113912251,1.558914219464697,0.4499114782548263,0.0731937319951692,-0.0055599718207556,0.5311281009007126,-0.4425338769291631,0.2604630407928521,0.1357196806560602,10.730631165568411,-1.4656726552456487,0.1650754687893932,-1.2304293389741288
1.84,-0.4896506458443935,-0.0540520011614187,1.5591377445345116,0.0229376473068042,0.1125487690689086,0.0236777594430097,0.4103281780696869,0.0894923049449982,0.0078643202081276,-0.4927714980279613,-0.0549195113912251,1.558914219464697,0.4499114782548263,0.0731937319951692,-0.0055599718207556,0.4912798105076296,-0.4506638919428207,0.1642136593479941,0.1062628006166929,10.768008844312137,-1.4642883392395172,0.161648732011294,-1.23573818786709
1.86,-0.4815342940105169,-0.052266840649396,1.5593099368940837,0.0276867610664165,0.1145457395069509,0.0241235742735936,0.4018489655153472,0.0885578596198762,0.0092083469564763,-0.488272383245413,-0.0541875740712734,1.5588586197464895,0.4524273230693057,0.0713258194717207,-0.0068246668057578,0.4317888416448225,-0.4239606277169849,-0.0467222662561009,0.0672013374174333,10.721946763464077,-1.4623617861075702,0.1567215825620563,-1.2404888742091718
1.88,-0.4735810189673617,-0.0505320912159675,1.5595023778360166,0.0323285671077476,0.1167510041778489,0.0245701630662953,0.3939874800164542,0.0849582545868117,0.0099413715312987,-0.4792741536803165,-0.05272369943137,1.5587474203100744,0.4574590126982644,0.0675899944248237,-0.0093540567757624,0.4338704751151609,-0.3930742749446519,-0.1799802516532236,0.0366512287411207,10.684357650879065,-1.459483870271355,0.1515360531838495,-1.245011158592358
1.9,-0.4661648657984641,-0.0489667939872357,1.5596941362016628,0.0360582228786379,0.1189493641023479,0.0249522506582064,0.3871247116093183,0.0801417674723646,0.0102064063094375,-0.4702759241152199,-0.0512598247914666,1.5586362208736593,0.4624907023272231,0.0638541693779268,-0.011883446745767,0.4194233594091996,-0.3431384203567922,-0.2408243557223528,0.0132517389069403,10.65782091597066,-1.456303222116614,0.1471196390572353,-1.2490509402071477
1.92,-0.4584925080828159,-0.0474251363871238,1.5598984147597652,0.0391701173140963,0.1212775198857242,0.02529909290375,0.380542671952638,0.0743834004141529,0.010195419255883,-0.4610261100686755,-0.0499827414039081,1.558398551938744,0.4675223919561818,0.0601183443310299,-0.0144128367157715,0.437270390989818,-0.3291019828340152,-0.2879183529105836,-0.0005493526777219,10.63999283175508,-1.4530570542557286,0.1436316033121863,-1.2526481770969546
1.94,-0.4509450893198572,-0.0460049018399172,1.5601000927553297,0.0414499406555483,0.1235392557938732,0.0255848282575589,0.3745863816493605,0.068119538510113,0.0099748721576091,-0.451776296022131,-0.0487056580163495,1.5581608830038285,0.4725540815851405,0.0563825192841329,-0.0169422266857761,0.432325112480057,-0.2978145151638772,-0.3131930952019954,-0.011027354913695,10.62182154706352,-1.4498918409407568,0.1410763927948411,-1.2557684438206709
1.96,-0.4435098261633373,-0.0447144749356691,1.56029562939806,0.0429322839202706,0.1256467707983254,0.0258067252776511,0.3692772547160897,0.0613847123670886,0.0095911474759116,-0.4424006897348626,-0.0475219702549634,1.557859979319663,0.4775857712140992,0.052646694237236,-0.0194716166557806,0.4292200968084174,-0.2654563466635395,-0.3367413071512229,-0.0191862340848758,10.62182154706352,-1.4470995942414004,0.1394872665927003,-1.2582423562997904
1.98,-0.4365395078442881,-0.043616974327834,1.560472967926436,0.0435169440898619,0.1274381762276069,0.0259483980508707,0.3647368763036517,0.0545358945881983,0.0090913635941872,-0.4328992912068702,-0.0464316781197497,1.5574958408862476,0.4826174608430579,0.0489108691903391,-0.0220010066257852,0.4116160985220561,-0.2270189206218964,-0.3424408889445143,-0.0249891940862227,10.616871065885787,-1.4444923525095277,0.1387964720611247,-1.260082490431501
2.0,-0.4292910107377187,-0.0426053068404696,1.5606480506513958,0.0430643344974246,0.1290586407300668,0.0260081947416494,0.3603747395015971,0.0470864181702367,0.0084437516160309,-0.4183026640291055,-0.040890179598424,1.5609275361061454,0.3837497502959756,0.0590807869365474,0.0082404700371155,0.4328462130360405,-0.218106840102733,-0.3724738208980782,-0.0323805989078117,10.612357846684064,-1.4422295362863369,0.1393620044734206,-1.260655794860645
2.02,-0.4221116149197926,-0.0418029969778471,1.560856462020656,0.0394951136857644,0.1301748316161411,0.0258267862348912,0.3576952946232451,0.0349680025725733,0.0125042340167137,-0.4183026640291055,-0.040890179598424,1.5609275361061454,0.3837497502959756,0.0590807869365474,0.0082404700371155,0.6529221599472522,-0.1339722439175988,-0.605920779883172,0.203024120034141,10.607396409119248,-1.4412923600899026,0.14325165345288,-1.2593971939681003
2.04,-0.4153443616958726,-0.0412036629805959,1.5611314837059334,0.0338159041644575,0.1307309521366997,0.0254769740259182,0.3547461257519694,0.0291628071130323,0.0162469768365127,-0.4183026640291055,-0.040890179598424,1.5609275361061454,0.3837497502959756,0.0590807869365474,0.0082404700371155,0.3755196904622099,-0.1474584435637832,-0.2902597729770511,0.1871371409899469,10.910864345260052,-1.4404223598217756,0.150106571206705,-1.2589475666578829
2.06,-0.408286007244204,-0.0406495951696413,1.5614926561218592,0.0276479439430528,0.1310345028686436,0.0250926055876319,0.3512241032991337,0.0266576638008674,0.0196428193119474,-0.4144651665261458,-0.0402993717290586,1.5610099408065166,0.3875523250944404,0.0599897654062172,0.0080702913257011,0.2748278155988308,-0.1761011226417863,-0.1252571656082411,0.1697921237717378,10.867217957706089,-1.4401755142422643,0.1572516182956607,-1.2588312652740838
2.08,-0.4013021010831938,-0.0401209524733351,1.5619151526875643,0.0221298407384476,0.1312400365777551,0.0247595399906774,0.3473394946540408,0.0263003630483427,0.0224041388537122,-0.4067901715202263,-0.0391177559903276,1.561174750207259,0.3951574746913699,0.0618077223455568,0.0077299339028725,0.2389703630422482,-0.1942304322546467,-0.0178650376262393,0.1380659770882386,10.82632185622333,-1.440121440606699,0.1636780312914819,-1.2590416644842852
2.1,-0.3943991557032701,-0.0395836599836323,1.562386227480436,0.0175674694296556,0.1315023304134022,0.024502973106442,0.3431794128842228,0.027281948439709,0.0245585279849497,-0.3991151765143068,-0.0379361402515967,1.5613395596080013,0.4027626242882995,0.0636256792848965,0.0073895764800438,0.2393281363573328,-0.2080040884908984,0.0490792695683178,0.1077194565618716,10.787919722182778,-1.4400141862883369,0.1687866698464246,-1.2596368836096592
2.12,-0.387919933123139,-0.0390468896196593,1.562869027470997,0.0141125152727589,0.1318958160785574,0.0243300432897855,0.3390914030901177,0.0290091278795216,0.0261472584720872,-0.3910599240285408,-0.0366636266658987,1.5614873511376022,0.410367773885229,0.0654436362242361,0.0070492190572151,0.2356853700103724,-0.2044004897052531,0.0863589719906302,0.079436524356875,10.729443227764024,-1.4396888266215324,0.1731317519465276,-1.2607171656904888
2.14,-0.3811833342874549,-0.0384420965312099,1.5634077722992934,0.0112905108368018,0.1325095473108068,0.0242137065648236,0.3348224850688353,0.0312838715055142,0.0276301339831501,-0.3830046715427748,-0.0353911130802008,1.561635142667203,0.4179729234821586,0.0672615931635758,0.0067088616343864,0.2529675839793209,-0.2134459010641215,0.1137371812996277,0.0741437755531483,10.729443227764024,-1.4390959797829252,0.1765310455877572,-1.2623041663927483
2.16,-0.3745298615381121,-0.0377872930699291,1.5639742273219923,0.009204685949779,0.1333068262252369,0.0241559814514856,0.3307796424440535,0.033977597428454,0.0289274281045703,-0.3747592903170855,-0.0340731505710194,1.5617744252612331,0.4255780730790882,0.0690795501029154,0.0063685042115578,0.2514145375378182,-0.2021421312390886,0.1346862961469928,0.0648647060710104,10.721381348178513,-1.4382038984745955,0.1789832269698763,-1.2642839673181927
2.18,-0.3679545196015793,-0.0370740657333061,1.5645646617476188,0.0078244049713667,0.134220002861429,0.0241529731032403,0.3269984093388778,0.0371004650517253,0.0300432118210665,-0.3663237803514731,-0.0327097391383545,1.5619051989196928,0.4331832226760177,0.070897507042255,0.0060281467887291,0.2514706707061003,-0.1890616552587848,0.156143381163562,0.0557891858248078,10.713362299796245,-1.4370684214586151,0.1807890305413747,-1.2667053398234387
2.2,-0.3617753853121467,-0.0363345247417287,1.565144648724109,0.0072345285860769,0.1351369977299502,0.0242043671914941,0.3236567657630331,0.0405014334266912,0.030945366959796,-0.3516045991346354,-0.0352190424807199,1.566066822338672,0.3326138136802477,0.0400300910844353,0.0241717682774833,0.2426265214781702,-0.1670821787922355,0.1700484187482972,0.0451077569364763,10.706299720150128,-1.4358381408190066,0.1817147246282754,-1.2694086210595
2.22,-0.355298705994955,-0.0354607492458093,1.565780233576134,0.0082235819077759,0.1349298238190275,0.0243644232741442,0.3242125061677769,0.0464415822325427,0.0326072689986708,-0.3516045991346354,-0.0352190424807199,1.566066822338672,0.3326138136802477,0.0400300910844353,0.0241717682774833,0.3096616444602876,0.0277870202371882,0.2970074402925748,0.0830951019437383,10.699899304708197,-1.4329532062148187,0.1805455371487218,-1.2721605187428289
2.24,-0.3488133584653687,-0.0344796758156746,1.5664459538412174,0.0112820472338613,0.1323388315163241,0.0246433121684533,0.3241181551182446,0.0509550708026421,0.0338641368137806,-0.3516045991346354,-0.0352190424807199,1.566066822338672,0.3326138136802477,0.0400300910844353,0.0241717682774833,0.2343085460329222,-0.0047175524766157,0.22567442850497,0.0628433907554928,10.75577286542375,-1.4369564061305826,0.1772235185579241,-1.2701302603624656
2.26,-0.3423472388384631,-0.0334430884903538,1.5671296809264683,0.0151867520346127,0.1278566763844766,0.0249405587147549,0.3222803403175775,0.0523007863726279,0.0344706321864966,-0.3482784609978329,-0.0348187415698755,1.566308540021447,0.3337368945485217,0.0406160162909774,0.0229974795687667,0.1178595591581246,-0.091890740033354,0.0672857784992889,0.0303247686357976,10.674432252222688,-1.4433070343556476,0.1731370536253314,-1.26463101475196
2.28,-0.3362654631908652,-0.0324549603528452,1.567784987143587,0.0186609818192939,0.1226211451934928,0.0251668617704742,0.3177930506419508,0.0517027697995271,0.0345012231154221,-0.341626184724228,-0.0340181397481868,1.5667919753869963,0.3359830562850696,0.0417878667040614,0.0206489021513334,0.2263533093397463,-0.2243644837813363,-0.0299008286550394,0.0015295464462754,10.674432252222688,-1.451624868921805,0.1691247202076437,-1.2562821428687354
2.3000000000000003,-0.3299854628845342,-0.0314385774536743,1.5684704138110797,0.0217240401713894,0.1171306467470836,0.0253385800632074,0.3102610463433826,0.0500315350995919,0.0340277374484752,-0.334973908450623,-0.0332175379264981,1.5672754107525462,0.3382292180216176,0.0429597171171454,0.0183003247339002,0.3864851318379576,-0.3766002149284103,-0.0835617349967576,-0.0236742833473434,10.632724655302807,-1.4595707691399635,0.1657992826868383,-1.247527961022222
2.32,-0.3238853251219111,-0.0304632928450112,1.569140919212322,0.0240972567900344,0.1126075382297012,0.0254631219472199,0.2999463195166869,0.047675310566214,0.0330341415415274,-0.3282093240901906,-0.0323583435841552,1.5676414172472242,0.3404753797581655,0.0441315675302294,0.0159517473164669,0.5313487940782201,-0.5157363413347854,-0.1178112266688957,-0.0496797953473904,10.565129814818649,-1.4665834087555076,0.163298504845425,-1.2397762926135687
2.34,-0.3180206401909927,-0.0295408155511757,1.5697869462840977,0.025772734731933,0.1101467601253993,0.0255766038446233,0.2870024911408191,0.0448264777863503,0.0316284691850442,-0.3214447397297583,-0.0314991492418123,1.5680074237419022,0.3427215414947135,0.0453034179433135,0.0136031698990337,0.6663978841602941,-0.6471914187933886,-0.1424416389931845,-0.0702836178241607,10.565129814818649,-1.471028490299486,0.1616820643859529,-1.2350820917039582
2.36,-0.3126970209136427,-0.0287211420514818,1.570372126929803,0.0267015751223905,0.1103263352342306,0.0256982073648508,0.2743859689855946,0.0416899017124458,0.0300365962109085,-0.3146240013259123,-0.0306106586391423,1.5683147158011443,0.3449677032312614,0.0464752683563975,0.0112545924816004,0.6548831963152737,-0.6308261077612232,-0.1568288036952272,-0.0795936487067839,10.548925862729448,-1.4700830431014955,0.1605841115847817,-1.2350070033022829
2.38,-0.307335643556173,-0.0279252575204102,1.5709540105807311,0.0268607632013578,0.1126014822413732,0.0258235007611316,0.2626692465276299,0.0381269637132876,0.0282265754330362,-0.3077471088786525,-0.0296928717761452,1.5685632934249507,0.3472138649678093,0.0476471187694815,0.0089060150641671,0.6189755398219505,-0.5858361228982367,-0.1781468999579087,-0.0905010388936169,10.525031701658008,-1.466566805279152,0.1604412855941537,-1.2379785267547354
2.4,-0.3021897387994229,-0.0272017066175103,1.5714994586551232,0.0260535379552769,0.1162837857391569,0.0259177100956579,0.2527539173241594,0.0345245053106885,0.0264012174136475,-0.2942021812297914,-0.0260189093347458,1.5723653393523829,0.2810640278042136,0.0429990357356959,0.015347343488356,0.5353115720181034,-0.4957664601735218,-0.1801229201299568,-0.0912679009694329,10.513856721217053,-1.4616591959659258,0.1613250639496565,-1.242591121904204
2.42,-0.2974794302740128,-0.0265845282132193,1.5719919448597413,0.0241760621055691,0.1209077296362954,0.0259545535531157,0.2438682573981205,0.0308149241112017,0.0255220367638594,-0.2942021812297914,-0.0260189093347458,1.5723653393523829,0.2810640278042136,0.0429990357356959,0.015347343488356,0.4834483002652968,-0.4442829963019465,-0.1854790599743389,-0.0439590324894068,10.513856721217053,-1.4561015648982458,0.1636602714138273,-1.2486099471692578
2.44,-0.2926809958437411,-0.0259939302789874,1.5724891752791614,0.0212226318216632,0.1267374777577068,0.025937741977378,0.2366964012695647,0.0287698252911667,0.0242142341685772,-0.2942021812297914,-0.0260189093347458,1.5723653393523829,0.2810640278042136,0.0429990357356959,0.015347343488356,0.3785772614032681,-0.3585928064277918,-0.1022549410017522,-0.0653901297641073,10.57364705935106,-1.4476348660086749,0.1670484346013463,-1.256778427591304
2.46,-0.2880014263642217,-0.0254209218943793,1.57295632187326,0.0181998726630423,0.1328726520420052,0.0259079213740848,0.2318196492407301,0.0286699427881777,0.0225348720236115,-0.2913915409517493,-0.0255889189773888,1.5725188127872665,0.2847429840595303,0.0439734501401775,0.0127714970994199,0.2579386752655064,-0.2438376014417306,-0.0049941251494487,-0.0839681072482863,10.53276018199449,-1.4391269377836435,0.1705832801072431,-1.265715779277689
2.48,-0.2833967808414561,-0.0248368318717508,1.573386410725245,0.0155675979571628,0.1387347848860485,0.025886978870826,0.2290048200515921,0.0296712189041133,0.0205348730108579,-0.285770260395665,-0.0247289382626749,1.5728257596570334,0.2921008965701638,0.0459222789491408,0.0076198043215478,0.1797624354209033,-0.1407414594568987,0.0500638057967824,-0.099999950637681,10.525632033119107,-1.4315493415642222,0.1735726168955373,-1.2739295267508215
2.5,-0.2790579445398047,-0.0242567693148422,1.573755462615805,0.0135426243931491,0.1436978026639886,0.025881866315114,0.227905326532372,0.0312420635078379,0.0183949038262414,-0.2801489798395808,-0.023868957547961,1.5731327065268006,0.2994588090807972,0.0478711077581041,0.0024681115436758,0.1436654697462624,-0.0549746759610059,0.0785422301862266,-0.1069984592308245,10.525632033119107,-1.424557340178088,0.176184168337813,-1.2816273633611202
2.52,-0.2745006216201677,-0.0236102447746086,1.57409759008883,0.0119049783945636,0.1480858903731397,0.02589417441018,0.227937791917493,0.0332816496089096,0.0159112098823651,-0.2741598036579649,-0.0229115353927989,1.573182068757674,0.3068167215914307,0.0498199365670674,-0.0026835812341962,0.160699261601942,0.0016232692560541,0.1019793050535865,-0.124184697193814,10.52252952623894,-1.418797212702889,0.1782273556892564,-1.288008272257498
2.54,-0.2699320967297034,-0.0229173338756726,1.574388481859479,0.0108378368333054,0.1515202709604044,0.0259326934637886,0.2288955060117088,0.0358407746632942,0.0132921660423984,-0.2681706274763489,-0.0219541132376368,1.5732314309885476,0.3141746341020642,0.0517687653760307,-0.0078352740120683,0.189246717051488,0.0478857047107872,0.1279562527192301,-0.1309521919983387,10.519428068220805,-1.4143123054758513,0.1796141392994894,-1.2930214146941452
2.56,-0.2653373219946814,-0.0221683208082168,1.5746258182940156,0.0104913699607765,0.1539872456161506,0.026011234921774,0.2304876412867079,0.0388486996718466,0.0105670520077701,-0.2619975034819671,-0.0209479703622507,1.5731520008999742,0.3215325466126976,0.053717594184994,-0.0129869667899404,0.2179951495601425,0.0796067637499564,0.1503962504276194,-0.1362557017314148,10.520948549856255,-1.4111857937899486,0.1801476120465119,-1.2965890539052332
2.58,-0.2609397421810116,-0.0213992121828022,1.574799775047567,0.0109554949982861,0.1554764038426442,0.0261333981175809,0.2322800027380579,0.0418712716577919,0.0078797051655482,-0.2556404316748195,-0.0198931067666404,1.5729437784919542,0.3288904591233311,0.0556664229939573,-0.0181386595678125,0.2211918513016854,0.0896180725674988,0.151128599297266,-0.1343673421110943,10.52159668042168,-1.4091770989516366,0.1797331285523641,-1.2990851489760342
2.6,-0.2562741218976663,-0.0205298858192567,1.5749264791143165,0.0123125228464277,0.1562691877596678,0.0263146568729717,0.2341421499456334,0.0448229759597775,0.0049287237580204,-0.2493257420441087,-0.0193056485999126,1.5751937603058446,0.2411164499993318,0.0439416953390809,0.0010279971147309,0.2285193743242343,0.0931073603787732,0.1475852150992773,-0.1475490703763896,10.519947088533629,-1.4082736724749787,0.1782570866224775,-1.3004153068055908
2.62,-0.2515243779561316,-0.0195972566211438,1.575035578417369,0.0147897108857128,0.1551154154403402,0.026546070524786,0.2408299398957874,0.0479884871998421,0.0063601968541135,-0.2493257420441087,-0.0193056485999126,1.5751937603058446,0.2411164499993318,0.0439416953390809,0.0010279971147309,0.3768159731659334,0.3343894975077033,0.1582755620032325,0.0715736548046558,10.514530995898896,-1.4066322528070057,0.1753983425571316,-1.3007847920758782
2.64,-0.2466413506529936,-0.0186267854426255,1.57517696933507,0.0178915751873242,0.150576905638095,0.0267561729294485,0.2467024991263519,0.0487580278905242,0.0077281460292435,-0.2493257420441087,-0.0193056485999126,1.5751937603058446,0.2411164499993318,0.0439416953390809,0.0010279971147309,0.3039343257055779,0.2936279615282214,0.0384770345341043,0.0683974587564992,10.769734938404326,-1.413471668907842,0.1719084297235463,-1.294771944077585
