t,x,y,z,roll,pitch,yaw,v_x,v_y,v_z,ref_x,ref_y,ref_z,ref_v_x,ref_v_y,ref_v_z,a_com,a_x,a_y,a_z,thrust,wind_x,wind_y,wind_z
0.0,0.7175662709014817,-2.4563445886359103,2.8827567030745387,0.0248218195744,0.1500974003867682,0.0289517338272755,0.0006382533833676,0.0003466851833597,-0.0028661672675512,0.7175807683335711,-2.4562296210915213,2.8826723681178543,-0.0667250687925899,0.102922326987666,-0.102826195348534,0.1478383644671086,0.03191266916838,0.0173342591679892,-0.1433083633775647,10.661654734008152,-1.4129470491460816,0.1660362486428218,-1.2805186932674664
0.02,0.71766016474375,-2.456639596779265,2.8824343959200327,0.0152233827815594,0.1466246247877626,0.028209625426115,0.0080220406582664,-0.0232944209001508,-0.0290483899471421,0.7175807683335711,-2.4562296210915213,2.8826723681178543,-0.0667250687925899,0.102922326987666,-0.102826195348534,1.802034264252792,0.3691893637449409,-1.1820553041755306,-1.309111133979541,10.66245818792686,-1.4069212042671144,0.1753578505195253,-1.2661093983969671
0.04,0.7178511268635913,-2.457105562366632,2.881599082771752,-0.0005762312956244,0.1374735897550859,0.027078147619435,0.0108086089397137,-0.0240241762336884,-0.057395571310259,0.7175807683335711,-2.4562296210915213,2.8826723681178543,-0.0667250687925899,0.102922326987666,-0.102826195348534,1.4246580263939128,0.1393284140723656,-0.0364877666768808,-1.4173590681558472,9.207932264277131,-1.4182013990065978,0.1940511735720746,-1.2409773716602452
0.06,0.7180343343545913,-2.4575290172221758,2.880142961747613,-0.0176187547665367,0.1241563069723547,0.0261063555812039,0.0066988485106013,-0.0178895632053786,-0.0866428732471017,0.7169135176456451,-2.455200397821645,2.881644106164369,-0.0801747898309314,0.1229223272856892,-0.1228261956465572,1.5082508730120554,-0.2054880214556192,0.306730651415491,-1.4623650968421364,8.982565452567997,-1.4353105662099144,0.2128474391948142,-1.2084717408131855
0.08,0.7180661952410805,-2.4577893830936888,2.87811417102438,-0.0339724989096785,0.109675043385833,0.0254970098887181,-0.0037612247016525,-0.0081122846535344,-0.1147071140494899,0.7155790162697934,-2.4531419512818915,2.879587582257398,-0.1070742319076145,0.1629223278817357,-0.1628261962426037,1.5752856243396711,-0.5230036606126933,0.4888639275922073,-1.403212040119408,8.972760558654045,-1.451968727731903,0.2294912453531835,-1.1766908748244682
0.1,0.7178492586282182,-2.457827439401379,2.8756748360573496,-0.0487441034098774,0.0966630305837228,0.0252121351202852,-0.0186894824193778,0.0039027939216426,-0.1406630049926518,0.7142445148939416,-2.451083504742138,2.8775310583504274,-0.1339736739842975,0.2029223284777822,-0.2028261968386501,1.613167122702897,-0.7464128858862671,0.6007539287588548,-1.2977945471580925,9.008999180032788,-1.4680115431101852,0.2457986226971468,-1.146430845518203
0.12,0.7172747582955851,-2.4575930499434704,2.872577114091416,-0.0635173608049075,0.0848821930538819,0.025118500493483,-0.038110054986536,0.0192196951637441,-0.1677438785717517,0.7115650414142556,-2.4470250581725823,2.8734745344136545,-0.1608731160609806,0.2429223290738286,-0.2428261974346966,1.8338073892204032,-0.971028628357911,0.7658450621050776,-1.354043678954994,9.034170778765656,-1.4812069745565994,0.2610082164858697,-1.1207924395565878
0.14,0.7162782612109526,-2.4570252652366547,2.8689324836214043,-0.0775449505670275,0.0757562012020518,0.0251134368914866,-0.0604527202207086,0.0370944273812718,-0.1953811451529118,0.7088855679345697,-2.442966611603026,2.8694180104768816,-0.1877725581376636,0.2829223296698751,-0.2828261980307431,1.98904452293855,-1.1171332617086305,0.8937366108763822,-1.3818633290580071,9.047263642808048,-1.4898429562524165,0.2751062211065794,-1.09967403285706
0.16,0.7148068828279067,-2.4560663558949254,2.864729686640385,-0.0906190751013767,0.0698087294023478,0.0250790925235884,-0.0855411639927539,0.058004980978467,-0.223526470762132,0.7055336084029666,-2.43790816501857,2.8643614865252074,-0.2146720002143466,0.3229223302659215,-0.3228261986267895,2.155713696373709,-1.2544221886022624,1.0455276798597617,-1.4072662804610128,9.02279200272642,-1.495713121536978,0.287488349908806,-1.084069017714454
0.18,0.7129206284984823,-2.4547251061661504,2.8602097863722835,-0.1013637386962116,0.0679337013256171,0.0249055979651602,-0.1114297973819739,0.08172800142286,-0.250810451964212,0.7015091628194465,-2.431849718419212,2.858304962558632,-0.2415714422910297,0.3629223308619679,-0.3628261992228359,2.223408795072319,-1.2944316694610003,1.1861510222196496,-1.3641990601039975,9.016482172910855,-1.4960938902521572,0.2987307415702276,-1.0751933011383257
0.2,0.7104159713244536,-2.452807110160518,2.8548870655720484,-0.1104916067998219,0.0698339344367055,0.024514981800505,-0.1372343428403275,0.1085446611857047,-0.280005157554701,0.6974847172359264,-2.425791271819854,2.852248438592057,-0.2684708843677127,0.4029223314580144,-0.4028261998188824,2.3650257089848625,-1.2902272729176794,1.3408329881422334,-1.4597352795244516,8.991243101716009,-1.4910859671188816,0.3077948211694831,-1.0738572338340544
0.22,0.7074190092598337,-2.450336345797298,2.8489788294045435,-0.11740201738991,0.0746666533810499,0.0239544228129093,-0.1607702801056643,0.1368481248637519,-0.3093147203599064,0.7073491386293835,-2.4506387060950074,2.847669263774073,-0.1832539754816062,0.1817280029129761,-0.3508104534543281,2.352698913463367,-1.1767968632668393,1.41517318390236,-1.465478140260268,8.991243101716009,-1.4823959820675725,0.3147527376815008,-1.0779144769630065
0.24,0.7039575950800594,-2.447093269644818,2.842694400853042,-0.1167588874886811,0.0825830211411653,0.0235584554342783,-0.1833391096690173,0.1827800224718839,-0.3172999819693434,0.7073491386293835,-2.4506387060950074,2.847669263774073,-0.1832539754816062,0.1817280029129761,-0.3508104534543281,2.5898145149386425,-1.1284414781676493,2.296594880406602,-0.3992630804718511,8.992112588892269,-1.469696425439336,0.3161534877567209,-1.0991451904113894
0.26,0.7002997029991193,-2.4432873086773608,2.836577970671604,-0.1095886126235056,0.0924883714915405,0.0234146804283048,-0.2000919982799878,0.2143843715890883,-0.3260775624741057,0.7073491386293835,-2.4506387060950074,2.847669263774073,-0.1832539754816062,0.1817280029129761,-0.3508104534543281,1.8415618910664568,-0.8376444305485244,1.5802174558602191,-0.4388790252381147,10.345941133015003,-1.4566535156107396,0.3104088898945122,-1.1245255958181146
0.28,0.6961462690258428,-2.438720394946044,2.829922967754737,-0.1004661839476876,0.1039626509068876,0.0233576297051475,-0.2139605120674802,0.2402905564501369,-0.339163446896445,0.7055165988745675,-2.448821426065878,2.8441611592395297,-0.1976188111015326,0.2017280032109993,-0.3708104537523514,1.60834267169928,-0.6934256893746216,1.295309243052427,-0.6542942211169661,10.086395711974546,-1.4417550528577745,0.3022696590754834,-1.1490218869024176
0.3,0.6917481276336152,-2.4336822388482187,2.82296035852281,-0.0916267805312974,0.1157027848224892,0.0233656635338862,-0.2248027533904023,0.2621933582107381,-0.3564594841511716,0.7018515193649354,-2.445186866007618,2.837144950170443,-0.2263484823413855,0.2417280038070458,-0.4108104543483978,1.49703024901433,-0.542112066146104,1.0951400880300597,-0.864801862736328,9.82331940655422,-1.425894757778441,0.2938668380435211,-1.1713871295670315
0.32,0.6871693139792331,-2.4282347985810566,2.8156147264526203,-0.0837324738109031,0.1269941558434593,0.0234507272336309,-0.2323158305506435,0.281557825520746,-0.3772813352180266,0.6981864398553033,-2.4415523059493585,2.8301287411013565,-0.2550781535812385,0.2817280044030923,-0.4508104549444442,1.4705257601164254,-0.3756538580120594,0.968223365500398,-1.041092553342751,9.60580527267939,-1.410611877987026,0.286459079847267,-1.1903872987049944
0.34,0.6827083544238252,-2.422718579202255,2.808221680128973,-0.077288704302611,0.1366551141710876,0.0236242269067539,-0.2367974471208563,0.2982832085162576,-0.3999289365188559,0.6930848767836785,-2.4359177458612966,2.821112532002468,-0.2838078248210913,0.3217280049991387,-0.4908104555404907,1.4254272763896787,-0.2240808285106407,0.8362691497755814,-1.1323800650414633,9.42768984189297,-1.3956346564747644,0.2795757634556567,-1.2070027592838253
0.36,0.677943600807398,-2.4165816480965367,2.7999567156187126,-0.0716462278859839,0.1452686479133776,0.0239072292783411,-0.2393610023432228,0.3146465026348297,-0.4254723333795215,0.6879833137120537,-2.4302831857732348,2.812096322903579,-0.3125374960609443,0.3617280055951852,-0.5308104561365372,1.5221648506079108,-0.1281777611183268,0.8181647059286035,-1.2771698430332823,9.282899355249356,-1.3824531410444192,0.2737925952230062,-1.2198239703027312
0.38,0.6731434482741048,-2.410117740347121,2.791167545086393,-0.0668330356318701,0.1521308130401435,0.0242997835050914,-0.2405430147247343,0.3309169368286285,-0.4521741855082538,0.6821635088594327,-2.423648625670272,2.802080113789789,-0.3412671673007972,0.4017280061912316,-0.5708104567325836,1.564539140793115,-0.0591006190755763,0.8135217096899378,-1.3350926064366109,9.207195327795487,-1.3720084534957335,0.2690689517734045,-1.2287242560555798
0.4,0.6685700033982129,-2.403679835500281,2.782315058424054,-0.0626530755609834,0.1571380145876567,0.0247726251777148,-0.2408476004208004,0.3458892653864374,-0.4783310073236292,0.661116297537868,-2.3935718935056896,2.768558835810981,-0.3040485078291922,0.4309169383187446,-0.5521741869983698,1.5070191790174134,-0.0152292848033003,0.7486164278904445,-1.3078410907687714,9.130152335264938,-1.3630254019580617,0.2645050536352189,-1.235186476815218
0.42,0.6637712754466558,-2.3966222164921107,2.7726320213414164,-0.0595328996265303,0.1614053632742751,0.0252616945189677,-0.2388293157430083,0.3596001679044121,-0.4877429637467688,0.661116297537868,-2.3935718935056896,2.768558835810981,-0.3040485078291922,0.4309169383187446,-0.5521741869983698,0.8376264749413884,0.1009142338896013,0.6855451258987372,-0.4705978211569789,10.219376518566603,-1.3539077184248345,0.2615668448012369,-1.2428634187181495
0.44,0.6590268068334975,-2.3892916591638382,2.762759650990233,-0.0582291512698707,0.1649479087294842,0.0256761456215995,-0.2357380860631713,0.3729724149785105,-0.49934829728673,0.661116297537868,-2.3935718935056896,2.768558835810981,-0.3040485078291922,0.4309169383187446,-0.5521741869983698,0.8986885713610521,0.1545614839918496,0.6686123537049199,-0.5802666769980619,10.219376518566603,-1.3494269917043007,0.2609228755966449,-1.2485532726367732
0.46,0.6543478432863435,-2.3816891949810235,2.752610864831372,-0.0584559556999673,0.1674341304820231,0.0260492351720981,-0.2323728074846566,0.3867012386386347,-0.5151124673117304,0.6580758124595761,-2.389262724122502,2.7630370939409974,-0.3167496064500838,0.4509169386167678,-0.572174187296393,1.0586722292321131,0.1682639289257353,0.6864411830062089,-0.7882085012500206,9.753447973376751,-1.3461782878493218,0.2618473355852594,-1.25139870033656
0.48,0.6499649938298203,-2.374211131685282,2.742643566850155,-0.0598676774938289,0.168699212858923,0.0263867948939252,-0.2292536531905006,0.399892143909203,-0.5332658935042283,0.6519948423029922,-2.380644385356127,2.75199361020103,-0.3421518036918669,0.4909169392128142,-0.6121741878924395,1.1327797534100847,0.1559577147077995,0.659545263528416,-0.9076713096248912,9.753447973376751,-1.3439086286003128,0.2641926489160845,-1.2518566210362223
0.5,0.6454117159305663,-2.3660640546753884,2.7317545821226648,-0.0624947577720036,0.1689167800698063,0.0267340744021193,-0.2263256980920193,0.4144294489438773,-0.5547885402131066,0.6459138721464084,-2.3720260465897525,2.7409501264610623,-0.3675540009336501,0.5309169398088607,-0.652174188488486,1.306838245619062,0.1463977549240658,0.726865251733716,-1.076132335443919,9.58866645591479,-1.3425513064183157,0.267818016708436,-1.2500602982295286
0.52,0.6409137753981395,-2.3576051196310885,2.7204134309747228,-0.0655879633679551,0.1679691012314781,0.0271312643844042,-0.2237024577589325,0.4308525828790644,-0.5782314824475261,0.6385627921277354,-2.361407707793575,2.727906642691293,-0.3929561981754332,0.5709169404049071,-0.6921741890845324,1.4371606196808289,0.1311620166543389,0.8211566967593537,-1.1721471117209723,9.455312836345,-1.3422270641444085,0.2719696285424567,-1.246689383762733
0.54,0.6364660487106611,-2.348804227355071,2.708597575550786,-0.0685246417016571,0.1657721512011891,0.02763537504126,-0.2212995500782557,0.4484171599266537,-0.6021645576752845,0.6312117121090624,-2.3507893689973978,2.714863158921523,-0.4183583954172164,0.6109169410009536,-0.7321741896805789,1.489194767349207,0.1201453840338415,0.8782288523794674,-1.1966537613879225,9.365411824128389,-1.3423815247214117,0.2758257904515831,-1.2432994849571486
0.56,0.6322786166415978,-2.3401024520830576,2.6969276024526896,-0.0707166154390839,0.162525381028795,0.0282505091579321,-0.2197014909286997,0.4664536165284672,-0.6250252039186047,0.6232255771593448,-2.33917103018632,2.700819675136852,-0.4437605926589995,0.650916941597,-0.7721741902766253,1.4581466888286714,0.0799029574777981,0.9018228300906704,-1.143032312166009,9.343062822714272,-1.344138110329217,0.2792351038608179,-1.2384187652650438
0.58,0.6278924955459123,-2.3305678299249943,2.6841708616573148,-0.0721423429043525,0.1580372332319493,0.0290493558568846,-0.2191608481601213,0.485923950096136,-0.6494360753448002,0.6146043872785827,-2.32655269136034,2.68577619133728,-0.4691627899007826,0.6909169421930464,-0.8121741908726717,1.5614711233527128,0.0270321384289201,0.9735166783834404,-1.2205435713097734,9.33645353079919,-1.3472339304799965,0.2816253380932749,-1.2322272035535242
0.6,0.6234974751023932,-2.3206345403640007,2.670923474941459,-0.0723486420672898,0.1528587270899323,0.0299912552831284,-0.2205566543091183,0.5061965913306262,-0.6740392397063687,0.6059831973978205,-2.3139343525343605,2.670732707537708,-0.4945649871425658,0.7309169427890929,-0.8521741914687182,1.5954967518223644,-0.0697903074498462,1.013632061724512,-1.2301582180784254,9.294911695465998,-1.3508294453846337,0.2826366122329468,-1.2258890711708093
0.62,0.6192774763968861,-2.310817140176437,2.657880038769578,-0.0710360266019755,0.1478525314574597,0.0309947969681872,-0.2236777986216093,0.525951034638552,-0.6976895041478658,0.6169344531379063,-2.3062716324201875,2.6516990578900748,-0.2669336915508246,0.5859239515862521,-0.7494360768349163,1.548640194152752,-0.1560572156245512,0.9877221653962877,-1.1825132220748549,9.294911695465998,-1.3542512000583884,0.2819096648925659,-1.2195532111433252
0.64,0.6147077726970404,-2.3000195815656204,2.643926340188943,-0.0664044710930833,0.145561410384933,0.032053515220196,-0.2331113366949322,0.5514995469939802,-0.6949752196899044,0.6169344531379063,-2.3062716324201875,2.6516990578900748,-0.2669336915508246,0.5859239515862521,-0.7494360768349163,1.3684712860296264,-0.4716769036661461,1.2774256177714105,0.1357142228980701,9.27203090493458,-1.358299997524428,0.2783956479790196,-1.2236958945465772
0.66,0.6099699600028885,-2.288785004273205,2.630034907115128,-0.059669009391467,0.1486035582692317,0.0328955046098453,-0.2395845626175925,0.5703214773813199,-0.6947657050886971,0.6169344531379063,-2.3062716324201875,2.6516990578900748,-0.2669336915508246,0.5859239515862521,-0.7494360768349163,0.9952532513382986,-0.323661296133014,0.9410965193669852,0.0104757300603663,11.052894716711307,-1.3521173758965526,0.2718898582586039,-1.2338762818396087
0.68,0.6051388381584811,-2.277211981316824,2.616071790344924,-0.0528544250331876,0.1545079972647191,0.0335890777419866,-0.242790698838497,0.5859060742682037,-0.701554851970239,0.6142651162223981,-2.300412392904325,2.644204697121725,-0.2764882602289652,0.6059239518842753,-0.7694360771329395,0.8649443406555374,-0.1603068110452271,0.7792298443441925,-0.3394573440770987,10.6214893428687,-1.343343162824827,0.2653795953425492,-1.2456579129903282
0.7000000000000001,0.6005141073397267,-2.265950932948005,2.602628708888136,-0.0468186480466085,0.1613992130361604,0.0341779775937573,-0.2435810078347302,0.5986843193227485,-0.713184330314312,0.6089264423913816,-2.2886939138726,2.6292159755850277,-0.2955973975852465,0.6459239524803218,-0.809436077728986,0.8648018581426427,-0.0395154498116556,0.6389122527272362,-0.5814739172036509,10.22809111621882,-1.332371875488044,0.2588272898204335,-1.258615280781967
0.72,0.5956504393153539,-2.2538522896417965,2.5881957280360304,-0.0411655239565189,0.1691956467733157,0.0347559095852346,-0.2425039749500361,0.6105204704909022,-0.7297154634736789,0.6035877685603651,-2.276975434840875,2.614227254048329,-0.3147065349415278,0.6859239530763682,-0.8494360783250324,1.0180039757324342,0.0538516442347036,0.5918075584076865,-0.8265566579683414,9.93238600794757,-1.3203564216756591,0.2528530212412611,-1.2705118315781243
0.74,0.590825504531819,-2.2415299533065034,2.5733905940596875,-0.0363204432079829,0.1770903483748641,0.0353024163906637,-0.239811418453126,0.621220859615562,-0.7499902100736637,0.5972936378615346,-2.263256955779348,2.5972385324818283,-0.333815672297809,0.7259239536724147,-0.8894360789210789,1.154137705823905,0.134627824845504,0.535019456232988,-1.0137373299992425,9.700165671446484,-1.3078397259521348,0.2476644655819976,-1.281541500709654
0.76,0.5860726650637839,-2.229002125821298,2.558162999498898,-0.0322296971376929,0.1848199187817347,0.0358249346322219,-0.2354155196887393,0.6310886160614942,-0.7718407623807887,0.590999507162704,-2.24953847671782,2.580249810915328,-0.3529248096540903,0.7659239542684612,-0.9294360795171254,1.2187526198427008,0.2197949382193351,0.4933878222966148,-1.092527615356248,9.525130041449302,-1.2960593682282031,0.2434922572026095,-1.2914258521919617
0.78,0.5816594289440398,-2.2169165837959044,2.543279185174524,-0.0287873586914844,0.191686178182726,0.0363204937643065,-0.229254087596207,0.6405227485982553,-0.7937985702431944,0.5842276480299665,-2.234819997641392,2.562261089333926,-0.3720339470103716,0.8059239548645075,-0.9694360801131718,1.2340091453007835,0.3080716046266127,0.4717066268380532,-1.0978903931202877,9.45638376417719,-1.2840253370869197,0.2396041770255859,-1.3010798424730246
0.8,0.5771585235752904,-2.2040056986462013,2.527148383430021,-0.0253667652702677,0.1980116899013047,0.0368642112039901,-0.2210731377573908,0.6499925708735306,-0.8181900088060493,0.5769780604633219,-2.219101518550062,2.543272367737623,-0.3911430843666529,0.845923955460554,-1.0094360807092182,1.370718560970896,0.4090474919408102,0.4734911137637632,-1.219571928142743,9.41057855766394,-1.2729841848639958,0.235857380525389,-1.3085828533470878
0.8200000000000001,0.5728364438084437,-2.190910322838045,2.5105184969071748,-0.022066133156402,0.20313595081586,0.0374351484570342,-0.2115131319198998,0.6589775989739236,-0.8436169368361621,0.5701967245642294,-2.1848904463659915,2.5035892566623645,-0.2639182677259735,0.7405227500883714,-0.8937985717333106,1.4306057376390005,0.4780002918745502,0.4492514050196516,-1.2713464015056408,9.31233440959295,-1.2639068518875245,0.2323738852796244,-1.313769172378891
0.84,0.5687479775349608,-2.177628058870607,2.4936660051926745,-0.0186584184206188,0.2078328171076491,0.0380245821766451,-0.1975678928137297,0.6685643824249962,-0.8404007609747888,0.5701967245642294,-2.1848904463659915,2.5035892566623645,-0.2639182677259735,0.7405227500883714,-0.8937985717333106,0.8612779717334232,0.6972619553085063,0.4793391725536278,0.1608087930686674,11.031894299549094,-1.255664412057628,0.2290248034830605,-1.3252546425576417
0.86,0.5651291710566398,-2.164856621292582,2.477687218010243,-0.0157772943788433,0.2125218319419386,0.0385551920564712,-0.1839282225630838,0.6755074278967795,-0.841849052028899,0.5701967245642294,-2.1848904463659915,2.5035892566623645,-0.2639182677259735,0.7405227500883714,-0.8937985717333106,0.7686742352047181,0.681983512532297,0.3471522735891685,-0.0724145527055131,10.650582883310562,-1.2514197108986729,0.2262590276973677,-1.3343196228705996
0.88,0.5616096842154457,-2.1512763662270493,2.460780176844122,-0.0134673323068299,0.2172351354708837,0.0390637410869774,-0.1686856263697118,0.6822623550363857,-0.8490394648470692,0.5675575418869697,-2.177485218865108,2.4946512709450315,-0.2708511037519268,0.7605227503863946,-0.9137985720313336,0.9078378377652168,0.7621298096685977,0.3377463569803063,-0.3595206409085061,10.650582883310562,-1.2461968272135215,0.2241884104231066,-1.3417875663219834
0.9,0.5584071504136495,-2.1375658586984825,2.44367351481992,-0.0118935211749603,0.2209895979971737,0.0395265877429482,-0.1523989987617448,0.6885715535030092,-0.8612412923831975,0.5622791765324502,-2.162674763863341,2.4767752995103653,-0.2847167758038334,0.8005227509824411,-0.9537985726273802,1.0652990417639272,0.814331380398349,0.3154599233311794,-0.6100913768064153,10.326424780904745,-1.2413082281642949,0.2228417647106139,-1.3465833169211674
0.92,0.5555363478903954,-2.1237348221409422,2.426284935352101,-0.0111560140456573,0.2232692709615512,0.0399373870056583,-0.1356481799577644,0.6943256000156034,-0.8769789852675889,0.5570008111779308,-2.147864308861573,2.458899328075699,-0.29858244785574,0.8405227515784875,-0.9937985732234268,1.184666576717165,0.8375409401990233,0.2877023256297073,-0.7868846442195709,10.078868425874134,-1.2379229151721842,0.222388636268396,-1.3481105909194866
0.94,0.5531210862291565,-2.110493684107534,2.4094487708805032,-0.0114574309929728,0.2238240050853502,0.0402634771620747,-0.1195589587456734,0.699323072450111,-0.8944324424038825,0.551029162220816,-2.1310538538300032,2.4390233566112305,-0.3124481199076466,0.880522752174534,-1.033798573819473,1.2129106891623365,0.8044610606045485,0.2498736217253827,-0.8726728568146824,9.894519179426425,-1.2360812160752634,0.2231020420339833,-1.3466544999064902
0.96,0.5509111617170444,-2.096455695195673,2.391357666807418,-0.0130971297758934,0.2224311949677301,0.0405267175426557,-0.1023568033482591,0.7043530431572808,-0.9137729197726024,0.5450575132637012,-2.114243398798433,2.419147385146762,-0.3263137919595532,0.9205227527705804,-1.0737985744155196,1.3183975315527374,0.8601077698707126,0.2514985353584853,-0.9670238684359956,9.754708840090643,-1.2368282912191575,0.2254438310673812,-1.3420119438853244
0.98,0.5490490212174511,-2.082301651185024,2.3728761732323216,-0.0158771731542111,0.218522603231801,0.0407422111100297,-0.0849809510784436,0.7111005339121033,-0.9333515948365956,0.5387392225052887,-2.0964329437519624,2.3982714136673926,-0.3401794640114597,0.9605227533666268,-1.113798575011566,1.351641031163872,0.868792613490775,0.3373745377411252,-0.9789337531996568,9.702564705892655,-1.2418828863844311,0.2290975427092023,-1.334686460137125
1.0,0.547586647743982,-2.068709026784458,2.3549572125782,-0.018631987525184,0.2124470480405068,0.0409859696272284,-0.0702645765441414,0.7193364868071771,-0.9517938092067718,0.5320742899455786,-2.07762248869059,2.3763954421731217,-0.3540451360633663,1.000522753962673,-1.1537985756076123,1.2495177773838078,0.7358187267151102,0.4117976447536919,-0.9221107185088118,9.688202673106389,-1.251345573849297,0.2331541999618729,-1.3235962072174174
1.02,0.5463196357536377,-2.0542231553248564,2.3357160439043905,-0.0211821917022712,0.2043084361119068,0.0413151240428964,-0.0576004177972091,0.7287736078423519,-0.9713089873653702,0.544799973663529,-2.0467466244894186,2.326208593490492,-0.1220913021045018,0.8111005354022194,-1.0333515963267117,1.2552712343970502,0.633207937346619,0.47185605175874,-0.9757589079299188,9.674812822748208,-1.263262275359211,0.23681885143764,-1.3111565637176563
1.04,0.5452605791035534,-2.039476428447201,2.316361148728354,-0.0212776386307089,0.1972086447764057,0.0418005678066257,-0.0489479935682015,0.7448416896818548,-0.9617691558171289,0.544799973663529,-2.0467466244894186,2.326208593490492,-0.1220913021045018,0.8111005354022194,-1.0333515963267117,1.0296311050668867,0.4326212114503774,0.8034040919751462,0.4769915774120725,9.63679458020033,-1.27639421951603,0.2381484114432809,-1.3069733591836925
1.06,0.5443570425366333,-2.0244402998265465,2.297194685025957,-0.018162208567719,0.1936669950370819,0.0424130543781951,-0.0417793341493865,0.7575590754458327,-0.9555123396107666,0.544799973663529,-2.0467466244894186,2.326208593490492,-0.1220913021045018,0.8111005354022194,-1.0333515963267117,0.7941494311100822,0.3584329709407502,0.6358692881988925,0.3128408103181046,11.523250161116266,-1.2825559550276928,0.2355316740394929,-1.3071173818810635
1.08,0.5436336002859535,-2.009957215570224,2.2790358042243137,-0.0139739266307681,0.1926919179894037,0.0430104346985848,-0.0345389674144609,0.7660910197776092,-0.9562599436904596,0.543579060642484,-2.0386356191353965,2.3158750775272248,-0.1295133723097135,0.8311005357002426,-1.0533515966247349,0.5607492674911035,0.3620183367462792,0.4265972165888254,-0.0373802039846438,11.07486110327045,-1.2844013917145984,0.230916466551662,-1.3093327906654963
1.1,0.5430301405234099,-1.9945648396220872,2.259847889823836,-0.0096465310784027,0.1928287409716679,0.0435943683069599,-0.0261454817678842,0.7726731930069148,-0.9627434251921864,0.5411372346003939,-2.022413608427352,2.2952080456006905,-0.1443575127201367,0.871100536296289,-1.0933515972207817,0.6241216590199249,0.4196742823288371,0.3291086614652827,-0.3241740750863475,10.637017093255054,-1.2853591278276948,0.2263244569161686,-1.3119055200064609
1.12,0.5425992556882834,-1.979055951783336,2.2404742118098917,-0.0059041751982887,0.1931977110483405,0.0441150650850692,-0.0173867002142888,0.7779825320497397,-0.9742696202065269,0.5386954085583039,-2.006191597719308,2.274541013674156,-0.15920165313056,0.9111005368923356,-1.1333515978168278,0.7709709898625746,0.4379390776797677,0.2654669521412411,-0.576309750717019,10.296830320312438,-1.2858233950774485,0.2223136108835675,-1.3133873612990985
1.14,0.5423446971099017,-1.9634500624172568,2.2208310749499227,-0.0028654064772967,0.1932280136381076,0.0445689237659694,-0.0085911988656241,0.7824768560269298,-0.9894451470987532,0.5355113754956927,-1.9879695869814609,2.25187398171782,-0.1740457935409833,0.951100537488382,-1.1733515984128742,0.905340279180976,0.4397750674332378,0.2247161988595092,-0.7587763446113172,10.035532134683308,-1.28656515101804,0.2192114948145069,-1.3133562726912889
1.16,0.5422670501783505,-1.9485469993228424,2.201872193774697,-0.0006634099645704,0.1926293451247989,0.0449351941515186,-9.740115579179744e-05,0.7861992374725875,-1.0054460080208256,0.5323273424330814,-1.9697475762436143,2.229206949761483,-0.1888899339514066,0.9911005380844284,-1.2133515990089208,0.9247003209283984,0.4246898854916155,0.1861190722828809,-0.8000430461036212,9.837542634399142,-1.287998884561483,0.2167429284460634,-1.3118708176542695
1.18,0.5423588649200826,-1.932778864387976,2.181574875755376,0.0011919035338826,0.1910629717646844,0.0452684500421817,0.0087741312938823,0.7904156606631435,-1.0234812466341712,0.5287722058602097,-1.9505255654908664,2.205539917790245,-0.2037340743618299,1.0311005386804748,-1.2533515996049671,1.0268302493204402,0.4435766224837087,0.210821159527802,-0.9017619306672776,9.750398250493165,-1.2905288357811395,0.2148131396743597,-1.3088444928793717
1.2,0.542627807040984,-1.9169265379970415,2.1609047439876075,0.0028501857615467,0.1882068661557269,0.045563886127074,0.0175622988760454,0.79456788995901,-1.042595331550279,0.5248459657770773,-1.9303035547232168,2.1808728858041064,-0.2185782147722531,1.0711005392765212,-1.2933516002010137,1.0721720241614832,0.4394083791081551,0.2076114647933225,-0.9557042458053888,9.67940405360332,-1.294397493270287,0.2131645553731983,-1.3041262028108291
1.22,0.5430425813251651,-1.9017923056081705,2.140904894884948,0.004327542754023,0.1840023392851038,0.0458107021615528,0.0254942783867414,0.7982547924877443,-1.0616571704393742,0.5427975714847767,-1.893258081354819,2.1304008134236674,-0.0318199882847175,0.8904156621532596,-1.1072430876929025,1.0486458542428825,0.3965989755347964,0.184345126436719,-0.9530919444547648,9.619120991177624,-1.3005406580604233,0.2115237066657923,-1.2966100364784596
1.24,0.5436416656596165,-1.8857590723102744,2.1198073716392374,0.0068064168641217,0.1795407297292011,0.0461083022598191,0.0339683623668354,0.804272647576687,-1.0452754669412851,0.5427975714847767,-1.893258081354819,2.1304008134236674,-0.0318199882847175,0.8904156621532596,-1.1072430876929025,0.970032072501348,0.4237041990047008,0.3008927544471351,0.8190851749044548,9.5578052603978,-1.3077235437634578,0.2090461748626658,-1.2943889129840174
1.26,0.544396936705687,-1.8696458932836812,2.099049766563096,0.0098467607072402,0.1770060333169758,0.0464263300254,0.0410202950123732,0.8067298839911964,-1.031855327814082,0.5427975714847767,-1.893258081354819,2.1304008134236674,-0.0318199882847175,0.8904156621532596,-1.1072430876929025,0.7678995686733379,0.3525966322768893,0.1228618207254672,0.671006956360154,11.946918286075745,-1.3137903860574909,0.2061577108467324,-1.2943468685813873
1.28,0.5452847208006457,-1.8535022694620007,2.078472913469003,0.0122915637421995,0.1758891020087125,0.0466900771731832,0.0475012983382555,0.8077209235470749,-1.0264705316418,0.5424793716019295,-1.8843539247332863,2.119328382546738,-0.0399388122004375,0.9104156624512828,-1.1239954559046486,0.4242098340692851,0.3240501662941173,0.0495519777939268,0.2692398086140968,11.43916719547451,-1.3168960612333522,0.2035779215099776,-1.2950412943729714
1.3,0.5462508134947734,-1.8381555531502631,2.058965868939002,0.0137601708456146,0.1752857919125875,0.0468666869918293,0.053830432758989,0.8078741339779972,-1.0271464255835183,0.5418429718362352,-1.8665456114902208,2.09718352079288,-0.0561764600318775,0.9504156630473292,-1.157500192328141,0.3183482706577337,0.316456721036672,0.0076605215461156,-0.0337946970859204,10.962624974601567,-1.3189820629828843,0.2019731782294122,-1.2948974884842603
1.32,0.5473965677841575,-1.822005285340158,2.038371857103643,0.0140875094695466,0.1744839719330698,0.0469475981129857,0.0603332137492562,0.8072744913699291,-1.032402321916843,0.5412065720705408,-1.848737298247156,2.075038659039022,-0.0724141078633174,0.9904156636433756,-1.191004928751633,0.4191365473549323,0.3251390495133625,-0.0299821304034053,-0.262794816666223,10.335736919709234,-1.3211636341663917,0.2017811821164928,-1.2930869645333287
1.34,0.5486708436551088,-1.8058749763496584,2.017629674854107,0.0126657105404158,0.1730416989120871,0.0468840344405066,0.0666871543352776,0.8060732326886828,-1.0415079085862355,0.5397582899132745,-1.8289289849742885,2.051218560463989,-0.0886517556947574,1.0304156642394222,-1.2245096651751255,0.5584068677581306,0.3176970293010693,-0.060062934062316,-0.455279333469627,10.335736919709234,-1.3237007194282224,0.2035698172468565,-1.2893220340075937
1.36,0.5500736493243925,-1.7897661867296246,1.9966923568578028,0.0092311891335471,0.1704937177852043,0.0466620482519051,0.0731442708469468,0.8055759569916378,-1.0517265830813347,0.5383100077560081,-1.8091206717014208,2.0273984618889567,-0.1048894035261974,1.0704156648354688,-1.2580144015986183,0.6049027715280645,0.3228558255834624,-0.0248637848522526,-0.5109337247549584,10.13192498492117,-1.3266724956960736,0.2073875420530307,-1.2840508780233637
1.38,0.5515233657930465,-1.7744389949108752,1.97660868188947,0.0051003626269704,0.1666647552169742,0.0463859584498722,0.0789939471034253,0.8080315453069946,-1.0618038323656167,0.5364557844029558,-1.7883123584136522,2.002740744903337,-0.1211270513576374,1.1104156654315152,-1.2915191380221107,0.5953981428793822,0.2924838128239224,0.122779415767843,-0.5038624642140999,10.03884059692882,-1.3318732590234927,0.2125099718878741,-1.276913301915553
1.4,0.553157493963899,-1.7582360409436677,1.9552559329597976,0.000720369941069,0.1609916105516098,0.0461042309892529,0.0837236934811095,0.812227039616821,-1.0729271377256644,0.5341956198541175,-1.7665040451109824,1.9772454095071297,-0.1373646991890773,1.1504156660275615,-1.325023874445603,0.6397276675153808,0.2364873188842105,0.2097747154913176,-0.5561652680023843,10.03884059692882,-1.3397581635296725,0.2176849431437942,-1.2670362313070125
1.42,0.5548598498709332,-1.7419365725511846,1.9336757360482928,-0.0033753471214374,0.1541322383912168,0.0458679112227622,0.0859718886904414,0.8175427548422814,-1.0845283229813418,0.5554730631482178,-1.7340374176455255,1.923518490271189,0.0125066496876919,0.9080315467971108,-1.104240219755515,0.6478786718861854,0.1124097604665967,0.2657857612730241,-0.5800592627838719,9.993499276021794,-1.3485547506531863,0.2224407426845522,-1.2557322114942142
1.44,0.5566525821883885,-1.7254351101859569,1.912279593926392,-0.0044206333224524,0.1463355965640398,0.045866236847576,0.0928012355202318,0.8309356825748352,-1.0544745676372007,0.5554730631482178,-1.7340374176455255,1.923518490271189,0.0125066496876919,0.9080315467971108,-1.104240219755515,1.6802073545075211,0.3414673414895159,0.6696463866276869,1.502687767207056,9.949171109708004,-1.3564516340437094,0.2240065346539557,-1.254827920558809
1.46,0.5584589020373283,-1.7095527388902882,1.8924855757070675,-0.0022075782585294,0.1380867004747687,0.0460735640199658,0.0966117796378042,0.8399541363512073,-1.0306837785230938,0.5554730631482178,-1.7340374176455255,1.923518490271189,0.0125066496876919,0.9080315467971108,-1.104240219755515,1.2863265542431623,0.1905272058786225,0.4509226888186057,1.1895394557053462,12.669365223859131,-1.3714223540600108,0.2220989814845918,-1.2490982614417157
1.48,0.5604043639230559,-1.6926907276314878,1.8720700976893256,0.0015891932068284,0.1286656918410229,0.0463478214787639,0.0973258628333134,0.8454062791436806,-1.012389643498226,0.5555981296450947,-1.7249571021775545,1.9124760880736336,-0.0007908097954546,0.928031547095134,-1.1127274972334946,0.9551323889227616,0.0357041597754584,0.2726071396236651,0.9147067512433882,12.130917979304286,-1.3859996483794594,0.2181836137193538,-1.2398457881399694
1.5,0.5623269310060978,-1.6757537229104906,1.8519478131207971,0.0052239878252461,0.1187128897797337,0.0465515832936622,0.0945087384746695,0.8480949133818965,-1.0006842481279468,0.5558482626388485,-1.7067964712416122,1.8903912836785235,-0.027385728761748,0.9680315476911804,-1.129702052189454,0.6168087720143226,-0.1408562179321962,0.1344317119107929,0.585269768513963,11.650413928042326,-1.3986609386633326,0.2143957942222932,-1.22867801847236
1.52,0.5640681597420567,-1.6596290884764628,1.833000918319168,0.0079790876075455,0.1090855202030528,0.0466460836238667,0.0886239353151567,0.8492816537183675,-0.9942699162051518,0.5560983956326023,-1.68863584030567,1.8683064792834128,-0.0539806477280413,1.0080315482872269,-1.1466766071454133,0.439269037345581,-0.2942401579756393,0.0593370168235518,0.3207165961397473,10.93808978845027,-1.4108458814986389,0.2110683045918785,-1.2155971518318829
1.54,0.5657477816202041,-1.6426405712114804,1.813151057111658,0.0099519311531506,0.0991102519517691,0.04664075394763,0.0793380234531368,0.8496688551511308,-0.9911966591896584,0.5550187826780415,-1.6684752093399255,1.845372947140505,-0.0805755666943346,1.0480315488832732,-1.1636511621013723,0.4894460969862139,-0.4642955931009946,0.0193600716381636,0.1536628507746718,10.93808978845027,-1.421514964662011,0.2086607751627095,-1.2017356816763332
1.56,0.5672117200877634,-1.625653183894891,1.7933438784431843,0.0107896980916156,0.0896235717111797,0.0465324762212639,0.067277239414997,0.8491573058251559,-0.989703294916061,0.5539391697234807,-1.648314578374181,1.8224394149975969,-0.107170485660628,1.0880315494793198,-1.180625717057332,0.6081823969443895,-0.603039201906988,-0.0255774662987429,0.0746682136798682,10.702065113511708,-1.430367208647905,0.2074458544948282,-1.188452367965921
1.58,0.5684045801383386,-1.6086764665283044,1.773555768683201,0.0103857880878393,0.0810239598155269,0.0463344598931056,0.0524841266422838,0.8486614084151193,-0.9891599315644788,0.5521946837947624,-1.6271539473935352,1.7990815189807896,-0.1337654046269213,1.1280315500753662,-1.1976002720132912,0.7405696177256654,-0.7396556386356622,-0.0247948705018319,0.0271681675791057,10.56075231237719,-1.437768131259215,0.2073823201308906,-1.1750956352886466
1.6,0.5692417621261775,-1.5925572445953688,1.7547598378457545,0.0089099724100501,0.0740006392895023,0.0460825522146415,0.0363378091479018,0.8482452768296909,-0.9893729217982108,0.549785324891887,-1.6049933163979884,1.7752992590900831,-0.1603603235932146,1.1680315506714125,-1.214574826969251,0.8076541632490994,-0.8073158747190979,-0.0208065792714207,-0.010649511686589,10.56075231237719,-1.4431473851622127,0.2085025374117226,-1.1629971241846684
1.62,0.569772321886241,-1.575593792692077,1.7349629294588724,0.0062184289902323,0.0680690480201229,0.045761074412473,0.017414779214305,0.8484460385298557,-0.9903343021746992,0.5710287864704529,-1.5662433961075484,1.724097772104977,-0.0432935637683302,0.9486614099052354,-0.985801792373656,0.94742495660125,-0.9461514966798424,0.0100380850082404,-0.0480690188244203,10.51214008439092,-1.4461371949131518,0.2107728822011521,-1.1527859020659703
1.64,0.5699371636990013,-1.5585525975746646,1.7154921607949245,0.0046946349383831,0.0636919634041706,0.0455408433350808,-0.0001029242635365,0.8548377635220393,-0.9567174276519096,0.5710287864704529,-1.5662433961075484,1.724097772104977,-0.0432935637683302,0.9486614099052354,-0.985801792373656,1.9221201420529443,-0.8758851738920761,0.3195862496091828,1.6808437261394693,10.466642168350518,-1.446778436862183,0.2119372210000686,-1.1529119769361684
1.66,0.5697550451674694,-1.5422719846464443,1.6976022871700411,0.0047950431304189,0.0610224410620424,0.0454424455569923,-0.0182564465203805,0.8585562951227843,-0.9282112534259256,0.5710287864704529,-1.5662433961075484,1.724097772104977,-0.0432935637683302,0.9486614099052354,-0.985801792373656,1.699985159198186,-0.9076761128422032,0.1859265800372489,1.4253087112992058,12.77767386024334,-1.4507147417843995,0.2118879494413941,-1.1538041426809855
1.68,0.569184303323206,-1.525076671593843,1.6793070502614127,0.0053299369044283,0.0599164899154863,0.0453679381094352,-0.0376947458598857,0.8608383482602625,-0.9030264021514758,0.5705958508327695,-1.556756782008496,1.7142397541812404,-0.062449101850453,0.9686614102032588,-0.9851301645354916,1.5947821022404896,-0.9719149669752596,0.11410265687391,1.2592425637224902,12.396339986247767,-1.4517304445897894,0.2112508644088795,-1.157249076955889
1.7,0.5682308019543258,-1.5078473226000293,1.6614684874246624,0.0055543516221491,0.0600573363225466,0.0452698724997963,-0.0565883527804436,0.8620865656559318,-0.882265545548711,0.569729979557403,-1.5377835538103914,1.6945237183337674,-0.1007601780146986,1.008661410799305,-0.9837869088591624,1.4049373616072427,-0.944680346027894,0.0624108697834635,1.0380428301382416,11.774842926833117,-1.4510951385879314,0.2108801147448308,-1.1614367612771197
1.72,0.566905088290463,-1.490602573814351,1.6440040173243091,0.0048765571124993,0.0610043668117506,0.0451064349400102,-0.0749364501605165,0.8625663128460941,-0.8652059307783537,0.5688641082820364,-1.518810325612287,1.6748076824862943,-0.1390712541789442,1.0486614113953516,-0.9824436531828332,1.2529099039317408,-0.917404869003646,0.0239873595081152,0.8529807385178612,11.774842926833117,-1.4494177343375296,0.2113628136242027,-1.1656318837807875
1.74,0.5653116328596883,-1.4742149897488663,1.6277034959978909,0.0029885967611355,0.0623510318296969,0.0448611415091824,-0.0918092084792355,0.86268408441453,-0.8514889632570284,0.5660826831984574,-1.4978370973843798,1.6551588094226375,-0.1773823303431898,1.088661411991398,-0.981100397506504,1.08726611439579,-0.8436379159359505,0.0058885784217976,0.685848376066267,11.400433840445658,-1.4469386003826392,0.213217608467687,-1.1700298483813654
1.76,0.5632956681302269,-1.456950215035831,1.610820477944106,-0.0003144490887477,0.0639662960791601,0.0445064923699376,-0.1088504544741708,0.8642459757810157,-0.8375538920123706,0.5633012581148786,-1.4768638691564726,1.635509936358981,-0.2156934065074354,1.1286614125874446,-0.9797571418301748,1.103437560868632,-0.8520622997467621,0.0780945683242828,0.696753562232888,11.400433840445658,-1.4440596012046338,0.2165330476728632,-1.174981632772452
1.78,0.5609403768735163,-1.4396255106277436,1.5942126932460117,-0.0040232064257361,0.0656988666285228,0.0441181812268972,-0.1257677724924586,0.8682662848795216,-0.8239425025383066,0.5595620561271936,-1.4548906409136644,1.6158946446872324,-0.2540044826716811,1.168661413183491,-0.9784138861538458,1.1041155482942862,-0.8458659009143915,0.2010154549252962,0.680569473703202,11.365441615160307,-1.4426021770049884,0.2204764061160603,-1.1802483937055803
1.8,0.5582486151351737,-1.4222033802612382,1.5778728855805413,-0.0074904959837567,0.0676458683671931,0.0437406857563879,-0.142462223491276,0.8737458127111642,-0.8107324564260328,0.5548650772354025,-1.431917412655955,1.5963129344073923,-0.2923155588359266,1.2086614137795373,-0.9770706304775166,1.0991306083651549,-0.8347225499408695,0.2739763915821314,0.6605023056136916,11.365441615160307,-1.4411504134523718,0.2240484344830951,-1.1859755807919403
1.82,0.5553853672147383,-1.405540631698989,1.5625893720667172,-0.0103477178138056,0.0697242127012901,0.0434061492035743,-0.1579991879730861,0.8798943067063439,-0.7987313622891828,0.5546519882488934,-1.3962121963837677,1.5530155681190962,-0.2257677739825747,0.9682662863696376,-0.7888298831382822,1.0286246937043215,-0.7768482240905067,0.3074246997589847,0.6000547068424955,11.349567861132527,-1.4393855673788307,0.2273720376218136,-1.192741004571503
1.84,0.5520682502119874,-1.387787844248682,1.546918370246719,-0.0103498076259676,0.0720988651734789,0.0432571160243574,-0.1727096800999019,0.8942929297847477,-0.768106367245124,0.5546519882488934,-1.3962121963837677,1.5530155681190962,-0.2257677739825747,0.9682662863696376,-0.7888298831382822,1.8449994895769464,-0.7355246063407885,0.7199311539201891,1.53124975220294,11.322185074710433,-1.439067357226519,0.2277583308389749,-1.204502619297492
1.86,0.5484707853063192,-1.3697877022983016,1.531872959534445,-0.0064438877623735,0.0744261426862736,0.0433792394887327,-0.186225481022623,0.904227540023494,-0.7382083979572791,0.5546519882488934,-1.3962121963837677,1.5530155681190962,-0.2257677739825747,0.9682662863696376,-0.7888298831382822,1.7141046662291022,-0.6757900461360544,0.4967305119373211,1.494898464392247,12.66031236073104,-1.4407317293920088,0.2239461111750513,-1.2155213570517749
1.88,0.5446121868900076,-1.351648289945452,1.5173845689546954,-0.0014914033687082,0.0763921363767896,0.0435759238733186,-0.1989579306501779,0.9090957216359778,-0.7121304127060856,0.5523943105090676,-1.3865295335200711,1.5451272692877134,-0.2457677742805979,0.9882662866676608,-0.7818073592582773,1.4712883644036396,-0.6366224813777451,0.2434090806241851,1.3038992625596768,12.447066791951327,-1.44172482685662,0.2189930844301537,-1.224118129246572
1.9,0.5407153095739138,-1.3343544577476862,1.5040729248248543,0.0027139796075626,0.0777672463007471,0.0437258807955288,-0.2106436841176993,0.91122746569722,-0.6904057748557887,0.5478789550294162,-1.3671642077926782,1.529350671624948,-0.2857677748766444,1.0282662872637074,-0.7677623114982676,1.2380034900727075,-0.5842876733760701,0.106587203062114,1.086231892514844,12.202294254735534,-1.442880229543548,0.2141950862317439,-1.2316564996903188
1.92,0.5363759431189047,-1.316121564123688,1.4904835989833052,0.0061156080343156,0.0786060876489854,0.0438047400382845,-0.222730122764789,0.9121320072775366,-0.6697721898301335,0.5433635995497647,-1.3477988820652855,1.513574073962182,-0.3257677754726908,1.0682662878597535,-0.7537172637382578,1.1965001312696606,-0.604321932354486,0.0452270790158249,1.0316792512827575,12.000847630858516,-1.4442752418382028,0.2104416492174066,-1.2370670369584402
1.94,0.5317942810219118,-1.2978784441331828,1.4772859419123792,0.0083473372746525,0.0788020723100474,0.0437904893552739,-0.2349058380404421,0.9123584025550678,-0.6511045753873113,0.5368482440403108,-1.3264335563080905,1.498499728687417,-0.3657677760687373,1.1082662884558,-0.739672215978248,1.1144271244470474,-0.6087857637826516,0.0113197638765605,0.933380722141114,11.860374427044007,-1.446104853425296,0.2079209337593872,-1.240642937073605
1.96,0.5269673070766673,-1.2796376920867802,1.4644530722817306,0.0093439742628871,0.0784072682461064,0.0436777775583641,-0.247260585014487,0.9118325631336576,-0.6331327091405575,0.530332888530857,-1.3050682305508954,1.4834253834126518,-0.4057677766647838,1.1482662890518467,-0.7256271682182382,1.0907614957920315,-0.6177373487022477,-0.0262919710705189,0.8985933123376866,11.743232607011125,-1.4481193886901949,0.2067402105688713,-1.2421037352840945
1.98,0.5221454677050148,-1.2623179462459018,1.4525914511733529,0.0090794890253583,0.0776875622229434,0.0434783518129764,-0.2597307823301888,0.9114459693497664,-0.6163570550754577,0.522817533006502,-1.282702904778799,1.468702164331887,-0.4457677772608302,1.188266289647893,-0.7115821204582284,1.045320339845854,-0.6235098657850907,-0.0193296891945471,0.8387827032549922,11.712987125999462,-1.4507040169557397,0.2069260831972101,-1.2425437146852365
2.0,0.5168075397868321,-1.2440921370734603,1.4404497809441674,0.007630500881273,0.0768611384865234,0.0431845826662469,-0.273443437531669,0.911260552479616,-0.598691800448581,0.5143021774672458,-1.2593375789918018,1.4543300714451224,-0.4857677778568766,1.2282662902439394,-0.6975370726982187,1.118182133110264,-0.6856327600740092,-0.0092708435075306,0.8832627313438368,11.70014094943872,-1.4532702360412135,0.2084624062624387,-1.242646314222995
2.02,0.5111890515649659,-1.225862890548089,1.428660740502267,0.0050696667191529,0.0761754070015731,0.0428162458136606,-0.2877400540989318,0.9119313149919792,-0.5811004826288302,0.5091589285885053,-1.2167456477784135,1.42177359841958,-0.359730783820305,1.0114459708398826,-0.5493536335900336,1.133906555072777,-0.7148308283631388,0.0335381256181599,0.8795658909875381,11.704849849711536,-1.4557667332390156,0.2112820055970999,-1.2431104539991706
2.04,0.5052647870802103,-1.2075459222059628,1.417322848134027,0.0037607236084745,0.0764404660355277,0.0425415737390574,-0.3037977087942264,0.9192050794131624,-0.5530636750267401,0.5091589285885053,-1.2167456477784135,1.42177359841958,-0.359730783820305,1.0114459708398826,-0.5493536335900336,1.6559125155671752,-0.8028827347647316,0.3636882210591663,1.401840380104502,11.7015247995987,-1.4573160340042173,0.2127080993314285,-1.244640899804762
2.06,0.499352278971145,-1.1900330174639515,1.407086702969959,0.0044832453141756,0.0778718587265405,0.0424200568603063,-0.3176361890684339,0.9238096137032168,-0.5258952991555192,0.5091589285885053,-1.2167456477784135,1.42177359841958,-0.359730783820305,1.0114459708398826,-0.5493536335900336,1.541773264627337,-0.6919240137103738,0.2302267145027237,1.3584187935610448,12.487992628985012,-1.458270251889644,0.211978235632043,-1.2514338679714767
2.08,0.4928601024092532,-1.171523726486755,1.3968594377001553,0.0060040728989828,0.0798467418884816,0.0423449051380056,-0.3307645030763761,0.92688147525365,-0.4983206994403557,0.5055616207503023,-1.206631188070015,1.4162800620836795,-0.3797307841183282,1.0314459711379058,-0.5359529492929488,1.5347210752508564,-0.6564157003971116,0.1535930775216576,1.3787299857581758,12.440662544562656,-1.458750416412944,0.2103505218206256,-1.2598468499317246
2.1,0.4861173266254175,-1.1529685924829054,1.387169788744186,0.007516989815154,0.0817632770628983,0.0422669076318051,-0.3428208722165827,0.928528282513053,-0.4720893664163808,0.4983670050738962,-1.1864022686532172,1.405292989411879,-0.4197307847143746,1.0714459717339524,-0.5091515806987792,1.4458136491343052,-0.6028184570103262,0.0823403629701458,1.311566651198745,12.28389972572495,-1.4592794027721117,0.2087063186831274,-1.2683055043880016
2.12,0.4791424887211963,-1.1343956390688992,1.3779916721539736,0.0083274488427291,0.0832659684714369,0.0421346771308399,-0.3540994528912501,0.92887867756171,-0.4470408960083948,0.4911723893974901,-1.1661733492364197,1.3943059167400784,-0.4597307853104211,1.1114459723299988,-0.4823502121046096,1.3736402626823891,-0.5639290337333736,0.0175197524328485,1.252423520399301,12.28389972572495,-1.4601563508403177,0.2078496038382838,-1.275038566197368
2.14,0.4723121612530267,-1.1167539850429729,1.3697291321817986,0.0079295053221713,0.0841330848531428,0.0419211251863355,-0.3643877800325555,0.9283467649475488,-0.4239578300075823,0.4819777736912816,-1.1439444297898196,1.3846589124979862,-0.4997307859064675,1.1514459729260451,-0.45554884351044,1.2638834424042924,-0.5144163570652671,-0.0265956307080539,1.154153300040625,12.218982851052717,-1.461744286686727,0.2083310765692947,-1.2804984513061068
2.16,0.4649137415656499,-1.0981982335416367,1.361507382415978,0.0058349907193358,0.0843591809780138,0.0415742483073221,-0.3749854491399914,0.9274687380514692,-0.3994180874265009,0.4727831579850732,-1.1217155103432197,1.375011908255894,-0.539730786502514,1.1914459735220917,-0.4287474749162703,1.3372364111168589,-0.5298834553717935,-0.0439013448039871,1.226987129054069,12.178776548069436,-1.464039271020788,0.2108031599051104,-1.2842297928183068
2.18,0.4572969043810655,-1.079636084294375,1.3537801076006477,0.002380881329439,0.0840121645845049,0.041133847473064,-0.3862534947222385,0.929185005499644,-0.3745443406742275,0.4625885422639636,-1.0984865908817183,1.366034938228656,-0.5797307870985604,1.231445974118138,-0.4019461063221007,1.368043952778469,-0.5634022791123572,0.0858133724087495,1.2436873376136692,12.206215964059991,-1.467502585523416,0.2149234517512156,-1.2863968121789475
2.2,0.4494470136892887,-1.0610108281134034,1.3465551727734169,-0.0011333980426722,0.0834131208711228,0.0406965694131268,-0.3982119132324097,0.9332633035774937,-0.3492067716283836,0.4513939265279529,-1.074257671405316,1.3577280024162723,-0.6197307876946069,1.2714459747141844,-0.3751447377279311,1.4156524058089817,-0.5979209255085605,0.203914903892477,1.2668784522921943,12.230327484342524,-1.4711756539888856,0.2189765479904507,-1.2891451474968458
2.22,0.4417469465383166,-1.043168025929311,1.3401933549932992,-0.0020998549064473,0.0833288982092424,0.0404513569004007,-0.4115347672647987,0.9436520953643388,-0.3217506757759707,0.4379842296449536,-1.0331768340193928,1.3350528905669363,-0.4834215603297863,1.0291850069897603,-0.2773079308908642,1.6118798294349137,-0.6661427016194515,0.5194395893422521,1.3728047926206466,12.268795815086378,-1.4745708966348314,0.220485987046072,-1.2937531483261435
2.24,0.4333808471680755,-1.024215122590974,1.3340733052039442,-0.0003165715808205,0.0839834141725744,0.040386667914265,-0.4242865120444384,0.950921904433172,-0.2916685434653795,0.4379842296449536,-1.0331768340193928,1.3350528905669363,-0.4834215603297863,1.0291850069897603,-0.2773079308908642,1.6736127114525865,-0.6375872389819848,0.3634904534416672,1.5041066155295573,12.62314242393495,-1.4769948739008465,0.2186045634538585,-1.3022837829031932
2.26,0.4247704222418793,-1.005145765564573,1.328556350474989,0.0027011975272477,0.08482987595683,0.0404057999886236,-0.4361000289330103,0.9553914985925526,-0.2615539406898087,0.4379842296449536,-1.0331768340193928,1.3350528905669363,-0.4834215603297863,1.0291850069897603,-0.2773079308908642,1.632808740756677,-0.5906758444285926,0.2234797079690265,1.5057301387785438,12.62314242393495,-1.479491440192284,0.2154189286837323,-1.3104167979016177
2.28,0.4163785288100297,-0.9869771476475226,1.3238700339678888,0.005358963552669,0.0854949323618542,0.040406546435991,-0.4467013573619154,0.9570564232924168,-0.23326300466531,0.4331500140416557,-1.0228849839494951,1.3322798112580276,-0.5028551734512958,1.0491850072877835,-0.2578606489341915,1.5128922630643635,-0.5300664214452577,0.0832462349932172,1.4145468012249307,12.621343796016845,-1.4823580047098237,0.212249013466283,-1.3186935862856195
2.3000000000000003,0.4073319392562521,-0.9678322317457216,1.3195177516599212,0.007213976476097,0.085824495127529,0.0403368789815067,-0.45744331228919,0.9575372507124476,-0.2034595677231735,0.42348158283506,-1.0023012838097,1.3267336526402105,-0.5417223996943149,1.08918500788383,-0.2189660850208462,1.5841919424673276,-0.5370977463637294,0.0240413710015374,1.4901718471068277,12.620226985899537,-1.4853211304955398,0.2101571885617753,-1.325992109416114
2.32,0.3980721164855753,-0.948688719995162,1.3157611327680494,0.0076777976769801,0.0856428892410949,0.0401646936652213,-0.4681022979866626,0.957053530713899,-0.173704508641767,0.4138131516284642,-0.9817175836699048,1.321187494022393,-0.580589625937334,1.1291850084798765,-0.1800715211075008,1.5805153448115514,-0.5329492848736267,-0.024185999927434,1.4877529540703247,12.626314738142357,-1.4890123162846352,0.2097314988501348,-1.3319505319390117
2.34,0.3885975799805268,-0.9295608904466632,1.3126030905992223,0.0063667664856866,0.0849525051091224,0.0398662987839452,-0.4789282855310157,0.9560488946157136,-0.1435945087379422,0.4022013591097176,-0.9591338835003071,1.317586063600243,-0.6194568521803531,1.1691850090759228,-0.1411769571941555,1.600643147463384,-0.5412993772176578,-0.050231804909262,1.5054999951912396,12.626314738142357,-1.4923077782931888,0.2112459552106697,-1.3362508092505223
2.36,0.3793878808658776,-0.9113951898699528,1.3101662057708987,0.0035840746273633,0.0840240374277454,0.0394802075307516,-0.4900278628480582,0.9565137567651872,-0.1144329219443983,0.3905895665909709,-0.9365501833307096,1.313984633178093,-0.6583240784233723,1.2091850096719694,-0.1022823932808101,1.5603003378776232,-0.5549788658521237,0.0232431074736749,1.4580793396771945,12.661666074180175,-1.495840957959372,0.2148134873734728,-1.3396403687991043
2.38,0.3694582519364309,-0.8922333615605851,1.3082092226287532,8.478026106206496e-05,0.0830519574981806,0.0390447239994464,-0.5023869018743772,0.9597833947477954,-0.0827627500803785,0.3780060934161487,-0.912966483146211,1.3113555668537766,-0.6971913046663913,1.2491850102680158,-0.0633878293674648,1.707656408713373,-0.6179519513159482,0.1634818991304076,1.5835085932009911,12.708893887373051,-1.4990312028656303,0.2191297477533137,-1.342787553405176
2.4,0.3592742985736534,-0.8729840052487643,1.3068938693485288,-0.0030488571447309,0.082316991946404,0.0386460308022707,-0.5153622189880809,0.964889024626442,-0.0503764378017874,0.3644509395852511,-0.8883827829468112,1.309698864627294,-0.7360585309094104,1.289185010864062,-0.0244932654541195,1.7630226414210644,-0.648765855685185,0.2552814939323355,1.619315613929555,12.843362566341057,-1.5019204588248374,0.2228734563601878,-1.346302510912008
2.42,0.3493555780355096,-0.8545919872907607,1.3062482866358636,-0.0053717946341263,0.0819942824382442,0.038320547883187,-0.5280115618028275,0.9706953362823244,-0.0192141473345062,0.344338906842712,-0.8442441918231953,1.304071085124734,-0.5610790703187722,1.0597833962379115,0.0172372514097375,1.7064637967573608,-0.6324671407373306,0.2903155827941206,1.5581145233640572,12.843362566341057,-1.5044176880407891,0.2260270398834219,-1.3511175967852525
2.44,0.3385514613640375,-0.8350228008873108,1.306042664031831,-0.0041921167293568,0.0848650060105631,0.0382192093620523,-0.5513114351064243,0.9850779980010024,-0.0038580320110678,0.344338906842712,-0.8442441918231953,1.304071085124734,-0.5610790703187722,1.0597833962379115,0.0172372514097375,1.5696777789600065,-1.164993665179842,0.7191330859338929,0.7678057661719223,12.881807038847,-1.505661385222105,0.2248878885809926,-1.359365368005527
2.46,0.327328476381474,-0.8152330935130521,1.3061370265272667,0.0011699767848699,0.0923993958604835,0.0384111978136429,-0.5691088691384968,0.9923162876441716,0.0127695994787811,0.344338906842712,-0.8442441918231953,1.304071085124734,-0.5610790703187722,1.0597833962379115,0.0172372514097375,1.270452305329289,-0.8898717016036228,0.3619144821584652,0.831381574492452,11.67869450422404,-1.495219497672866,0.2184282091200148,-1.3782339958380785
2.48,0.315807988824798,-0.7953654982102327,1.306584481387023,0.0068044797439413,0.1021318866743814,0.0386707417375687,-0.5815732227744727,0.994226499171588,0.031092772092106,0.3387281161395243,-0.8336463578608162,1.3042434576388315,-0.5728175040076513,1.0797833965359347,0.0372372517077608,1.1121462069573356,-0.6232176817987933,0.0955105763708108,0.9161586306662411,11.84994001142968,-1.4818044925400544,0.2110578954602578,-1.398446565609346
2.5,0.3046747614900454,-0.7764828618086106,1.307357552882129,0.0110536687916805,0.1121499846886398,0.0388911933670367,-0.5893930106760563,0.9937037329003948,0.0493289620419312,0.3275065347331489,-0.812450689936058,1.304588202667026,-0.5962943713854093,1.1197833971319813,0.0772372523038072,0.9924477206459752,-0.3909893950791832,-0.0261383135596482,0.9118094974912598,11.936866950813965,-1.4673610951443308,0.2050585613621572,-1.4184501147694075
2.52,0.2928455574426639,-0.7566263429991897,1.3085545141821644,0.0139992674004014,0.1223475209498368,0.0390482776673844,-0.592835284957223,0.9923044189692736,0.0694222404726,0.3162849533267735,-0.7912550220112997,1.304932947695221,-0.6197712387631673,1.1597833977280276,0.1172372528998537,1.0216985487375827,-0.1721137140583362,-0.0699656965560679,1.004663921533441,12.007404383116407,-1.4530917691183738,0.2010087417150346,-1.4368873997427507
2.54,0.28099148785804,-0.736802682869063,1.310160998408627,0.0153232194616243,0.1310306975736845,0.0390897589812176,-0.5922777385204752,0.9903531786916194,0.0902264327032721,0.3038895285515101,-0.7680593540567392,1.307277692753218,-0.6432481061409253,1.199783398324074,0.1572372534959001,1.045146653610185,0.0278773218373939,-0.0975620138827071,1.0402096115336046,12.092755078750995,-1.4417388410347196,0.1991405221878346,-1.4518856991411235
2.56,0.2691796362559155,-0.7170231602028385,1.3121870770889474,0.0147879814102376,0.1374798560651012,0.0389702754028473,-0.588947888651291,0.9879022822603456,0.1113412454031533,0.2914941037762468,-0.7448636861021786,1.3096224378112151,-0.6667249735186834,1.2397833989201206,0.1972372540919466,1.075790533537084,0.1664924934592082,-0.1225448215636859,1.055740634994061,12.167906741741715,-1.4330752476850426,0.1995864752994541,-1.4640416909820215
2.58,0.2580353505946859,-0.6982694219029072,1.3145104917082795,0.0125721428558747,0.1412935906491172,0.0386981888358487,-0.5844803081862954,0.9864660995590372,0.13216571522815,0.2785117573165395,-0.720668018132717,1.3129671828841134,-0.6902018408964414,1.279783399516167,0.237237254687993,1.0673336397946798,0.2233790232497812,-0.0718091350654204,1.041223491249832,12.214347455133066,-1.4282052816773656,0.2025448233485879,-1.471352094640439
2.6,0.2463995982905261,-0.6785339660135948,1.317398314059784,0.0091608675393778,0.1430822447644394,0.0383047714754164,-0.5794790924077176,0.9874760777790448,0.1555977790358394,0.2649424891723883,-0.6954723501483541,1.3173119279719128,-0.7136787082741994,1.3197834001122133,0.2772372552840395,1.199055700912614,0.2500607889288908,0.0504989110003684,1.1716031903844737,12.284192808969236,-1.4266550171116996,0.2070255628960106,-1.474490101525391
2.62,0.2348627438198597,-0.6587502997219751,1.320772098014493,0.0058559071382287,0.1428878556051117,0.0379040588108757,-0.5745576526736191,0.9908165569937786,0.1806769529921381,0.2288113351853711,-0.6489461169249553,1.3211187774696873,-0.608919179257038,1.0864661010491534,0.2321657167182661,1.2887439008301078,0.246071986704921,0.1670239607366952,1.253958697814933,12.514840723747511,-1.4279229099536923,0.2111811146442047,-1.4750380650567352
2.64,0.2233289014196789,-0.6388182293279541,1.3244574665135591,0.0054520406099787,0.1427701158322617,0.0377112643595288,-0.5791956587122501,1.001436097869003,0.1855429389740346,0.2288113351853711,-0.6489461169249553,1.3211187774696873,-0.608919179257038,1.0864661010491534,0.2321657167182661,0.6284177909459322,-0.2319003019315479,0.5309770437612049,0.2432992990948262,12.514840723747511,-1.4327487843912303,0.2122115816345378,-1.4749761860610788
