t,x,y,z,roll,pitch,yaw,v_x,v_y,v_z,ref_x,ref_y,ref_z,ref_v_x,ref_v_y,ref_v_z,a_com,a_x,a_y,a_z,thrust,wind_x,wind_y,wind_z
0.0,0.0265617245061115,-1.035211171319568,2.545837495505318,0.0185576394659736,0.1500213388062952,0.0284736391406304,0.001161262633726,-0.0070049162306299,-0.0032674843781128,0.0265944937945807,-1.0354038946857804,2.545736736620318,0.0643608078019796,0.093376649248374,-0.1033358935225199,0.390812731573076,0.0580631316863028,-0.3502458115314996,-0.1633742189056444,10.663222540300922,-1.413017640132372,0.1732630528009073,-1.2778190573721198
0.02,0.026490044269426,-1.0355829221259352,2.545550795232701,0.0085528795539235,0.152136441643016,0.0278063805403878,-0.0082699884666601,-0.0259630850427585,-0.0264330991695604,0.0265944937945807,-1.0354038946857804,2.545736736620318,0.0643608078019796,0.093376649248374,-0.1033358935225199,1.569240557318598,-0.4715625550193115,-0.9479084406064268,-1.1582807395723782,9.240048006150118,-1.4079872825689883,0.1844609375506561,-1.267665682636144
0.04,0.0262415531273046,-1.0361121515036982,2.5447132433814152,-0.0079027295216687,0.1576283791524084,0.0266827134175537,-0.0156809469488436,-0.0252340300705749,-0.0562837541853825,0.0265944937945807,-1.0354038946857804,2.545736736620318,0.0643608078019796,0.093376649248374,-0.1033358935225199,1.5382745460829956,-0.3705479241091746,0.0364527486091795,-1.4925327507911053,9.240048006150118,-1.3980524520440774,0.2021092775377898,-1.2672175523296978
0.06,0.025899477131168,-1.0365270665088695,2.543362119213399,-0.0238878334869804,0.1643502420894053,0.0255039993729467,-0.0196873058478557,-0.0181445872198748,-0.0844563366468587,0.0272381018726005,-1.0344701281932966,2.5447033776850927,0.0770105316894232,0.1133766495463972,-0.1233358938205431,1.4662925305934942,-0.2003179449506032,0.3544721425350068,-1.4086291230738068,8.958010189014658,-1.3872966831327076,0.2212513627344703,-1.268758291575681
0.08,0.0254853535939207,-1.036778332619981,2.5413696614105192,-0.040107424146996,0.1720413561659365,0.0241949873464916,-0.0212544732107751,-0.0069910603659063,-0.1132996756363622,0.0285253180286401,-1.0326025952083293,2.5426366598146424,0.1023099794643103,0.1533766501424437,-0.1633358944165896,1.548221058900352,-0.0783583681459695,0.5576763426984217,-1.442166949475178,9.001711047723347,-1.3762771618792309,0.2397283128407378,-1.2714173122078694
0.1,0.0250650384060424,-1.036772757209461,2.538812832252428,-0.0555654929308901,0.179821951874317,0.022838057112793,-0.0204791750383389,0.0073307587929118,-0.1409223389752996,0.0298125341846797,-1.0307350622233618,2.540569941944192,0.1276094272391973,0.1933766507384901,-0.2033358950126361,1.5562190729540233,0.0387649086218109,0.716090957940909,-1.3811331669468712,9.149090251719826,-1.3655502199431653,0.2573925582319522,-1.2745796055631264
0.12,0.02468199756257,-1.0364491804954126,2.535715839012444,-0.0702605723238514,0.1873988106819592,0.0214571221762093,-0.017672254552911,0.0246317459126305,-0.1673862035813171,0.0323647227294636,-1.026867529208592,2.536503224043939,0.1529088750140844,0.2333766513345366,-0.2433358956086825,1.587087810908561,0.140346024271391,0.8650493559859362,-1.323193230300873,9.149090251719826,-1.3559574017071825,0.2734349161043271,-1.2776696266462977
0.14,0.0243850888157185,-1.0357750050033776,2.532284070968265,-0.0828859181646125,0.1942831950139522,0.020191264011621,-0.0135718544313242,0.0452730013948979,-0.1925637401487384,0.0349169112742476,-1.022999996193822,2.532436506143686,0.1782083227889715,0.2733766519305831,-0.283335896204729,1.640718635724281,0.2050200060793436,1.0320627741133706,-1.2588768283710623,9.232436123090338,-1.3465526619767867,0.2889122435268753,-1.281798870472921
0.16,0.0241704829336635,-1.0346077951149355,2.528150881497739,-0.0940545974362981,0.2011541834292892,0.0189848627695372,-0.0079392180355425,0.0701060350641421,-0.2194445495797059,0.0381015860134037,-1.018132463164151,2.527369788228533,0.2035077705638586,0.3133766525266295,-0.3233358968007754,1.851340102229256,0.2816318197890837,1.2416516834622084,-1.3440404715483771,9.255762880031398,-1.3375043297834792,0.3019448166649651,-1.2861737262491306
0.18,0.0240827770764793,-1.0329173528134286,2.5234803873690894,-0.1026774626368499,0.2076296403955611,0.0179607941579305,-0.0009530209701459,0.0971210830214105,-0.2462473238073096,0.041918746946932,-1.012264930119579,2.5213030702984778,0.2288072183387457,0.3533766531226759,-0.3633358973968218,1.9345596862503136,0.3493098532698273,1.3507523978634188,-1.340138711380187,9.301473651383276,-1.3296934725858045,0.3116427579963136,-1.2904939911594877
0.2,0.0241486649915402,-1.03067432390513,2.5182769892956016,-0.1089127880634776,0.2137130822574491,0.0171310254228123,0.0073415127921771,0.1252723233808579,-0.2727306875984993,0.024035126027972,-1.028061298662358,2.511168021178724,0.0675812266070444,0.1971210845115266,-0.3462473252974258,1.9765248428784004,0.4147266881161583,1.4075620179723698,-1.3241681895594826,9.34108332427877,-1.3223539670327478,0.3192259036229803,-1.2952607907369895
0.22,0.0243980538301715,-1.027899538077893,2.512944807922313,-0.1094986415879022,0.2191113410822095,0.0167671814732867,0.0187904983545998,0.1641741676509536,-0.2864555254280843,0.024035126027972,-1.028061298662358,2.511168021178724,0.0675812266070444,0.1971210845115266,-0.3462473252974258,2.140562970033672,0.5724492781211333,1.945092213504787,-0.6862418914792473,9.34108332427877,-1.3164687818580574,0.3208186012239453,-1.3037732834955496
0.24,0.0249113246283452,-1.024260402890197,2.507069755752908,-0.1038230134841432,0.2243869935460296,0.0169122034504759,0.0320568362124756,0.1963497969580221,-0.3003794062309122,0.024035126027972,-1.028061298662358,2.511168021178724,0.0675812266070444,0.1971210845115266,-0.3462473252974258,1.874260719641582,0.6633168928937925,1.6087814653534231,-0.6961940401413957,10.193446530447543,-1.31116160487585,0.3151457118816626,-1.3171258243482589
0.26,0.0256967473232699,-1.0200545140513024,2.5008974190274738,-0.0963305677750781,0.2292920663427562,0.0172765420871449,0.0459447843605669,0.2222289694053374,-0.3161382921860191,0.0247109382940425,-1.0260900878172428,2.5077055479257493,0.0812880761224824,0.2171210848095498,-0.366247325595449,1.6665451965578515,0.6943974074045619,1.293958622365765,-0.7879442977553441,9.946637895220192,-1.3052190198330202,0.3068153028218061,-1.328059987970087
0.28,0.0267662668760603,-1.0153718922141666,2.494392896229183,-0.0888298501686607,0.2338673983219968,0.0177237730688409,0.0603971000701934,0.2446121687745225,-0.3336225507871754,0.0260625628261833,-1.0221476661270124,2.500780601419801,0.1087017751533586,0.2571210854055962,-0.4062473261914954,1.5934054272245948,0.7226157854813248,1.1191599684592588,-0.8742129300578161,9.946637895220192,-1.2997102994194072,0.2986459370512497,-1.336674770338753
0.3,0.0280544986945291,-1.0105322859702168,2.4878722776956854,-0.0823371475636424,0.2379396553394818,0.0181696385981938,0.0745666020574303,0.2637515450612079,-0.3519001376572407,0.0274141873583242,-1.0182052444367815,2.4938556549138524,0.1361154741842348,0.2971210860016427,-0.4462473267875419,1.500966932515862,0.7084750993618473,0.9569688143342692,-0.9138793435032656,9.841425963609254,-1.2941254872039851,0.2906534333688728,-1.3438569095807982
0.32,0.0297063762691242,-1.0050618173190533,2.480618271303109,-0.0763898142815913,0.2419621295967329,0.0186351641039767,0.0899478374484618,0.2823320202938427,-0.3726257975291004,0.0301364968420089,-1.012262822716749,2.484930708378102,0.1635291732151109,0.3371210865976891,-0.4862473273835884,1.5901017570810452,0.7690617695515725,0.9290237616317392,-1.0362829935929878,9.75184558867113,-1.2888516591119512,0.2836827557295928,-1.3496192987670388
0.34,0.0316724311286444,-0.9992316076310852,2.472941869875758,-0.0713955045921888,0.2457307317515406,0.0190847829168577,0.1059688069109396,0.2998854821538973,-0.3939981958070404,0.0328588063256936,-1.006320400996716,2.4760057618423508,0.1909428722459871,0.3771210871937356,-0.5262473279796349,1.5981042628227708,0.8010484731238887,0.8776730930027288,-1.0686199138969954,9.670564308927167,-1.2842629464207895,0.2781270427442682,-1.354109095943705
0.36,0.0338432187613494,-0.99336683263673,2.4652505178110875,-0.0671733912926479,0.2490866990989376,0.0195161577386248,0.1218035575071144,0.3165111192770906,-0.4145566903346341,0.0362664582851502,-0.999377979261782,2.466080815291699,0.2183565712768633,0.4171210877897821,-0.5662473285756813,1.540943569242775,0.7917375298087433,0.8312818561596658,-1.0279247263796865,9.64756551757091,-1.2797204255508186,0.2729545760508102,-1.3580892746776274
0.38,0.0364592772899282,-0.9868584822586004,2.4567282297467727,-0.0630019321238579,0.2523956943342404,0.0199890398940879,0.1390419335992219,0.333359680607262,-0.4366169196573132,0.0403594527203787,-0.9914355575119468,2.4551558687261457,0.2457702703077394,0.4571210883858285,-0.6062473291717277,1.6337758008358128,0.861918804605373,0.8424280665085715,-1.1030114661339545,9.641498930004673,-1.2747819558621634,0.2681396382901575,-1.3620536484420571
0.4,0.0394263093760728,-0.9800193946124036,2.4477616243657274,-0.0589965995205492,0.2554884695099868,0.0204846002699501,0.1568729277554847,0.3495860414666394,-0.4589455237227349,0.0434113739698893,-0.9701904982282374,2.434897383763907,0.2003004843325498,0.4333596820973782,-0.5366169211474293,1.6430198559738858,0.8915497078131426,0.8113180429688671,-1.1164302032710849,9.621532209487668,-1.2700980106379658,0.2637384928891005,-1.3653894046885688
0.42,0.0428078229364641,-0.97285888626769,2.4385328829246298,-0.0553502825645342,0.2582829661668303,0.0209903528661258,0.1806906977565411,0.3657308721324995,-0.4618606009644336,0.0434113739698893,-0.9701904982282374,2.434897383763907,0.2003004843325498,0.4333596820973782,-0.5366169211474293,1.4460631040670264,1.1908885000528169,0.8072415332930044,-0.145753862084938,9.613489424505133,-1.2669696797918002,0.2602560301927357,-1.3748105247223796
0.44,0.04646618174601,-0.9657729474956191,2.429714277365456,-0.0526573351137138,0.2606387779457941,0.0214466192737216,0.2032115833999384,0.3795931105027654,-0.4664050149632168,0.0434113739698893,-0.9701904982282374,2.434897383763907,0.2003004843325498,0.4333596820973782,-0.5366169211474293,1.341644179159838,1.1260442821698662,0.6931119185132978,-0.2272206999391596,10.87276118760019,-1.2645692585677428,0.2574151793687115,-1.3796284847163671
0.46,0.0507729278950384,-0.9580302196185346,2.4203000440060336,-0.0505884225097519,0.2629147691986748,0.0218951346338754,0.2262805578394903,0.3940305392566742,-0.4749579847426421,0.0454143788132148,-0.9658569014072635,2.429531214552433,0.2125521944792153,0.4533596823954014,-0.5566169214454525,1.4263329053596234,1.1534487219775929,0.7218714376954372,-0.4276484889712634,10.620668300766738,-1.2619020989544758,0.2554648995505556,-1.383094568225115
0.48,0.05554391080277,-0.9500017663089146,2.4106769201331373,-0.0490846881873,0.2647772859910791,0.0223346341412339,0.2496322717745459,0.4081395811381441,-0.4869091208455566,0.0494203884998658,-0.957189707765316,2.4187988761294843,0.2370556147725465,0.4933596829914478,-0.596616922041499,1.4892928361038738,1.1675856967527791,0.7054520940734971,-0.5975568051457242,10.395930334437251,-1.2593537272176434,0.2542930830762289,-1.3862032246981273
0.5,0.060510086187365,-0.9421177840115283,2.401289860414835,-0.0481733470155136,0.2658505212784756,0.0227577060360073,0.271878152054323,0.4210874212739464,-0.5005895172321234,0.0534263981865168,-0.9485225141233684,2.408066537706536,0.2615590350658776,0.5333596835874943,-0.6366169226375454,1.4574626915448456,1.1122940139888542,0.6473920067901151,-0.6840198193283409,10.224320852833443,-1.2578969746500317,0.2538777128292707,-1.3894837665426831
0.52,0.0661902159550593,-0.9335585000055816,2.391108325115765,-0.047907130192896,0.2661579854757597,0.0232010294394014,0.2948672868287169,0.4341999931584321,-0.5169167457466084,0.0586575788878344,-0.9378553204516186,2.3953341992537847,0.2860624553592087,0.5733596841835408,-0.6766169232335919,1.5548458525407471,1.149456738719698,0.6556285942242834,-0.8163614257242491,10.093860108093397,-1.2586312630877738,0.2544058162476845,-1.390890611342139
0.54,0.0723285111694107,-0.9247387552655478,2.380590196913371,-0.0484974591107675,0.2655922415011358,0.0236337041925367,0.3177268271032398,0.447208251311623,-0.5340562254635871,0.063888759589152,-0.9271881267798688,2.3826018608010338,0.3105658756525399,0.6133596847795872,-0.7166169238296384,1.5696616886381245,1.142977013726143,0.650412907659545,-0.8569739858489356,9.981530901665792,-1.2604260788885486,0.2559349880950982,-1.3908945045761638
0.56,0.0785868439121401,-0.9161071705985712,2.3702751825526325,-0.0495455395814946,0.2639827860734293,0.0240720158620172,0.3398184966893364,0.4606814878826243,-0.5508562005435366,0.0697325257978028,-0.9155209330932176,2.368869522333381,0.3350692959458711,0.6533596853756336,-0.7566169244256847,1.5425702022001777,1.1045834793048326,0.6736618285500678,-0.8399987539974729,9.945336385592782,-1.2625927629621505,0.2582501179211574,-1.3903252348839408
0.58,0.0856275608657466,-0.9067363603309404,2.359065827695297,-0.0506926811584762,0.2607185250850221,0.0246209686458862,0.362993036162898,0.4756669111591233,-0.5691990368962303,0.0761888775137869,-0.9028537393916656,2.3541371838508285,0.3595727162392022,0.6933596859716801,-0.7966169250217312,1.6568658938257512,1.1587269736780783,0.7492711638249466,-0.9171418176346868,9.921937243825596,-1.266669215092927,0.2606511484162529,-1.3877320737926824
0.6,0.093125878679812,-0.8970556066100956,2.347483857474518,-0.0514520320051644,0.2555158550361435,0.0253096305311365,0.3853296862761837,0.4915885421474087,-0.5880281883195111,0.1037772126738915,-0.8829530147729842,2.3306058758504853,0.3986983045459241,0.5756669126492394,-0.6691990383863464,1.6635513329405531,1.1168325056642865,0.7960815494142737,-0.9414575711640394,9.883187221389562,-1.2737019029819483,0.262577871798454,-1.3822584948358396
0.62,0.1011247818246945,-0.8869889458156854,2.335774512204761,-0.0499410383449462,0.248258588122973,0.0262692090227465,0.4133629409223251,0.5138810610798883,-0.5805408694698746,0.1037772126738915,-0.8829530147729842,2.3306058758504853,0.3986983045459241,0.5756669126492394,-0.6691990383863464,1.8295352620040468,1.4016627323070685,1.114625946623976,0.3743659424818246,9.848077703153647,-1.283653785660576,0.2619925034494713,-1.3764383025472322
0.64,0.1092145587859112,-0.877041782531322,2.324793158708195,-0.04585002261142,0.2397233272095887,0.0274221654118494,0.43636815758315,0.5313981519162437,-0.5757997193204831,0.1037772126738915,-0.8829530147729842,2.3306058758504853,0.3986983045459241,0.5756669126492394,-0.6691990383863464,1.4650656723503026,1.1502608330412445,0.8758545418177721,0.2370575074695735,11.608409921300336,-1.2966796165536518,0.2580926534933468,-1.371616116620093
0.66,0.1181550915268486,-0.8662581986131054,2.313276181427206,-0.0408812129596383,0.2297973790731844,0.0286691201073506,0.4560297910453335,0.5458519703676011,-0.5763456515331968,0.1077641957193507,-0.8771963456464917,2.323913885466622,0.4058393582225293,0.5956669129472626,-0.6891990386843696,1.2204412523826484,0.9830816731091736,0.7226909225678702,-0.0272966106356853,11.187960512480458,-1.3109409337221098,0.2529494078288165,-1.3617947026354942
0.68,0.1274414870066286,-0.8552112936894057,2.301691925649896,-0.0361770880809939,0.2195108075307189,0.0298474028547665,0.4712458629562046,0.5580581961376766,-0.5822198558655031,0.1157381618102692,-0.865683007393507,2.3105299046988947,0.4201214655757398,0.6356669135433091,-0.7291990392804161,1.018610657322686,0.7608035955435577,0.6103112885037731,-0.2937102166153116,10.781614318996615,-1.325189183402082,0.2479976372345351,-1.3498664076966311
0.7000000000000001,0.1369870411156024,-0.8439382193564855,2.289936740263809,-0.0320828994198534,0.2094195053885355,0.0309150623335937,0.4823034301978949,0.5687095498207909,-0.5929272875179483,0.1237121279011877,-0.8541696691405222,2.297145923931168,0.4344035729289502,0.6756669141393555,-0.7691990398764625,0.9359089447952204,0.5528783620845135,0.5325676841557159,-0.5353715826222627,10.13987183870904,-1.3380254082617002,0.2439513716606765,-1.3382006071138477
0.72,0.1462252156673094,-0.833042584327329,2.2785347973764773,-0.0288550795581921,0.2004574829744658,0.0318152281762261,0.4894382642097619,0.5777775573579305,-0.606701625368677,0.1324001993597667,-0.8406563308577351,2.2817619431336387,0.4486856802821607,0.715666914735402,-0.809199040472509,0.8984250111953282,0.3567417005933493,0.4534003768569772,-0.688716892536434,10.13987183870904,-1.3503056051640443,0.2405118931112885,-1.32639860008211
0.74,0.1560670378458107,-0.8213959383064282,2.266228824685746,-0.0262005280322442,0.1920478638712605,0.0326420598675717,0.4942045047752673,0.5865127042466166,-0.6232445163017302,0.1410882708183457,-0.8271429925749479,2.2663779623361093,0.4629677876353711,0.7556669153314485,-0.8491990410685555,0.9652552521458836,0.2383120282752698,0.4367573444343076,-0.8271445466526584,9.902671176180776,-1.3609802516692011,0.2379399282934523,-1.3150019459363638
0.76,0.1659815401991656,-0.8095715078330795,2.253572445306092,-0.0240246060769808,0.1848729905260804,0.0333730437088104,0.4969550488680998,0.5954678900781932,-0.6415330337118791,0.150133394960755,-0.8126296542772597,2.2499939815236787,0.4772498949885816,0.7956669159274948,-0.8891990416646018,1.0274126667824457,0.137527204641627,0.4477592915788309,-0.914425870507446,9.767451240059016,-1.3693362876731845,0.2359940678074683,-1.305203145158444
0.78,0.175933176338704,-0.7975698778278479,2.2405351815499257,-0.0220043284324247,0.178943052174858,0.034038665849979,0.4980059965449498,0.6041842474195195,-0.6612533463043553,0.1595355717869945,-0.7971163159646703,2.232610000696347,0.491532002341792,0.8356669165235413,-0.9291990422606484,1.0793170352891497,0.0525473838424994,0.4358178670663126,-0.9860156296238098,9.66478315448876,-1.3764822912708954,0.2341100090237608,-1.29620376944372
0.8,0.185390682460753,-0.7860106167438814,2.227771795784144,-0.0201497606065371,0.1746059313314109,0.034618217571298,0.4974112428335175,0.6120843638034638,-0.6812548532923082,0.168937748613234,-0.7816029776520809,2.215226019869016,0.5058141096950025,0.8756669171195878,-0.9691990428566948,1.07566938769105,-0.0297376855716124,0.3950058191972139,-1.0000753493976444,9.49193333517269,-1.3817388860496609,0.2322853636363875,-1.2888402466565376
0.8200000000000001,0.1953818781273377,-0.7736541390498874,2.2142213082259925,-0.0175069930868606,0.171367692656749,0.0352304372920793,0.5019332750280138,0.6227146907905219,-0.6711629035735986,0.2008334761659514,-0.767360665456872,2.207472514234708,0.5078728702786491,0.7041842489096356,-0.7612533477944714,0.7669746999490885,0.2261016097248103,0.5315163493529063,0.5045974859354763,9.49193333517269,-1.3861020924668703,0.2297858534955834,-1.284731233523764
0.84,0.2054525645776219,-0.7611222632281021,2.2008677155324,-0.0146345535799198,0.1694605339137651,0.0358146573797525,0.5048368046163896,0.6300483754047189,-0.6648755137677347,0.2008334761659514,-0.767360665456872,2.207472514234708,0.5078728702786491,0.7041842489096356,-0.7612533477944714,0.504342851297523,0.1451764794187904,0.3666842307098517,0.3143694902931981,11.501516875983723,-1.3889517128266369,0.2272549231956206,-1.284522548789973
0.86,0.2150632695868813,-0.7490935148664409,2.1882297433871583,-0.0124702967071818,0.1688795342636882,0.0362969218999743,0.5067881211342122,0.635932837700234,-0.6657449386800771,0.2008334761659514,-0.767360665456872,2.207472514234708,0.5078728702786491,0.7041842489096356,-0.7612533477944714,0.3130113110506867,0.0975658258911327,0.2942231147757546,-0.0434712456171215,10.587821332998828,-1.3895476579316235,0.2251621936021483,-1.2856141124785267
0.88,0.2252184539936557,-0.7363188186132218,2.174852258816716,-0.010971454217233,0.1690520681658309,0.036728372532308,0.5086546554721988,0.6413193276423961,-0.6722015806236887,0.2059122048687379,-0.7603188229677756,2.199859980756763,0.509846245025389,0.7241842492076588,-0.7812533480924946,0.4306577803775894,0.0933267168993279,0.2693244971081032,-0.3228320971805809,10.587821332998828,-1.3889446426818182,0.2239441481483947,-1.2871618937445806
0.9,0.2354094424936561,-0.7234438301211041,2.1612957717986605,-0.0105312522771166,0.1696414404516439,0.0370713709129726,0.5103677993915082,0.6460057687812537,-0.6833021213464665,0.2160696622743109,-0.7462351379895829,2.1846349138008736,0.5137929945188687,0.7641842498037053,-0.821253348688541,0.608521973667122,0.0856571959654717,0.2343220569428816,-0.5550270361388887,10.007634129234248,-1.3876348943322676,0.2239188418360712,-1.2887135981744366
0.92,0.2456335224982026,-0.7104806132937684,2.1474788441165376,-0.0114528042354452,0.1703920540142186,0.0373092605692762,0.5119609867940369,0.6502167107365373,-0.6979699067866587,0.2262271196798839,-0.7321514530113902,2.1694098468449843,0.5177397440123485,0.8041842503997517,-0.8612533492845875,0.7671606871605487,0.0796593701264336,0.2105470977641799,-0.7333892720096102,9.818005660759807,-1.386100826593763,0.2253292307087498,-1.289572967926855
0.94,0.2553768052068138,-0.6980894749383223,2.134064078496085,-0.0138667545650042,0.1711080399220716,0.0374216620346654,0.5135723916616486,0.6542201658804598,-0.7133616953391909,0.2365819145601309,-0.7160677680033951,2.1521847798592924,0.5216864935058282,0.8441842509957982,-0.901253349880634,0.7992675296523433,0.0805702433805843,0.2001727571961264,-0.7695894276266102,9.818005660759807,-1.384341917446782,0.2286605488212417,-1.2895717588690103
0.96,0.2656673604329669,-0.6849358543438461,2.119617640254273,-0.0173677789323401,0.1717373158349888,0.0374703622939172,0.5153891868514507,0.6611525585527213,-0.730513864736492,0.2469367094403779,-0.6999840829954002,2.1349597128736004,0.5256332429993079,0.8841842515918447,-0.9412533504766804,0.9294564647655984,0.0908397594901078,0.3466196336130711,-0.8576084698650566,9.749147941710362,-1.382602774197059,0.2331774533463475,-1.2895034730537354
0.98,0.2759952950871608,-0.6716216862054486,2.10481902816216,-0.0207698800458289,0.1721119289054279,0.0375277539386272,0.5172859847382104,0.6698931047941586,-0.748482199765291,0.2573901730579618,-0.6829003979725039,2.116734645873008,0.5295799924927876,0.9241842521878912,-0.9812533510727268,1.0035637181179418,0.0948398943379835,0.4370273120718693,-0.8984167514399455,9.697976591319277,-1.3813274003186091,0.2373745023618955,-1.2891782892005972
1.0,0.2858415093541871,-0.6588010448453402,2.09041962518708,-0.0235495266730848,0.1721771930397213,0.0376185688772257,0.5190305811815169,0.6791186391244258,-0.7663378802786884,0.2679423054128828,-0.6648167129347066,2.097509578857513,0.5335267419862674,0.9641842527839376,-1.0212533516687732,1.00868655565723,0.0872298221653244,0.4612767165133591,-0.8927840256698738,9.65933963720181,-1.380372775519768,0.2412341206493971,-1.288419400721167
1.02,0.2962391942237469,-0.6451117823129324,2.074885188748721,-0.025940467876432,0.1719437453617535,0.0377578689982816,0.5206071340387224,0.6892636152066821,-0.7862089859834862,0.3018595943240714,-0.6381270309657406,2.067394918173896,0.4957704905257022,0.7698931062842748,-0.8484822012554071,1.1183323528275948,0.0788276428602741,0.5072488041128143,-0.9935552852398888,9.615597604523828,-1.3797834089145689,0.2444355666185337,-1.287304169538523
1.04,0.3067815379324832,-0.6311107430951738,2.05932676112062,-0.0248903786652174,0.1697468647222007,0.0381848039251227,0.5333768122268884,0.7089989820837517,-0.76858490526145,0.3018595943240714,-0.6381270309657406,2.067394918173896,0.4957704905257022,0.7698931062842748,-0.8484822012554071,1.4689772020854397,0.6384839094082995,0.986768343853478,0.8812040361018125,9.553467725547309,-1.383341086899992,0.2440655792339602,-1.2864925718856903
1.06,0.3170300970938409,-0.6174954808392884,2.0448356235809064,-0.020144785822443,0.1640668981616202,0.0389133147619916,0.5441563566464951,0.7222758638582261,-0.7576837853169194,0.3018595943240714,-0.6381270309657406,2.067394918173896,0.4957704905257022,0.7698931062842748,-0.8484822012554071,1.0140372078882105,0.5389772209803356,0.6638440887237196,0.545055997226529,11.934969122939036,-1.392381575966212,0.2391231069959533,-1.2829601281870409
1.08,0.3279878183704977,-0.6029542151965883,2.029727841627972,-0.0142248419002437,0.1551170756757699,0.0397409931771533,0.5504560491356479,0.730941252951168,-0.7539698458347888,0.3068172992293284,-0.6304280999028979,2.0589100961613416,0.4914673916832006,0.7898931065822979,-0.8684822015534303,0.5669401204423927,0.3149846244576426,0.433269454647095,0.1856969741065306,10.81933971642593,-1.4042183331394134,0.2327701872470959,-1.2730462483742784
1.1,0.3390160652486138,-0.5882723585683658,2.0146156458998457,-0.0087067691957777,0.1444156631391679,0.0404835906068787,0.5515493026604349,0.7367893136990846,-0.7576926466522387,0.3167327090398424,-0.6150302377772124,2.0419404521362337,0.4828611939981972,0.8298931071783444,-0.9084822021494768,0.3509069096896939,0.0546626762393476,0.292403037395833,-0.1861400408724955,10.81933971642593,-1.4177900957987557,0.2268241323716403,-1.2596965405409075
1.12,0.3500143258191628,-0.5734935482714801,1.99936183528217,-0.0040541795301275,0.133054021204471,0.0410903463183369,0.5478101662043009,0.7408746538021309,-0.767721659091425,0.3266481188503565,-0.5996323756515269,2.0249708081111253,0.474254996313194,0.8698931077743909,-0.9484822027455232,0.572826840547172,-0.1869568228066997,0.2042670051523143,-0.5014506219593151,10.362446362733865,-1.4310282871213045,0.2220917097276644,-1.2459621589216967
1.14,0.3603509336406522,-0.5593910771672728,1.9846299750784204,-0.0006075727246539,0.1224711678406345,0.0415335750169801,0.5402246467922819,0.7436033493935128,-0.7824428144869806,0.3361332187766204,-0.5822345134960392,2.0060011640562148,0.4656487986281907,0.9098931083704374,-0.9884822033415696,0.8391935124877946,-0.3792759706009507,0.1364347795690945,-0.7360577697777815,9.993422979662682,-1.4443585909162873,0.2182485916958443,-1.231261961365535
1.16,0.371041363218219,-0.5444980264281107,1.9687940161947897,0.0019926987224839,0.1121793548872544,0.0418759787249126,0.5289931388851385,0.745737875815545,-0.8004678756548219,0.3456183187028842,-0.5648366513405513,1.9870315200013045,0.4570426009431874,0.9498931089664838,-1.0284822039376162,1.0672462262980802,-0.5615753953571667,0.1067263211016078,-0.9012530583920652,9.69950122775208,-1.4561701978232755,0.2155563613552317,-1.2170830697723904
1.18,0.3814770768494955,-0.5295587250562527,1.9525774889131065,0.0038412498966195,0.1032052340100185,0.0421305088232189,0.5150088834664466,0.7481393576886995,-0.8203412617642808,0.354888263687023,-0.5464387891701623,1.9670618759314928,0.4484364032581842,0.9898931095625304,-1.0684822045336626,1.2209402015024515,-0.6992127709345985,0.1200740936577293,-0.993669305472944,9.552735172195751,-1.4659107426554476,0.2136427007041028,-1.2038470173515785
1.2,0.3916088547954859,-0.5145736898949516,1.9359452784487696,0.0052221798338242,0.0958695910900712,0.0423303391338537,0.4988763614888305,0.7502724087168343,-0.8418616327360422,0.3639430537290368,-0.5270409269848721,1.94609223184678,0.4398302055731808,1.0298931101585769,-1.108482205129709,1.3490131011308997,-0.8066260988808027,0.1066525514067384,-1.0760185485880702,9.450167345980844,-1.4730107420988807,0.2122343645531822,-1.1918678787460786
1.22,0.4009172464927907,-0.500302640381333,1.9197329943933947,0.0060793987655909,0.0906390991867284,0.0424778435796745,0.4817236101984177,0.7518676089671097,-0.8636038986125816,0.4072275210228178,-0.4921517571718177,1.9115604258248924,0.4476019087335707,0.8481393591788157,-0.9087174709041048,1.3869820349551796,-0.8576375645206386,0.0797600125137687,-1.087113293826969,9.361160278517673,-1.478048053303222,0.2112328660110095,-1.1815086162945845
1.24,0.4104229498310739,-0.4852156223870782,1.9025691259571635,0.0075160085952624,0.0859208536471851,0.042657129246093,0.4699360141807481,0.7564767799248456,-0.8497998208436159,0.4072275210228178,-0.4921517571718177,1.9115604258248924,0.4476019087335707,0.8481393591788157,-0.9087174709041048,0.9364086178654452,-0.5893798008834827,0.2304585478867971,0.690203888448282,11.593936319172826,-1.4853551423412883,0.2100400403730735,-1.174588153771636
1.26,0.4196913143469067,-0.4700689466353298,1.88568129226098,0.0094717576040397,0.0804300376134079,0.0428418993368871,0.4572092728456154,0.7580254696834859,-0.8398669934489779,0.4072275210228178,-0.4921517571718177,1.9115604258248924,0.4476019087335707,0.8481393591788157,-0.9087174709041048,0.8109091272016319,-0.6363370667566343,0.0774344879320154,0.4966413697319038,11.077532612067444,-1.4910998159286877,0.2082212674495006,-1.1695691276182671
1.28,0.4286763991865779,-0.4549110785612793,1.8689097934620704,0.0106967287414449,0.0744765889101127,0.0429472799480263,0.4417212665644278,0.757887166005819,-0.837745148165892,0.4117035401101535,-0.4836703635800295,1.9024732511158515,0.4341205137869956,0.8681393594768388,-0.9263927127320696,0.7816644003002755,-0.7744003140593786,-0.0069151838833492,0.1060922641542949,11.077532612067444,-1.497265110369356,0.2069307503478999,-1.161278248854024
1.3,0.4369009259974927,-0.4405256199674022,1.8529558255688456,0.0105741149877348,0.0689141832047258,0.0429443294140586,0.4246825525949272,0.7566189442802406,-0.8416925901620056,0.4206555782848249,-0.4667075763964532,1.8842989016977691,0.4071577238938452,0.9081393600728852,-0.9617431963879992,0.8767959545874464,-0.8519356984750287,-0.0634110862789194,-0.1973720998056816,10.262544700845863,-1.5029711498419378,0.2069944823206392,-1.1512258429483273
1.32,0.4451876223139897,-0.4254179607114425,1.83602867428265,0.0084705745214045,0.0635844938331658,0.0428076221050963,0.4047685749236158,0.7545601179179717,-0.8507786479931261,0.4296076164594963,-0.4497447892128769,1.8661245522796872,0.3801949340006949,0.9481393606689318,-0.9970936800439286,1.0992744420684162,-0.995698883565574,-0.1029413181134419,-0.4543028915560243,10.262544700845863,-1.5074384847833238,0.2089329440361452,-1.141398533866021
1.34,0.4526714918709699,-0.4110933728507008,1.8197453970373365,0.0045513540145642,0.0594439564882232,0.0425637143817607,0.3839016454441173,0.7540973236458067,-0.862767795582582,0.4372115151395102,-0.4307820019994983,1.8461826786788087,0.3532321441075446,0.9881393612649784,-1.0324441636998585,1.203518367498462,-1.043346473974921,-0.02313971360825,-0.5994573794727953,9.991918933236777,-1.5094408756625552,0.2128598525917328,-1.1316096329510794
1.36,0.4601038308817894,-0.3959973769142372,1.8023467239182565,-0.0005770687079349,0.0565798562794143,0.0422615884426915,0.3603272787936917,0.7558792667030341,-0.8765025522900953,0.4448154138195241,-0.4118192147861196,1.82624080507793,0.3262693542143942,1.0281393618610248,-1.0677946473557878,1.367085975572205,-1.1787183325212809,0.0890971528613671,-0.686737835375667,9.798537210575889,-1.510519045913022,0.2179201867404034,-1.1245745214210383
1.38,0.4670482875561014,-0.3808389489931748,1.784668035134227,-0.0059253682896079,0.0558299807668291,0.0419552779229165,0.3354723262521552,0.7600193376435058,-0.8906839596439684,0.4517452427522093,-0.3918564275578398,1.8054151693856533,0.2993065643212439,1.0681393624570712,-1.1031451310117175,1.4457015319306574,-1.242747627076829,0.2070035470235876,-0.7090703676936538,9.74213212064842,-1.5088368341596594,0.2231677502535206,-1.1215763317639942
1.4,0.4734998092500621,-0.3655799563066492,1.7667014973048565,-0.0109582205383836,0.0572058774079019,0.0416596265131156,0.3112064221597242,0.7657211967277722,-0.9052508916275558,0.4838219038687092,-0.3428379821109995,1.7401338371520283,0.235472324762039,0.8600193391336219,-0.9206786597479666,1.443555338265864,-1.2132952046215475,0.2850929542133174,-0.7283465991793692,9.721128898970164,-1.5046743789619903,0.2278501144418301,-1.1225376419681392
1.42,0.4792708209167892,-0.3508931301588538,1.749731964318351,-0.0131902388619488,0.0580222965917022,0.0415586968306313,0.2972388968243485,0.7786972709082991,-0.8803132139476353,0.4838219038687092,-0.3428379821109995,1.7401338371520283,0.235472324762039,0.8600193391336219,-0.9206786597479666,1.5695206538944502,-0.6983762667687854,0.6488037090263465,1.246883883996025,12.24444458947255,-1.5032907206216042,0.2306453708246929,-1.128660210043131
1.44,0.485058504806367,-0.3352124066648481,1.7323712790462988,-0.0128080535486754,0.0563106625723902,0.0416708096632691,0.2820873687016419,0.7885146493814099,-0.8574673490008092,0.4838219038687092,-0.3428379821109995,1.7401338371520283,0.235472324762039,0.8600193391336219,-0.9206786597479666,1.455921761038417,-0.7575764061353268,0.4908689236555408,1.1422932473413028,12.24444458947255,-1.504569045630808,0.2305301625806858,-1.131997299101739
1.46,0.4905299688978025,-0.3193568477952642,1.7153957821789363,-0.0111382140471536,0.0522538892171583,0.0418907410028286,0.2656183569546394,0.7964905360288779,-0.8411952376827515,0.4861766271163296,-0.3342377887196633,1.7309270505545489,0.2154723244640158,0.8800193394316451,-0.9266775997687662,1.224361795470836,-0.8234505873501274,0.3987943323733978,0.8136055659028862,11.445182055045734,-1.5075044466269136,0.2290558434861785,-1.1309670366161957
1.48,0.4954012144778633,-0.3041615396795596,1.699519498434371,-0.0089894791756722,0.0466636421189916,0.0421391374891247,0.2476321232717681,0.8025717595230022,-0.8307948006313726,0.4908860736115704,-0.3170374019369908,1.7125134773595896,0.1754723238679693,0.9200193400276916,-0.9386754798103656,1.0824220204477062,-0.8993116841435624,0.3040611747062161,0.5200218525689471,11.125329328463522,-1.5128422057600974,0.2268156451246317,-1.1253876265399434
1.5,0.5001293160674107,-0.2880618497062716,1.6829790473209456,-0.0068287275249522,0.0398889302109569,0.0423762986809546,0.2258532941998344,0.8071062101687987,-0.8239781239282169,0.4955955201068112,-0.2998370151543184,1.6940999041646303,0.1354723232719229,0.960019340623738,-0.9506733598519648,1.163341866863538,-1.088941453596688,0.2267225322898247,0.3408338351577833,11.125329328463522,-1.5183082034916728,0.2245420031923619,-1.1175181742578573
1.52,0.5043930765749097,-0.2718845772788139,1.6665362015991865,-0.0053202399911647,0.0330165144498536,0.0425452140876392,0.2014157614631645,0.8104780705813035,-0.8207862191156652,0.4983049665722496,-0.2806366283418436,1.675086436967591,0.0954723226758764,1.0000193412197844,-0.962671239893564,1.243735005165508,-1.2218766368334923,0.1685930206252406,0.1595952406275858,10.874873611447583,-1.5232142537106852,0.2228356588099889,-1.1086727457062
1.54,0.5081441930479476,-0.2556515371999256,1.65014040502689,-0.0048669233646989,0.0266874733944106,0.0426222085955775,0.1748275635332064,0.812840601587526,-0.8189349710367745,0.5010144130376881,-0.2614362415293689,1.656072969770552,0.05547232207983,1.040019341815831,-0.9746691199351634,1.3378536367700942,-1.3294098964979044,0.1181265503111261,0.0925624039445349,10.672977898339012,-1.527102631272416,0.222150563279736,-1.1003318960953927
1.56,0.5111910695182665,-0.2401835425850324,1.634592293039219,-0.0054499003059377,0.0217810719898216,0.0426141555645761,0.1471425588909022,0.8153233852962898,-0.8178023675944242,0.5027238594882254,-0.241235854701993,1.6367595555724723,0.0154723214837835,1.0800193424118774,-0.9866669999767624,1.390958740892891,-1.3842502321152126,0.1241391854381879,0.0566301721175166,10.618327327693803,-1.5298611976685743,0.2224634148755687,-1.092668913083744
1.58,0.5138063500210075,-0.2238483702762013,1.6182436333129429,-0.0070120134923665,0.0186842327161851,0.0425288330697768,0.1157249455613299,0.8181407554678607,-0.8171509330846287,0.5034333059238616,-0.2200354678597159,1.6171461943733532,-0.0245276791122628,1.1200193430079235,-0.9986648800183618,1.5775204982271462,-1.5708806664786157,0.1408685085785455,0.0325717254897717,10.596265074825167,-1.5299564443864424,0.2236976943826479,-1.0882459970514529
1.6,0.5157763406333871,-0.2074502633391174,1.6019028091777583,-0.0094325219734438,0.0185363880240025,0.0423641086829335,0.0832795646249184,0.8217758610139348,-0.8169377610672286,0.519592597299074,-0.1829413325028083,1.5773860866587115,0.0157249440712137,0.9181407569579768,-0.7825703335679985,1.6324538115586538,-1.6222690468205707,0.1817552773037078,0.010658600870006,10.559551624080086,-1.5253286637797754,0.2256720969076211,-1.0897449484710446
1.62,0.5170513262664254,-0.1917380728809248,1.5866575739440942,-0.0105030459076486,0.0211335228794787,0.0422643155761784,0.0528998728440842,0.8315452247945867,-0.7862231693358634,0.519592597299074,-0.1829413325028083,1.5773860866587115,0.0157249440712137,0.9181407569579768,-0.7825703335679985,2.2145836440523343,-1.5189845890417142,0.4884681890325926,1.5357295865682574,10.559551624080086,-1.5195808808376288,0.2266606991597162,-1.099931978495455
1.64,0.5177972809281355,-0.1750172213190535,1.5712868000246782,-0.0093593801300002,0.0262905542770348,0.0422887405843136,0.0236795495262438,0.8398686070891331,-0.7527958231436408,0.519592597299074,-0.1829413325028083,1.5773860866587115,0.0157249440712137,0.9181407569579768,-0.7825703335679985,2.258591076907791,-1.4610161658920189,0.4161691147273216,1.6713673096111326,12.866421895046187,-1.5141751371593843,0.225820752307199,-1.1161752857518452
1.66,0.5179873028400636,-0.15814976451877,1.5565406244773328,-0.0070279822673897,0.032899104576415,0.0423861443363566,-0.0028739486130749,0.846434228266823,-0.7234878602313808,0.5197498467397862,-0.1737599249332285,1.5695603833230316,-0.0042750562268094,0.938140757256,-0.7756542136646725,2.0044652247857444,-1.3276749069659408,0.3282810588844942,1.4653981456130003,12.35714059489692,-1.508557187990781,0.2239206245100839,-1.1323607144185976
1.68,0.5177014178876491,-0.1420249812309078,1.543041213078872,-0.0045496003786412,0.039813900740744,0.0425016721719469,-0.0256542515583845,0.8505943199776848,-0.6989763571244878,0.5200643456212104,-0.155397109794069,1.5539089766516716,-0.0442750568228558,0.9781407578520466,-0.7618219738580204,1.686017756343392,-1.1390151472654757,0.2080045855430867,1.2255751553446492,12.35714059489692,-1.5018496254216194,0.2215501282072347,-1.1502704094134168
1.7,0.5169589908715088,-0.1249822003180164,1.529307311352845,-0.002504802142846,0.0471543406770286,0.0425930750572779,-0.0471623912050698,0.8536226089033728,-0.6758377178809253,0.5203788445026347,-0.1370342946549094,1.5382575699803116,-0.0842750574189023,1.018140758448093,-0.7479897340513684,1.5867949071339502,-1.0754069823342698,0.1514144462844036,1.156931962178126,12.124288091246854,-1.495046907922817,0.2197124888827538,-1.167813806249389
1.72,0.515810491545521,-0.1078872684454048,1.5160094155159414,-0.0013959999719869,0.0540857168691022,0.0426248387086776,-0.0664418982058904,0.8558224775736345,-0.6552251408997778,0.5186933433542567,-0.1166714794859476,1.5232977752992842,-0.1242750580149487,1.0581407590441394,-0.7341574942447163,1.415465596689671,-0.9639753500410272,0.1099934335130836,1.0306288490573745,11.951193306928872,-1.4885640751688198,0.2187826120277331,-1.1832149483324874
1.74,0.5142989859031446,-0.0907576294007633,1.5031137848784986,-0.0016726489716643,0.0602492596029831,0.0425586500878559,-0.0836683809477136,0.8572720252263166,-0.6353827108352799,0.5170078422058786,-0.0963086643169857,1.5083379806182569,-0.1642750586109952,1.098140759640186,-0.7203252544380643,1.315840916406899,-0.8613241370911586,0.0724773826341063,0.9921215032248965,11.801257191627885,-1.483107614403784,0.2192259419358345,-1.195430254420197
1.76,0.5125554360658199,-0.074450086951338,1.491227076941506,-0.0032245318974265,0.0653054488513558,0.042398834816434,-0.0989411045750044,0.8593546574741329,-0.6168605072247079,0.5143223410425993,-0.0749458491331227,1.4937239919323957,-0.2042750592070417,1.1381407602362323,-0.7064930146314121,1.2048500639776067,-0.7636361813645403,0.104131612390812,0.9261101805285998,11.776875834064413,-1.478553652969691,0.2212003918326914,-1.206638730112238
1.78,0.510417278604378,-0.0572309608000153,1.4790937199215588,-0.0059381623145961,0.0698458945517916,0.0421458658928816,-0.1140106681186003,0.8627545792619125,-0.5974687203960811,0.510636839864419,-0.0525830339343585,1.479455809241701,-0.2442750598030881,1.1781407608322787,-0.6926607748247601,1.2396497589686333,-0.7534781771797977,0.1699960893889796,0.9695893414313372,11.767841060616774,-1.4750396122608267,0.224450448362745,-1.2168280082974134
1.8,0.5079856785671863,-0.0399184321848028,1.467345523840376,-0.0089510553788746,0.0736354194140846,0.0418643455225585,-0.1283486782422902,0.8684016588289883,-0.5783483727729546,0.504716745198448,-0.0140932318369197,1.4492202839017547,-0.2140106696087165,0.885300922767295,-0.5247466877298748,1.2278596572625058,-0.7169005061844931,0.2823539783537943,0.9560173811563266,11.772859083741425,-1.4726008709438263,0.2281112304693929,-1.2263903569461057
1.82,0.5052858507647033,-0.0221842028837385,1.4560987107776553,-0.0022568645312156,0.0762989199517202,0.0422612271570918,-0.1407265230084951,0.9000995727225627,-0.5466097097764343,0.504716745198448,-0.0140932318369197,1.4492202839017547,-0.2140106696087165,0.885300922767295,-0.5247466877298748,2.3266453936232985,-0.6188922383102438,1.5848956946787174,1.5869331498260142,11.767363995613778,-1.4715364076754038,0.221920567481385,-1.2444576319281235
1.84,0.5025052097165855,-0.0049910655638996,1.446012994628511,0.0125109648976856,0.0774403482927751,0.0432225629717377,-0.1514531757753854,0.9071765171205556,-0.5167180252788081,0.504716745198448,-0.0140932318369197,1.4492202839017547,-0.2140106696087165,0.885300922767295,-0.5247466877298748,1.626850503042113,-0.5363326383445179,0.35384721989965,1.4945842248813124,12.777964035111836,-1.475068942517775,0.2048733979957417,-1.2573061079110963
1.86,0.4993582245135423,0.0131470865715294,1.4359799394160715,0.028893430574612,0.0773741226925794,0.0442506366005529,-0.162788256679995,0.9057407274317568,-0.4883259844129864,0.5025766385023609,-0.0052402226092468,1.443972817024456,-0.2340106699067397,0.8898101914683715,-0.5102022811966335,1.53023979793282,-0.5667540452304761,-0.0717894844399491,1.419602043291082,12.591284113122128,-1.4777143371297274,0.1861431223978698,-1.2642812526085725
1.88,0.4959810038829692,0.0312039112908806,1.426479815361681,0.0447253320639902,0.0761236459485218,0.0451554802463364,-0.1744743019174572,0.8995656662286412,-0.463115639771949,0.4982964251101865,0.0124657958460991,1.4334778832698585,-0.2740106705027861,0.8988287288705246,-0.4811134681301509,1.423250251250742,-0.5843022618731097,-0.3087530601557753,1.260517232051872,12.378053912008909,-1.4806304345798318,0.1677349655465901,-1.26708705826959
1.9,0.4923660057814916,0.0490735768799244,1.417458475695759,0.0590447693724642,0.0737451530519473,0.0458343634935673,-0.186575919784023,0.8878239123418821,-0.4402776170980573,0.4940162117180122,0.030171814301445,1.422982949515261,-0.3140106710988326,0.9078472662726776,-0.4520246550636684,1.4194129235169712,-0.60508089332829,-0.5870876943379566,1.141901133694584,12.19093395667187,-1.484512571822696,0.1517593772757471,-1.2664091403677211
1.92,0.488701406246136,0.0657879306517329,1.4092947888047993,0.0704026896890007,0.0704710474924083,0.0461882988927351,-0.1987134920655959,0.8726042170677426,-0.4201710305616184,0.4877359982960355,0.0483287596268985,1.4139424564139875,-0.354010671694879,0.9168658036748304,-0.4229358419971858,1.3993164467655062,-0.6068786140786486,-0.7609847637069733,1.0053293268219436,12.059088992455145,-1.4894700539354653,0.13759613594248,-1.261817646616671
1.94,0.4845854535392484,0.0830428423610714,1.4011123713534452,0.0797303155810359,0.0660153665647782,0.0462264006661137,-0.2124200604523154,0.8540264175042912,-0.3990858880613587,0.4814557848740589,0.0664857049523521,1.4049019633127142,-0.3940106722909255,0.9258843410769836,-0.3938470289307033,1.5633200950348032,-0.685328419335976,-0.92888997817257,1.0542571250129833,11.97338713230056,-1.495522794904628,0.1265924484290636,-1.2538624954298798
1.96,0.4801736813634648,0.0999052195434246,1.393352402733164,0.0863953993663252,0.0608965511698512,0.0459521223666752,-0.2282754861186053,0.8337323450961399,-0.3779075672325603,0.4741755714371811,0.0848681137128594,1.3965886905381029,-0.434010672886972,0.9349028784791366,-0.3647582158642207,1.6671571394847935,-0.7927712833144918,-1.0147036204075643,1.0589160414399224,12.003622888989412,-1.501474973342517,0.1190022113113743,-1.2439801403140025
1.98,0.4754188029919699,0.1163505956476298,1.3860204876260092,0.0907342295686865,0.0559116478001858,0.0454685631828299,-0.2465940337027614,0.8124064911706035,-0.3562820245714672,0.4658953579854021,0.1034759859084206,1.3890026380901537,-0.4740106734830184,0.9439214158812896,-0.3356694027977382,1.7734326366069473,-0.9159273792078052,-1.0662926962768215,1.081277133054656,12.003622888989412,-1.5074467172116397,0.1136180983758573,-1.2330453541253354
2.0,0.4705381645019594,0.1315722928841856,1.3794614383013235,0.092927674193324,0.0521607570284415,0.0449264320319406,-0.266354462155638,0.7914534934323461,-0.3351729315729703,0.4576151445336231,0.1220838581039819,1.3814165856422045,-0.5140106740790649,0.9529399532834426,-0.3065805897312557,1.785424637222101,-0.9880214226438324,-1.0476498869128714,1.0554546499248445,12.045526115266512,-1.5121075823669274,0.1105891841612626,-1.2233232068570372
2.02,0.4649405564837328,0.1473017490359434,1.3729787607740689,0.0977565724016451,0.0509662615367595,0.0447609407011733,-0.2921123771147542,0.7806918105796036,-0.31450568532107,0.4630891013068318,0.15697092020616,1.368206386397436,-0.3465940351928775,0.7741606567604129,-0.256282023081351,1.736677192587006,-1.2878957479558055,-0.5380841426371241,1.0333623125950124,12.100997908229148,-1.514622006246438,0.104891504526374,-1.2193413434384812
2.04,0.4588502178255586,0.1627079978669297,1.366913101656119,0.1051725542939319,0.0531083122746873,0.045078842147707,-0.315238570652092,0.7602146368539356,-0.2929933605865289,0.4630891013068318,0.15697092020616,1.368206386397436,-0.3465940351928775,0.7741606567604129,-0.256282023081351,1.8820969600434656,-1.1563096768668928,-1.0238586862833965,1.075616236727056,11.93909935054944,-1.5101928656122607,0.0959538936028282,-1.2216959011056934
2.06,0.4523299604816036,0.1776490462730334,1.3612924339424948,0.1118059836453018,0.0571553204235656,0.0455363189046824,-0.335364943607827,0.7352207147637124,-0.2701189980649227,0.4630891013068318,0.15697092020616,1.368206386397436,-0.3465940351928775,0.7741606567604129,-0.256282023081351,1.970408263898215,-1.006318647786747,-1.249696104511161,1.143718126080312,12.054313527421982,-1.504047581879641,0.0884375931993166,-1.2241866866874644
2.08,0.4457905808247154,0.1913558073663065,1.3563884939235435,0.1165382923471549,0.0617228718061282,0.0459419041776432,-0.3518436298887155,0.7092999546954435,-0.2471812343891689,0.4596231609549031,0.1647125267737641,1.3656435661666224,-0.3665940354909008,0.7665114898783748,-0.2362820227833278,1.91675109658599,-0.823934314044425,-1.2960380034134469,1.1468881837876892,12.146711632385632,-1.4969837929169512,0.0823441101453454,-1.2277878548058647
2.1,0.4385955015224987,0.2052432330102302,1.3517119824634125,0.1197512542906687,0.0664334998319999,0.046229568619252,-0.3666668402922158,0.6811500453256408,-0.2215692870222226,0.4526912802510455,0.1801957399089724,1.3605179257049953,-0.4065940360869472,0.7512131561142985,-0.1962820221872813,2.042129288342055,-0.741160520175016,-1.407495468490133,1.280597368347315,12.23635423952237,-1.4909005872183607,0.0782475112689264,-1.2321036392361824
2.12,0.4311263690795552,0.218558247143632,1.347561104928743,0.1211138081192761,0.070417390121957,0.0462889897135066,-0.3794586703396264,0.6520296211271813,-0.1947164387327563,0.4457593995471879,0.1956789530441807,1.3553922852433684,-0.4465940366829937,0.7359148223502223,-0.1562820215912349,2.081288953219346,-0.639591502370529,-1.4560212099229752,1.342642414473312,12.43370802568461,-1.4863719713142036,0.076251023379203,-1.2351509799974565
2.14,0.4234182935535917,0.2312780366889262,1.3439594500721477,0.1201495218556016,0.0732731777169528,0.0460310748860884,-0.3908038561365038,0.6218467155015197,-0.1667425990351858,0.4368275188135281,0.2103972494911851,1.3522666448115437,-0.4865940372790401,0.7206164885861461,-0.1162820209951885,2.134394961223577,-0.5672592898438716,-1.5091452812830808,1.3986919848785264,12.51554096889504,-1.4838683002638744,0.0767822571214166,-1.2363696501238155
2.16,0.4158884730714318,0.2428007659706838,1.341066977526083,0.1166854853493008,0.0749511859033551,0.0454656457101134,-0.4013367829740865,0.5934073067902135,-0.1390211097380073,0.4278956380798682,0.2251155459381896,1.349141004379719,-0.5265940378750866,0.7053181548220698,-0.076282020399142,2.0543998420878133,-0.5266463418791362,-1.4219704355653118,1.3860744648589245,12.51554096889504,-1.4831134242961506,0.0803959363205987,-1.235244396210025
2.18,0.4077452439304488,0.2543840290584906,1.3386107381735812,0.1113370035033955,0.0758365932595806,0.0446345673729552,-0.4125018469228247,0.5668933792019898,-0.1079355505010153,0.4179637573313072,0.2394513840410921,1.3470153639627953,-0.566594038471133,0.6900198210579936,-0.0362820198030955,2.117757659772192,-0.5582531974369087,-1.3256963794111842,1.554277961849597,12.699720070519106,-1.4839740940049653,0.0859161888521133,-1.233726047601822
2.2,0.399375266826032,0.2654648552686212,1.336792019609838,0.1053528157939026,0.0760359155408522,0.0436752635522538,-0.4240060432367297,0.5428325134864868,-0.0754142493559858,0.407031876567845,0.2534047637998927,1.345889723560773,-0.6065940390671795,0.6747214872939173,0.0037179807929508,2.1029186978899315,-0.575209815695249,-1.2030432857751516,1.6260650572514772,12.699720070519106,-1.4858067205006806,0.0919809263221456,-1.2329238372570477
2.22,0.3907702584220587,0.2760867156483904,1.3356359705253966,0.0992495768707228,0.0757973570400914,0.0426603292536019,-0.435978266315634,0.520789489867335,-0.0417599488012279,0.3871201515843075,0.2827286980185901,1.3332139606485305,-0.5125018484129409,0.4668933777118736,-0.0142163139483,2.098714464592261,-0.5986111539452166,-1.102151180957589,1.682715027737896,12.777065732018857,-1.488465985236018,0.0978128825898709,-1.232658582008675
2.24,0.3823183858361234,0.28601538192969,1.3349378157719842,0.1002348630533308,0.0760223663307034,0.0422115862231789,-0.4527683788537223,0.521843805407086,-0.0338002055675518,0.3871201515843075,0.2827286980185901,1.3332139606485305,-0.5125018484129409,0.4668933777118736,-0.0142163139483,0.930560278333813,-0.8395056269044132,0.0527157769875497,0.3979871616838045,12.84208392815981,-1.4964965847506044,0.0972431431077836,-1.228850218759591
2.26,0.3730976465231411,0.2963272893774793,1.3343565349008928,0.1087138132620676,0.0770558049025617,0.0423235343970247,-0.4682463380325097,0.5080187239517221,-0.0245957143506641,0.3871201515843075,0.2827286980185901,1.3332139606485305,-0.5125018484129409,0.4668933777118736,-0.0142163139483,1.135146197797246,-0.7738979589393707,-0.6912540727681937,0.4602245608443829,10.98481650350186,-1.4929756044199547,0.0865904707829422,-1.2314381199653792
2.28,0.3635860615810118,0.3062585316560768,1.333992349940334,0.1186340835760845,0.0782714359134524,0.0425387746715911,-0.4820655910064643,0.4855159288454708,-0.0121497917127212,0.3819951331001782,0.2873976317957089,1.3330717975090476,-0.5325018487109641,0.4468933774138504,0.0045275333622429,1.459664799416068,-0.6909626486977294,-1.1251397553125653,0.6222961318971453,11.458457920905856,-1.48920917271668,0.0745751282468119,-1.2307078097625814
2.3000000000000003,0.3538122548794038,0.3156828310961326,1.3339090945689485,0.1276526156716458,0.0793207951752688,0.0426526564769418,-0.4946028058367684,0.4580988939354036,0.0033497058897146,0.3717450961319193,0.2967354993499463,1.3327874712300816,-0.5725018493070105,0.406893376817804,0.042015227983329,1.6949262409386414,-0.6268607415152061,-1.3708517455033598,0.7749748801217955,11.680473585350228,-1.486607944115859,0.0641564816243747,-1.2295975145762608
2.32,0.3443050687855881,0.3240945494889797,1.3341468561274883,0.1345430203757134,0.0799156321490679,0.042572126101867,-0.5055958017689814,0.4290932444415802,0.0209365625447779,0.3614950591636605,0.3060733669041838,1.3325031449511155,-0.612501849903057,0.3668933762217575,0.0795029226044152,1.782884733465636,-0.5496497966106517,-1.4502824746911696,0.8793428327531639,11.680473585350228,-1.4857175782708625,0.0551961039047357,-1.228169510467287
2.34,0.3340779693156406,0.3323376731698386,1.3347857870508395,0.1399947926900811,0.0799586358344089,0.0422587887148854,-0.5165949470292528,0.3969761511371323,0.0421973960058451,0.3492450221655994,0.3134112344286189,1.3340932034032038,-0.6525018504991035,0.3268933756257111,0.1169906172255013,2.002817963671684,-0.5499572630135674,-1.6058546652223948,1.0630416730533596,11.886302951270409,-1.4863057765967145,0.0482793794494785,-1.2264348095246402
2.36,0.3236324554543667,0.3399223921019791,1.3358676191336014,0.1436156743959938,0.0793365290388774,0.0416987409008617,-0.5275427051388877,0.3635718427362623,0.0649808374474089,0.3369949851675383,0.3207491019530541,1.335683261855292,-0.69250185109515,0.2868933750296646,0.1544783118465875,2.094508552912039,-0.5473879054817443,-1.670215420043497,1.13917207207819,12.087264480791418,-1.4884788595890412,0.0435921294485162,-1.2243948973140133
2.38,0.313498633936782,0.34649480052403,1.337327557183981,0.1452547581042077,0.0783635391712192,0.0409646118963369,-0.5386983619626969,0.3304205912887844,0.0876325163510999,0.323744948154576,0.3270869694625881,1.3382105126729076,-0.7325018516911963,0.2468933744336182,0.1919660064676736,2.083598275136328,-0.5577828411904628,-1.6575625723738967,1.1325839451845516,12.18301295612946,-1.4913917139044754,0.0406413851464476,-1.2221865635818234
2.4,0.3025957558358993,0.3527256589730902,1.3393436531200504,0.1448123138090728,0.0772830347868823,0.040015749826326,-0.551050807059237,0.2946596847711354,0.112898664928068,0.3094949111267125,0.3324248369572209,1.34167495585605,-0.7725018522872428,0.2068933738375717,0.2294537010887596,2.274754711359277,-0.617622254827005,-1.788045325882448,1.2633074288484043,12.270045731830578,-1.4941052203814422,0.0400844356958813,-1.220018633848963
2.42,0.2914394784923572,0.358233712813233,1.341879245359228,0.1416582417728905,0.0764020749213917,0.0388980319194792,-0.5639878815146581,0.2585057023838276,0.1395466384541232,0.2865637158386472,0.3630158300884692,1.3417091830015362,-0.6386983634528131,0.2304205897986683,0.187632517841216,2.33698140288504,-0.6468537227710514,-1.8076991193653915,1.3323986763027615,12.381754831088074,-1.4968325561910365,0.0425943993599468,-1.2175098608064856
2.44,0.2799734821368189,0.3630094352314089,1.3447178503475166,0.1340846936778722,0.0768026692824624,0.0376512572832956,-0.5816981151209046,0.2231736963337084,0.1433568025826842,0.2865637158386472,0.3630158300884692,1.3417091830015362,-0.6386983634528131,0.2304205897986683,0.187632517841216,1.9852709995111857,-0.8855116803123286,-1.7666003025059591,0.1905082064280472,12.47493702992324,-1.4991811274305349,0.0501479009803067,-1.2117793291734569
2.46,0.2687713885288145,0.3669910902633198,1.3475345783031072,0.1249837265245174,0.0785231252475439,0.0365127165610609,-0.5964525050688921,0.197913349139253,0.1530343112642978,0.2865637158386472,0.3630158300884692,1.3417091830015362,-0.6386983634528131,0.2304205897986683,0.187632517841216,1.5406421854249728,-0.737719497399375,-1.263017359722772,0.4838754340806814,10.94522108232377,-1.496391964347036,0.059784883559883,-1.20998716234499
2.48,0.2566969940394444,0.3707111183931479,1.3507548003341854,0.1161270286918182,0.0807837630670128,0.0354136101493624,-0.6100906563632891,0.1753499367076248,0.1686674758244087,0.2801767322041191,0.3653200359864559,1.3435855081799484,-0.6586983637508362,0.2104205895006451,0.2076325181392392,1.532565321162625,-0.6819075647198469,-1.1281706215814091,0.7816582280055425,11.325306732889658,-1.4937359954463083,0.0684711656337146,-1.211278161220717
2.5,0.2443666905131257,0.3740043774058953,1.354331520787708,0.1088342779022864,0.0829159032572906,0.034401679482988,-0.6221964804646948,0.1549131300902725,0.1883264770314542,0.2674027649350628,0.3699284477824293,1.3473381585367723,-0.6986983643468827,0.1704205889045986,0.2476325187352857,1.5416633633415602,-0.6052912050702852,-1.0218403308676127,0.9829500603522752,11.637181325385429,-1.4918275842542137,0.0750893932257975,-1.2135582319272389
2.52,0.2318075497977497,0.3769032378704827,1.3583358192281607,0.1032578810596942,0.0845187677669062,0.0334492963069597,-0.6331484772089192,0.135649646364422,0.2110491672015828,0.2546287976660065,0.3745368595784026,1.351090808893597,-0.7386983649429292,0.1304205883085522,0.2876325193313321,1.586937842599128,-0.5475998372112212,-0.9631741862925272,1.1361345085064298,11.87145588801468,-1.490833990165506,0.0802101187977914,-1.21612437621969
2.54,0.2196803152199354,0.3793056102611438,1.3625814507726046,0.0993468118163367,0.0853637590042281,0.0325731710620005,-0.6429219079904956,0.1179096275969738,0.2346765086982377,0.2398548303671479,0.3771452713445737,1.3568434592802234,-0.7786983655389756,0.0904205877125057,0.3276325199273786,1.5560201487378236,-0.4886715390788221,-0.8870009383724086,1.1813670748327467,12.051831350872815,-1.4910099096572889,0.0836892158162844,-1.2181223504984122
2.56,0.2067163324302812,0.3814724511034607,1.367545760836832,0.0964309527984263,0.0854756610213297,0.0316627265320434,-0.6530299041825921,0.0995230734556525,0.2605241700689596,0.2250808630682893,0.3797536831107447,1.3625961096668502,-0.8186983661350221,0.0504205871164592,0.3676325205234251,1.66458595343308,-0.5053998096048229,-0.9193277070660671,1.2923830685360946,12.192499312820472,-1.4924288219073438,0.0858103749305588,-1.2192834495299163
2.58,0.1935427607506092,0.383265677699759,1.3730329995730803,0.0942867095070198,0.0850172019964884,0.0307578843600828,-0.6638806145922644,0.0806628400446684,0.2868934769634766,0.2093068957545296,0.3813620948620146,1.369348760068378,-0.8586983667310685,0.0104205865204128,0.4076325211194715,1.7093761046128777,-0.5425355204836169,-0.9430116705492064,1.3184653447258523,12.258821072568937,-1.4946144052287933,0.0870544931461816,-1.2195380866089964
2.6,0.1808195222999268,0.384617904195587,1.378740491180535,0.0925411550375069,0.0844494767809278,0.0299130986259444,-0.6748759965063758,0.0626449662171703,0.3125755104628003,0.1925329284258687,0.3819705065983833,1.377101410484807,-0.8986983673271149,-0.0295794140756335,0.4476325217155179,1.662159021695268,-0.5497690957055656,-0.9008936913749008,1.2841016749661842,12.297610325486858,-1.4970425683013266,0.0880308484231034,-1.2194997445216516
2.62,0.1671961834405295,0.3856731766709818,1.385284649578683,0.0908521963025286,0.083991308697941,0.0290547381570838,-0.6868783952859175,0.043866383274307,0.3405315899451598,0.160348730020996,0.3872988197019925,1.3873776734212542,-0.7226346973614199,-0.0193371614454477,0.3588483531479401,1.7876207188810669,-0.6001199389770895,-0.9389291471431688,1.3978039741179726,12.348026038888747,-1.498655790824889,0.0887931299021122,-1.219698570215734
2.64,0.1532130010936103,0.3863587909654585,1.3920979882047404,0.0886059839311584,0.086750795496097,0.0284539872621543,-0.7105202655785241,0.0261854657986838,0.3379422771310778,0.160348730020996,0.3872988197019925,1.3873776734212542,-0.7226346973614199,-0.0193371614454477,0.3588483531479401,1.4817704061032864,-1.182093514630328,-0.8840458737811598,-0.1294656407040989,12.416444778433288,-1.4996231150189558,0.0911162328591376,-1.2141689973275014
2.66,0.1388007989458102,0.3867289146785337,1.398847637754757,0.086302589961285,0.0943323237762167,0.0282732576146198,-0.72882373858811,0.0115224307670509,0.3373043144105819,0.160348730020996,0.3872988197019925,1.3873776734212542,-0.7226346973614199,-0.0193371614454477,0.3588483531479401,1.173060864772448,-0.9151736504792952,-0.7331517515816408,-0.0318981360247938,10.6284035849485,-1.4887783719385832,0.0925124972770109,-1.222485339521688
