t,x,y,z,roll,pitch,yaw,v_x,v_y,v_z,ref_x,ref_y,ref_z,ref_v_x,ref_v_y,ref_v_z,a_com,a_x,a_y,a_z,thrust,wind_x,wind_y,wind_z
0.0,-1.8772802770403985,2.07276146641335,2.558166200986212,0.0153655850453997,0.1498906308305255,0.0283055844384945,0.0012028427865404,0.0063415757670158,-0.0034130222677108,-1.8772381988425608,2.07287118952225,2.558061408958608,-0.0007010436397205,-0.0957299985152956,-0.1033881391730634,0.3650723728859281,0.0601421393270201,0.3170787883507927,-0.1706511133855407,10.658215545316123,-1.4134618473364835,0.1771486562649134,-1.2797963560924102
0.02,-1.87733264137632,2.0731105971106127,2.55788352823344,0.0244656638095929,0.151101685450941,0.0289679551112936,-0.0063117629249789,0.024647647667997,-0.0260423132024671,-1.8772381988425608,2.07287118952225,2.558061408958608,-0.0007010436397205,-0.0957299985152956,-0.1033881391730634,1.5030522077204609,-0.3757302855759694,0.9153035950490598,-1.1314645467378188,10.658180638200974,-1.407802036102085,0.1661248426031407,-1.277522337547958
0.04,-1.87753700327208,2.0736251525484217,2.5570600009535096,0.0394256329467687,0.1545404953499534,0.0301050395610609,-0.0133313902857503,0.025207734746137,-0.0550875422520226,-1.8772381988425608,2.07287118952225,2.558061408958608,-0.0007010436397205,-0.0957299985152956,-0.1033881391730634,1.4943344642016454,-0.3509813680385666,0.0280043539070001,-1.4522614524777713,9.24141691752402,-1.4005261573845755,0.1484071704961648,-1.2796751904513084
0.06,-1.877855930475241,2.0740776382787187,2.5556558045958497,0.0547079295288053,0.1594960210978503,0.0313638752721436,-0.0179153734874367,0.0196693594412842,-0.0839058175156999,-1.877245209278958,2.071913889537097,2.557027527566877,-0.0011046944432119,-0.1157299988133188,-0.1233881394710866,1.4850753282105131,-0.2291991600843224,-0.2769187652426395,-1.440913763183868,9.063966638147122,-1.3924816723151148,0.1312790630849809,-1.2828220911071218
0.08,-1.878219984443754,2.074371934019584,2.5537946761880086,0.0686944958814152,0.1648972922857285,0.0326112701407333,-0.0199825054171051,0.0113153424055343,-0.1105949222427284,-1.8772592301517528,2.069999289566791,2.5549597647834164,-0.0019119960501949,-0.1557299994093652,-0.1633881400671331,1.4021153181697876,-0.1033565964834204,-0.4177008517874941,-1.3344552363514222,9.063966638147122,-1.383194250892398,0.1139537198885419,-1.285759028224695
0.1,-1.8786227821584252,2.074482044427826,2.551291706807431,0.0827356691146285,0.1707219871948975,0.0339416048485224,-0.0200033006610857,-0.0001660907179026,-0.1383040381087299,-1.877273251024547,2.068084689596485,2.5528920019999557,-0.0027192976571778,-0.1957300000054117,-0.2033881406631795,1.4996823339341103,-0.00103976219903,-0.5740716561718489,-1.3854557933000755,9.116597841639305,-1.3739418134989785,0.0975288311912846,-1.2878150924037648
0.12,-1.879003641771243,2.074335102157195,2.5482417470303216,0.0960790392036935,0.1762202300544336,0.0352453904011236,-0.0179821826292349,-0.0142365885114913,-0.165338957582576,-1.8773276369776903,2.064170089596377,2.5488242391866915,-0.0035265992641608,-0.2357300006014581,-0.243388141259226,1.5272120818794286,0.1010559015925437,-0.7035248896794366,-1.3517459736923032,9.153683574425486,-1.3660531625169152,0.0821174174172261,-1.2878763407846503
0.14,-1.8793280780401769,2.073881626480736,2.544647121770184,0.1087457803404617,0.1810815455337495,0.036476819656326,-0.0145116827977564,-0.0306750508502199,-0.1928060542868908,-1.877382022930834,2.0602554895962686,2.544756476373428,-0.0043339008711437,-0.2757300011975047,-0.2833881418552725,1.6098981446867011,0.1735249915739219,-0.8219231169364303,-1.3733548352157412,9.204494241940663,-1.3597682748079272,0.0681625092547447,-1.2890602002717602
0.16,-1.879559790952421,2.0731247585164763,2.540721526708384,0.1201739020037343,0.1849322621759768,0.0375400357311935,-0.010048289161535,-0.0483956697679688,-0.2190630114505183,-1.877456591424152,2.055340889581259,2.5396887135452637,-0.0051412024781267,-0.3157300017935511,-0.3233881424513189,1.5995077501160406,0.2231696818110699,-0.8860309458874449,-1.312847858181375,9.196508543769596,-1.353692349229462,0.0542359098953736,-1.2883866131322674
0.18,-1.8797035476144044,2.071942437282051,2.5360479139376872,0.1315897201881658,0.1880997733824867,0.038513934333345,-0.0045444979235634,-0.0691492829576358,-0.2469396538566138,-1.8775513424576449,2.0494262895513486,2.5336209507021974,-0.0059485040851096,-0.3557300023895975,-0.3633881430473653,1.7593403382054995,0.275189561898583,-1.0376806594833514,-1.3938321203047748,9.20564763047787,-1.3475805485158692,0.0410141053579377,-1.285710357268107
0.2,-1.879729733370528,2.070322107382752,2.5308179225891503,0.1423755875512801,0.1903627999025862,0.0393139185750385,0.0016444656212943,-0.0920661397474744,-0.2746638409869621,-1.8799307725105825,2.068484973134169,2.5237009312448566,-0.0145778800264105,-0.1691492844477519,-0.3469396553467299,1.824908317508116,0.3094481772428854,-1.1458428394919278,-1.3862093565174176,9.23200764961348,-1.3430574752146054,0.029196469480438,-1.2817650100049598
0.22,-1.8795790013424012,2.068171369050832,2.5254657263688207,0.1472233778453716,0.1909947207494906,0.0394503850083798,0.0136972986510346,-0.1302501879753179,-0.2869040183821134,-1.8799307725105825,2.068484973134169,2.5237009312448566,-0.0145778800264105,-0.1691492844477519,-0.3469396553467299,2.0935103688385768,0.6026416514870171,-1.909202411392178,-0.6120088697575604,9.23200764961348,-1.3386467160516222,0.0232026225330894,-1.272848774679627
0.24,-1.8791748962068395,2.0652183573134204,2.519590540282647,0.1465234383253786,0.1893303798731831,0.0388097915687104,0.0259263723305554,-0.1625937516151485,-0.3000334592582834,-1.8799307725105825,2.068484973134169,2.5237009312448566,-0.0145778800264105,-0.1691492844477519,-0.3469396553467299,1.8493502708409264,0.6114536839760406,-1.6171781819915283,-0.6564720438085009,10.243110545899071,-1.3408991461062365,0.024116335908474,-1.264152869156529
0.26,-1.8785379151810389,2.061653632911302,2.513430195284365,0.1426493291670666,0.1852550329056235,0.0375766841642338,0.0368829253263115,-0.191529731008496,-0.3152920603705325,-1.8800765513108464,2.066793480289692,2.5202315346913893,-0.0165845564469799,-0.1891492847457752,-0.3669396556447531,1.7249361328059147,0.547827649787804,-1.446798969667373,-0.7629300556124541,10.083930405149658,-1.3466633570453337,0.0286620030696393,-1.251374626547252
0.28,-1.877712608847509,2.0575569639713684,2.5069457581876144,0.1375155320689294,0.17923950811665,0.0359883143919622,0.0447281289146406,-0.2164199693977998,-0.3322617794997599,-1.8803681089113748,2.063410494600737,2.5132927415844546,-0.0205979092881187,-0.2291492853418216,-0.4069396562407996,1.5564724168320274,0.3922601794164527,-1.244511919465191,-0.8484859564613728,9.917124489462369,-1.354772222665763,0.034254789191546,-1.236411030548975
0.3,-1.8768162139400744,2.053230040676312,2.500456044690062,0.1326432181074665,0.172672988291719,0.03438744123146,0.0490252548637305,-0.2377669764012867,-0.3499578533830587,-1.880659666511903,2.060027508911781,2.50635394847752,-0.0246112621292576,-0.2691492859378681,-0.446939656836846,1.402953162361834,0.2148562974544996,-1.067350350174344,-0.8848036941649373,9.77066214466504,-1.3629676020714605,0.0399121778706785,-1.219209277026107
0.32,-1.8758154173647212,2.0482555013437795,2.4932450218499964,0.1280247795501841,0.1656756591100429,0.0327569649905341,0.050621991310001,-0.2585761991653453,-0.3702756768358645,-1.8811518917544885,2.054644523193024,2.497415155340783,-0.0286246149703964,-0.3091492865339145,-0.4869396574328924,1.4563544118641334,0.0798368223135243,-1.0404611382029292,-1.015891172640293,9.502684470266104,-1.3701040959963215,0.0447711405328703,-1.2021399439149705
0.34,-1.8748088274709047,2.042875369395835,2.485617154858104,0.1240880044560119,0.1592025925185138,0.0312681842919694,0.049836488485309,-0.2784364114597658,-0.3915135304776291,-1.8816441169970732,2.049261537474267,2.488476362204046,-0.0326379678115352,-0.3491492871299611,-0.5269396580289389,1.4543825789454985,-0.0392751412346022,-0.9930106147210266,-1.061892682088228,9.502684470266104,-1.375426116839342,0.0487346753940495,-1.1856566475254335
0.36,-1.873839886821001,2.037096462403141,2.4775557351596897,0.1205235979556488,0.1537272990077403,0.0299497717862408,0.0470390808950128,-0.2983442757791704,-0.413516217166672,-1.882236676060687,2.0428785517406083,2.478537569052408,-0.0366513206526741,-0.3891492877260075,-0.5669396586249853,1.490190233260719,-0.1398703795148087,-0.9953932159702278,-1.1001343344521464,9.432812607356029,-1.3791839157053607,0.0520459675328772,-1.1715184844012922
0.38,-1.8729890747819151,2.031241506181944,2.469483787627392,0.1171957762339065,0.1498753008392651,0.0288788751586262,0.0426145356164103,-0.3168317349056392,-0.4350208617698872,-1.8829295689453287,2.035495565992049,2.4675987758858686,-0.0406646734938129,-0.4291492883220539,-0.6069396592210318,1.4351066906208163,-0.2212272639301269,-0.924372956323441,-1.0752322301607609,9.380496234004568,-1.381313385203518,0.0554326765456773,-1.1584315565065342
0.4,-1.8722007020132372,2.0247075412052635,2.4605377233746824,0.1137341495338138,0.1477677300723757,0.0279931556333634,0.0363920568029731,-0.3354738829798611,-0.4584709696184126,-1.8708583480010943,2.015399919436662,2.447732744538897,0.0593845538810616,-0.4168317363957553,-0.5350208632600033,1.5298337209582322,-0.3111239406718588,-0.9321074037110966,-1.1725053924262707,9.331006004517803,-1.3809217723213862,0.0587282032642915,-1.1483073350523323
0.42,-1.8715466373904035,2.01779458752471,2.4513461313895277,0.110732022082335,0.1492080677188552,0.0275450019199265,0.0299906849173345,-0.3550878486494448,-0.4583911948790902,-1.8708583480010943,2.015399919436662,2.447732744538897,0.0593845538810616,-0.4168317363957553,-0.5350208632600033,1.0316147237642632,-0.3200685942819277,-0.9806982834791866,0.0039887369661234,10.715973576421677,-1.376228609423321,0.0619942261101846,-1.1354284923682396
0.44,-1.8709843708714533,2.0105021540276984,2.4421465577008363,0.108602985373393,0.1542085814608458,0.027544738988783,0.0270085786256411,-0.3733883220482262,-0.4617554018975513,-1.8708583480010943,2.015399919436662,2.447732744538897,0.0593845538810616,-0.4168317363957553,-0.5350208632600033,0.9422289708684454,-0.1491053145846742,-0.9150236699390664,-0.1682103509230564,10.332680161199278,-1.368207458770652,0.0634703553982718,-1.1424442797552643
0.46,-1.870478894900598,2.003236437270059,2.433294864453984,0.1071405406806237,0.1606114033915568,0.0277515391112958,0.0266483559362534,-0.3905295743919216,-0.4698441336601001,-1.870264502462284,2.011231602072704,2.4423825359062974,0.0627385575339918,-0.4368317366937785,-0.5550208635580265,0.9478658578916384,-0.0180111344693836,-0.8570626171847728,-0.4044365881274409,10.332680161199278,-1.3584289998543535,0.0644937254472613,-1.1504157267872417
0.48,-1.8699317657626984,1.995243941194292,2.423772188463179,0.1060176779903241,0.168112841791767,0.0280674809501852,0.0283400520542364,-0.4077977952536492,-0.4821821328722999,-1.8690768113846623,2.002894967344789,2.4316821186410973,0.0694465648398524,-0.476831737289825,-0.595020864154073,1.0645180975977384,0.0845848058991486,-0.8634110430863762,-0.6168999606099901,10.052518931216582,-1.3477784382881008,0.0651826381215885,-1.1582798797338896
0.5,-1.869331699745897,1.9869125333431747,2.4139691951572857,0.1053664256848663,0.1758355008436813,0.0284289998876473,0.0318008983103361,-0.4244692537561222,-0.4976353676166903,-1.8678891203070411,1.994558332616874,2.420981701375897,0.0761545721457129,-0.5168317378858714,-0.6350208647501194,1.149692838841398,0.1730423128049869,-0.8335729251236546,-0.772661737219521,9.686912899540404,-1.3373779359688602,0.0654403002573995,-1.165218153068616
0.52,-1.8686829793200492,1.9786941335045969,2.4043446331939897,0.1052390322010324,0.1830899813847781,0.0287907697073738,0.0364989138822419,-0.4398236877381572,-0.5147153664681965,-1.866366028864127,1.9842216978591567,2.408281284080895,0.0828625794515734,-0.5568317384819179,-0.6750208653461659,1.172130916312241,0.2349007785952896,-0.7677216991017477,-0.8539999425753064,9.686912899540404,-1.3263864252376896,0.065196153358717,-1.171805842031975
0.54,-1.867887543711349,1.9697322378931448,2.3938514962544457,0.105743965083131,0.1904731724381669,0.029185298604204,0.0429824974626785,-0.4556032269094391,-0.5337622172711758,-1.8648429374212128,1.9738850631014395,2.3955808667858927,0.0895705867574339,-0.5968317390779644,-0.7150208659422124,1.2784885979287024,0.3241791790218301,-0.7889769585640943,-0.9523425401489648,9.569199023572764,-1.315549649618483,0.064276910559613,-1.177453367454169
0.56,-1.866946457125207,1.9604429195413011,2.382969101036093,0.1066126508410455,0.1975090551846748,0.0295670882457159,0.0509745704510495,-0.4724623894405613,-0.5535344730353344,-1.863152145795652,1.9625484283288208,2.381880449475989,0.0962785940632944,-0.6368317396740107,-0.7550208665382587,1.3592706591271204,0.3996036494185517,-0.842958126556112,-0.988612788207932,9.522726486660758,-1.305799319114374,0.0630480376982425,-1.1822377977444565
0.58,-1.865891171231928,1.9512968873435423,2.37225891583802,0.1072424379304027,0.2038380012536972,0.0298763273324286,0.0598448000053319,-0.4893151132729351,-0.5728701045129676,-1.8612936539874447,1.9502117935413008,2.367180032151184,0.102986601369155,-0.6768317402700572,-0.7950208671343052,1.3569837117249812,0.4435114777141181,-0.8426361916186897,-0.9667815738816588,9.50479062044269,-1.2962642532827648,0.0619452178821246,-1.187070480574936
0.6,-1.864585978647178,1.941319108163212,2.360580366969125,0.107321568136093,0.2101203173228151,0.0301151080671494,0.0703489627621933,-0.5074889070870986,-0.5940036578442149,-1.862898931231661,1.926831131679896,2.343615410612372,0.0883623591760549,-0.5893151147630513,-0.6728701060030837,1.4893381862651576,0.5252081378430713,-0.9086896907081726,-1.0566776665623667,9.4893884642579,-1.287170304208512,0.0614820060432134,-1.1911271733236457
0.62,-1.8630005380143653,1.9309250109977565,2.348715870432966,0.1057139912048463,0.2159060267700549,0.0301712232248905,0.0880819808118752,-0.5308251794827372,-0.5900981426127104,-1.862898931231661,1.926831131679896,2.343615410612372,0.0883623591760549,-0.5893151147630513,-0.6728701060030837,1.4784236433591194,0.8866509024840923,-1.1668136197819312,0.1952757615752254,11.088691386966277,-1.2785026078730912,0.0632997709160371,-1.1870253997887494
0.64,-1.8611537982420785,1.920642414563821,2.337521837730729,0.1024999804032318,0.2208479022519325,0.030029389740895,0.1054727726807717,-0.5499596009804415,-0.5885312070447689,-1.862898931231661,1.926831131679896,2.343615410612372,0.0883623591760549,-0.5893151147630513,-0.6728701060030837,1.295203666371784,0.8695395934448249,-0.956721074885214,0.0783467783970759,10.75383842751762,-1.2727894171835736,0.0663324118372691,-1.1919601258790482
0.66,-1.8588455196361315,1.909457803235718,2.3257199342235984,0.0987589526809656,0.2252217265283227,0.0297503808304428,0.1244337836444049,-0.5673539046013423,-0.5919642107582428,-1.8620153076399004,1.920937980532265,2.336886709552341,0.0940658710101994,-0.6093151150610745,-0.6928701063011069,1.297947658532332,0.9480505481816592,-0.8697151810450388,-0.171650185673694,10.75383842751762,-1.2674574084140378,0.0698534716089655,-1.196429970515937
0.68,-1.8561542230069332,1.8979438812749123,2.31380102502305,0.0951301682584647,0.228317234298073,0.0293370678470474,0.1436727615303437,-0.5830928259554546,-0.5999143395975957,-1.8602480604563796,1.909151678237004,2.323429307432279,0.1054728946784886,-0.649315115657121,-0.7328701068971534,1.304852926625149,0.96194889429694,-0.7869460677056184,-0.3975064419676433,10.443309347012471,-1.263769148003729,0.0730996913517735,-1.198491102474591
0.7000000000000001,-1.8530795066871624,1.8861293677412192,2.301681301969752,0.0917897598679477,0.2299102352644328,0.028791647666014,0.1626857139184845,-0.5975754960499896,-0.611612454157678,-1.8584808132728583,1.897365375941743,2.3099719053122176,0.1168799183467778,-0.6893151162531674,-0.7728701074931998,1.3304942463626617,0.950647619407044,-0.7241335047267483,-0.5849057280041148,10.19389244955346,-1.2616652603036045,0.0762255453852392,-1.1979159905228762
0.72,-1.8498109080129492,1.8746471577337405,2.289923993973868,0.0889624838380201,0.2300225780274516,0.0281664538136456,0.1803259190615846,-0.6103947461279873,-0.6253855990668952,-1.8561432149059227,1.88357907361668,2.294514503162353,0.128286942015067,-0.7293151168492139,-0.8128701080892463,1.2895828111672325,0.8820102571550026,-0.6409625038998834,-0.6886572454608608,9.837191721177987,-1.261025524864545,0.0788973987779583,-1.1950045304070542
0.74,-1.846012279055768,1.862305944973491,2.2772514191225297,0.0864342719745308,0.2286182459522247,0.0274068123491873,0.1985241415865976,-0.6231035607817486,-0.6411848344010439,-1.8538056165389871,1.8697927712916165,2.27905710101249,0.1396939656833562,-0.7693151174452604,-0.8528701086852928,1.3622638420267204,0.9099111262506482,-0.635440732688064,-0.7899617667074366,9.837191721177987,-1.2620355849359346,0.0810358797620701,-1.1894630586944923
0.76,-1.841850022552345,1.849706356525162,2.2642507236443987,0.084080115330634,0.2254043664324573,0.0265099059948617,0.216647686056218,-0.6361012390269968,-0.6580328897194003,-1.8511828425803445,1.855006468951652,2.2625996988477244,0.1511009893516454,-0.8093151180413067,-0.8928701092813391,1.397550957854228,0.9061772234810236,-0.6498839122624112,-0.8424027659178213,9.756634187566306,-1.26463705834932,0.0828147641485331,-1.1820181005924604
0.78,-1.8375674747224149,1.8374979120291648,2.251579956398326,0.0817192071161424,0.220444108311534,0.0255009245995329,0.2328690152872116,-0.6482108053219569,-0.6747987477763326,-1.8482748930299944,1.839220166596786,2.245142296668058,0.1625080130199346,-0.8493151186373532,-0.9328701098773856,1.314217556435692,0.8110664615496768,-0.6054783147480036,-0.8382929028466157,9.698959915353043,-1.269966769779128,0.0847959826365636,-1.171352371732571
0.8,-1.832754534251864,1.8244047170831883,2.2378901824752595,0.0791007099882792,0.2137196104879765,0.0243273703350696,0.2472403743452078,-0.6603581754022898,-0.6932830990120129,-1.8259240239580543,1.8050873717630675,2.2178400190095093,0.26205453390961,-0.748210806812073,-0.7747987492664488,1.3188686455125205,0.7185679528998096,-0.6073685040166477,-0.9242175617840132,9.637084544462596,-1.2769174682175934,0.0868445397890352,-1.1592343792843909
0.8200000000000001,-1.8276571962751176,1.811045795837236,2.224121910235872,0.0762168628027714,0.2073784936829736,0.0231922678319648,0.2618345972523178,-0.6748109303357032,-0.6810624981024062,-1.8259240239580543,1.8050873717630675,2.2178400190095093,0.26205453390961,-0.748210806812073,-0.7747987492664488,1.1950068556493718,0.7297111453554994,-0.7226377466706679,0.6110300454803375,9.555584924381035,-1.286230710159277,0.0897625154744848,-1.137442429817222
0.84,-1.8222931427506472,1.7974205401443712,2.210592812647437,0.0734793744778251,0.2031995395953047,0.0222595611096822,0.2737719496110523,-0.6870653831332728,-0.6726225108405897,-1.8259240239580543,1.8050873717630675,2.2178400190095093,0.26205453390961,-0.748210806812073,-0.7747987492664488,0.9538152070554224,0.5968676179367249,-0.6127226398784824,0.4219993630908247,11.51774127459339,-1.291847457777309,0.091791698449864,-1.1336895204158606
0.86,-1.8169948149613544,1.7842586520451689,2.197829986202356,0.0712889970629967,0.2011740617744306,0.0215631575983898,0.2833827774524567,-0.6978204513569464,-0.6712365952611746,-1.823303478618958,1.7976052636949469,2.2100920315168446,0.2678916376340896,-0.7682108071100961,-0.7947987495644719,0.7245002868982396,0.4805413920702217,-0.5377534111836779,0.0692957789707515,11.024526397948648,-1.2944089605508249,0.0934760625296838,-1.1318440353475543
0.88,-1.811224469460302,1.7701924924974486,2.184368736105754,0.0694077561325816,0.2006299730221734,0.0209857177534146,0.2932450769752867,-0.7082594687490834,-0.675209104630753,-1.818062387940766,1.7826410475587051,2.194596056531516,0.279565845083049,-0.8082108077061426,-0.8347987501605184,0.7450148768359275,0.493114976141501,-0.521950869606852,-0.198625468478919,10.595865366110049,-1.294287204482318,0.0947242331934691,-1.131200531436226
0.9,-1.8052555978608928,1.755925837154283,2.170774280799885,0.068001704354417,0.2009481335330231,0.0205106878424289,0.3032229484705743,-0.7179288382612612,-0.6840153741238904,-1.812821297262574,1.7676768314224636,2.1791000815461867,0.2912400525320083,-0.8482108083021891,-0.8747987507565649,0.8225038126435443,0.498893574764378,-0.4834684756088891,-0.4403134746568671,10.265317647049416,-1.292988787129937,0.0954884908382054,-1.1308796559766072
0.92,-1.7993990538746891,1.7422008501131516,2.157662608455136,0.0672261729713155,0.2015470377735793,0.0201257844020341,0.3127829007752963,-0.7263846120185731,-0.6957114022059359,-1.8069964962119336,1.75071261525642,2.161604106531056,0.3029142599809677,-0.8882108088982356,-0.9147987513526114,0.8655776550942759,0.4779976152361032,-0.422788687865594,-0.5848014041022753,10.011562406675694,-1.2910787180424332,0.0957216381186381,-1.130260124680068
0.94,-1.7930360318051914,1.7275866341151755,2.143604042070391,0.0672386745840305,0.2021825471931392,0.019785383493875,0.323022663372858,-0.7346583143541575,-0.7095920622283244,-1.8011716951612935,1.733748399090376,2.144108131515924,0.3145884674299271,-0.928210809494282,-0.9547987519486578,0.9565296794263812,0.5119881298780854,-0.4136851167792221,-0.6940330011194262,9.818904462583305,-1.2890545973957486,0.0951118720228891,-1.1289960786540183
0.96,-1.7864635555330817,1.712798768861743,2.129254298940584,0.067966086043201,0.202551197093022,0.0194824610004805,0.3336690523818726,-0.7437045110967662,-0.7246675995864523,-1.7950550389244293,1.7157841829094311,2.125612156485892,0.3262626748788864,-0.9682108100903284,-0.9947987525447042,1.0276807639942978,0.53231945045073,-0.4523098371304324,-0.7537768679063972,9.732548342128212,-1.2871997161473896,0.0937720463256729,-1.127308470310941
0.98,-1.7796763721514064,1.697822439511807,2.114592340056087,0.0689832158560344,0.2024285323000223,0.0191705211618669,0.3444402907644404,-0.7534345838057912,-0.7407526284813931,-1.7886465275013412,1.696819966713585,2.1061161814409584,0.3379368823278457,-1.0082108106863747,-1.0347987531407503,1.083307488398487,0.5385619191283886,-0.4865036354512519,-0.8042514447470395,9.676404170120804,-1.2856640450150134,0.0921965966484783,-1.1254246286237828
1.0,-1.773029148150885,1.6834080723564278,2.1003557531664665,0.0699065571813651,0.2017340353913745,0.0188341394634685,0.3546752831844705,-0.7633182831146761,-0.7570093909430565,-1.7624543576131844,1.6601507103215172,2.077554708632017,0.386674566254486,-0.8534345852959073,-0.8349366918563893,1.080190848416928,0.5117496210015032,-0.4941849654442443,-0.8128381230831705,9.623011119644616,-1.2844792163778045,0.0905645973286106,-1.122494202801794
1.02,-1.765796772567185,1.6679720738194397,2.085364340309256,0.0695422717019775,0.2016213904733378,0.0184341128200023,0.3684383832380699,-0.7795749959528249,-0.739547766801468,-1.7624543576131844,1.6601507103215172,2.077554708632017,0.386674566254486,-0.8534345852959073,-0.8349366918563893,1.3771455560774284,0.6881550026799688,-0.812835641907439,0.8730812070794236,9.567154921065594,-1.2826988558019303,0.090729718696127,-1.107904289803678
1.04,-1.758280317161128,1.652225697392448,2.070721393439672,0.067231175850447,0.2030949610489754,0.0180154596441529,0.3826742960314299,-0.7940484057998444,-0.7258246085813437,-1.7624543576131844,1.6601507103215172,2.077554708632017,0.386674566254486,-0.8534345852959073,-0.8349366918563893,1.2252202630491804,0.7117956396680031,-0.7236704923509751,0.6861579110062188,11.841045562414363,-1.2825046193226468,0.0923860951804102,-1.1133072859297732
1.06,-1.7508716335556072,1.637022356324095,2.056994215356502,0.0640067860028824,0.2050592464302709,0.0175895253065609,0.3965325591923126,-0.8052739183703939,-0.7197980897087934,-1.7585876119506394,1.6516163644685582,2.0692053417134533,0.3951214213524951,-0.8734345855939305,-0.8537735045313886,0.941252516635476,0.6929131580441339,-0.5612756285274745,0.3013259436275117,11.326569455432946,-1.2810382320268952,0.0952831747197162,-1.118488940109718
1.08,-1.742787738060413,1.620816212845483,2.0426097504847296,0.0605521051061715,0.2070262686218582,0.0171361418592439,0.4111158932484305,-0.8146927557767742,-0.7192190110968474,-1.7508541206255497,1.63454767276264,2.052506607876325,0.4120151315485133,-0.913434586189977,-0.891447129881387,0.8685094448521727,0.7291667028058946,-0.4709418703190193,0.028953930597303,10.523444508381544,-1.2792694165806102,0.0983079768052536,-1.122260044894419
1.1,-1.7344137575855103,1.6044371137477025,2.028182738485919,0.0574707602460331,0.2084941238269977,0.0166860030024905,0.4255033743199751,-0.8227529312101446,-0.7237030339075698,-1.74312062930046,1.6174789810567218,2.0358078740391976,0.4289088417445315,-0.9534345867860234,-0.9291207552313856,0.8545064367338608,0.7193740535772292,-0.4030087716685171,-0.2242011405361232,10.523444508381544,-1.277528739411971,0.1009726996040711,-1.124126611388648
1.12,-1.725756388524026,1.5879081126267354,2.013618734598283,0.0549150856350228,0.2092363043928132,0.0162406316624525,0.4394385487885738,-0.8298464847917765,-0.7324422833992371,-1.7345424524655693,1.5984102893210013,2.0172254589345697,0.4458025519405497,-0.99343458738207,-0.966794380581384,0.895659075155517,0.6967587234299355,-0.3546776790815942,-0.4369624745833633,10.240884067812658,-1.2762647406122856,0.1030107933195469,-1.124252710341505
1.14,-1.7172766351603133,1.5720804316050454,1.9996033420529244,0.0530175595667194,0.2092349138676044,0.0158265936362428,0.452387381400645,-0.8359959801550121,-0.7424072679487769,-1.7259642756306788,1.579341597585281,1.9986430438299423,0.462696262136568,-1.0334345879781164,-1.0044680059313826,0.8729110440223309,0.6474416306035624,-0.3074747681617806,-0.4982492274769878,10.017974994661929,-1.275403403107174,0.1045945549635859,-1.1224539695244953
1.16,-1.7080864195771832,1.555289491699959,1.9846313211493984,0.0513293479892422,0.2084401452618491,0.015382881520285,0.4659060221121015,-0.8427388305900004,-0.7543184499921123,-1.7169637560408877,1.5592729058346593,1.9791187880915648,0.4795899723325861,-1.0734345885741627,-1.042141631281381,0.9618938823273944,0.6759320355728238,-0.3371425217494173,-0.5955591021667705,9.924066902609413,-1.2751469551657888,0.105830730885868,-1.1195270801636432
1.18,-1.6986260070206245,1.5383642255824506,1.9694062578069584,0.049675657271626,0.2065735984806245,0.0149009956965353,0.4793982456267098,-0.849376744511987,-0.7676285591275641,-1.707540893696196,1.5382042140691363,1.958652691719437,0.4964836825286043,-1.113434589170209,-1.0798152566313794,1.0040679780292403,0.6746111757304163,-0.3318956960993269,-0.6655054567725915,9.84067337480974,-1.2757839597818923,0.107008649190132,-1.1154914088854944
1.2,-1.6893903214200665,1.5221650300730296,1.9546809419702,0.0480407861718373,0.2034802196628781,0.0143889635622802,0.4919960224390126,-0.8553850783736135,-0.7816995906166612,-1.674656094739289,1.495895388356851,1.9310248298505803,0.5169045391321401,-0.9493767460021032,-0.8193736646623561,0.990956587813666,0.6298888406151365,-0.300416693081329,-0.7035515744548526,9.67582514694277,-1.2777477504365535,0.1081829693734726,-1.109939405809062
1.22,-1.6793166605822545,1.5049510227041598,1.9393105378662483,0.0454861909683843,0.1982588274451171,0.0137199500005116,0.5148066482979905,-0.8652963838027166,-0.7523141793952215,-1.674656094739289,1.495895388356851,1.9310248298505803,0.5169045391321401,-0.9493767460021032,-0.8193736646623561,1.9248772818288649,1.1405312929488958,-0.4955652714551506,1.4692705610719836,12.691135001156,-1.2784977447929524,0.1101600097361291,-1.0877188106305715
1.24,-1.6688057039546265,1.4875661793137112,1.924556258516557,0.0422868559242881,0.1909619326041003,0.0129482415824453,0.5345727066021484,-0.8725397158847121,-0.7251412342463261,-1.674656094739289,1.495895388356851,1.9310248298505803,0.5169045391321401,-0.9493767460021032,-0.8193736646623561,1.7186709026150924,0.9883029152078948,-0.3621666040997784,1.3586472574447672,12.691135001156,-1.2915766965123092,0.1131796549227422,-1.0847507513741512
1.26,-1.65794890262669,1.4700598028256555,1.910253078812608,0.0393435064672009,0.1821997455699869,0.0121774343082957,0.549673467526221,-0.8778121478034892,-0.7064307127490923,-1.6694870493479677,1.48640162089683,1.9228310932039567,0.5244057978332262,-0.9693767463001264,-0.8297226857693144,1.2307671728667733,0.7550380462036321,-0.263621595938851,0.9355260748616924,12.112639173410573,-1.3046832095099286,0.1158008000223909,-1.0786342079894031
1.28,-1.6473989523146284,1.4533432627430338,1.896947175940688,0.0371067540511816,0.1730948478001834,0.0114945615895464,0.5597642924415592,-0.8817075028929796,-0.6950616268301435,-1.6591489585653247,1.467414085976788,1.9064436199107095,0.5394083152353982,-1.0093767468961727,-0.8504207279832312,0.784625154735797,0.5045412457669096,-0.194767754474523,0.5684542959474403,11.55830035092913,-1.3176348655745922,0.11791644165807,-1.068928509462462
1.3,-1.6361300709818176,1.4356756133470008,1.883121892104,0.0354992708298386,0.1633109494776057,0.0108574923611119,0.5662374975258423,-0.8849413311155712,-0.6882677374520089,-1.648810867782682,1.448426551056746,1.8900561466174624,0.5544108326375703,-1.049376747492219,-0.871118770197148,0.4962785556488118,0.3236602542141531,-0.1616914111295775,0.3396944689067316,11.114109677961096,-1.3298086598420855,0.119254220549714,-1.0575750878875012
1.32,-1.624774019758489,1.4179527212026433,1.869377862514146,0.0349135510931503,0.1539058302811698,0.0103322896916576,0.568838291308849,-0.887349374623079,-0.6864184824957006,-1.6377226511299308,1.4274390161069015,1.87263377121352,0.5694133500397424,-1.0893767480882657,-0.8918168124110648,0.199890881040178,0.1300396891503352,-0.1204021753753892,0.0924627478154138,10.477241165861416,-1.340330749894702,0.1196066451789646,-1.0465358941458371
1.34,-1.6133981849732637,1.4001876758528975,1.8556500850945088,0.0356341957692688,0.1453460920945466,0.0099405440519684,0.5684873357308058,-0.8892334819166058,-0.686422406503558,-1.6266344344771793,1.4064514811570572,1.8552113958095768,0.5844158674419145,-1.1293767486843125,-0.9125148546249816,0.0958259556320511,-0.0175477789021605,-0.0942053646763418,-0.0001962003928712,10.477241165861416,-1.3497854346024911,0.1187780021644887,-1.034974444738595
1.36,-1.6026188556432337,1.3832673824789936,1.842596218863603,0.0374536471179494,0.1382432281886854,0.0096828604435078,0.5661293579223324,-0.8918341984039251,-0.6876500583487518,-1.6151711548893737,1.3844639461923116,1.8372715693502857,0.5994183848440866,-1.1693767492803586,-0.9332128968388984,0.1859496883949727,-0.1178988904236677,-0.1300358243659649,-0.06138259225969,10.280004455273229,-1.3575313373632554,0.116800228346035,-1.0247158606091735
1.38,-1.5913392636973358,1.3653911565179309,1.8288191381680188,0.0401669019338401,0.1319719886069613,0.0095029046938815,0.5618215012738732,-0.8959301967037334,-0.6900409090849767,-1.6033328123665136,1.361476411212665,1.818814291835647,0.6144209022462587,-1.209376749876405,-0.9539109390528152,0.3203552645837679,-0.2153928324229614,-0.2047999149904167,-0.1195425368112457,10.280004455273229,-1.363735691043683,0.1140889495285805,-1.0158836822143744
1.4,-1.5801658349137582,1.3474122898349137,1.814982709076534,0.0428994956100055,0.1272063668010644,0.0093745995333167,0.5556087750317579,-0.9017563511061146,-0.6935160380348371,-1.5632481886336422,1.3205946466827445,1.79431709271377,0.5995806376824406,-0.9959301981938496,-0.6958336856733273,0.4599417454906978,-0.3106363121057665,-0.2913077201190606,-0.1737564474930175,10.208488166499592,-1.3680623496364708,0.1115230484236168,-1.0089867707484756
1.42,-1.5696402744715277,1.3301396853819905,1.8021286857323653,0.0432000009519593,0.1246616121226932,0.0091770251033382,0.5525678770327487,-0.9151521223543494,-0.6593321788719804,-1.5632481886336422,1.3205946466827445,1.79431709271377,0.5995806376824406,-0.9959301981938496,-0.6958336856733273,1.8420301132455963,-0.1520448999504597,-0.6697885624117383,1.7091929581428356,12.78803058525682,-1.366862188626713,0.1108311909970572,-0.995389545858194
1.44,-1.5586276086282564,1.3117135787989982,1.7892893459145625,0.0403330163381931,0.1244129635890744,0.008866541017686,0.5490803894957073,-0.9263399579005775,-0.6267974242519053,-1.5632481886336422,1.3205946466827445,1.79431709271377,0.5995806376824406,-0.9959301981938496,-0.6958336856733273,1.7290463352083445,-0.1743743768520711,-0.5593917773114132,1.6267377310037523,12.33156585666802,-1.3703290931499128,0.1133586409702598,-1.0021945426951877
1.46,-1.5476794321100875,1.2931110695260426,1.7770335865514602,0.0359679582942906,0.1259124340644132,0.0085381203391553,0.5460661580619817,-0.9330324881189076,-0.6006729275534356,-1.5572523822568178,1.310635344700806,1.7873587558570367,0.6071324649641541,-1.0159301984918727,-0.6969922409909973,1.3568021959811185,-0.1507115716862794,-0.334626510916497,1.3062248349234862,12.33156585666802,-1.3721289219350543,0.1171278785998124,-1.0100460690314634
1.48,-1.5367859675719726,1.2744101063701965,1.765236511181544,0.0317814980199167,0.1285082197714022,0.0082723406510711,0.543620495994669,-0.9367987706855262,-0.5803340973798128,-1.545260769503169,1.2907167407369289,1.77344208214357,0.6222361195275811,-1.0559301990879193,-0.6993093516263376,1.0414342995966872,-0.1222831033656335,-0.1883141283309297,1.0169415086811406,11.894836891789057,-1.372008760339766,0.1210081221862675,-1.0184125375911202
1.5,-1.5264749716351094,1.2565913208184127,1.7543648371633602,0.0285233188265952,0.1315362150224432,0.0080949657749565,0.54200349686299,-0.9388565224152357,-0.5650813262958366,-1.5332691567495202,1.270798136773052,1.7595254084301035,0.6373397740910081,-1.0959301996839657,-0.7016264622616778,0.7737830027099848,-0.0808499565839504,-0.1028875864854728,0.7626385541988079,11.549354909301655,-1.3700008681244449,0.1242006870224753,-1.0261332133849523
1.52,-1.5156458155955042,1.237802110787947,1.7432028185365542,0.0260306731034769,0.134966850854156,0.0079878643828596,0.5411051094956197,-0.9401258337932854,-0.5520726421567389,-1.5205223612677,1.2488795327793725,1.7454928791848698,0.652443428654435,-1.135930200280012,-0.703943572897018,0.6550651003280318,-0.0449193683685122,-0.0634655689024876,0.6504342069548863,11.291644168133644,-1.3675480319925393,0.1265543208957336,-1.0337727117973818
1.54,-1.504823724396365,1.218994128901059,1.7322867105933393,0.0245704588449716,0.1383693015302717,0.0079610932467387,0.5412428268195346,-0.9407400668403,-0.540232213944272,-1.50777556578588,1.2269609287856933,1.7314603499396364,0.667547083217862,-1.1759302008760586,-0.7062606835323583,0.5928574629536446,0.0068858661957438,-0.0307116523507233,0.5920214106233446,11.061048284686876,-1.3649117534213118,0.1279787459144762,-1.040870390250304
1.56,-1.4939862569720552,1.200171567061392,1.7215995296139015,0.0240459584435887,0.1414428130039433,0.008002576661523,0.5425289616640665,-0.9415565822554172,-0.5290910479769453,-1.494651178939974,1.2040423247771128,1.7173698929285193,0.6826507377812889,-1.215930201472105,-0.7085777941676984,0.5622419838756323,0.0643067422265941,-0.0408257707558701,0.5570582983663364,11.061048284686876,-1.3625259409931347,0.1285331039404328,-1.0471312492978744
1.58,-1.4836582161736156,1.1822741838935285,1.7116472129871136,0.024250988477882,0.1438299618803714,0.0080896013154259,0.5445578344441808,-0.942386920164074,-0.5190879499953425,-1.4811492007299825,1.180123720753631,1.7032215081515187,0.6977543923447159,-1.255930202068151,-0.7108949048030386,0.5120247919534447,0.101443639005716,-0.0415168954328304,0.5001548990801408,11.03267639574642,-1.3606431515689814,0.1284414456047811,-1.0528576140617627
1.6,-1.472739618813677,1.1634166397915702,1.7013708024949223,0.0251781665194512,0.1456648221789964,0.0082264460353492,0.5471825127715105,-0.943379405895966,-0.5091085859784801,-1.4564303244514063,1.135154837885325,1.6856928154873465,0.582448935536281,-1.04238692165419,-0.5296551485028302,0.5183186047958621,0.1312339163664855,-0.0496242865946072,0.4989682008431195,10.978181620712348,-1.3595255545519538,0.1276701615297234,-1.0575263708162377
1.62,-1.4617224437861294,1.1444774183677977,1.691436851858131,0.0250354740400128,0.1461391952329155,0.0082661688714466,0.5541733318768054,-0.9498327567218068,-0.4847675766431086,-1.4564303244514063,1.135154837885325,1.6856928154873465,0.582448935536281,-1.04238692165419,-0.5296551485028302,1.3067153707951993,0.3495409552647432,-0.3226675412920377,1.217050466768571,10.978181620712348,-1.3576060475749496,0.1277229088170534,-1.0586192203722784
1.64,-1.4511353832113845,1.1263947135710768,1.6824311007956074,0.0235008994645422,0.1449939791224478,0.0081796033145515,0.5597651926734298,-0.9532728591228236,-0.4644567519508248,-1.4564303244514063,1.135154837885325,1.6856928154873465,0.582448935536281,-1.04238692165419,-0.5296551485028302,1.0672778590636491,0.2795930398312218,-0.1720051200508443,1.0155412346141923,11.945769837979242,-1.3614604455023749,0.129507368565058,-1.0614095271653798
1.66,-1.4398914436446075,1.1073090938733268,1.673331967502343,0.021541313173118,0.1424126274389019,0.0080504986622514,0.5641761674021339,-0.9551117849204748,-0.4466797735501152,-1.4506058350960438,1.1247309686687827,1.6803962640023182,0.590027155754701,-1.062386921952213,-0.5317685882043278,0.9204065775593792,0.2205487364352054,-0.0919462898825551,0.8888489200354788,11.688327600199043,-1.366513150305453,0.1316461992676315,-1.0615426933148586
1.68,-1.4285776983950964,1.0882034187372198,1.6645512210113202,0.0199380720614334,0.1386941366689816,0.0079428042740758,0.566801552878099,-0.9554239455582532,-0.4324149188404451,-1.438956856385318,1.1038832302356991,1.6698031610322617,0.605183596191541,-1.1023869225482597,-0.5359954676073229,0.7253898487178894,0.1312692737982512,-0.0156080318889195,0.7132427354835075,11.445996359530907,-1.3726060822588666,0.1334528918905084,-1.059447886936207
1.7,-1.4172339700475889,1.0691064443572755,1.6560213597499298,0.0193420938297804,0.1342135261545167,0.0079085591859682,0.567281765068551,-0.9544650475539352,-0.4212564587227306,-1.4273078776745924,1.0830354918026153,1.659210058062205,0.6203400366283811,-1.142386923144306,-0.540222347010318,0.5604938031084034,0.0240106095226011,0.0479449002159015,0.5579230058857243,11.224810177946893,-1.3789802385209182,0.134283894321005,-1.0558641353067888
1.72,-1.406470833402783,1.0509902659434631,1.6481029362107098,0.0201784294350848,0.1297301495318262,0.0079789516422594,0.5655237784275882,-0.9527869597871028,-0.4128047286621239,-1.4149010769420247,1.0601877533397293,1.6484056111219985,0.6354964770652212,-1.1823869237403524,-0.5444492264133132,0.4397108043940875,-0.0878993320481413,0.0839043883416101,0.4225865030303338,10.902915135500734,-1.3855649358359838,0.1337577094680915,-1.0510226074715725
1.74,-1.3952006157154224,1.0319563472796676,1.6399310370972442,0.0229126898129525,0.1254028380599714,0.0081887429774681,0.5614124152595377,-0.9510465899201084,-0.4048670012999755,-1.4024942762094572,1.037340014876843,1.6376011641817922,0.6506529175020612,-1.222386924336399,-0.5486761058163082,0.4553562068571831,-0.2055681584025248,0.0870184933497275,0.3968863681074214,10.902915135500734,-1.391503593769903,0.1314348049062019,-1.046515820193834
1.76,-1.3840338709419238,1.0129243634121317,1.6319101259499065,0.026812417210682,0.1221472481694578,0.00849368292945,0.5553422036291467,-0.9524939104864646,-0.3976481537674779,-1.3897085644659686,1.0134922763990557,1.6266910452565109,0.6658093579389013,-1.2623869249324453,-0.5529029852193034,0.4771110084586664,-0.3035105815195504,-0.0723660283178107,0.3609423766248787,10.84284358695004,-1.3958144820063738,0.1279974019123936,-1.04328186464248
1.78,-1.3730051865870991,0.9938385258404144,1.6240288232123876,0.0306351906256508,0.120560343723159,0.008829421891897,0.5478581547086319,-0.9560373902843948,-0.390860535169689,-1.3765439417115588,0.9886445379063674,1.6156752543461548,0.6809657983757413,-1.3023869255284917,-0.5571298646222984,0.5353480259421148,-0.3742024460257398,-0.1771739898965063,0.3393809298894462,10.805063442037865,-1.3976723725707123,0.1247643670843911,-1.042171083930599
1.8,-1.3626657975253929,0.975628314289472,1.6166634377922835,0.0337599796701585,0.1206867838396651,0.0091616101288612,0.5410635572812093,-0.9605469332583582,-0.3847862921903642,-1.3456122788516676,0.9460366563261948,1.6044857964539032,0.6004419572000583,-1.056037391774511,-0.3941669265858065,0.5084263953775354,-0.3397298713711305,-0.2254771486981721,0.3037121489662397,10.7830743466493,-1.3971926020968386,0.121816240087525,-1.0436785482117126
1.82,-1.3519073100774943,0.9562858379575434,1.6091870400805484,0.0341972030240537,0.12255177162823,0.0093758566542701,0.5354669248339073,-0.9727418341260536,-0.3623529624057376,-1.3456122788516676,0.9460366563261948,1.6044857964539032,0.6004419572000583,-1.056037391774511,-0.3941669265858065,1.3069929104139435,-0.2798316223650954,-0.609745043384774,1.1216664892313266,10.760385649389718,-1.3929453441550048,0.121464198114909,-1.043513150041537
1.84,-1.3412457305612904,0.936736075158798,1.60216255695029,0.0310027646258299,0.1261491806719615,0.0094002085993419,0.531256697917245,-0.98106056889332,-0.3413095715036982,-1.3456122788516676,0.9460366563261948,1.6044857964539032,0.6004419572000583,-1.056037391774511,-0.3941669265858065,1.1508167311457,-0.2105113458331198,-0.415936738363315,1.052169545101972,11.66195767757108,-1.3909517675699563,0.1245617327303799,-1.0519148525249002
1.86,-1.331181314561348,0.9180586321423324,1.5958444541673884,0.0268818725356017,0.1305417853445146,0.0093746143648182,0.528576873910666,-0.9844574031350491,-0.3248177863818868,-1.339607859279667,0.9354762824084496,1.6005441271880452,0.6109587176983436,-1.076037392072534,-0.39482820486903,0.8524947449633047,-0.1339912003289478,-0.1698417120864603,0.8245892560905688,11.66195767757108,-1.3881045845093645,0.129041016885309,-1.0615785089116727
1.88,-1.32062701214838,0.8983597570725389,1.589502369961132,0.0230314661713939,0.1356563972211678,0.0093877773203991,0.5271784998701271,-0.985363633578228,-0.3104121340805321,-1.3275990201356658,0.9143555345729596,1.5926607886563289,0.6319922386949142,-1.1160373926685807,-0.396150761435477,0.7250853773882859,-0.0699187020269442,-0.0453115221589472,0.7202826150677383,11.242881107295943,-1.3843055818577634,0.1331128311708183,-1.0716477584887312
1.9,-1.3100855358029355,0.878659090916915,1.5834178555773015,0.0202749276673291,0.1408434788760175,0.0094738613771945,0.5271943281297194,-0.9849745864608032,-0.2987803843301093,-1.3155901809916646,0.8932347867374693,1.5847774501246128,0.6530257596914848,-1.156037393264627,-0.3974733180019241,0.5819132462185393,0.0007914129796171,0.0194523558712467,0.5815874875211402,11.242881107295943,-1.3800841412892466,0.1361702598141946,-1.0816410112973618
1.92,-1.2995292593321626,0.85897416473688,1.5775455163036889,0.0187303778003889,0.1457628150923604,0.0096387554185717,0.5285403778204429,-0.9838257856846424,-0.28906006484112,-1.302529665797835,0.8701140388721768,1.5768279837645742,0.6740592806880554,-1.1960373938606734,-0.3987958745683711,0.4940045646581319,0.0673024845361747,0.0574400388080431,0.4860159744494607,10.99701477572762,-1.3761804102586763,0.1380061315985022,-1.0905206152886484
1.94,-1.2894633132830784,0.8403015718603994,1.5721399654268633,0.0185891005553071,0.1499632912242493,0.0098834352926164,0.5310201624401288,-0.9820002142196292,-0.2804501042361695,-1.2894691506040052,0.8469932910068841,1.568878517404536,0.695092801684626,-1.23603739445672,-0.4001184311348181,0.4572019918829677,0.1239892309842949,0.0912785732506527,0.4304980302475281,10.99701477572762,-1.3722958269661758,0.1385819808597356,-1.0988714368092212
1.96,-1.278803590455637,0.8206780439239236,1.5666233528730968,0.0198714699828824,0.1536721097789012,0.0102362719031597,0.5348657090242442,-0.980564610082449,-0.2716857589305315,-1.2758827973852611,0.8228725431266906,1.5608959871303365,0.7161263226811966,-1.2760373950527664,-0.4014409877012651,0.483898068826868,0.19227732920577,0.0717802068590123,0.4382172652818983,10.973996673486909,-1.368838309483316,0.1376762724316738,-1.1062683815519998
1.98,-1.268056145430241,0.8010753614659148,1.5612796983206865,0.0224104718987478,0.1564492422744786,0.01066843879411,0.5396826793998284,-0.979964886702864,-0.2631329465421912,-1.261770606141603,0.7977517952315957,1.5528803929419754,0.7371598436777671,-1.3160373956488127,-0.4027635442677121,0.4917150381100414,0.2408485187792075,0.0299861689792457,0.4276406194170162,10.96920473589853,-1.3661427868823093,0.1354866035418451,-1.112379141447474
2.0,-1.2572049267056953,0.78146213471604,1.556105409321892,0.0255454613930875,0.1581770122335397,0.0111267225835149,0.5451120701589701,-0.9815348430244032,-0.2547298499601948,-1.2410720114602496,0.7520771171307716,1.5481230509935768,0.6047690590470833,-1.0758914993184494,-0.2566516683201369,0.5063474079951268,0.2714695379570864,-0.07849781607695,0.4201548290998197,10.967203084272114,-1.3645351472560292,0.1328097846021858,-1.1165602170315996
2.02,-1.246758776829017,0.7627090176650747,1.5514719282518064,0.0260026947909164,0.1584792946023752,0.0113563981846196,0.5540145340386649,-0.9912186993282746,-0.2333903335329973,-1.2410720114602496,0.7520771171307716,1.5481230509935768,0.6047690590470833,-1.0758914993184494,-0.2566516683201369,1.2534012699350632,0.4451231939847366,-0.4841928151935737,1.0669758213598737,10.9686830753526,-1.3600641764235228,0.1322286898813352,-1.1156764482418038
2.04,-1.2355904700416511,0.7428162135354596,1.547028118642355,0.0231684231958131,0.1572711415821244,0.0113363589265727,0.5621871680431434,-0.9971995830527584,-0.212247698163419,-1.2410720114602496,0.7520771171307716,1.5481230509935768,0.6047690590470833,-1.0758914993184494,-0.2566516683201369,1.1721496780146072,0.408631700223927,-0.2990441862241955,1.0571317684789152,11.926645213424308,-1.3645662519373587,0.1356312123631546,-1.117167069482601
2.06,-1.224276221082906,0.7228518865132175,1.5429742613253967,0.0192082700150714,0.1549330088464392,0.0112307094477685,0.5686752129671006,-0.9987636790185536,-0.1943284624939007,-1.2350243208697789,0.7413182021375871,1.5455565343103754,0.6177863349765343,-1.0950768218415663,-0.2553554126757261,0.9560859403124268,0.3244022461978579,-0.0782047982897549,0.8959617834759139,11.75915141459882,-1.3702924777699943,0.1402026154357455,-1.1172753372499713
2.08,-1.2134265881236936,0.7038864913738634,1.5394225026125985,0.0159834138678438,0.1520489572252838,0.0111769178905445,0.5729632332008703,-0.9977570624486408,-0.1804173001645133,-1.2229289396888372,0.7198003721512182,1.5404235009439728,0.6438208868354363,-1.1334474668878003,-0.2527629013869044,0.7295903504683439,0.2144010116884864,0.0503308284956427,0.6955581164693692,11.536734405288373,-1.376047712868783,0.144000552266657,-1.1161589499005549
2.1,-1.2019388174275942,0.6839555894786974,1.5359464452745186,0.0136747863363628,0.1488272998909147,0.0112136580355057,0.5754298143261678,-0.9956294885371256,-0.1680174729779283,-1.2108335585078955,0.6982825421648492,1.53529046757757,0.6698554386943383,-1.1718181119340347,-0.2501703900980827,0.641027120046035,0.1233290562648758,0.1063786955757484,0.61999135932925,11.191148935128696,-1.381613046983006,0.1468672243554356,-1.1139421353525072
2.12,-1.1904241727870295,0.6640749502946443,1.5326971962128153,0.0126740182482187,0.1460443890210687,0.0113624244375178,0.5757780474851644,-0.9926919237764864,-0.1576043866535109,-1.1974364497340089,0.6748461799261685,1.5302870597756084,0.6958899905532403,-1.210188756980269,-0.247577878809261,0.5412552998718425,0.0174116579498284,0.1468782380319611,0.5206543162208712,11.191148935128696,-1.386176264172769,0.1483591388614446,-1.1118719196987006
2.14,-1.1789228335989246,0.6442627116340964,1.529645209625906,0.0134148771346464,0.144402226390187,0.0116541588507063,0.5743760649423255,-0.9889799988020256,-0.1481131125379715,-1.184039340960122,0.6514098176874877,1.5252836519736468,0.7219245424121422,-1.248559402026503,-0.2449853675204393,0.5143642347664724,-0.0700991271419426,0.1855962487230467,0.4745637057769689,11.023740241563246,-1.3893433010901424,0.1482263941746498,-1.1113443297257648
2.16,-1.1680230806052068,0.6255016169914333,1.5269179041046543,0.0157298931121659,0.1440671535306666,0.0120611315581837,0.5731641839570849,-0.9862254308402384,-0.1394561859551854,-1.1699913683897627,0.6270141893226512,1.5203450569539056,0.7479590942710442,-1.2869300470727372,-0.2423928562316176,0.4582539635350738,-0.0605940492620304,0.1377283980893595,0.4328463291393081,11.023740241563246,-1.390535891770044,0.1463196364215368,-1.1136631052880617
2.18,-1.1565673176802893,0.6057872847224849,1.5242247545727086,0.0192388605900374,0.1446137837791728,0.0125780897915841,0.5725733362106119,-0.9856744381684736,-0.1303231894073068,-1.1552925320229308,0.6016592948316588,1.515471274716385,0.7739936461299461,-1.3253006921189712,-0.2398003449427959,0.4584329829086604,-0.02954238732365,0.0275496335882419,0.456649827393929,11.006651032573243,-1.3904032065056064,0.1432564626917478,-1.1173157550778472
2.2,-1.1451148207721284,0.5860583862367313,1.5217154949213738,0.0227364544216177,0.1457121113782318,0.0131053867713282,0.5727829532364614,-0.98723496948232,-0.1210717040018179,-1.1279386508697586,0.5565035628140612,1.5177085951023432,0.657255860414866,-1.0197136375207378,-0.1185452752781092,0.4692259037153505,0.010480851292477,-0.078026565692324,0.4625742702744434,11.006651032573243,-1.3897238601960962,0.1403267101338273,-1.1210422437182408
2.22,-1.134216639058078,0.5670170685088703,1.5195913071646816,0.0173668728821583,0.1473332820599884,0.013014925111755,0.5744787042712111,-1.011739869394469,-0.1028387291880719,-1.1279386508697586,0.5565035628140612,1.5177085951023432,0.657255860414866,-1.0197136375207378,-0.1185452752781092,1.529548186422211,0.0847875517374807,-1.2252449956074496,0.9116487406872992,11.019763760486969,-1.383017753596479,0.1456504289451326,-1.1193193770295429
2.24,-1.122707948765367,0.5467048547580791,1.517726718078956,0.0033045266600602,0.1497695293618557,0.0123432677648214,0.5764042621632646,-1.0168566507242156,-0.0847116856783396,-1.1279386508697586,0.5565035628140612,1.5177085951023432,0.657255860414866,-1.0197136375207378,-0.1185452752781092,0.9466769918718604,0.0962778946026754,-0.2558390664873289,0.9063521754866168,11.544832871894869,-1.384143877807252,0.160701530240991,-1.1248194497111197
2.26,-1.111159593145662,0.5264193018877028,1.51618356928017,-0.0117600956576657,0.1527679085546795,0.0115915174318831,0.5784426794503726,-1.0111976671833367,-0.0707314326709679,-1.12136609226561,0.5463064264388539,1.5165231423495622,0.6741923652557169,-1.0265214773911908,-0.1161896924522697,0.760964378112481,0.1019208643554037,0.2829491770439452,0.699012650368587,11.544832871894869,-1.383813992075123,0.1761520523782603,-1.1316010187501124
2.28,-1.099568167353286,0.5063184288862477,1.5148751714675197,-0.0249612375725158,0.1561527923394746,0.0109488294810867,0.5807541802608303,-0.9995781040135354,-0.0608254979617142,-1.1082209750573129,0.525912153688439,1.514152236844,0.7080653749374185,-1.0401371571320963,-0.1114785268005906,0.7721476975257806,0.1155750405228805,0.5809781584900642,0.4952967354626847,11.277003251946551,-1.3817323347327672,0.1906761766912436,-1.1382151501895263
2.3000000000000003,-1.0885078612284411,0.4874723627478393,1.5137890676678267,-0.0349710845241057,0.1595742808631363,0.0104964950146728,0.5834968586671984,-0.9853663717703176,-0.0540076032446845,-1.0950758578490154,0.5055178809380243,1.5117813313384378,0.7419383846191202,-1.0537528368730025,-0.1067673611489116,0.799967665856219,0.1371339203184052,0.7105866121608961,0.3408947358514835,11.066261030518035,-1.378475995959734,0.2024995194472505,-1.1450346354156469
2.32,-1.0768011583456705,0.4679418851982259,1.512770564654528,-0.0428366179185773,0.1632545790063048,0.0101955877886194,0.587144006910002,-0.9688324579951438,-0.0482620435410826,-1.080237090156633,0.4844428242005643,1.5096459841154597,0.7758113943008218,-1.067368516613908,-0.1020561954972326,0.8939846913363747,0.1823574121401827,0.8266956887586829,0.2872779851800962,10.93059121166516,-1.3750224123266956,0.2115619102498691,-1.1519753014320298
2.34,-1.0650109914971329,0.4487565086965246,1.5118607501867891,-0.0480948040074742,0.1668703409744474,0.0100779065320209,0.5917944303331019,-0.95118181214448,-0.0430012159246574,-1.0653983224642505,0.4633677674631042,1.5075106368924815,0.8096844039825235,-1.0809841963548137,-0.0973450298455535,0.9498000370728196,0.2325211711549923,0.8825322925331891,0.2630413808212575,10.864649853132503,-1.3717618836610035,0.2177296137150482,-1.158971744100991
2.36,-1.053112408889599,0.429923886084584,1.5110570549990994,-0.0512640325568999,0.1701288742135971,0.0101287143652922,0.5978631652987098,-0.9334678999800072,-0.0376271078766013,-1.0497127295298256,0.4419523187321215,1.5054930688107953,0.8435574136642252,-1.0945998760957196,-0.0926338641938745,0.974029344483049,0.3034367482803946,0.8856956082236411,0.2687054024028044,10.864649853132503,-1.3685311199269063,0.2221880712029634,-1.166827093035114
2.38,-1.041685204951846,0.4123622866088476,1.5103959883682798,-0.0526938755009239,0.172603156537059,0.0103290765802918,0.604675064787836,-0.916340156417308,-0.0322242491078793,-1.033180311353358,0.4201964780076162,1.5035932798704008,0.8774304233459268,-1.1082155558366251,-0.0879226985421954,0.9604067589754632,0.3405949744563097,0.8563871781349652,0.2701429384360996,10.8888763848272,-1.366044003816909,0.2249045756377615,-1.1741851736865807
2.4,-1.0295099123936196,0.3942301062564108,1.5098148242156717,-0.0525452189598885,0.1744135444344967,0.0107104657865646,0.6124784018529408,-0.8979514749138998,-0.0261541465522973,-1.0114514517124542,0.3665452787879822,1.5087847759128858,0.6852789325570773,-0.8995996573529816,-0.0416296729949533,1.0438891485937405,0.3901668532552416,0.9194340751704057,0.3035051277790999,10.960328041564935,-1.3644833986105254,0.2258421283922398,-1.1807383061641883
2.42,-1.0171323290704477,0.3762951822545292,1.5093311555283415,-0.056018964139082,0.1739585222545628,0.0109752933570099,0.624586300560088,-0.89358762462597,-0.0226299928544112,-1.0114514517124542,0.3665452787879822,1.5087847759128858,0.6852789325570773,-0.8995996573529816,-0.0416296729949533,0.6672032293917788,0.6053949353573618,0.2181925143964924,0.176207684894305,10.960328041564935,-1.3638016755395124,0.2304311183296584,-1.1857207860676426
2.44,-1.0051653185167138,0.3594445969588674,1.5089244429731976,-0.062899696114694,0.1704944701842549,0.0111841879872933,0.6342548132987327,-0.8798908359696603,-0.0203445013114553,-1.0114514517124542,0.3665452787879822,1.5087847759128858,0.6852789325570773,-0.8995996573529816,-0.0416296729949533,0.8460284121497774,0.4834256369322331,0.6848394328154817,0.1142745771477965,10.786201449040163,-1.369329481676113,0.2391021744900116,-1.1795144728202194
2.46,-0.9924060581578664,0.3420491296704878,1.5085296597258209,-0.0701831610458261,0.1647746046501499,0.0115972612395949,0.6407597459679945,-0.860383327076386,-0.0192835487588266,-1.0045986623868834,0.3575492822144524,1.5083684791829364,0.7013997061109255,-0.8962515575401164,-0.0435107577723681,1.029541976526135,0.3252466334630888,0.9753754446637176,0.0530476276314337,10.736003741187233,-1.3776688039015492,0.247923840874308,-1.1702980784215455
2.48,-0.9795598464426336,0.325075112102033,1.5081411582909658,-0.0761620900466434,0.1584540614356548,0.012215328474868,0.6433076065685395,-0.8382317675436551,-0.0196501927068927,-0.990893083735742,0.3395572890673928,1.5075358857230372,0.7336412532186221,-0.8895553579143859,-0.0472729273271977,1.115030953781757,0.1273930300272507,1.1075779766365423,-0.0183321974033033,10.647595417412049,-1.3862437032533774,0.2550921732492773,-1.161521069701412
2.5,-0.9667009103206766,0.308560083254584,1.507732511531927,-0.080386622230035,0.1528175943136068,0.012961890540085,0.6423795900014048,-0.8148465856875988,-0.0211501251084997,-0.9771875050846004,0.3215652959203331,1.5067032922631385,0.7658828003263186,-0.8828591582886554,-0.0510350968820273,1.1725802130335183,-0.0464008283567352,1.1692590928028157,-0.0749966200803526,10.559818177172929,-1.3945210908080308,0.260860513248377,-1.1535962897840482
2.52,-0.9545315570197788,0.2933080158841714,1.50731135943721,-0.0828757117395672,0.1491228023391371,0.0136800742877498,0.6386052870182172,-0.7922217710563602,-0.0230730765244615,-0.961869849078074,0.3039081127545601,1.5056825903254978,0.7981243474340152,-0.8761629586629248,-0.0547972664368569,1.150896761502698,-0.1887151491593797,1.1312407315619333,-0.0961475707980875,10.498245440792743,-1.4007413688665606,0.2648816267693584,-1.1482637198695391
2.54,-0.9418218767696298,0.2777171201732734,1.5068270796723755,-0.0840911960683707,0.1480190834825908,0.014324931941762,0.6327722434161631,-0.7682364730562392,-0.0252668167521337,-0.9465521930715476,0.2862509295887869,1.504661888387857,0.8303658945417117,-0.8694667590371943,-0.0585594359916865,1.2390837481830848,-0.2916521801027028,1.1992649000060474,-0.10968701138361,10.472743886318312,-1.4025501454357503,0.2673964127495492,-1.1480684590019872
2.56,-0.9292175889160672,0.2626157320970791,1.506299421042867,-0.0835897085801435,0.1496843265303797,0.0148703560272245,0.6283046179645805,-0.7434090751702009,-0.027392084958375,-0.9304284983873288,0.2687611514136571,1.5035471322113458,0.8626074416494083,-0.8627705594114639,-0.0623216055465161,1.2657765678781412,-0.2233812725791317,1.2413698943019136,-0.1062634103120631,10.46098361584427,-1.4006139958740698,0.268147379028066,-1.1525561128712636
2.58,-0.9173053057043054,0.248733069948267,1.505764433296858,-0.0811747775951433,0.1529246781291116,0.0153974580092459,0.6260810158208256,-0.7194870893121658,-0.0288126157368743,-0.9134987650254176,0.2514387782291705,1.5023383217959638,0.8948489887571047,-0.8560743597857333,-0.0660837751013457,1.2033533578903683,-0.1111801071877416,1.1960992929017589,-0.071026538924967,10.471012874954797,-1.3964208642528773,0.2667719864309054,-1.1600544643588306
2.6,-0.9047877636605568,0.2345887055357279,1.5051823639306388,-0.0769398204356982,0.1572416954276601,0.0160154271810508,0.6260101102664997,-0.6967085313707772,-0.0292591348849251,-0.8860012549132641,0.2127587154826587,1.5043238025100143,0.6999838015988713,-0.666547357684463,-0.0175448279599869,1.139152216383316,-0.0035452777162992,1.1389278970694303,-0.0223259574025381,10.513947183135317,-1.3916855530198524,0.2636282914183728,-1.1699547392437128
2.62,-0.8921806263679296,0.2207688292627325,1.5046782143840172,-0.0757342147263968,0.1600879102865932,0.0165518691774631,0.6347220231713608,-0.6852178416690644,-0.0208133426425653,-0.8860012549132641,0.2127587154826587,1.5043238025100143,0.6999838015988713,-0.666547357684463,-0.0175448279599869,0.8355608638573824,0.4355956452430587,0.5745344850856371,0.4222896121179874,10.573943870889709,-1.3864812188665898,0.2637080149486714,-1.1784967917537852
2.64,-0.8793980687665596,0.2072248708104833,1.504358689098748,-0.0792802504487419,0.1597229853851826,0.0170132421056291,0.6428258753667444,-0.6688205335851898,-0.0116514071656745,-0.8860012549132641,0.2127587154826587,1.5043238025100143,0.6999838015988713,-0.666547357684463,-0.0175448279599869,1.0228455338965343,0.4051926097691782,0.8198654041937314,0.4580967738445432,11.143270572459189,-1.387194608000871,0.2682949620194967,-1.1772539238342608
