t,x,y,z,roll,pitch,yaw,v_x,v_y,v_z,ref_x,ref_y,ref_z,ref_v_x,ref_v_y,ref_v_z,a_com,a_x,a_y,a_z,thrust,wind_x,wind_y,wind_z
0.0,-1.8013978733570657,-0.0777873779830577,1.7707431008209409,0.018255236165613,0.1364446420646128,0.0261868283323392,0.0019757857722511,-0.0078278637399135,-0.0036967591967094,-1.801341498336406,-0.0779804371420664,1.7706257141496613,0.1018586732981934,-0.0119675062547185,-0.0804881403267884,0.4439741228577948,0.0987892886125587,-0.3913931869956761,-0.1848379598354747,10.545106263218258,-1.283806419309607,0.1572756367204445,-1.1589712297679633
0.02,-1.8014616596205124,-0.0779310602311217,1.7704832337761798,0.0161800719700729,0.1387378112091756,0.0260769695095918,-0.0081326831018349,-0.0066158407513416,-0.0232615747835699,-1.801341498336406,-0.0779804371420664,1.7706257141496613,0.1018586732981934,-0.0119675062547185,-0.0804881403267884,1.1027603452825252,-0.505423443704308,0.0606011494285919,-0.9782407793430234,10.544345415730277,-1.3006284332721336,0.1610296500978217,-1.1625874021625455
0.04,-1.8017066723568067,-0.0780451469206272,1.7697435964721326,0.0148270701188889,0.1446963811930739,0.0260734456834809,-0.0153650133825336,-0.004900719015373,-0.0498389767741397,-1.801341498336406,-0.0779804371420664,1.7706257141496613,0.1018586732981934,-0.0119675062547185,-0.0804881403267884,1.3798609897618732,-0.3616165140349337,0.0857560867984312,-1.32887009952849,9.352745627501008,-1.2910649476654046,0.1618775517756568,-1.1531592848524943
0.06,-1.8020361109812668,-0.0781177975159592,1.7685502537638562,0.0142517844728216,0.152007508752638,0.0261397427116531,-0.0186396518838725,-0.002903671980867,-0.0744136071081116,-1.800322911603424,-0.0781001122046136,1.7698208327463931,0.1218586735962166,-0.0130267977664926,-0.0958325991452241,1.2436075649334166,-0.1637319250669467,0.0998523517253001,-1.2287315166985917,9.106772942093812,-1.2783504695754544,0.1618876879472324,-1.144519879142736
0.08,-1.8024177331940907,-0.0781515397693766,1.766801989071508,0.0144530874295246,0.1603869353579297,0.0262747828162803,-0.0190522666869462,-0.0006240989542253,-0.0990652102655211,-1.7982857381374602,-0.078339462329708,1.7682110699398577,0.1618586741922631,-0.0151453807900407,-0.1265215167820954,1.238010745500532,-0.0206307401536848,0.1139786513320845,-1.2325801578704785,9.106772942093812,-1.267471271379011,0.1612547464641044,-1.1383781757090647
0.1,-1.8027795136885016,-0.0781398381784464,1.7645754510549725,0.0155333312967292,0.1688771439738781,0.0264779991938046,-0.0168565451199211,0.0016145770140502,-0.1222997289640547,-1.7962485646714963,-0.0785788124548023,1.766601307133322,0.2018586747883095,-0.0172639638135888,-0.1572104344189668,1.1722582079509407,0.1097860783512592,0.1119337984137802,-1.1617259349266786,9.167541329685264,-1.2583137173271866,0.159883430489963,-1.1338145588985389
0.12,-1.803073206903198,-0.0780868121170389,1.7618990287671987,0.0174727263803748,0.1771578496449413,0.0267494058546262,-0.0124183237556686,0.0034888170622291,-0.1441918889591741,-1.79221139117573,-0.0789240917310741,1.7634570984449427,0.241858675384356,-0.0193825468371369,-0.1878993520558381,1.120800220699712,0.2219110682126248,0.0937120024089452,-1.094607999755968,9.240425564617908,-1.2511729555894182,0.1579016394464275,-1.1305573826140665
0.14,-1.8032528066973983,-0.0780108045632682,1.7589535623774848,0.0199016602525068,0.1846884814924693,0.0270572825537635,-0.0065495804364789,0.0042192075846404,-0.164776094125307,-1.7881742176799638,-0.0792693710073459,1.7603128897565632,0.2818586759804025,-0.0215011298606851,-0.2185882696927095,1.0708467686639591,0.2934371659594808,0.0365195261205666,-1.0292102583066496,9.306788550704368,-1.2461245045864815,0.1554115352264088,-1.129666298145798
0.16,-1.8033057553584595,-0.0779310911337363,1.7554291405841125,0.0224733096423188,0.1922001697157978,0.0273905351606359,0.0011090241502774,0.0036937591765777,-0.186594936017011,-1.7831370441692964,-0.0796676148592064,1.756401458127262,0.3218586765764489,-0.0236197128842332,-0.2492771873295808,1.156494900270857,0.3829302293378233,-0.0262724204031367,-1.0909420945851998,9.318354310428733,-1.2423778692348977,0.1529889318856958,-1.1287335728706087
0.18,-1.803190518563036,-0.0778705190962153,1.7514690598081384,0.0247393281802031,0.1992657384887715,0.0277062862910993,0.0101770191368538,0.0024463270077021,-0.2083268382123857,-1.777099870643728,-0.0801188232866556,1.7517228035570391,0.3618586771724953,-0.0257382959077813,-0.2799661049664521,1.179046429452472,0.4533997493288172,-0.0623716084437812,-1.086595109768733,9.322558510953968,-1.2396686314573508,0.1510272244228814,-1.1273486911774873
0.2,-1.8029005859571008,-0.0778402528697896,1.7473063991014437,0.0265356635124013,0.20556540483949,0.0279804726444462,0.0200032309994746,0.0008692522340057,-0.2287653149550321,-1.802681667606193,-0.0777482027458301,1.741052717897519,0.1101770206269699,0.0006894819655926,-0.2338147584817558,1.1366320160573475,0.4913105931310411,-0.0788537386848192,-1.0219238371323185,9.322558510953968,-1.2377838688136291,0.1493996485778207,-1.1256752863248929
0.22,-1.802321440167519,-0.0778525166653371,1.7427585508850751,0.0279365812568636,0.2116499216567433,0.0282262328857982,0.0378124032400714,-0.0020063270844905,-0.2236507073655911,-1.802681667606193,-0.0777482027458301,1.741052717897519,0.1101770206269699,0.0006894819655926,-0.2338147584817558,0.9375430431534514,0.890458612029839,-0.1437789659248159,0.2557303794720481,9.33736169648182,-1.2213644493735754,0.1470991585068728,-1.1228449061418468
0.24,-1.8013668574955854,-0.0779269623384278,1.7383510538541556,0.0286688604412132,0.2171364771894953,0.028410314244376,0.0568007031123889,-0.0052528483380107,-0.2176233387708648,-1.802681667606193,-0.0777482027458301,1.741052717897519,0.1101770206269699,0.0006894819655926,-0.2338147584817558,1.0092380844816868,0.9494149936158772,-0.1623260626760079,0.3013684297363164,11.019987922801192,-1.2223502266846953,0.1469546887244607,-1.1335826385068415
0.26,-1.8000291627398235,-0.0780687324760483,1.73403748420144,0.0286106366748655,0.2221685868020076,0.0285240004926287,0.0761188612143064,-0.0086761654404627,-0.214053586978614,-1.8015798973999235,-0.0777413079261742,1.7387145703127014,0.1301770209249931,0.0003381129571707,-0.2389123425356298,0.9970625109451476,0.9659079050958732,-0.1711658551225987,0.1784875896125387,10.903778985611098,-1.2242398276799318,0.1475985267849893,-1.1427057658505424
0.28,-1.798396664282326,-0.0782657431756154,1.729987618452134,0.0277660003557689,0.2266072450912647,0.0285621454321893,0.0948372947504951,-0.0118082609898928,-0.2124432546412743,-1.7993763569873835,-0.0777275182868624,1.7340382751430663,0.1701770215210396,-0.000364625059673,-0.2491075106433778,0.9523430931341852,0.9359216768094336,-0.1566047774715084,0.0805166168669865,10.779398951558504,-1.226745749369364,0.1491454886294343,-1.1514790649835078
0.3,-1.7962893198893262,-0.0785325675626911,1.7257436044982446,0.0260793418822861,0.2309695410917242,0.0285304843601719,0.1149841475783654,-0.0146283238590422,-0.2121149672994588,-1.7971728165748444,-0.0777137286475505,1.7293619799734312,0.210177022117086,-0.0010673630765168,-0.2593026787511259,1.0172956871438823,1.007342641393516,-0.1410031434574694,0.0164143670907751,10.68436265485525,-1.2296203529697194,0.1515536802567691,-1.15905018645054
0.32,-1.7937741310783049,-0.0788466750289363,1.7214945827260526,0.0237444349675562,0.2350462331132864,0.0284370853035149,0.1355929420844055,-0.0164331385443475,-0.2128555833824172,-1.792969276132503,-0.0777350759090809,1.7241759263984089,0.2501770227131324,-0.0017701010933606,-0.2694978468588739,1.0350462299129692,1.030439725302007,-0.0902407342652622,-0.0370308041479236,10.614423790928411,-1.2325161011391828,0.1544904058136855,-1.166046209683041
0.34,-1.7909961554309677,-0.07916259955746,1.7174457188105268,0.021456888444294,0.2386702792459521,0.0283296252868396,0.1558569425890357,-0.016725534260422,-0.2133213716695515,-1.788765735690161,-0.0777564231706112,1.718989872823386,0.290177023309179,-0.0024728391102044,-0.2796930149666219,1.0135730985415696,1.01320002523151,-0.0146197858037275,-0.0232894143567141,10.596511734111118,-1.2352106348929668,0.1576374678277326,-1.172869604879916
0.36,-1.7876487833242372,-0.0794921663101635,1.7131773793984617,0.0193319032535555,0.2422337308202302,0.0282242504234639,0.1778856647035761,-0.0162336650449802,-0.2134900672891852,-1.783562195232918,-0.0777953388825626,1.71354894004567,0.3301770239052254,-0.0031755771270482,-0.28988818307437,1.1017429277476942,1.1014361057270203,0.0245934607720921,-0.0084347809816823,10.596511734111118,-1.238007812497958,0.1604852693984172,-1.1795901976711387
0.38,-1.7838470296062112,-0.079805758865682,1.708907381001452,0.0176016483440395,0.2453403634391322,0.0281329555108921,0.2012211679437307,-0.0151905672982944,-0.2135050829256757,-1.7773586547607745,-0.0778518230449352,1.70785312806526,0.3701770245012718,-0.003878315143892,-0.300083351182118,1.167940484196159,1.1667751620077271,0.0521548873342881,-0.0007507818245267,10.653361576121824,-1.239971066046618,0.1628315873954273,-1.1863164772130377
0.4,-1.7795625623497284,-0.0800924172589472,1.7046376419146296,0.0163487665004024,0.2474801663635784,0.0280556765765622,0.2259331531513518,-0.0135799618423803,-0.213467727768742,-1.7737859712090247,-0.0805652872305968,1.698232126855168,0.3012211694338468,-0.0227100150086595,-0.2519292693341954,1.2382221713449255,1.2355992603810582,0.080530272795706,0.0018677578466852,10.653361576121824,-1.2432642502959863,0.1646458006450732,-1.192599435791395
0.42,-1.775008725968919,-0.0803028385704479,1.7005992685293592,0.016608947159742,0.2478119958743719,0.0280557219062651,0.2521780408992677,-0.0088909895958158,-0.2115168994223669,-1.7737859712090247,-0.0805652872305968,1.698232126855168,0.3012211694338468,-0.0227100150086595,-0.2519292693341954,1.3365873754330233,1.3122443873957916,0.2344486123282233,0.0975414173187541,10.672558204402776,-1.2469536195249185,0.1648598383429135,-1.199276411487729
0.44,-1.7696851703468308,-0.0804336820097924,1.6963843171936135,0.019255284587525,0.2457904995351198,0.0281774218160375,0.2785815578648609,-0.0047248880854842,-0.2101259764466647,-1.7737859712090247,-0.0805652872305968,1.698232126855168,0.3012211694338468,-0.0227100150086595,-0.2519292693341954,1.3383168315752916,1.3201758482796588,0.2083050755165828,0.0695461487851129,10.836019208160906,-1.2594560894866718,0.162928647750049,-1.2074463455061455
0.46,-1.763847985626832,-0.0805116208754348,1.6921859286130216,0.023407088544359,0.2417272006248766,0.0283453011203328,0.3036102776033774,-0.0036862275581187,-0.209753442615685,-1.7707737595146862,-0.0807923873806834,1.6957128341618262,0.32122116973187,-0.0242139045507325,-0.2596141066158994,1.2526515965099163,1.2514359869258251,0.0519330263682713,0.0186266915489841,10.77076722124366,-1.272122875634714,0.1593181581922401,-1.2118182629737189
0.48,-1.7575357525293462,-0.080598955461208,1.6879875568791023,0.027637236275971,0.2360495363003794,0.0284479423229126,0.3259924182543136,-0.0051472711830957,-0.2100473940078037,-1.7647493361260094,-0.0812465876808565,1.6906742487751425,0.3612211703279164,-0.0272216836348785,-0.2749837811793073,1.1215851238462766,1.1191070325468122,-0.0730521812488481,-0.0146975696059384,10.708759596504931,-1.287549707171049,0.1553261744434235,-1.2137972006620636
0.5,-1.7511558790233954,-0.0807243010254901,1.6839878841992817,0.0312129335611969,0.2300398244377786,0.0284635434444591,0.3442591448751328,-0.007911452954111,-0.2109243180344613,-1.7587249127373323,-0.0817007879810297,1.6856356633884584,0.4012211709239629,-0.0302294627190245,-0.2903534557427152,0.9247742941543748,0.913336331040962,-0.1382090885507646,-0.0438462013328769,10.654444850339132,-1.3014472964904642,0.1515778063186879,-1.213358147173862
0.52,-1.744095189247972,-0.0809219639009872,1.6797534826856049,0.0343693743155696,0.2238764714843103,0.0284104203633934,0.36066815917471,-0.0116625561647911,-0.2124860495466368,-1.7507004893188531,-0.0823053772354102,1.6798285942736042,0.4412211715200093,-0.0332372418031706,-0.3057231303061231,0.8452300439777083,0.820450714978857,-0.1875551605340039,-0.0780865756087753,10.598472840797513,-1.313748276912112,0.1483505934652095,-1.210572063873205
0.54,-1.7367331889319608,-0.0812019464124755,1.675481291152112,0.0368841748508799,0.218527894979296,0.0283145439894583,0.3745293410207733,-0.0160746116074663,-0.2146638212493692,-1.7426760659003735,-0.0829099664897907,1.6740215251587498,0.4812211721160558,-0.0362450208873166,-0.321092804869531,0.7354272312542179,0.6930590923031665,-0.2206027721337622,-0.1088885851366211,10.493539238778794,-1.3237203745443975,0.1458579969771391,-1.2074202641097416
0.56,-1.729114803165191,-0.0815763516489426,1.6711586879085922,0.0387405800911807,0.2145259228650341,0.0282045001375885,0.3865243942327792,-0.0209923407910459,-0.2174632258654881,-1.7336516424669934,-0.0835897502212749,1.6678302141798105,0.5212211727121022,-0.0392527999714626,-0.3364624794329389,0.6631403096001439,0.5997526606002918,-0.2458864591789801,-0.1399702308059455,10.493539238778794,-1.3314207632009811,0.1438359569170721,-1.2038743350067076
0.58,-1.7216689437849708,-0.082027497794934,1.666995634424678,0.039885498039484,0.2122784581960582,0.0281070798086348,0.3966093251961119,-0.0261628316653905,-0.2205993920071897,-1.723627219018712,-0.0843447284298627,1.6612546613367856,0.5612211733081487,-0.0422605790556086,-0.3518321539963467,0.5879526904548179,0.5042465481666369,-0.2585245437172289,-0.1568083070850809,10.450734919987552,-1.3367056574568614,0.1425151111187426,-1.2008629339647785
0.6,-1.7136290694437526,-0.0826126624146953,1.6625444261304765,0.040286737386107,0.2116933114466063,0.0280144137321787,0.4070517179913553,-0.0320179008189603,-0.2243951546388733,-1.7018384775251651,-0.0833356393782035,1.6559656648243184,0.496609326686228,-0.0233399326385943,-0.2477619885905561,0.6279594255191221,0.5221196397621725,-0.292753457678491,-0.1897881315841773,10.415758115640529,-1.3377606813110297,0.1419485765882749,-1.198455141239706
0.62,-1.7053198001690115,-0.0833680089244654,1.6581551035255675,0.0381956639789314,0.2118852620016325,0.0277770236228705,0.4235522320940494,-0.0427746514149097,-0.2135997473617554,-1.7018384775251651,-0.0833356393782035,1.6559656648243184,0.496609326686228,-0.0233399326385943,-0.2477619885905561,1.1230710878162538,0.8250257051347021,-0.5378375297974705,0.5397703638558959,10.378737981040103,-1.332596612725259,0.1434762640282807,-1.190601660873691
0.64,-1.6971191545949054,-0.0842533641111459,1.6541930905245403,0.0334505240601489,0.2120608491474397,0.0273617492007795,0.4388200589877254,-0.0491421845435268,-0.2040715721333893,-1.7018384775251651,-0.0833356393782035,1.6559656648243184,0.496609326686228,-0.0233399326385943,-0.2477619885905561,0.9545131473449472,0.7633913446838031,-0.3183766564308552,0.4764087614183024,11.373907622755723,-1.3347377970106964,0.1489192545204066,-1.2022970051431108
0.66,-1.6881797954247824,-0.0852693749243118,1.650194668887404,0.0278057095116952,0.2123275071124723,0.0268897966055966,0.4542909455848068,-0.0519344916584852,-0.1963902611808242,-1.696872384258303,-0.0835690387045894,1.6534880449384128,0.5166093269842512,-0.022775352833235,-0.2531945079072294,0.8748540579348039,0.7735443298540701,-0.1396153557479157,0.3840655476282581,11.062704312282222,-1.337579678489121,0.1553177546792759,-1.212603438171337
0.68,-1.6789363926662006,-0.0863143976445529,1.646324410397037,0.0224965370768616,0.2126404714691253,0.026451918134496,0.4692785984262523,-0.0524327429386647,-0.1910279514242435,-1.6869401977245784,-0.0840358373573613,1.6485328051666015,0.5566093275802977,-0.0216461932225166,-0.264059546540576,0.7962919658633502,0.7493826420722716,-0.0249125640089779,0.2681154878290306,11.062704312282222,-1.3406185629050362,0.1614744985954582,-1.221799578355094
0.7000000000000001,-1.669397442365914,-0.0873527371997527,1.6425424249503922,0.0178845854378317,0.2129664020748993,0.0260725796399744,0.4838687363940675,-0.0514632016652502,-0.1874532291207283,-1.677008011190854,-0.0845026360101332,1.6435775653947906,0.5966093281763442,-0.0205170336117981,-0.2749245851739226,0.7526466231705069,0.729506898390761,0.0484770636707255,0.1787361151757621,10.939316201258409,-1.3436154971879417,0.1666940079483279,-1.2297182324296445
0.72,-1.6600685651399678,-0.0883111069471412,1.639001879826266,0.0142375340844362,0.2132864732082733,0.025772347525719,0.4973933855670856,-0.0495829595856828,-0.1854263327705218,-1.665075824627327,-0.0849129766823692,1.6380790736913122,0.6366093287723906,-0.0193878740010796,-0.2857896238072691,0.6902169121831837,0.676232458650905,0.0940121039783709,0.1013448175103237,10.842833915713529,-1.3467694708631095,0.1713930506292914,-1.2372385747037395
0.74,-1.6499734695841413,-0.0892750011827167,1.6353108634186837,0.0111361241471761,0.2136714522253512,0.02551714808758,0.5114087631734282,-0.0469772231872601,-0.1838122611596196,-1.6531436380638,-0.0853233173546051,1.6325805819878338,0.6766093293684371,-0.0182587143903611,-0.2966546624406157,0.71733168546976,0.7007688803171291,0.130286819921135,0.0807035805451134,10.766591183814851,-1.349602607534925,0.1752523352746972,-1.243866470112396
0.76,-1.6395935455099524,-0.0901803569335133,1.631646509090031,0.0087541577059572,0.2139613835336656,0.0253196637717094,0.5258431447487818,-0.0438295671774271,-0.1827131770348047,-1.640211451485372,-0.0857054290365731,1.6268104643185215,0.7166093299644835,-0.0171295547796426,-0.3075197010739622,0.7407210941585319,0.7217190787676797,0.1573828004916497,0.0549542062407412,10.726293701965004,-1.3519602181753403,0.1781647926068642,-1.2499178410277114
0.78,-1.6294630872179678,-0.0909786546887521,1.6281813757718089,0.0070833218486322,0.2139073608736681,0.0251782840774549,0.5397312128429166,-0.040474257805708,-0.1820963555254762,-1.626279264892043,-0.0860593117282732,1.620768720683376,0.7566093305605299,-0.0160003951689241,-0.3183847397073088,0.7150472102274799,0.6944034047067393,0.1677654685859529,0.030841075466427,10.726293701965004,-1.355038163871662,0.1805749208583763,-1.25588294441545
0.8,-1.6185161269209432,-0.0917467859815636,1.6245421731882492,0.0059339534950199,0.2134061597495254,0.0250769573564202,0.5541632458058664,-0.0365470875434452,-0.1818752668834929,-1.602476526575822,-0.0930023675790375,1.6190765579955348,0.6397312143330327,-0.0310849737388521,-0.2036224817164962,0.7479223253454964,0.7216016481474907,0.1963585131131436,0.0110544320991626,10.708329749705626,-1.358087750978113,0.1822365873454246,-1.2609184843490149
0.8200000000000001,-1.607224536729244,-0.0924311143855911,1.6210274564763782,0.0055467240230332,0.2114758708752954,0.0250280128299433,0.5744306346595855,-0.0321303856543489,-0.1689836784337995,-1.602476526575822,-0.0930023675790375,1.6190765579955348,0.6397312143330327,-0.0310849737388521,-0.2036224817164962,1.2211340623384428,1.0133694426859574,0.2208350944548114,0.6445794224846729,10.687795715985883,-1.3559923054696177,0.1824107155001873,-1.260974674230455
0.84,-1.5955339253411769,-0.0930259644102192,1.6177745797969112,0.0060291283762401,0.2070536954845444,0.0250304341347685,0.5933376218837118,-0.0276443156974142,-0.1571311135951379,-1.602476526575822,-0.0930023675790375,1.6190765579955348,0.6397312143330327,-0.0310849737388521,-0.2036224817164962,1.1380710465591124,0.9453493612063102,0.2243034978467346,0.5926282419330811,11.572514838559982,-1.3657805524787143,0.1827212715756655,-1.272384164796843
0.86,-1.5835007122285192,-0.0935334072065014,1.6147275256071405,0.0074067266901258,0.2008117749896626,0.0250819023821329,0.6086437458975082,-0.0234320325586069,-0.1481189824733101,-1.5960792144324918,-0.093313217316426,1.6170403331783698,0.6597312146310559,-0.0292071169254809,-0.2079277069547002,0.9127421170903296,0.7653062006898248,0.2106141569403649,0.4506065560913888,11.404662965480384,-1.3780155700180077,0.1820315108913313,-1.2793751021078994
0.88,-1.5718256655565208,-0.0939438722349306,1.6119771700011103,0.0094616009572904,0.1943221705178705,0.0251681736878641,0.6193634718253833,-0.0200859977733663,-0.1418218575349489,-1.583284590145831,-0.0939349167912031,1.61296788354404,0.6997312152271024,-0.0254514032987386,-0.2165381574311082,0.643743456747577,0.5359862963937534,0.1673017392620332,0.3148562469180591,11.227774979945934,-1.390711380364906,0.1801831510318588,-1.2830540458159236
0.9,-1.559351909982001,-0.094323497849578,1.6091916249129168,0.0120063925886065,0.187906766853686,0.0252722459572033,0.627266473553611,-0.0181831598988988,-0.1371482374170184,-1.5704899658591704,-0.0945566162659801,1.60889543390971,0.7397312158231488,-0.0216956896719962,-0.2251486079075162,0.4688308684899126,0.3951500864113833,0.0951418937233714,0.2336810058965271,11.070755535438366,-1.4022443398781357,0.1776785039941477,-1.2837524689407112
0.92,-1.5467534056639336,-0.0946795455987458,1.60647972554324,0.0143587307248932,0.1827701274569453,0.0253615873816935,0.6319948331333238,-0.0175060205984536,-0.1343442223894201,-1.5556953415427075,-0.09499053005942,1.6043924617515597,0.7797312164191953,-0.0179399760452539,-0.2337590583839242,0.2769404368373586,0.2364179789856424,0.03385696502226,0.1402007513799152,10.82692688669522,-1.4118415932616002,0.175283972676546,-1.2834268934685138
0.94,-1.5340907041306209,-0.0950301552440211,1.6038128959103173,0.0163028626685982,0.1798940083905384,0.0254447062745949,0.6339170535942964,-0.0175390563831752,-0.1325096968085452,-1.5409007172262446,-0.09542444385286,1.5998894895934097,0.8197312170152418,-0.0141842624185115,-0.2423695088603322,0.1328674806954082,0.0961110230486284,-0.0016517892360802,0.0917262790437412,10.82692688669522,-1.4176556008480414,0.1733344232159033,-1.2831862627551427
0.96,-1.52203311887958,-0.0953687476692909,1.6013060510927937,0.0177008659556181,0.1797761731228327,0.0255319659917937,0.6355598073326448,-0.0180325450567376,-0.131484954840293,-1.5251060928948803,-0.0957644648056313,1.5951712561733489,0.8597312176112881,-0.0104285487917691,-0.2509799593367403,0.0999032909529219,0.0821376869174217,-0.0246744336781191,0.0512370984126139,10.777461035913802,-1.416620643781296,0.1715046682387898,-1.2842933250090318
0.98,-1.5092890934343248,-0.0957389972755707,1.5986835000205983,0.0186174960539487,0.1816311245518128,0.0256216533887061,0.6389831198811681,-0.01893827742502,-0.130857606042535,-1.508311468548615,-0.0960105929177341,1.5902377614913783,0.8997312182073346,-0.0066728351650268,-0.2595904098131482,0.1798123079900221,0.1711656274261619,-0.0452866184141195,0.0313674398878971,10.72710384680613,-1.4132377144183468,0.1703544351719373,-1.2874326292498863
1.0,-1.4964565975223612,-0.096130726663893,1.5960705529616916,0.0188242197897953,0.1846429751539453,0.0256862047850165,0.6442774219534682,-0.0201413035173174,-0.1304912373008371,-1.4773399374402665,-0.0966859111468217,1.5921406197184715,0.7389831213712842,0.0029499749226876,-0.1588720722090313,0.2720805591474819,0.2647151036150041,-0.0601513046148688,0.0183184370848951,10.70436595537285,-1.4086873688397703,0.1700659269557058,-1.2919445740001123
1.02,-1.4834554018532382,-0.0965855941154245,1.5935551109000932,0.0169949927786754,0.1872966908293259,0.0256035683443827,0.6556778786126863,-0.0249131584125107,-0.1205926101364777,-1.4773399374402665,-0.0966859111468217,1.5921406197184715,0.7389831213712842,0.0029499749226876,-0.1588720722090313,0.7917130650028564,0.5700228329609092,-0.2385927447596643,0.4949313582179718,11.36095071386535,-1.4014612545041916,0.1716539624906173,-1.2911392726237974
1.04,-1.4708940601690994,-0.0970835980401974,1.5913483665682129,0.0129041566657914,0.18871478698267,0.025343146624018,0.6659156846057088,-0.0265755243323838,-0.1122502459879719,-1.4773399374402665,-0.0966859111468217,1.5921406197184715,0.7389831213712842,0.0029499749226876,-0.1588720722090313,0.6655283081668983,0.5118902996511243,-0.0831182959936569,0.4171182074252897,11.36095071386535,-1.4000007441085156,0.1769582233437018,-1.302647163497784
1.06,-1.457470896900768,-0.0975999984534071,1.5891747791866555,0.008004822031069,0.1895747559226575,0.0250250996550725,0.6758085456044338,-0.0248198632020294,-0.1056563754467039,-1.4699501062265536,-0.0966564113975949,1.5905518989963812,0.7589831216693074,0.0073276253922292,-0.1644749654423306,0.6008955264014979,0.4946430499362497,0.0877830565177236,0.3296935270633988,11.090410996697756,-1.4002435190814009,0.183186324311077,-1.312423268755253
1.08,-1.443858550021376,-0.0980573508241653,1.587109169716154,0.0034385758635217,0.1901045694328718,0.0247370670054246,0.6849236023174593,-0.0210331438204991,-0.1012403648502783,-1.455170443799128,-0.0965974118991411,1.5873744575522006,0.7989831222653538,0.0160829263313123,-0.1756807519089291,0.5406585154787419,0.4557528356512741,0.1893359690765129,0.2208005298212786,10.976065456923608,-1.401233042987743,0.1891128015262185,-1.3207276535609271
1.1,-1.4300708568006226,-0.0984248408517117,1.585113864802084,-0.0004593215602954,0.1905437927878783,0.0245062258670886,0.693406220037736,-0.0160080537171454,-0.0985228725043144,-1.4403907813717023,-0.0965384124006873,1.58419701610802,0.8389831228614003,0.0248382272703954,-0.1868865383755276,0.5113489478466428,0.4241308860138348,0.2512545051676822,0.1358746172981956,10.976065456923608,-1.402437951270653,0.1940548005219286,-1.3276553782290024
1.12,-1.416820159856435,-0.0986727984889173,1.5832555284196557,-0.0034733211573963,0.191045532712872,0.024344931151634,0.7010153491867693,-0.0104661553884135,-0.0972379445582387,-1.4236111189144742,-0.0960416478552794,1.5804592853405093,0.8789831234574468,0.0335935282094785,-0.1980923248421261,0.475032954960171,0.3804564574516667,0.2770949164365965,0.0642463973037833,10.884707910639008,-1.4036013194368242,0.1984151066881063,-1.3341748821118729
1.14,-1.4027184681212694,-0.0988157153172519,1.5813187978818457,-0.0059793215201483,0.1917969840880627,0.0242305205116653,0.7087903187568609,-0.0041884091741665,-0.0965402514536724,-1.4068314564572462,-0.0955448833098715,1.576721554572999,0.9189831240534932,0.0423488291485616,-0.2092981113087246,0.5008668111746448,0.3887484785045803,0.3138873107123519,0.0348846552283191,10.812543619222197,-1.4043742235466736,0.2019447799510808,-1.3401996910267957
1.16,-1.3884561971151197,-0.0988261905068483,1.579389238796324,-0.0077906069591023,0.1926821328065821,0.0241729401525602,0.7170658338723087,0.0026641910070392,-0.0964617379697845,-1.389051793985117,-0.0948292362409865,1.5727036791438234,0.9589831246495396,0.0511041300876447,-0.2205038977753231,0.5372346880940823,0.4137757557723887,0.3426300090602894,0.0039256741943917,10.756991486805418,-1.4044179482167614,0.2044939783544329,-1.3459474991218356
1.18,-1.374749693674616,-0.0987043689930769,1.5775527680037318,-0.0088191842977624,0.1934072529400335,0.0241754644608992,0.7252955781162798,0.0097151720607422,-0.0968634826417867,-1.3702721314980868,-0.0938947066486245,1.568405659052983,0.9989831252455862,0.0598594310267278,-0.2317096842419216,0.5422324753330783,0.4114872121985524,0.3525490526851484,-0.0200872336001065,10.756991486805418,-1.4047026168388268,0.2063345224295013,-1.35207046791441
1.2,-1.3601514618577888,-0.0984274029448687,1.5756065987158276,-0.0090040219262211,0.193919558495779,0.0242508985715999,0.7340753799640294,0.0175408628200128,-0.0977578853771716,-1.338484914768802,-0.0982186103900397,1.5727095938716424,0.8060651318968355,0.0180829489314697,-0.1120902193065587,0.589759087675944,0.4389900923874812,0.3912845379635289,-0.0447201367692468,10.737046145791282,-1.4056414102805213,0.207084430191494,-1.358073017805337
1.22,-1.3452641109695913,-0.0979201009903205,1.5737808863229323,-0.0059020997013119,0.1914932044650996,0.0245833238158043,0.7544841055374256,0.0318538287450918,-0.0840099409221082,-1.338484914768802,-0.0982186103900397,1.5727095938716424,0.8060651318968355,0.0180829489314697,-0.1120902193065587,1.4233613822938451,1.0204362786698118,0.7156482962539521,0.6873972227531673,10.716495785260122,-1.3979369742223473,0.2027263499362669,-1.3589574818357553
1.24,-1.3299896966097453,-0.0971913622043687,1.5722396303757349,0.0005247249919177,0.1837179678114321,0.0251434430450088,0.7710311129027153,0.0395490382881468,-0.0708013733658786,-1.338484914768802,-0.0982186103900397,1.5727095938716424,0.8060651318968355,0.0180829489314697,-0.1120902193065587,1.1263724512189082,0.8273503682644845,0.3847604771527488,0.6604283778114797,11.800941931082887,-1.4164841944246165,0.1967277883122201,-1.369935302688556
1.26,-1.3152392273540607,-0.0964070839732955,1.5709899167460557,0.0069972433716087,0.1737228506943504,0.0256291699553498,0.7803634900630458,0.0425274382996647,-0.0613596575960788,-1.3304242634498338,-0.0980377809007251,1.5715886916785768,0.8222190426529467,0.0197565043056152,-0.1151355666395131,0.6802759123490938,0.4666188580165264,0.1489200005758972,0.472085788489994,11.605199509166596,-1.4366979268702642,0.1892775710246529,-1.3729026571530505
1.28,-1.2995857810764193,-0.095549498464885,1.569838541927043,0.0131540007024856,0.1625307164521395,0.02600440498524,0.7840729591087483,0.0430825912062542,-0.0543940069738699,-1.314302960811897,-0.0976761219220957,1.5693468872924456,0.8545268641651689,0.0231036150539062,-0.1212262613054219,0.3955649249535354,0.1854734522851231,0.027757645329475,0.3482825311104439,11.364138713192006,-1.456010393393823,0.1822265346965902,-1.3692952761283457
1.3,-1.2839180329023283,-0.0947009405328009,1.5687908173918836,0.018239913899097,0.1523181764942364,0.0262422247672677,0.7824277099162905,0.0419368984475279,-0.0506965329993718,-1.2981816581739605,-0.0973144629434663,1.5671050829063145,0.8868346856773912,0.0264507258021973,-0.1273169559713307,0.2103019887850039,-0.0822624596228893,-0.0572846379363143,0.1848736987249018,11.154188554937718,-1.471708654945141,0.1765162505463615,-1.3623797958880977
1.32,-1.2683248849020266,-0.0938855728492305,1.5677927257018351,0.022259262812231,0.1441431719306545,0.0263887173392848,0.7768442988742837,0.0397850148326145,-0.0493971184125894,-1.2804449644604126,-0.0967854484274223,1.5645587437868878,0.9191425071896135,0.0297978365504883,-0.1334076506372395,0.3061599264456364,-0.2791705521003385,-0.1075941807456716,0.064970729339122,10.95835451230596,-1.4843591432887684,0.1716334360815869,-1.353632651733219
1.34,-1.2551864465902094,-0.0932329404719277,1.5669529460976792,0.0248380425611693,0.1395784392027534,0.0264815026135023,0.7691425360875073,0.0372849627794441,-0.0494449285463771,-1.2627082707468646,-0.0962564339113784,1.562012404667461,0.951450328701836,0.0331449472987793,-0.1394983453031484,0.4048755861410684,-0.3850881393388239,-0.1250026026585217,-0.0023905066893835,10.745158166036164,-1.4922823795968472,0.1683468589046306,-1.3463239971304677
1.36,-1.2399151493111158,-0.0925204940308016,1.5659586341696647,0.0270453299103278,0.137847143877719,0.0266098890506969,0.7587535780808237,0.0342360918555277,-0.0500050308906601,-1.2441638814955114,-0.0956437416266271,1.5593137981813867,0.983758150214058,0.0364920580470703,-0.1455890399690572,0.542078815790217,-0.5194479003341801,-0.1524435461958208,-0.0280051172141505,10.7040560915093,-1.4922799029842897,0.1654521988252287,-1.3403078787634424
1.38,-1.2248357983278022,-0.0918723024660937,1.564949929387044,0.028499706468708,0.1395583820265247,0.0267748449288268,0.750071962831414,0.0308127637901101,-0.0508498150942503,-1.2248117967063523,-0.0949473715731686,1.5564629243286647,1.0160659717262803,0.0398391687953613,-0.151679734634966,0.46851701872209,-0.4340807624704845,-0.1711664032708794,-0.0422392101795083,10.677725813864528,-1.4870037467705284,0.1634445926601498,-1.3381473193690987
1.4,-1.20990427852451,-0.0912979122414875,1.563925246427737,0.0290640198932213,0.1435981037219003,0.0269447508753684,0.7438717670032327,0.0269270585249111,-0.0515835241597931,-1.1873322001862314,-0.0903316642765881,1.5624074386323314,0.8246784633974197,0.0531116604753527,-0.0841552626428781,0.3676936996626817,-0.310009791409066,-0.1942852632599504,-0.0366854532771444,10.677725813864528,-1.4793410763893928,0.1625765235833257,-1.3389222057952543
1.42,-1.195771501739684,-0.090878361764702,1.562988671155528,0.0269692852737933,0.1477614646309465,0.0269304363247716,0.7440423961377267,0.0182585199769926,-0.0469542826294194,-1.1873322001862314,-0.0903316642765881,1.5624074386323314,0.8246784633974197,0.0531116604753527,-0.0841552626428781,0.4914329862881195,0.008531456724703,-0.433426927395924,0.2314620765186858,11.040789998454784,-1.4684581628657465,0.1647291863970333,-1.3366678108134804
1.44,-1.1808882776631784,-0.0905698209320677,1.5620899614122912,0.0216743963819831,0.1514085236059815,0.0266702541343372,0.744289074373844,0.0138496709502789,-0.0432456836331002,-1.1873322001862314,-0.0903316642765881,1.5624074386323314,0.8246784633974197,0.0531116604753527,-0.0841552626428781,0.2883249313189348,0.0123339118058618,-0.2204424513356818,0.1854299498159593,11.040789998454784,-1.4619458629480375,0.1711522398388301,-1.343266982623441
1.46,-1.165998161929349,-0.0902984112318042,1.5612475821630951,0.0156353351016048,0.1545908246992635,0.0263374182603809,0.7447544645441969,0.0137000661877829,-0.0412570320813657,-1.1790854155522572,-0.0898005476718346,1.5615658860059027,0.8395997635106208,0.0575714398124012,-0.0908163521526037,0.1023926827199909,0.0232695085176481,-0.0074802381248026,0.0994325775867249,10.93591962098617,-1.457505553849128,0.1786634555189729,-1.349079959566135
1.48,-1.1510968232676444,-0.0900012136961624,1.5604273660298913,0.0099922964171043,0.157413542586302,0.0260195251005474,0.7454108154537873,0.0160001258487567,-0.0408700053627728,-1.1625918462843088,-0.0887383144623276,1.559882780753045,0.8694423637370231,0.0664909984864983,-0.1041385311720548,0.1211492946890728,0.0328175454795187,0.1150029830486908,0.019351335929647,10.836584245330414,-1.454414505606623,0.1854564959707089,-1.3539518827816148
1.5,-1.136926629488795,-0.0896606037688531,1.559643218587402,0.0053613282567258,0.1598583171076261,0.0257630892264183,0.7462077025903232,0.0196296093313051,-0.041699665731834,-1.1460982770163604,-0.0876760812528205,1.5581996755001877,0.8992849639634254,0.0754105571605954,-0.117460710191506,0.1903714512897026,0.0398443568267958,0.1814741741274212,-0.0414830184530611,10.688708380901517,-1.451830609851578,0.1917355837063622,-1.358426900446878
1.52,-1.1219925638203376,-0.089218349183357,1.5587904777861916,0.0013061693967089,0.162284026203828,0.0255492999960531,0.7472107504617014,0.0243423263357576,-0.043582261276331,-1.1281125777370915,-0.0861678701096086,1.5558504612963573,0.9291275641898276,0.0843301158346924,-0.1307828892109571,0.2586502106150876,0.0501523935689085,0.2356358502226246,-0.094129777224847,10.634631919655476,-1.449687222430459,0.197014524507908,-1.3624326915830105
1.54,-1.1070352943535895,-0.0886737032099354,1.5578929248876254,-0.0019425824901577,0.1646349933180432,0.0253934564114756,0.7485271441260537,0.0298018506178474,-0.0461080940239149,-1.110126878457823,-0.0846596589663967,1.5535012470925271,0.95897016441623,0.0932496745087895,-0.1441050682304083,0.3078925491752052,0.0658196832176161,0.2729762141044903,-0.1262916373791958,10.634631919655476,-1.447611269566242,0.2013074991544846,-1.3660921840828846
1.56,-1.092043770069165,-0.0880118720600351,1.5569389823034996,-0.0043738074671493,0.1668101015176422,0.0252984873810806,0.7505879729192664,0.0359221913265587,-0.0491656466343772,-1.0913951141728946,-0.0829284588563323,1.550818978413211,0.9888127646426322,0.1021692331828866,-0.1574272472498594,0.3572611568285432,0.1030414396606338,0.3060170354355632,-0.1528776305231151,10.606127547188407,-1.4456552945594057,0.2044443209387937,-1.369458700471697
1.58,-1.0777580378063518,-0.0872659536604969,1.5559716772566723,-0.0059701820089844,0.1685470501817907,0.0252640682664107,0.7530683979735088,0.042144175352356,-0.0525066520460482,-1.071917284882306,-0.0809742697794156,1.5478036552584082,1.0186553648690344,0.1110887918569836,-0.1707494262693105,0.3742589705932425,0.1240212527121198,0.3110992012898658,-0.1670502705835512,10.583770513674608,-1.4442823696890337,0.2068594677928663,-1.3727864483535563
1.6,-1.0626666128744942,-0.0863500265396263,1.5548800410001995,-0.0068943088073513,0.1699606682126287,0.0252889650645674,0.7559401863949066,0.0490699030466909,-0.0565045240569619,-1.0401046179076765,-0.0851587448928791,1.5533463446543698,0.8124126002535533,0.0578172185586901,-0.0743830654211875,0.4248407155893798,0.1435894210698896,0.3462863847167447,-0.1998936005456825,10.563269516692344,-1.4435622623457545,0.2083307938046505,-1.3758762517226812
1.62,-1.0474167189927417,-0.0852327648287852,1.5538480976963789,-0.0051077649381198,0.1686356344506271,0.0255254758871663,0.7691581046125264,0.0617868045705237,-0.0457475016216539,-1.0401046179076765,-0.0851587448928791,1.5533463446543698,0.8124126002535533,0.0578172185586901,-0.0743830654211875,1.0631868110170797,0.6608959108809931,0.6358450761916424,0.5378511217653956,10.539210082883985,-1.4334885056633475,0.2053326594023037,-1.3742348586342517
1.64,-1.0319148206520123,-0.0838990719471681,1.5530370458501452,2.549574715179149e-05,0.1623142561240271,0.0259996952339741,0.7795137970645095,0.0699896481022998,-0.0359107678490389,-1.0401046179076765,-0.0851587448928791,1.5533463446543698,0.8124126002535533,0.0578172185586901,-0.0743830654211875,0.8235416496452455,0.5177846225991545,0.410142176588802,0.4918366886307521,11.586277695907484,-1.4504704406385465,0.2006746056615333,-1.3827152593400942
1.66,-1.0170566117093356,-0.0825316775428949,1.5524169804257817,0.005521384700703,0.153738592636925,0.026443518172777,0.783576896891233,0.0734303732189923,-0.0298099922617576,-1.0319804919051407,-0.0845805727072922,1.552602514000158,0.8242814407095622,0.0609518271999569,-0.0787583480962153,0.4048667444262566,0.2031549913361741,0.1720362558346261,0.3050387793640636,11.385152031912185,-1.4683759326288166,0.194330908428127,-1.3833715244037756
1.68,-1.001391470021035,-0.0810498655444042,1.5518589797322402,0.010806675713861,0.1439734106521431,0.0268078525071146,0.7823533191043809,0.0745832318572064,-0.0264306297203435,-1.0157322399000697,-0.0834242283361184,1.5511148526917342,0.8480191216215801,0.0672210444824906,-0.087508913446271,0.1887214668929825,-0.0611788893426057,0.0576429319107063,0.1689681270707052,11.149273247121528,-1.4852499775899977,0.1882226745791649,-1.3771502563541882
1.7,-0.9858045554812036,-0.0795633271193118,1.5513336797194583,0.0151428590471785,0.1350306173775911,0.0270577175043294,0.7763309356477657,0.0742008742413875,-0.0262344816548086,-0.9994839878949986,-0.0822678839649446,1.5496271913833104,0.8717568025335979,0.0734902617650242,-0.0962594787963267,0.3018848038097494,-0.3011191728307605,-0.0191178807909447,0.0098074032767446,10.758216924098631,-1.4992799153306855,0.1830631494405066,-1.3672772010265113
1.72,-0.9703750446841192,-0.0780931606239007,1.5507890289893107,0.0185151137227947,0.1279501590803195,0.0272280216374134,0.7667962621238239,0.0729622485194913,-0.0283342185327777,-0.9820488518443268,-0.0807980787296441,1.547702001807384,0.8954944834456157,0.0797594790475579,-0.1050100441463824,0.4920698320457232,-0.4767336761970886,-0.0619312860948108,-0.1049868438984542,10.758216924098631,-1.5098829831389633,0.1792222988429183,-1.357232413878534
1.74,-0.9559247997349568,-0.0767259421096988,1.5502190660734756,0.0208364324151399,0.1239693804230005,0.027357315418075,0.7547714369023838,0.0712204640150773,-0.0315320748200804,-0.9646137157936546,-0.0793282734943437,1.5457768122314572,0.9192321643576336,0.0860286963300915,-0.1137606094964381,0.6282048226897018,-0.6012412610720053,-0.0870892252207003,-0.1598928143651322,10.56207396267564,-1.5165829960765784,0.1762710095361009,-1.347864508538947
1.76,-0.9409722149661258,-0.0753235167496744,1.5495482944127137,0.0225206457450731,0.1233821466621454,0.0275063262614032,0.7415322394445532,0.069206145344817,-0.0353934243333377,-0.9465851377201824,-0.0777017378269798,1.5436328585217791,0.9429698452696512,0.0922979136126252,-0.1225111748464938,0.6968569600289596,-0.6619598728915321,-0.1007159335130139,-0.1930674756628669,10.56207396267564,-1.5145261857720669,0.1739853327111855,-1.3413986083438347
1.78,-0.9262659290726448,-0.0739657155895798,1.5487988178479997,0.0234160374858319,0.1258199837984974,0.0276666947245647,0.730138818782537,0.0667871959264626,-0.0393496095451269,-0.9279631176239094,-0.0759184717275527,1.54127014067835,0.9667075261816692,0.0985671308951588,-0.1312617401965495,0.6150462423675856,-0.5696710331008104,-0.1209474709177198,-0.197809260589462,10.502409622616142,-1.5086367764225528,0.1727011740116425,-1.3379090894860686
1.8,-0.9124835233395592,-0.0727233284494032,1.5480160003309065,0.0234221946936578,0.1299610092262384,0.0278030810116507,0.7214726340074,0.0642170995646241,-0.0428507665473093,-0.8897589881335178,-0.0706263557932567,1.5468313373707434,0.7533800406872916,0.0644759715757569,-0.0488468283104453,0.484680962644194,-0.433309238756846,-0.1285048180919283,-0.1750578501091157,10.502409622616142,-1.5000110553299917,0.1724478959363444,-1.3370323029892
1.82,-0.8980135958234506,-0.0714102136321124,1.5472498714166076,0.0242915703652244,0.1322842663418644,0.0279579409717002,0.7261772868084895,0.0668255771293665,-0.0329385723301824,-0.8897589881335178,-0.0706263557932567,1.5468313373707434,0.7533800406872916,0.0644759715757569,-0.0488468283104453,0.5638916282908571,0.2352326400544724,0.1304238782371188,0.4956097108563415,10.50942812161793,-1.4801909041129555,0.1700484671478546,-1.334121441885538
1.84,-0.8834419065855813,-0.0700656359341332,1.5466913308184358,0.0270063144528657,0.1290565059404982,0.0280983676925588,0.7300220577816329,0.0670330740051022,-0.0234699487122533,-0.8897589881335178,-0.0706263557932567,1.5468313373707434,0.7533800406872916,0.0644759715757569,-0.0488468283104453,0.5110776653488482,0.1922385486571698,0.010374843786786,0.4734311808964572,11.293753114562604,-1.488961898426265,0.1674239686307094,-1.3395136494397677
1.86,-0.8688476364598832,-0.0687491989629608,1.5462934552930834,0.0300679155387793,0.1221038873610978,0.0281385567106877,0.728672802912899,0.0645539521668238,-0.0167541809177866,-0.8822251877266449,-0.0699815960774991,1.5463428690876388,0.7580282850682425,0.0640137267056158,-0.050746272063509,0.3642391757452323,-0.0674627434366914,-0.1239560919139209,0.3357883897233329,11.293753114562604,-1.5022567038289885,0.164057998494237,-1.3373896210252736
1.88,-0.8550582921707367,-0.0675599449613238,1.5460136808348006,0.0326041717569104,0.1140091532416541,0.0280767107103879,0.7226460077831358,0.0608530701213416,-0.0130001240283766,-0.867157586912899,-0.068692076645984,1.54536593252143,0.7673247738301444,0.0630892369653335,-0.0545451595696364,0.4003490058050512,-0.3013397564881614,-0.1850441022741081,0.1877028444705031,11.112339891704323,-1.515907719797953,0.1609690848902524,-1.329158533948842
1.9,-0.8407106297647522,-0.0663912968503671,1.5457734179515246,0.0346822094649678,0.1055104280838021,0.0279429966862984,0.7122121738762398,0.0562957810158449,-0.0113057694443234,-0.8520899860991532,-0.0674025572144688,1.544388995955221,0.7766212625920462,0.0621647472250512,-0.0583440470757637,0.5755532369908831,-0.5216916953448003,-0.2278644552748339,0.0847177292026584,10.940189297067263,-1.5279588959681332,0.1584987599548781,-1.3173531904901308
1.92,-0.8266088715259393,-0.0653198340759636,1.5455451093810808,0.0360828639602795,0.0982089113730955,0.0277827156798343,0.6983736909588044,0.0511424353706423,-0.011672892217284,-0.8365575608473123,-0.0661592622699678,1.5432221150137058,0.785917751353948,0.0612402574847689,-0.0621429345818911,0.7385718650299138,-0.6919241458717695,-0.2576672822601301,-0.0183561386480317,10.798072624493216,-1.537174348597118,0.1568758104871559,-1.304729032482919
1.94,-0.8128165607053441,-0.0643584989293534,1.545296983643698,0.0366093902280274,0.0931350512020423,0.0276307963352461,0.6815209471958825,0.0453717606158878,-0.013087028963006,-0.8210251355954714,-0.0649159673254668,1.5420552340721905,0.79521424011585,0.0603157677444866,-0.0659418220880184,0.8934699801888489,-0.8426371881460948,-0.2885337377377249,-0.0707068372860978,10.67876203121341,-1.5435184979783063,0.1561648405420884,-1.29173430056089
1.96,-0.8000480307893664,-0.0635558314479888,1.545030983757543,0.0361221348634527,0.0912952595130697,0.0275240443622667,0.6635811391687818,0.0395413970234928,-0.0148153251604504,-0.8052602981245829,-0.0636957846244728,1.540793380943022,0.8045107288777518,0.0593912780042043,-0.0697407095941458,0.94712309048884,-0.8969904013550356,-0.2915181796197482,-0.0864148098722186,10.632828135187992,-1.5429072457823931,0.1564976914013144,-1.280872333559602
1.98,-0.7869668801845201,-0.0628287411052724,1.5447158153503624,0.0344619774980766,0.0925056744203264,0.027445266000523,0.6458172594058406,0.033594595433703,-0.0165873588116028,-0.7892630484346469,-0.0624987141669859,1.5394365556262004,0.8138072176396537,0.058466788263922,-0.0735395971002732,0.9408240757992136,-0.8881939881470624,-0.2973400794894942,-0.0886016825576209,10.588592731330207,-1.536085561847903,0.158038066520127,-1.2738139277014309
2.0,-0.7742211053543863,-0.0622122395387155,1.5443686331899438,0.0317026746491533,0.0960379203944128,0.027366355863385,0.629974582915732,0.0287277544911373,-0.0180148235359413,-0.7546760172142281,-0.0611490113335872,1.5438864474097822,0.6760214269953858,0.0375454413495271,-0.0242990016990461,0.8317364286083988,-0.7921338245054255,-0.243342047128285,-0.0713732362169277,10.588592731330207,-1.5269718679552524,0.1606846716828651,-1.271192295813049
2.02,-0.762378474053504,-0.0617044427556593,1.5440825414767876,0.0285398334485342,0.1007161748429989,0.0272867315705679,0.6176386455759101,0.0252150931810196,-0.0120301514448144,-0.7546760172142281,-0.0611490113335872,1.5438864474097822,0.6760214269953858,0.0375454413495271,-0.0242990016990461,0.7076906802585518,-0.6167968669910984,-0.1756330655058813,0.2992336045563463,11.052792632121054,-1.5148009702332426,0.1640485851739014,-1.2701241610999288
2.04,-0.7501460108365376,-0.061222445395933,1.5439037443379784,0.0251692742955997,0.1063636196900983,0.0272070003991104,0.6064681494714992,0.0232438415692805,-0.0062406022982948,-0.7546760172142281,-0.0611490113335872,1.5438864474097822,0.6760214269953858,0.0375454413495271,-0.0242990016990461,0.6367587758629819,-0.5585248052205449,-0.0985625805869583,0.2894774573259805,11.052792632121054,-1.5048360169559742,0.1677530822473574,-1.2776954170585575
2.06,-0.7381174387871288,-0.0607664450056093,1.5438294389752587,0.0221268270603506,0.1122404104735262,0.0271414395258122,0.5971325752176245,0.0224322949323717,-0.0014903675690648,-0.7479158029442742,-0.060773556920092,1.5436434573927915,0.6820622605132949,0.038335610532692,-0.0258413302765347,0.5253005915099179,-0.4667787126937328,-0.040577331845437,0.2375117364614989,10.933847168640568,-1.4956058953130174,0.1709936254066902,-1.2852775357024508
2.08,-0.7268457395965571,-0.0603403004151818,1.5438389147687177,0.0196485321547958,0.1176415355878162,0.0270924047526621,0.589949052432228,0.022412069189182,0.0022364509577798,-0.7343953744043665,-0.0600226480931014,1.5431574773588108,0.6941439275491129,0.0399159488990216,-0.0289259874315121,0.404637445811161,-0.3591761392698289,-0.0010112871594856,0.1863409263422336,10.891941566752394,-1.4865179374796096,0.1739644359756565,-1.293020935110251
2.1,-0.7151123556125129,-0.0598868032388667,1.5439185470389825,0.0174761134966936,0.1228572831704134,0.0270531547419765,0.5838828429122518,0.0229099185002746,0.0054904756095792,-0.7208749458644588,-0.0592717392661109,1.54267149732483,0.7062255945849311,0.0414962872653513,-0.0320106445864894,0.345092119264274,-0.3033104759988081,0.0248924655546297,0.1627012325899713,10.859509892657115,-1.4785260892635688,0.1764714712416375,-1.3002713185607415
2.12,-0.7034864365143861,-0.0594186078883818,1.5440566669583802,0.0157267779207404,0.1274136982527113,0.0270261532046283,0.5790890527754466,0.0238449435890569,0.0081248089882275,-0.7067504339727602,-0.0584418135208038,1.5420312844331,0.7183072616207492,0.043076625631681,-0.0350953017414667,0.277463547796116,-0.2396895068402571,0.0467512544391132,0.131716668932414,10.859509892657115,-1.471738095756504,0.1785284503200028,-1.30680435104578
2.14,-0.6919451315568378,-0.0589267444775947,1.544243938773344,0.0144157587142497,0.1312066091425881,0.0270149547941112,0.5753032827657785,0.0252560518099712,0.0104597091899099,-0.6926259220810616,-0.0576118877754968,1.5413910715413703,0.7303889286565672,0.0446569639980107,-0.038179958896444,0.2333186658255813,-0.1892885004834088,0.0705554110457145,0.1167450100841234,10.831987108546857,-1.4663784060168843,0.180031212055529,-1.3123105107838766
2.16,-0.6804702198878632,-0.0584013531644305,1.544474868429629,0.0136558010639038,0.1341796897811947,0.0270300344973744,0.5723623291567098,0.0271605323820339,0.0125061023785735,-0.6781993685134675,-0.0567424535710315,1.540673742220766,0.7424705956923854,0.0462373023643403,-0.0412646160514214,0.2028791479099502,-0.1470476804534326,0.0952240286031349,0.10231965943318,10.824737553954948,-1.4619494080405582,0.1810096540629402,-1.317437309146658
2.18,-0.6696185029617062,-0.0578638827469743,1.544728860625995,0.0135663738717282,0.1362262331002962,0.0270790137708878,0.5700367272232082,0.0292585808998142,0.0141214893876246,-0.6634707732699779,-0.055833510907408,1.5398792964712875,0.7545522627282034,0.04781764073067,-0.0443492732063987,0.1762080242573929,-0.1162800966750809,0.1049024258890165,0.0807693504525522,10.814984472328431,-1.4589164517252502,0.1812077812922206,-1.321737325952586
2.2,-0.6582416178662209,-0.0572551831686976,1.5450256994339966,0.014199060962708,0.1376338070956109,0.0271727693680397,0.5677478377416758,0.0314472043212391,0.0154588365879546,-0.6411166666005458,-0.0564009537019835,1.5454349350953762,0.5859323416237142,0.0305476200515572,-0.0046382585794993,0.1718835730495335,-0.1144444740766192,0.1094311710712447,0.0668673600165006,10.800593231021594,-1.45709473029746,0.1805209419102676,-1.3250486632341327
2.22,-0.6468541643518209,-0.0565895228547563,1.545374250455536,0.0160454577093626,0.136767172284145,0.0273174708727943,0.5711948294885343,0.0348175739282715,0.0194663509562054,-0.6411166666005458,-0.0564009537019835,1.5454349350953762,0.5859323416237142,0.0305476200515572,-0.0046382585794993,0.3134538036244541,0.1723495873429237,0.16851848035162,0.2003757184125421,10.782988083989949,-1.4520646467230671,0.1778580715625136,-1.325404863600473
2.24,-0.6354031545554959,-0.0558743045503155,1.5457928367928988,0.0190937104060554,0.1319305912886685,0.0274693435488512,0.5731338353791902,0.0361500243959901,0.0222083029186796,-0.6411166666005458,-0.0564009537019835,1.5454349350953762,0.5859323416237142,0.0305476200515572,-0.0046382585794993,0.1806479217804452,0.0969502945327938,0.0666225233859296,0.1370975981237077,10.86965740195592,-1.4621989947289922,0.1748039027659899,-1.3245553351056685
2.26,-0.6245334946024995,-0.0551949578829471,1.5462244230598958,0.0220506362188486,0.1250359793506514,0.0275498773935539,0.5705889000437955,0.0353012673491999,0.0231185986872986,-0.6352573431843086,-0.056095477501468,1.5453885525095812,0.5891114645038155,0.0308054278819059,-0.0083902081729241,0.141648533103789,-0.1272467667697341,-0.042437852339508,0.0455147884309508,10.86965740195592,-1.474492810736023,0.1713058251426222,-1.3176317335434706
2.28,-0.6131900323608355,-0.054510209077588,1.5466815032525114,0.0247315968084867,0.1170465901200448,0.0275593968005259,0.5635933029400659,0.0332634355924548,0.0224887719373231,-0.6235386963518343,-0.0554845251004368,1.5452957873379911,0.5954697102640178,0.0313210435426031,-0.0158941073597737,0.3656768342453926,-0.3497798551864772,-0.1018915878372578,-0.0314913374987745,10.750978474826296,-1.4861247913127305,0.1681793845229919,-1.3066340464513275
2.3000000000000003,-0.6020272843389903,-0.0538742464806632,1.547109389511452,0.0268186270656548,0.1096129379243869,0.0275161790955341,0.5528778882941812,0.0305221047311705,0.0202852774836703,-0.6118200495193601,-0.0548735726994057,1.5452030221664013,0.6018279560242202,0.0318366592033003,-0.0233980065466233,0.5638935930908199,-0.5357707322942384,-0.137066543064211,-0.1101747226826434,10.6440136411411,-1.4956009236784225,0.1656555018510937,-1.2936554770452091
2.32,-0.5911119759506309,-0.0532985734082815,1.5474794995473422,0.0282703058778438,0.103729784485774,0.0274532400762634,0.5390406634020257,0.0272361240275043,0.016801716537634,-0.5997834903988757,-0.0542368395153397,1.5447350620354687,0.6081862017844226,0.0323522748639975,-0.0309019057334729,0.7321230408300613,-0.6918612446077721,-0.1642990351833146,-0.1741780473018114,10.473475945745122,-1.502697491304256,0.163875051783612,-1.280383686423809
2.34,-0.5805047816094548,-0.052795199553545,1.5477702287164865,0.0289378076377187,0.1005057163389513,0.0274024090493563,0.5223713687779936,0.0233692099372774,0.0124751224552766,-0.5877469312783913,-0.0536001063312737,1.5442671019045364,0.614544447544625,0.0328678905246948,-0.0384058049203225,0.8825217053952149,-0.8334647312016052,-0.1933457045113445,-0.2163297041178728,10.473475945745122,-1.505804968228351,0.1629863450481506,-1.2685205346842392
2.36,-0.5702402742753323,-0.052372580421495,1.547970715982751,0.0286648182005522,0.100627624386278,0.0273807812449043,0.5053912595146619,0.0192114218344132,0.0078183140665464,-0.5755514160139018,-0.0529504827556902,1.5436115442939329,0.6209026933048275,0.033383506185392,-0.0459097041071721,0.9045678206640312,-0.8490054631665855,-0.2078894051432073,-0.2328404194365096,10.435188828334503,-1.5013237016314236,0.1628758103870658,-1.259771156925401
2.38,-0.5607860718807554,-0.0520472361035876,1.5480750653933308,0.0274428482047588,0.1032033816016914,0.0273629513486905,0.4909615044720058,0.0153608853724899,0.003417697904525,-0.5631969446054073,-0.0522879687885894,1.542768389203658,0.6272609390650299,0.0338991218460892,-0.0534136032940217,0.7784758895449221,-0.7214877521328045,-0.1925268230961646,-0.2200308081010674,10.398374879989206,-1.4935990117825158,0.1639349841179877,-1.2541543516500342
2.4,-0.5511064281444104,-0.0517777020065802,1.5480961371591455,0.0251761814365604,0.1076020582267378,0.0273179395715188,0.4780494500262041,0.0119548055291114,-0.001063708146847,-0.5362379966571551,-0.0512791918349631,1.548245950288557,0.5053542073122744,0.0294010276702347,-0.0025211012159607,0.7042824896802622,-0.645602722290084,-0.1703039921689277,-0.224070302568607,10.383394803418923,-1.4838827754817576,0.1661485425287468,-1.2517879252026678
2.42,-0.5416277239549665,-0.0515886076791793,1.5481320616702612,0.0214354693602158,0.1123089696291501,0.0271690880418675,0.470667357676931,0.0077852688271068,0.0054208030349975,-0.5362379966571551,-0.0512791918349631,1.548245950288557,0.5053542073122744,0.0294010276702347,-0.0025211012159607,0.533688132316121,-0.3691046174636558,-0.2084768351002278,0.3242255590922316,10.378526153611348,-1.4683885081893588,0.1693184308197395,-1.2507976422923266
2.44,-0.5322799287549527,-0.051444671908473,1.5483081247923565,0.0168663433210459,0.1162632400303443,0.0269344402833475,0.4644934336869398,0.0070114476558002,0.011785530101347,-0.5362379966571551,-0.0512791918349631,1.548245950288557,0.5053542073122744,0.0294010276702347,-0.0025211012159607,0.4450446249211235,-0.3086961994995613,-0.0386910585653291,0.3182363533174751,11.07731806047741,-1.461622577301148,0.1744418037141128,-1.258742625824122
2.46,-0.5235079964842759,-0.0512999294460364,1.5485785671580306,0.0127322296394637,0.1193219521297675,0.026706288369249,0.4591852603791745,0.0082431343339924,0.0163538338180084,-0.5311844545840324,-0.0509851815582608,1.5482207392763974,0.5082327478803281,0.0322090561297836,-0.0037088610400578,0.3555388684313209,-0.2654086653882614,0.0615843339096082,0.2284151858330699,10.998716194259032,-1.4565977394821987,0.1794607851763876,-1.265411081498308
2.48,-0.5143797587331095,-0.0511093391818993,1.5489441367989587,0.0089364798458027,0.1218571071946191,0.0264927094383764,0.4539291830621047,0.0107233405087849,0.0199004857699162,-0.5210773704377869,-0.0503971610048561,1.5481703172520782,0.5139898290164356,0.0378251130488815,-0.0060843806882521,0.3404280816136727,-0.262803865853492,0.1240103087396229,0.1773325975953902,10.91344319116979,-1.452867925626257,0.1838960592411509,-1.2706972914296433
2.5,-0.505354631541054,-0.0508595576129061,1.5493683691149367,0.0058088892919538,0.1237875577668842,0.0263206969809761,0.4488487155992998,0.0140656951077936,0.022295376265751,-0.5109702862915414,-0.0498091404514514,1.548119895227759,0.519746910152543,0.0434411699679794,-0.0084599003364464,0.3267949831055174,-0.2540233731402441,0.1671177299504386,0.1197445247917412,10.84401747985521,-1.4502586905695969,0.1874346640095188,-1.2746663777015623
2.52,-0.4964305251298771,-0.0505361725407632,1.5498294301174016,0.0033614608306498,0.1252305673467936,0.02619638473152,0.4438142091028632,0.0179771971084523,0.0236900068857633,-0.5005753480884906,-0.0489403170520918,1.5479506972210302,0.5255039912886504,0.0490572268870773,-0.0108354199846408,0.326309278637981,-0.2517253248218332,0.1955751000329361,0.0697315310006106,10.783810058705058,-1.4482488555128936,0.1904138587395186,-1.2777812128224817
2.54,-0.4880455994172094,-0.0501531724934985,1.5502897768489363,0.0015914794641632,0.1262699342271041,0.0261201120328849,0.4390643169703268,0.0220318319430029,0.0246955869057228,-0.4901804098854396,-0.0480714936527322,1.547781499214301,0.531261072424758,0.0546732838061752,-0.0132109396328351,0.3162780821082291,-0.2374946066268202,0.2027317417275281,0.0502790009979764,10.720067591410952,-1.4465235427299517,0.1926907156309948,-1.2801322259591863
2.56,-0.4793160169633176,-0.0496630758501573,1.5507923724504544,0.0002880966416722,0.1271032360440524,0.0260834977541729,0.4341462235914577,0.026734080946586,0.0254969606021592,-0.4796415446539861,-0.0470622688303952,1.5475529132163672,0.5370181535608654,0.0602893407252731,-0.0155864592810294,0.3425674677210094,-0.2459046689434502,0.2351124501791568,0.0400686848218222,10.720067591410952,-1.4450477412345135,0.1943077907407674,-1.2823528947206364
2.58,-0.4706845986201578,-0.0490724160876228,1.5513074937382154,-0.0002559939969447,0.1277263879317734,0.0261047937968391,0.4292423127896939,0.0319985378013418,0.0259723492128214,-0.4689587523941299,-0.0459126425850807,1.5472649392272286,0.5427752346969729,0.065905397644371,-0.0179619789292237,0.3605164401881998,-0.2451955400881944,0.263222842737788,0.0237694305331064,10.707927538433978,-1.4440101562897478,0.1950468504830899,-1.2844367077745114
2.6,-0.4625758390711775,-0.048411006012664,1.5518026049068363,8.762902522523614e-05,0.1281835109998677,0.0261889062964052,0.4245611115857812,0.0372583795651259,0.0261190643155278,-0.4492224829806731,-0.0474724891975557,1.5526061111988565,0.4395556290380512,0.038888520416008,0.0142523726609906,0.3521402611635126,-0.2340600601956344,0.2629920881892029,0.0073357551353236,10.692672201073036,-1.4431726632940216,0.1947804105864816,-1.2864939156094857
2.62,-0.4541158252134569,-0.0475707891624989,1.5523567485084884,0.0026242382489335,0.1280467821650026,0.0264300483292679,0.4216760468776809,0.0459833051647715,0.0294483748708391,-0.4492224829806731,-0.0474724891975557,1.5526061111988565,0.4395556290380512,0.038888520416008,0.0142523726609906,0.4887029615804105,-0.1442532354050146,0.4362462799822841,0.1664655277655652,10.676623801655296,-1.4401025971236514,0.1917285265376802,-1.2895266339324871
2.64,-0.4457191986388913,-0.0465979065610945,1.5529721868975002,0.0072542453322481,0.1269440809266243,0.0268075504505915,0.4180373146066656,0.050393020776198,0.0319133327191402,-0.4492224829806731,-0.0474724891975557,1.5526061111988565,0.4395556290380512,0.038888520416008,0.0142523726609906,0.3112956051235198,-0.1819366135507649,0.2204857805713223,0.1232478924150539,10.812291970193655,-1.4427310110624116,0.1868400227866598,-1.2918681261114984
