t,x,y,z,roll,pitch,yaw,v_x,v_y,v_z,ref_x,ref_y,ref_z,ref_v_x,ref_v_y,ref_v_z,a_com,a_x,a_y,a_z,thrust,wind_x,wind_y,wind_z
0.0,1.8204063003437887,0.8643277982652527,2.5445696185714404,0.0192895361892213,0.1362468252897039,0.0263117446968128,-0.0002504591782665,0.0062953636491195,-0.0013971775106748,1.820408945720542,0.8643895994409658,2.544559035771967,-0.1001015652143169,-0.0932888904479627,-0.1012846276237416,0.3226702584333155,-0.0125229589133269,0.3147681824559767,-0.0698588755337405,10.54353904308573,-1.2864954448740171,0.1566591806468759,-1.1653845934747522
0.02,1.8205209092766337,0.8646660960251458,2.54430265184006,0.0281910604653425,0.1313023653223481,0.0268011493921147,0.011212496264001,0.0238118579449352,-0.0264526179491322,1.820408945720542,0.8643895994409658,2.544559035771967,-0.1001015652143169,-0.0932888904479627,-0.1012846276237416,1.632484314972002,0.5731477721133791,0.8758247147907849,-1.2527720219228706,10.54353904308573,-1.2962863706589969,0.1481895240969764,-1.1702192648387428
0.04,1.8208093882506209,0.8651340756013525,2.5435007002603616,0.0420849812720609,0.117768634999734,0.0272389205702964,0.0172273011211438,0.0239561095082659,-0.0564286585403676,1.820408945720542,0.8643895994409658,2.544559035771967,-0.1001015652143169,-0.0932888904479627,-0.1012846276237416,1.528693637971997,0.3007402428571413,0.0072125781665342,-1.4988020295617692,9.07964896100566,-1.326090019095176,0.1338359207826895,-1.1388455449572377
0.06,1.82112931461004,0.8655558753133348,2.5420498811052994,0.0569851659042203,0.0979301214793952,0.0271785377353555,0.0134644429186353,0.0178341952531267,-0.0869446628389714,1.8194079300683987,0.8634567105364862,2.54354618949573,-0.1201015655123401,-0.1132888907459859,-0.1212846279217648,1.567532658632566,-0.1881429101254274,-0.3060957127569595,-1.5258002149301937,8.805114881859481,-1.3551886911941258,0.119338490086006,-1.0955976890128474
0.08,1.82127394385052,0.8658159225722893,2.540006923639797,0.0712772624057054,0.0761894027233182,0.0265997446569942,0.0005201280676233,0.0081489587762696,-0.1157305109493485,1.8174058987641124,0.861590932727527,2.5415204969432548,-0.1601015661083865,-0.1532888913420323,-0.1612846285178112,1.6507453952748667,-0.6472157425505979,-0.4842618238428549,-1.4392924055188527,8.806226500937555,-1.3770997906486953,0.1063544900367821,-1.0513637750118832
0.1,1.8210771771609848,0.8658510236348209,2.5374027048400567,0.0848721232426574,0.0553672959379203,0.0256767059311939,-0.0199407838878298,-0.0044585948674994,-0.1431961875463525,1.815403867459826,0.8597251549185677,2.53949480439078,-0.200101566704433,-0.1932888919380788,-0.2012846291138577,1.8248032208025424,-1.0230455977726585,-0.6303776821884529,-1.373283829850199,8.861368415910874,-1.3919797993534684,0.0936717041615984,-1.0049136633083675
0.12,1.8204524404576323,0.8656252637994598,2.534429196398346,0.0971728574439828,0.03819290005716,0.0246824987694219,-0.0447748469091775,-0.0189178685076807,-0.1684243350548672,1.8114018361257371,0.8558593770798061,2.535469111808503,-0.2401015673004794,-0.2332888925341252,-0.2412846297099042,1.9119758805103235,-1.241703151067385,-0.7229636820090651,-1.2614073754257382,8.919543985929977,-1.3977647056910765,0.0820675034898412,-0.9604476986972124
0.14,1.81924867034946,0.8650665100749402,2.5307780662507104,0.1095102472510733,0.0236915371434154,0.0236890784540859,-0.0742948376404698,-0.0364620168993879,-0.195371496873807,1.8073998047916489,0.8519935992410446,2.531443419226226,-0.2801015678965259,-0.2732888931301717,-0.2812846303059507,2.182530942313277,-1.4759995365646177,-0.877207419585359,-1.3473580909469889,8.968067603678264,-1.3970716509025412,0.0714614820775745,-0.9223719164769892
0.16,1.8174197266458816,0.8641327860747067,2.5265857021788296,0.1212499651530636,0.0134282373805514,0.0229249148974301,-0.1068638857497982,-0.0562800519813317,-0.2225091848506915,1.8023977734426588,0.8471278213873819,2.5264177266290475,-0.3201015684925724,-0.3132888937262181,-0.3212846309019971,2.339845891286242,-1.6284524054664204,-0.9909017540971908,-1.3568843988442227,8.947971482096364,-1.3939240755837143,0.0620934890660813,-0.896249474674972
0.18,1.8150572597694292,0.8628559355912158,2.522099371468423,0.1318015612988619,0.0081245084665669,0.022579755750676,-0.1400529652542865,-0.0772899087128551,-0.2483708141316804,1.796395742078768,0.841262043518818,2.520392034016968,-0.3601015690886188,-0.3532888943222645,-0.3612846314980435,2.3514638777268555,-1.6594539752244146,-1.0504928365761692,-1.2930814640494477,8.955322609177983,-1.3857783202496117,0.053190185691412,-0.8743161341032999
0.2,1.8118875705868145,0.8610393764016903,2.5168420528841504,0.1415734012698377,0.0076123434578323,0.0227368386101306,-0.1745463256850337,-0.1030746726665854,-0.2759070782881699,1.808054611506715,0.858991440155573,2.509680830761839,-0.2400529667444026,-0.1772899102029712,-0.3483708156217966,2.5558226707124003,-1.7246680215373569,-1.2892381976865153,-1.376813207824472,8.974503364671364,-1.3665134021641798,0.0450739638289413,-0.8600330064881251
0.22,1.808022430636305,0.858542479395471,2.5111716762014478,0.1455656421741082,0.0125977309383253,0.0232651396638418,-0.2095536559829852,-0.1434962811841731,-0.2886179006075699,1.808054611506715,0.858991440155573,2.509680830761839,-0.2400529667444026,-0.1772899102029712,-0.3483708156217966,2.748174218355868,-1.750366514897579,-2.021080425879385,-0.6355411159700008,9.975140738997652,-1.3366450262069989,0.0404380439105957,-0.8575822644323067
0.24,1.803513365303264,0.8553045235363397,2.505271050138744,0.1431718367974177,0.0224960634583432,0.0240550870019959,-0.238838458315092,-0.1773783598029167,-0.3007107657264758,1.808054611506715,0.858991440155573,2.509680830761839,-0.2400529667444026,-0.1772899102029712,-0.3483708156217966,2.319392315856322,-1.4642401166053378,-1.6941039309371824,-0.6046432559452947,9.975140738997652,-1.3118314306539107,0.0402817812484023,-0.8694359493121624
0.26,1.7987426315924262,0.851659099355946,2.4994197020137303,0.1381846053422046,0.0341961281733161,0.0249012297740036,-0.2614046258858316,-0.2040443509382634,-0.3145028633680228,1.805654081839271,0.8572185410535433,2.506197122605621,-0.2600529670424259,-0.1972899105009944,-0.3683708159198198,1.877850472891181,-1.1283083785369796,-1.3332995567673338,-0.6896048820773493,9.790356397394136,-1.288623071218851,0.0429978408624982,-0.8830631271436092
0.28,1.7933107161162984,0.8473238587212039,2.4929512703913947,0.1323458585477268,0.0471908528887915,0.0257728762940976,-0.2801812038041315,-0.2278848219436698,-0.3317446173951148,1.800853022504383,0.8536727428494839,2.499229706293185,-0.3000529676384723,-0.2372899110970409,-0.4083708165158662,1.7451404084001043,-0.938828895914992,-1.19202355027032,-0.8620877013546024,9.385902179189545,-1.2678557282913987,0.0465850932723254,-0.8971481545835788
0.3,1.7875498086082855,0.8425404554608783,2.4861048699740604,0.126827857559005,0.059565913771389,0.0265100755148798,-0.2947537434851785,-0.249248171882004,-0.3520272137664437,1.796051963169495,0.8501269446454245,2.492262289980749,-0.3400529682345188,-0.2772899116930873,-0.4483708171119127,1.6432706326908375,-0.7286269840523524,-1.0681674969167096,-1.014129818566445,9.2213831154304,-1.2510745449080256,0.0502334822760926,-0.907637660530334
0.32,1.7815332182458568,0.837349180450782,2.4788258896010773,0.1219358243300096,0.0704915101709098,0.0270440873939966,-0.3060828268194756,-0.2688760225535406,-0.3748708970914888,1.7892509038048046,0.8445811464115627,2.4832948736385108,-0.3800529688305652,-0.3172899122891338,-0.4883708177079591,1.6089084180233268,-0.5664541667148554,-0.9813925335768304,-1.1421841662522525,9.2213831154304,-1.2361027413586403,0.053872680265116,-0.9153282890566627
0.34,1.7756319269586476,0.8320660957206243,2.471472766071617,0.1179647905513325,0.0790861606893385,0.0273371439073016,-0.3145513895644657,-0.2863628128936453,-0.3980155373320401,1.782449844440114,0.839035348177701,2.474327457296273,-0.4200529694266117,-0.3572899128851803,-0.5283708183040057,1.510942390719416,-0.4234281372495041,-0.8743395170052348,-1.1572320120275674,9.084082327874968,-1.2246109012853128,0.0570922498483259,-0.9201351164562848
0.36,1.7692585130089156,0.8261474730120006,2.4632442210655743,0.1142661592188646,0.0862020817542376,0.0274197175048692,-0.3223301607924538,-0.3045222796732763,-0.4236704378271871,1.7746487850605226,0.8324895499289381,2.464360040939133,-0.4600529700226581,-0.3972899134812267,-0.568370818900052,1.61898844572297,-0.3889385613994045,-0.9079733389815492,-1.2827450247573506,9.006744703548975,-1.2163223661668991,0.0600849552553456,-0.9212764033644798
0.38,1.762737966487492,0.8198698666880817,2.4544916329252406,0.1107614369328306,0.0915461156222501,0.0272908711230358,-0.3293878711524299,-0.3222264687431705,-0.4502808888097304,1.76584772566603,0.824943751665274,2.4533926245670927,-0.5000529706187046,-0.4372899140772731,-0.6083708194960985,1.636586147780048,-0.3528855179988049,-0.8852094534947119,-1.3305225491271635,8.939959720848492,-1.2099940936411695,0.0629299455567714,-0.919872069392476
0.4,1.7564160221304486,0.8135841797562633,2.4456767601996727,0.1075018716937501,0.0952499542545045,0.0270072200805748,-0.3357750241953949,-0.338440484936077,-0.4762477468174287,1.7462685729298706,0.8037585432509232,2.431977588484754,-0.429387872642546,-0.4222264702332867,-0.5502808902998466,1.5636238037728716,-0.3193576521482527,-0.8107008096453233,-1.298342900384916,8.893181379818088,-1.2051818094667883,0.0654979274903757,-0.9171993554403104
0.42,1.749656304180275,0.8066351519509691,2.4360769483605926,0.1046348011458777,0.0979162740828544,0.0266068628310341,-0.3397668776480589,-0.3558917925724116,-0.4812838455316818,1.7462685729298706,0.8037585432509232,2.431977588484754,-0.429387872642546,-0.4222264702332867,-0.5502808902998466,0.9298458507532784,-0.1995926726331975,-0.8725653818167284,-0.2518049357126517,8.850606927123408,-1.1913985909906768,0.0666306987743657,-0.916440992824845
0.44,1.7428278313436143,0.7993489923162901,2.426373548428904,0.1028633380751892,0.0991810086140383,0.0261327266796639,-0.3430618800252837,-0.3721386628841951,-0.4889511500964221,1.7462685729298706,0.8037585432509232,2.431977588484754,-0.429387872642546,-0.4222264702332867,-0.5502808902998466,0.9132433888103428,-0.1647501188612399,-0.8123435155891784,-0.3833652282370176,10.1632214913825,-1.1901417202166895,0.0675927226084752,-0.9158747606897716
0.46,1.736275908643208,0.7921249335098661,2.4169672406990577,0.1019982946488922,0.0989809390739198,0.0255945069490202,-0.3465395898060117,-0.3875324433727035,-0.5007835939727775,1.741974694203445,0.7995362785485903,2.426474779581756,-0.4493878729405692,-0.4422264705313099,-0.5702808905978698,0.9862424538804486,-0.1738854890364016,-0.7696890244254184,-0.5916221938177674,9.86295552773754,-1.1899063405770214,0.0679343333916023,-0.9124603168521432
0.48,1.7293040854438149,0.7842094555789921,2.406786322833002,0.1017966529803049,0.0972229572247142,0.0249193598690386,-0.3505433604082308,-0.4032330495065121,-0.5168315350819603,1.7333869367505943,0.7910917491439247,2.415469161775759,-0.4893878735366156,-0.4822264711273564,-0.6102808911939163,1.1402583324054048,-0.2001885301109535,-0.7850303066904291,-0.802397055459142,9.604514229643428,-1.190836664278917,0.0676931822139827,-0.9064261687579962
0.5,1.7222466166451051,0.775982311826454,2.396254052353256,0.1023365936296844,0.0937278150457303,0.0241167429829822,-0.3551227312527688,-0.4187368117124731,-0.5356821885712489,1.7247991792977433,0.7826472197392589,2.404463543969762,-0.5293878741326621,-0.5222264717234029,-0.6502808917899627,1.2416565717258716,-0.2289685422268983,-0.7751881102980501,-0.9425326744644302,9.3994970803069,-1.1930029084863605,0.0668572695501407,-0.8977102841513119
0.52,1.715085123669308,0.7674453699888005,2.3853208934599124,0.1035999630186598,0.0884962566209583,0.0231798150848312,-0.3611627024385921,-0.4342629768191968,-0.5566520143856322,1.71421142181509,0.7722026903047908,2.391457926133963,-0.5693878747287086,-0.5622264723194493,-0.6902808923860092,1.3391010506421783,-0.3019985592911667,-0.7763082553361861,-1.0484912907191613,9.136813173336122,-1.1969975397077937,0.06565501778632,-0.8862808259634063
0.54,1.708146550268843,0.7590439864233122,2.374540887708697,0.1054299919512073,0.0825074908407346,0.0222157258324372,-0.3691367322414553,-0.4493964910166682,-0.5770197013953897,1.7036236643324367,0.7617581608703228,2.3784523082981632,-0.609387875324755,-0.6022264729154958,-0.7302808929820557,1.3298976251853611,-0.3987014901431607,-0.7566757098735694,-1.0183843504878776,9.136813173336122,-1.2005994205803192,0.0636390921663525,-0.8746304235124635
0.56,1.700652727300919,0.7498714506714685,2.362770682672267,0.1075405854824786,0.0759199623522449,0.0211659841505403,-0.3800148723456655,-0.4670856163228776,-0.5989341293745096,1.6920359068348825,0.7503136314209535,2.364446690447463,-0.6493878759208014,-0.6422264735115422,-0.770280893578102,1.5095373793629938,-0.5439070052105088,-0.884456265310471,-1.0957213989559955,9.10722280902064,-1.2034427584934893,0.0613716194520461,-0.8632566440699879
0.58,1.692917126448962,0.7403285244202483,2.350559043081829,0.1090501995365109,0.0697759256959778,0.0201067047326266,-0.3930658194450461,-0.48612144179791,-0.6210962689823762,1.6794481493224267,0.7378691019566831,2.349441072581861,-0.6893878765168479,-0.6822264741075886,-0.8102808941741485,1.5998830454952755,-0.6525473549690325,-0.9517912737516204,-1.1081069803933308,9.083525897251093,-1.2048213499635083,0.0595834474420449,-0.8532081166462335
0.6,1.685308488092328,0.7309010929070608,2.3385443369152736,0.1095135397906049,0.064847303521105,0.0191257025977017,-0.4072516432058788,-0.5051031868577995,-0.6424719762459087,1.6732638354767098,0.7160224523303528,2.31950422963271,-0.4930658209351622,-0.5861214432880262,-0.7210962704724924,1.595670002152917,-0.709291188041633,-0.9490872529944738,-1.068785363176622,9.059863255335586,-1.205026039096281,0.0584628941347329,-0.8437618191075642
0.62,1.6769572331806817,0.7205368262780143,2.3256849877460404,0.1079509761941126,0.0627679061318512,0.0182944424375762,-0.4271304814437781,-0.5301378578521737,-0.6411020177119404,1.6732638354767098,0.7160224523303528,2.31950422963271,-0.4930658209351622,-0.5861214432880262,-0.7210962704724924,1.5998279187696394,-0.9939419118949632,-1.2517335497187088,0.0684979266984131,9.059863255335586,-1.1935676469214356,0.0583171487321612,-0.8375615614178011
0.64,1.6682206958204862,0.7096956838079836,2.312854035745298,0.1041618767728057,0.0653502115783134,0.0178182002055067,-0.4449255846054638,-0.5520880554775062,-0.6421197931373432,1.6732638354767098,0.7160224523303528,2.31950422963271,-0.4930658209351622,-0.5861214432880262,-0.7210962704724924,1.4137828149531495,-0.889755158084285,-1.0975098812666229,-0.0508887712701411,10.573995727860163,-1.185876450135847,0.0597615447044225,-0.8434945465809269
0.66,1.6596220119315035,0.6990240939856425,2.3005923321071022,0.0998767881752518,0.0704003329975515,0.0175839564495206,-0.4589514669117113,-0.5699140687295536,-0.64849742114029,1.6683331772673582,0.7101612378974725,2.312293266927985,-0.5130658212331854,-0.6061214435860494,-0.7410962707705155,1.178098321315809,-0.7012941153123786,-0.8913006626023734,-0.3188814001473361,9.87214828892047,-1.1769862071268324,0.0621447929956327,-0.8514431587730538
0.68,1.6503136422939029,0.6874507589204017,2.287505531224783,0.0953662170323041,0.0770825179826866,0.0174584166299532,-0.470855650119415,-0.5863629088093537,-0.6600634847160809,1.6584718608486548,0.698438809031712,2.2978713415185354,-0.5530658218292319,-0.6461214441820958,-0.781096271366562,1.168383225286817,-0.595209160385185,-0.8224420039900038,-0.5783031787895465,9.87214828892047,-1.167867496212896,0.0647880562082152,-0.8595764408334469
0.7000000000000001,1.6407937878577414,0.6755660300313797,2.274140396546213,0.0911594921672561,0.0841496590960656,0.0173717651378183,-0.4803266706359331,-0.6012217590426653,-0.6760477277935566,1.6486105444299517,0.6867163801659515,2.283449416109085,-0.5930658224252784,-0.6861214447781423,-0.8210962719626085,1.1895184809830814,-0.4735510258259023,-0.7429425116655786,-0.7992121538737851,9.58389308347978,-1.1592295078645618,0.0674040095474908,-0.8667743706116332
0.72,1.6311066002838992,0.6633985930160573,2.26041351375426,0.0873724417779858,0.0908910727596562,0.0172676740125529,-0.4877987048938155,-0.6147938596619684,-0.695829058258487,1.6367492279814462,0.6729939512703886,2.2670274906698333,-0.6330658230213249,-0.7261214453741888,-0.861096272558655,1.2563182778800916,-0.3736017128941227,-0.678605030965157,-0.989066523246518,9.348808702764472,-1.1514407668362738,0.069725259848664,-0.8717435016074129
0.74,1.621782253382697,0.6515978468121141,2.246988028162079,0.0842217495203274,0.096570265367767,0.0171251987177063,-0.4932975311509124,-0.6267663035302184,-0.7163923202061138,1.6248879115329409,0.6592715223748258,2.250605565230581,-0.6730658236173713,-0.7661214459702352,-0.9010962731547014,1.2210899273915627,-0.2749413128548456,-0.5986221934125013,-1.0281630973813405,9.16200872580248,-1.1440921961145647,0.0718704857890796,-0.8754950406186885
0.76,1.6118634156688905,0.6389304134520722,2.232418741426145,0.0811695826131144,0.1016433784405617,0.016910561357066,-0.4982448307951914,-0.6392564470446369,-0.7395106745417798,1.6120265950695338,0.6445490934643617,2.233183639776428,-0.7130658242134177,-0.8061214465662816,-0.9410962737507478,1.336916008927318,-0.2473649822139489,-0.6245071757209231,-1.1559177167833,9.069103670049117,-1.138123711134909,0.0738837937012986,-0.8774458525809551
0.78,1.6018528097966434,0.6260168145836847,2.21737306880757,0.0781281668191433,0.1058553379713403,0.0166233921341913,-0.502546149286795,-0.6513343313194844,-0.7638794511774883,1.598165278591226,0.6288266645389966,2.214761714307373,-0.7530658248094642,-0.8461214471623281,-0.9810962743467944,1.376784209711052,-0.2150659245801767,-0.6038942137423731,-1.2184388317854289,8.992525842460054,-1.133355828561304,0.075817864705515,-0.8780865122969913
0.8,1.5922676157139242,0.61353091330161,2.202618174471658,0.0751809829416721,0.1091496448435172,0.0162908103826876,-0.5061961228066697,-0.6622357849115359,-0.7880314889591307,1.5767255023323037,0.5934500980177105,2.179179096248696,-0.6025461507769111,-0.7513343328096005,-0.8638794526676045,1.3374274990829578,-0.1824986759937363,-0.5450726796025762,-1.207601889082116,8.93217347346581,-1.129190604799468,0.0779210784597966,-0.8776851155184364
0.8200000000000001,1.5821249027277091,0.60015875844624,2.186845008039146,0.072246573490491,0.1123606452669812,0.0159344438127252,-0.5076348886168405,-0.6744884960830376,-0.7866870703509161,1.5767255023323037,0.5934500980177105,2.179179096248696,-0.6025461507769111,-0.7513343328096005,-0.8638794526676045,0.6204966549121622,-0.0719382905085386,-0.6126355585750864,0.0672209304107274,8.875341275752362,-1.1171245521787612,0.079233369879232,-0.8791079906422032
0.84,1.5719715538344092,0.5865564441385546,2.171100860819364,0.0699128539149167,0.1153661416482424,0.0156084041821176,-0.5076141996872412,-0.6852368489279,-0.788253865578683,1.5767255023323037,0.5934500980177105,2.179179096248696,-0.6025461507769111,-0.7513343328096005,-0.8638794526676045,0.5430984353577701,0.0010344464799638,-0.5374176422431209,-0.0783397613883463,10.48272220294166,-1.1148812870562053,0.0806547694816139,-0.8828882662060801
0.86,1.5618245570451734,0.5727436658944738,2.1552544849576725,0.06818957603218,0.1175362680601658,0.0152720746214021,-0.5071583774871271,-0.6955813134499859,-0.7962756044698078,1.5707000408245346,0.5859367546896145,2.17054030172202,-0.6225461510749343,-0.7713343331076237,-0.8838794529656276,0.6549122364183481,0.0227911100057043,-0.5172232261042908,-0.4010869445562393,10.1120497787997,-1.1141839949767265,0.0816753504187276,-0.8841164047721995
0.88,1.552194014970778,0.5594355664641348,2.1400064607870326,0.0669784660534258,0.1185990435917872,0.0149213220276186,-0.5067118343192798,-0.704791218884844,-0.8083577490875166,1.5586491178089965,0.5709100680334225,2.1532627126686674,-0.6625461516709807,-0.8113343337036701,-0.923879453561674,0.7599341706408,0.0223271583923656,-0.4604952717429056,-0.6041072308854367,9.779489029412616,-1.1140102151935904,0.0824256255217222,-0.8828610820501726
0.9,1.5420635621874694,0.5452462247450892,2.123671437967932,0.0663020637267848,0.1185666906916896,0.0145255760384988,-0.5064326120819691,-0.7136867950984352,-0.8246584333754394,1.5465981947934582,0.5558833813772305,2.135985123615316,-0.7025461522670272,-0.8513343342997166,-0.9638794541577206,0.928603184202158,0.0139611118655347,-0.4447788106795636,-0.8150342143961431,9.52844408357396,-1.114662804291765,0.0826871970742222,-0.8799352032066348
0.92,1.5319377804480665,0.5308853238039694,2.10697735049112,0.0664607710300381,0.117156012635132,0.0141051590179701,-0.5062581463978054,-0.7220601811739441,-0.8439063520000237,1.5325472717481177,0.5388566946912362,2.116707534532161,-0.7425461528630737,-0.8913343348957631,-1.003879454753767,1.0495551486500074,0.0087232842081841,-0.418669303775443,-0.9623959312292152,9.179027337384468,-1.115608242053134,0.0822549851670416,-0.8761414695067585
0.94,1.5223214479612657,0.5170894757891917,2.090752538951121,0.0675238922541061,0.1142942323249757,0.013672884261666,-0.5061078563880943,-0.729833893421852,-0.862986436049897,1.5184963487027772,0.5218300080052418,2.097429945449006,-0.7825461534591202,-0.9313343354918096,-1.0438794553498136,1.030173282208533,0.0075145004855559,-0.3886856123953952,-0.9540042024936636,9.179027337384468,-1.117335964344817,0.0810016106987642,-0.8705385296527066
0.96,1.5121934247881406,0.5023976425703671,2.0732775306641007,0.0694335460669766,0.1095743527460333,0.0131557957515735,-0.506956034793207,-0.7389902391469431,-0.8835070136093942,1.5034454256425354,0.5038033213043464,2.077152356350951,-0.8225461540551665,-0.971334336087856,-1.08387945594586,1.1243355560281294,-0.0424089202556376,-0.4578172862545526,-1.0260288779748603,9.133655475189698,-1.1208137796054682,0.0791654270666924,-0.862193480424459
0.98,1.502025586390121,0.4875081768388548,2.055390954140677,0.0716420256669876,0.1036122279456426,0.0125648757345086,-0.5100593093614095,-0.7495747414273358,-0.9040989370499508,1.4873945025673925,0.4847766345885497,2.0558747672379942,-0.862546154651213,-1.0113343366839025,-1.1238794565419064,1.1679996923705085,-0.1551637284101237,-0.529225114019638,-1.0295961720278357,9.10390905974873,-1.124637901694172,0.0770864925657377,-0.85219555012435
1.0,1.492286948708634,0.4731537311788995,2.0380170004912497,0.0734358903808751,0.0974991996301883,0.0119408846864787,-0.5150739314062033,-0.7607674465577123,-0.9236800551746712,1.4765226209220506,0.450029439767488,2.0101860072881794,-0.6100593108515256,-0.8447016385239697,-1.004098938540067,1.1552524284782333,-0.2507311022396874,-0.5596352565188256,-0.9790559062360203,9.09575445248356,-1.1278201666734862,0.0753118019153532,-0.8424088047701777
1.02,1.4818787667822806,0.4577438971090461,2.019581222611454,0.0733202873715028,0.0930205391296444,0.0112866631583861,-0.5256948801577259,-0.7793016663240021,-0.9174938783504863,1.4765226209220506,0.450029439767488,2.0101860072881794,-0.6100593108515256,-0.8447016385239697,-1.004098938540067,1.1119696920641304,-0.531047437576132,-0.9267109883144886,0.3093088412092437,10.794270381310524,-1.1265486571899943,0.0748433239152649,-0.8332410117150745
1.04,1.471250562910887,0.4419816834742899,2.0012769085750626,0.0703811897661538,0.092791746105039,0.0107606163211197,-0.5360840226234792,-0.7956228725497799,-0.9136475088650732,1.4765226209220506,0.450029439767488,2.0101860072881794,-0.6100593108515256,-0.8447016385239697,-1.004098938540067,0.9862943425474016,-0.5194571232876644,-0.8160603112888909,0.1923184742706585,10.794270381310524,-1.122688885857588,0.0763259563964415,-0.8347644790609257
1.06,1.4604388211378403,0.4259291441660091,1.982975562221162,0.0658913992647261,0.095246637770309,0.0103267702667596,-0.5442664267028952,-0.8083697552697438,-0.9166204357023184,1.4704220278135354,0.4415824233822483,2.0001450179027787,-0.6300593111495488,-0.8637270179432965,-1.02409893883809,0.7718047835673328,-0.4091202039707975,-0.6373441359981913,-0.1486463418622519,10.40794603995073,-1.1179141731966062,0.0790318620747104,-0.836700174125909
1.08,1.4500348852307208,0.4104719083696565,1.9654794062340115,0.0613581433090785,0.0988421975809859,0.0099819739725568,-0.550293906536578,-0.8179467823699922,-0.9249117464886594,1.4582208415965048,0.424688390611769,1.9800630391319771,-0.6700593117455953,-0.90177777678195,-1.0640989394341367,0.7014196243691094,-0.3013739916841396,-0.4788513550124218,-0.4145655393170522,9.687553304919676,-1.112810550642967,0.0822286288712879,-0.8396525688952596
1.1,1.4389764871054236,0.394024950302912,1.9468442806030053,0.0568370253229391,0.1030722795368423,0.0096624725811322,-0.555096568596162,-0.8261894353816202,-0.9383779814688936,1.4460196553794742,0.4077943578412896,1.959981060361176,-0.7100593123416418,-0.9398285356206036,-1.104098940030183,0.8251460114300254,-0.2401331029792008,-0.4121326505813982,-0.6733117490117124,9.687553304919676,-1.1074452748312438,0.0852658331774885,-0.8436628358512637
1.12,1.427835114360686,0.3774269230608945,1.927895850151151,0.0527825881049803,0.1071608889628105,0.0093665369982841,-0.5587243514260473,-0.8331879284113469,-0.9559536210948606,1.4318184691326414,0.3889977871288775,1.9378990815605723,-0.7500593129376882,-0.9778792944592573,-1.1440989406262294,0.9631235917702948,-0.1813891414942647,-0.3499246514863385,-0.8787819812983488,9.209288456436298,-1.103181893772377,0.0879025122701212,-0.8473600453285012
1.14,1.4166327194868853,0.3607001674966808,1.908568987235147,0.0492875203675737,0.1107084303775289,0.0090831297574669,-0.5613204733538786,-0.8392132958315315,-0.9758416467710558,1.417617282885809,0.3702012164164654,1.9158171027599689,-0.7900593135337347,-1.015930053297911,-1.184098941222276,1.047113254272654,-0.1298060963915659,-0.3012683710092279,-0.9944012838097592,9.209288456436298,-1.099144689039512,0.0903058508757373,-0.8501847883716562
1.16,1.4059458867637855,0.3446973130936001,1.88982638798064,0.0462586486395861,0.113496194220677,0.0088105533733985,-0.5634664603811768,-0.8449123573217935,-0.9960602351492828,1.4024160966240746,0.350453376733087,1.892735123944464,-0.8300593141297811,-1.0539808121365644,-1.2240989418183224,1.0557886604326874,-0.1072993513649089,-0.2849530745131001,-1.010929418911355,9.105279720154613,-1.095772580713659,0.0924946749681684,-0.8518369199547333
1.18,1.394655136864384,0.327740687202503,1.8696686079830465,0.0431848187503038,0.1159008155574049,0.0085149605870042,-0.5654829790309867,-0.8503636519280074,-1.0187107148491727,1.3862149103474397,0.3297542680787423,1.8686531451140576,-0.8700593147258275,-1.092031570975218,-1.2640989424143687,1.169216822261692,-0.1008259324904947,-0.2725647303106981,-1.1325239849944937,9.036477643620856,-1.0929879407060774,0.0946192596566755,-0.8527914153277008
1.2,1.383325904073655,0.3106805877296208,1.8490439727883403,0.040174933937561,0.117824996329098,0.0082130944502859,-0.5673366823128144,-0.8552697050163078,-1.0426051571132584,1.3663809879128348,0.2852225046061026,1.818733072240588,-0.6654829805211028,-0.9029473650124668,-1.0721054757856714,1.2231618289028685,-0.0926851640913883,-0.2453026544150194,-1.194722113204283,8.961433757009218,-1.0907692026805322,0.0966109529058383,-0.85309808613706
1.22,1.3725710284467636,0.2942431171857327,1.8293874414710545,0.033176789464553,0.1195327461284838,0.0076434590202639,-0.5645872836412525,-0.8716633552348406,-1.0251608222011213,1.3663809879128348,0.2852225046061026,1.818733072240588,-0.6654829805211028,-0.9029473650124668,-1.0721054757856714,1.2047985112349628,0.1374699335780937,-0.8196825109266392,0.8722167456068575,8.900492292560557,-1.0810854867171749,0.1014531352860792,-0.8520950485604746
1.24,1.3613175844578915,0.276726067049557,1.8090443303000523,0.0218804591624047,0.1211533775691146,0.0067770562267665,-0.5609374768307036,-0.8783335658729325,-1.0104861147344046,1.3663809879128348,0.2852225046061026,1.818733072240588,-0.6654829805211028,-0.9029473650124668,-1.0721054757856714,0.8263773940285283,0.1824903405274469,-0.3335105319045961,0.7337353733358309,11.43206439561709,-1.0821347266043218,0.1101590047263447,-0.8530931678532078
1.26,1.350138870888579,0.2591455164989268,1.788908429619258,0.009840159103613,0.1219837188185251,0.0058619523310309,-0.557237160181697,-0.8789901538756271,-1.003795144918899,1.359726158107624,0.2761930309559779,1.808012017482731,-0.685482980819126,-0.9134641076293586,-1.082784427972971,0.3837073369776801,0.1850158324503303,-0.0328294001347262,0.334548490775266,10.98146603726309,-1.0836608485865675,0.1190053631810602,-0.8526683824555576
1.28,1.3395855585657208,0.2424725315142471,1.7698421884727829,-0.0010779756639564,0.1216892699322473,0.0050493001048991,-0.5539382800265159,-0.8759305160393032,-1.0034925810373954,1.3464164984972018,0.2581340836557286,1.7865699079670174,-0.7254829814151724,-0.9344975928631424,-1.1041423323475703,0.2254747151572831,0.1649440077590547,0.1529818918161951,0.0151281940751979,10.52320082209917,-1.0856849462538043,0.1279305291350324,-0.851863569729965
1.3,1.3285417413501015,0.2250148539600895,1.7497302789160518,-0.0115137541533753,0.1199089172137182,0.0043176854812976,-0.5507034964311689,-0.8699464488033264,-1.00791473445694,1.3331068388867795,0.2400751363554792,1.765127798451304,-0.7654829820112189,-0.955531078096926,-1.12550023672217,0.4056732874475727,0.1617391797673506,0.2992033617988388,-0.2211076709772386,10.16500604840894,-1.0887784195903798,0.1360459531164944,-0.8493765837086925
1.32,1.317559919703047,0.2077011856230596,1.7294886641222922,-0.0206351873252593,0.1161759378919471,0.0037653999918099,-0.5477647093195919,-0.8617598195970577,-1.0161556587757976,1.3177971792465553,0.2209645147935407,1.7426177937168603,-0.8054829826072654,-0.9765645633307096,-1.1468581410967695,0.5991039164394584,0.1469393555788511,0.4093314603134335,-0.4120462159428739,9.895883257686364,-1.0934374249571424,0.14315637669712,-0.8445341224449763
1.34,1.306627786619987,0.1905727031776924,1.709067731047938,-0.0282809410875281,0.1101840846014538,0.0034407382531278,-0.5460987112139957,-0.8517246092774922,-1.0254721632511885,1.302487519606331,0.2018538932316022,1.7201077889824172,-0.8454829832033118,-0.9975980485644934,-1.168216045471369,0.6897069150837618,0.08329990527981,0.5017605159782779,-0.4658252237695448,9.6498351895616,-1.099728465407858,0.1487967034630418,-0.8363073025911988
1.36,1.2962441653143562,0.1744958197949268,1.689495066907316,-0.0343115786904831,0.1030561115944511,0.0033355184781676,-0.5473051371457047,-0.8412380083998379,-1.0343147807239783,1.2861778599512057,0.182217434538819,1.6970638366386088,-0.8854829837993582,-1.0186315337982772,-1.1895739498459683,0.6885058918883907,-0.0603212965854527,0.5243300438827148,-0.4421308736395013,9.6498351895616,-1.106963036613566,0.153697372839958,-0.8259768518881677
1.38,1.2852604418701865,0.1577968896815657,1.668710256792772,-0.0395448311049881,0.0948656652766401,0.0034035547879676,-0.5512936285772317,-0.8293049974282611,-1.0436882078150798,1.2688682002811786,0.1620551387151914,1.673485936685435,-0.9254829843954048,-1.0396650190320609,-1.2109318542205678,0.7844838273975531,-0.1994245715763509,0.5966505485788365,-0.4686713545550613,9.643492820108804,-1.1141162637246684,0.157706686600531,-0.8152508092143702
1.4,1.274169136946829,0.1413473763433073,1.6477376544903788,-0.0436640083722591,0.0865921551129617,0.0036222588224623,-0.5578571172119355,-0.8164661623187852,-1.0530792341233857,1.2576957604413248,0.1163316398101527,1.6165258464020178,-0.6512936300673479,-0.8384105671112765,-1.0124751533816148,0.8603871877670702,-0.3281744317351898,0.6419417554737961,-0.4695513154152952,9.626633744501303,-1.1203502759620163,0.1607294756338897,-0.8053411397105779
1.42,1.2634852232663918,0.1258716804863427,1.6280153784490012,-0.0501238722500219,0.0802562026863889,0.0036475162090544,-0.5664862360367974,-0.8108899822194771,-1.022575059441318,1.2576957604413248,0.1163316398101527,1.6165258464020178,-0.6512936300673479,-0.8384105671112765,-1.0124751533816148,1.6093944119043742,-0.4314559412430918,0.2788090049654079,1.5252087341033893,9.626633744501303,-1.1156494927456706,0.1649784957313421,-0.7944505417762249
1.44,1.2520469856106426,0.109800311258549,1.607886088696669,-0.0592544367401818,0.0766489503754389,0.0034356164276963,-0.5769168826743255,-0.7961317904804099,-0.9922937481281268,1.2576957604413248,0.1163316398101527,1.6165258464020178,-0.6512936300673479,-0.8384105671112765,-1.0124751533816148,1.7632076079764654,-0.5215323318764065,0.7379095869533558,1.5140655656595503,12.245832651907222,-1.118139208619676,0.1720715038807441,-0.7930736499796575
1.46,1.2404028862143883,0.0940809246152201,1.5883048332892131,-0.0679041527033121,0.0756770533716763,0.0031599748476911,-0.5867188461100686,-0.7766641613209541,-0.9673354398996936,1.2511828241406513,0.1079475341390399,1.6064010948682017,-0.671293630365371,-0.8402316810478796,-1.0062325424949217,1.656792248526664,-0.4900981717871566,0.973381457972794,1.2479154114216573,11.964646086241371,-1.1190704105315503,0.1789727664410268,-0.795128391141666
1.48,1.2285772421696246,0.0787816527027097,1.5691782546847652,-0.0750208411073461,0.0761867231910016,0.0029266133089549,-0.5952242082198157,-0.7545936438625429,-0.946553488821605,1.2381569515393045,0.0911793227968144,1.5861515918005693,-0.7112936309614175,-0.8438739089210857,-0.9937473207215356,1.5742763544816616,-0.425268105487353,1.1035258729205577,1.039097553904439,11.637678786086326,-1.1192932043641115,0.1845751409934265,-0.7983166314039266
1.5,1.2171960756888447,0.0646721928526358,1.5513624917804638,-0.0800430432616135,0.0772667690116508,0.0028044142102552,-0.6023078365838098,-0.732161836846751,-0.92980282073134,1.2251310789379577,0.0744111114545888,1.5659020887329371,-0.751293631557464,-0.8475161367942918,-0.9812620989481498,1.4439084443474377,-0.354181418199706,1.1215903507895977,0.8375334045132465,11.389260438571,-1.1189274401550968,0.1892034273293078,-0.8022219021904922
1.52,1.2050800621319795,0.0502867762768173,1.53293219590659,-0.0835073705173394,0.0784714892265032,0.0028179061650463,-0.6088874359686578,-0.7079220588971067,-0.9141722907492816,1.2101052063068083,0.057460788718703,1.546276846753974,-0.7912936321535105,-0.851158364667498,-0.9687768771747638,1.479164824008114,-0.3289799692423989,1.2119888974822135,0.7815264991029247,11.209515260461558,-1.118380631567392,0.1925408982092337,-0.8065772324280017
1.54,1.1928409077360835,0.0363978226280414,1.514810965322745,-0.0849741711941147,0.0793440180404631,0.0030184412047237,-0.6147366903215734,-0.6826877378557952,-0.8986969405225451,1.1950793336756589,0.0405104659828171,1.5266516047750112,-0.8312936327495569,-0.8548005925407041,-0.9562916554013776,1.5087007651794555,-0.2924627176457806,1.2617160520655757,0.7737675113368203,11.109644589436355,-1.118256028987087,0.1945153654965704,-0.811149809055089
1.56,1.1804843901477222,0.0230197897250302,1.497002376936375,-0.0842130802785474,0.0798264274768805,0.0034257240959916,-0.6206403655144447,-0.656640692855839,-0.8829011977337491,1.1790534610296084,0.0234690875501012,1.5073384933403828,-0.8712936333456033,-0.8584428204139103,-0.9438064336279918,1.5514569155010924,-0.2951837596435636,1.3023522499978069,0.7897871394398015,11.109644589436355,-1.11899155203283,0.1949276850279396,-0.815273239292622
1.58,1.1686357249057633,0.0108007668077499,1.480381445514867,-0.080815400317433,0.0800295782785479,0.0040334841996233,-0.626302694212474,-0.631710210622052,-0.8674011868386625,1.1620275883686568,0.006336653420555,1.488337512450089,-0.9112936339416496,-0.8620850482871164,-0.9313212118546056,1.4948588967202714,-0.2831164349014647,1.246524111689351,0.7750005447543284,11.144796336349827,-1.1190339124682795,0.1933154745960787,-0.8203295733481089
1.6,1.1560474882732668,-0.0015844224918332,1.4632126144185904,-0.0752138605128683,0.0800326205143946,0.0048388389579426,-0.6322356695780864,-0.6087128033652136,-0.8502317926942854,1.1373205901951395,-0.0207847437233526,1.437011386172934,-0.7263026957025901,-0.6084983961589134,-0.7827526372819303,1.4653233708902105,-0.2966487682806218,1.1498703628419205,0.8584697072188563,11.17956247584425,-1.1192447360777873,0.1901291587099983,-0.8256621027244723
1.62,1.1433422122084174,-0.013678708567693,1.4465282709337308,-0.0734299517805846,0.0801779457555976,0.0053741010042835,-0.6379308906247733,-0.6002418153362094,-0.818527940984502,1.1373205901951395,-0.0207847437233526,1.437011386172934,-0.7263026957025901,-0.6084983961589134,-0.7827526372819303,1.6653283416447449,-0.2847610523343424,0.4235494014502128,1.5851925854891702,11.221428452408873,-1.113304257093058,0.1891695048261556,-0.8291305971970203
1.64,1.1305322081730111,-0.0255236580132951,1.4304993942146764,-0.0769411471789045,0.0805752680274474,0.0055376607938049,-0.6427970819336118,-0.5838597193832542,-0.7860912228447319,1.1373205901951395,-0.0207847437233526,1.437011386172934,-0.7263026957025901,-0.6084983961589134,-0.7827526372819303,1.8331622741487843,-0.2433095654419292,0.8191047976477572,1.6218359069885058,12.203763916084426,-1.1147263289286302,0.192873608229517,-0.8344207857950183
1.66,1.1182792445064993,-0.0364083975439364,1.415860560446764,-0.0812591455150025,0.0807370905898323,0.005660199831178,-0.6468077540960794,-0.5627477083096679,-0.7564761309640345,1.1300575632381136,-0.0268697276849417,1.4291838598001143,-0.7463026960006133,-0.6038560332662857,-0.7658229273705839,1.8295191785467615,-0.2005336081233766,1.0556005536793145,1.4807545940348663,12.174977823219706,-1.116077367599312,0.19757915044971,-0.839756443076566
1.68,1.1053027969682745,-0.0474023457585094,1.4010526861092605,-0.0850454140440756,0.0803404773549937,0.0059098951383874,-0.6507016811575741,-0.5379445157006035,-0.725881877275812,1.115531509324062,-0.03903969560812,1.413528807054476,-0.7863026965966597,-0.5945713074810303,-0.7319635075478911,1.9788692417021307,-0.1946963530747358,1.2401596304532192,1.5297126844111275,12.122223511888478,-1.1176723836960245,0.2017687207561547,-0.8445553263286184
1.7,1.0922494809984509,-0.0578820924244205,1.386851470759597,-0.0873819928324777,0.0791329765055809,0.0063516642893261,-0.6545597968499526,-0.5117518906528882,-0.6957442474535599,1.10100545541001,-0.0512096635312983,1.397873754308837,-0.8263026971927062,-0.5852865816957749,-0.6981040877251982,2.0057513522923784,-0.1929057846189241,1.3096312523857678,1.506881491112605,12.107484478156948,-1.1198073857362267,0.2047859350566794,-0.8485923803465696
1.72,1.0797762267142996,-0.0673421522998622,1.3739180163958349,-0.0879753762180741,0.077076972386846,0.0069815940836122,-0.6583307367989738,-0.4857004168223595,-0.6671590271537627,1.0844794014661558,-0.0629153951652138,1.3839116725543334,-0.8663026977887527,-0.5760018559105194,-0.6642446679025054,1.942944991777804,-0.1885469974510611,1.3025736915264343,1.4292610149898577,12.094350556101745,-1.1230380149778536,0.2067189746738635,-0.8520642451541638
1.74,1.0665667122113205,-0.0767569235520477,1.3609001482897105,-0.0863390406726141,0.0737346008427387,0.0079155405192579,-0.662538336380563,-0.457421364804477,-0.6360570003661721,1.0679533475223018,-0.0746211267991293,1.3699495907998294,-0.9063026983847992,-0.566717130125264,-0.6303852480798124,2.1123119724398536,-0.2103799790794613,1.413952600894122,1.5551013393795332,12.106710933073373,-1.1270307618580626,0.2068812148778003,-0.8547261096403088
1.76,1.0532600197511577,-0.085606784590903,1.348516648572003,-0.0819519397082866,0.0691758809577068,0.0091379077127161,-0.6680967572707068,-0.4300670807135348,-0.6037656903757346,1.0504272935635466,-0.0860947402884134,1.3568339945408927,-0.9463026989808456,-0.5574324043400085,-0.5965258282571195,2.1341752516010093,-0.27792104450719,1.367714204547113,1.614565499521875,12.261167465016117,-1.1317346514155913,0.204882948807623,-0.8565189876862048
1.78,1.039822400821972,-0.0939468612205303,1.336793757170458,-0.0759692427139173,0.0637929032561946,0.0105094722417203,-0.6755860319023185,-0.4059283471090781,-0.5700976963286438,1.03190123958989,-0.0973362356330661,1.3445648837775237,-0.986302699576892,-0.5481476785547531,-0.5626664084344267,2.1049355795900047,-0.3744637315805821,1.206936680222831,1.6833997023545375,12.261167465016117,-1.1370022941436662,0.2017727178908221,-0.8573806178312866
1.8,1.026895359654768,-0.1014479443021129,1.3262919388295633,-0.0696120713970258,0.0584509643834748,0.0118371186828248,-0.6849531329820713,-0.3852805571486756,-0.5370224237414308,1.006043099226856,-0.1142432785759842,1.3082888723540258,-0.7755860333924346,-0.3608935771865832,-0.4700976948385277,2.005023359967191,-0.4683550539876402,1.032389498020128,1.6537636293606497,12.341006470117463,-1.142684084799273,0.1978880161927858,-0.8580549840210012
1.82,1.0130273011048423,-0.1090595686096526,1.3158586710144369,-0.0661876990368794,0.0545672304411734,0.0128529823998642,-0.7017480302741468,-0.3756288050407449,-0.5085207046782831,1.006043099226856,-0.1142432785759842,1.3082888723540258,-0.7755860333924346,-0.3608935771865832,-0.4700976948385277,1.723058968345908,-0.8397448646037753,0.4825876053965339,1.4250859531573845,12.416860640498273,-1.1493241553343707,0.1964064685921838,-0.8575793866992553
1.84,0.9988102990862944,-0.1164220322939224,1.3059945736912215,-0.0667639505944176,0.0543675392135383,0.01334391229092,-0.718618359241861,-0.3608124801981335,-0.4791906674140717,1.006043099226856,-0.1142432785759842,1.3082888723540258,-0.7755860333924346,-0.3608935771865832,-0.4700976948385277,1.846877477826233,-0.8435164483857116,0.7408162421305708,1.466501863210573,11.97811811003703,-1.1462282654849614,0.197950491217185,-0.8647531817462849
1.86,0.9842827679760584,-0.1234583946216487,1.2967335294038207,-0.0690657388734119,0.0566607059178118,0.0135534017451881,-0.732989024449638,-0.3434456382429477,-0.4484109381330152,0.9982872388929316,-0.1178522143478501,1.3035878954056406,-0.7955860336904578,-0.3518866232020843,-0.4500976945405044,1.90756058398255,-0.7185332603888483,0.8683420977592893,1.5389864640528244,12.096015113264002,-1.141900813194516,0.2007119014564173,-0.8735969839742562
1.88,0.9702392678319828,-0.1297931746372558,1.288512328624155,-0.0717187234205692,0.0600683983961044,0.0136361135362898,-0.744368248033466,-0.324217840782212,-0.4185428613665211,0.9827755182250828,-0.1250700858915817,1.29418594150887,-0.8355860342865042,-0.3338727152330863,-0.410097693944458,1.8650046476423363,-0.5689611791914018,0.9613898730367832,1.4934038383247057,12.179614153722468,-1.1374020851120827,0.2042321600363626,-0.8849701242959758
1.9,0.9552470112131054,-0.13604661344799,1.2804772537307771,-0.0739902144970413,0.0640611509275894,0.0137293722245726,-0.7540917934898562,-0.3022655269505903,-0.3865192513816144,0.967263797557234,-0.1322879574353134,1.2847839876120994,-0.8755860348825507,-0.3158588072640884,-0.3700976933484116,2.0012265084629397,-0.4861772728195102,1.0976156915810855,1.6011804992453305,12.23153091045151,-1.1322004339955398,0.2075470425379525,-0.8986461367876112
1.92,0.9400814050240884,-0.1418458148577271,1.2730857648400045,-0.0752080340815037,0.06778358852106,0.0139167276380826,-0.7619287743214109,-0.2790073505457247,-0.3542509728663048,0.9497520768595832,-0.1386051335805952,1.2773820337451312,-0.9155860354785972,-0.2978448992950904,-0.3300976927523651,2.027068595642238,-0.3918490415777353,1.1629088202432802,1.6134139257654834,12.28904476218122,-1.128205639392022,0.2099921689481854,-0.9114246746974142
1.94,0.9255428377077174,-0.1469144040430547,1.2666609781422842,-0.0749597030682088,0.0706719571026085,0.0142449117786516,-0.7680674337225545,-0.2559494145497364,-0.3236661691670655,0.932240356161932,-0.1449223097258769,1.269980079878163,-0.9555860360746437,-0.2798309913260924,-0.2900976921563186,1.939575835691494,-0.3069329700571777,1.1528967997994133,1.5292401849619663,12.321374465976078,-1.1251828561104495,0.211452332402882,-0.92468988174304
1.96,0.9101181787582512,-0.1517706392068319,1.2605279091594397,-0.0727188813155799,0.0729344585190404,0.0147922732742628,-0.7740683983898434,-0.2311342798423463,-0.2912347685269121,0.91372863544938,-0.1507891381719338,1.263578126026096,-0.99558603667069,-0.2618170833570945,-0.2500976915602722,2.0637334099673037,-0.3000482333644472,1.2407567353695068,1.6215700320076687,12.33752295019076,-1.1232602211613738,0.2111906119979113,-0.9372117997542488
1.98,0.8945766764617878,-0.1561459212114666,1.2550472461737274,-0.0684638389166937,0.0745298499029202,0.0155333993755321,-0.7797737144501876,-0.2082997151870535,-0.2584133682641006,0.8942169147219265,-0.1562056189187656,1.25817617218893,-1.0355860372667365,-0.2438031753880965,-0.2100976909642258,2.0194134603622214,-0.2852658030172095,1.141728232764641,1.641070013140572,12.37786646351742,-1.1210557747669307,0.2090911668181668,-0.9495062796413688
2.0,0.878923079416952,-0.1600952956887482,1.2502275901619329,-0.0633247993605811,0.0755964745764348,0.0163737701126618,-0.7853049776642194,-0.1881033016833312,-0.2251850937076502,0.8555879907392785,-0.1665609069708193,1.2421265777605224,-0.8797737159403037,-0.1515514069456861,-0.1584133667739845,1.9638025748246,-0.2765631607015872,1.0098206751861154,1.6614137278225236,12.44043365500329,-1.1194592368481917,0.2064717034275254,-0.9628483791813088
2.02,0.8639281608153928,-0.1635491823537829,1.2461247420415578,-0.0597082726232969,0.0766051088953605,0.0170837842463688,-0.7927502646483131,-0.1756089737829709,-0.2084316314266285,0.8555879907392785,-0.1665609069708193,1.2421265777605224,-0.8797737159403037,-0.1515514069456861,-0.1584133667739845,1.109300484944059,-0.3722643492046873,0.6247163950180115,0.8376731140510809,11.362335670569337,-1.1223976384421832,0.2044498532696591,-0.9700099613361336
2.04,0.8480049460282946,-0.1669058998575198,1.2421597683216563,-0.057497574278072,0.0777335831869381,0.0177156385087936,-0.7991319775681188,-0.1605555656995865,-0.1887767377149531,0.8555879907392785,-0.1665609069708193,1.2421265777605224,-0.8797737159403037,-0.1515514069456861,-0.1584133667739845,1.2783252730946209,-0.3190856459902857,0.75267040416922,0.9827446855837696,11.362335670569337,-1.1194695267821186,0.2037579527531995,-0.9804959357962076
2.06,0.831965291969635,-0.1699531290643111,1.2386212527996698,-0.0560012580799535,0.0784265918539368,0.0183222303752421,-0.8045779074288669,-0.1448900951805376,-0.1661015376962254,0.8467902535798755,-0.1680764210402762,1.2405424440927826,-0.8997737162383269,-0.1402017452974127,-0.1384133664759613,1.404661715966417,-0.272296493037405,0.783273525952445,1.133760000936386,11.579665749374726,-1.1175684950106013,0.2037299574537465,-0.9902148632886116
2.08,0.815822539507771,-0.1726854384272215,1.2355609423919516,-0.0549365573706033,0.0785018053280946,0.0189320093068203,-0.8095197977085274,-0.1291335222254543,-0.141094405003052,0.8291947792610693,-0.1711074491791899,1.2373741767573028,-0.9397737168343734,-0.1175024220008657,-0.0984133658799148,1.4983729144967988,-0.247094513983026,0.7878286477541685,1.2503566346586723,11.934067982893794,-1.1165041002586902,0.2041213297352242,-1.0001157025598442
2.1,0.8003971159417351,-0.1749888086421631,1.2331353730635866,-0.0542431014844146,0.0779343571212676,0.01952250850017,-0.8140681388595007,-0.1141334594442105,-0.1155015549328383,0.8115993049422633,-0.1741384773181036,1.2342059094218232,-0.97977371743042,-0.0948030987043188,-0.0584133652838684,1.5005692797929444,-0.2274170575486622,0.7500031390621852,1.2796425035106849,11.934067982893794,-1.1165080989659626,0.2047735189137341,-1.0083592462697768
2.12,0.7840659111463251,-0.1771056599754603,1.2311253773309416,-0.0538180546567582,0.0766490436745134,0.0201581811332391,-0.8188888687057494,-0.0983470350243806,-0.0867781481872604,0.7920038305936549,-0.17603453929219,1.2330376421161455,-1.0197737180264663,-0.0721037754077719,-0.0184133646878219,1.656415351961444,-0.2410364923124353,0.7893212209914964,1.4361703372788914,12.071502107292872,-1.1172104243403238,0.2057523886952077,-1.016339697670254
2.14,0.7676353415914465,-0.1789041909373033,1.2297000895173902,-0.0536179795806609,0.0746221524517674,0.0208162326534767,-0.8240431537284575,-0.0823318265726516,-0.0572130305608318,0.7724083562450464,-0.1779306012662764,1.2318693748104683,-1.059773718622513,-0.0494044521112249,0.0215866359082245,1.7008451841012786,-0.2577142511354047,0.8007604225864509,1.4782558813214302,12.262687222048044,-1.1189104675248949,0.2069101092834661,-1.023264194655293
2.16,0.7519188426346282,-0.1803086849347696,1.2288985365896052,-0.0533353427782739,0.0722270210797029,0.0214710828879679,-0.8301623903839281,-0.0664257758697905,-0.0286522856834761,0.7518128818815368,-0.1792591801579491,1.2317011075196922,-1.099773719218559,-0.026705128814678,0.0615866365042709,1.6629519341798855,-0.3059618327735325,0.7953025351430575,1.4280372438677884,12.262687222048044,-1.121965442999738,0.2081207221163382,-1.0302450104646468
2.18,0.7352353131099002,-0.1814569671332935,1.2286488598301826,-0.0525950282344384,0.0696956970664165,0.0221880326700133,-0.8379882124028041,-0.0493350822737846,0.0022130239118835,0.7302174075031261,-0.1800202759672081,1.2325328402438172,-1.1397737198146054,-0.0040058055181311,0.1015866371003173,1.8069329223030688,-0.3912911009437969,0.854534679800294,1.5432654797679848,12.312904698870623,-1.1252683648632624,0.2088382655397361,-1.036421226893395
2.2,0.718378607533495,-0.1822606644504973,1.2290229679505518,-0.0511116259450158,0.0677224257582589,0.0229207653235032,-0.8473456094164705,-0.0320230037569457,0.0336756733599688,0.69333590248976,-0.1839237212469827,1.2287595110257767,-0.9379882138929202,0.0275774400421943,0.1022130254019997,1.85551020728644,-0.4678698506833223,0.8656039258419411,1.5731324724042637,12.389538042174536,-1.1289453342751548,0.2087317618640382,-1.0412700286985872
2.22,0.7021440561897052,-0.1827662751416602,1.2297891753896482,-0.0504608717165593,0.0676283897749392,0.0234666620166362,-0.8607155261684961,-0.0215334090861295,0.0453760764030706,0.69333590248976,-0.1839237212469827,1.2287595110257767,-0.9379882138929202,0.0275774400421943,0.1022130254019997,1.031607606705595,-0.6684958376012795,0.5244797335408138,0.5850201521550913,12.443943137694989,-1.135333592935838,0.209430970822752,-1.0441810646460756
2.24,0.6848055361527146,-0.1830731999788054,1.2308503851318242,-0.0516546149350926,0.0695461338963317,0.0238052614004771,-0.8721851689045146,-0.0095216959440289,0.0603565923713779,0.69333590248976,-0.1839237212469827,1.2287595110257767,-0.9379882138929202,0.0275774400421943,0.1022130254019997,1.1183132564008205,-0.5734821368009235,0.6005856571050295,0.7490257984153644,11.148596394620654,-1.1320173191958238,0.2114618255750368,-1.050659670402454
2.26,0.6672617388584248,-0.1831257772934722,1.2322474219867017,-0.0543778348946096,0.072357445415945,0.0239863936795618,-0.8814723961826713,0.0039926735999781,0.0787003745970478,0.6839560203508308,-0.1836479468465608,1.2297816412797968,-0.9579882141909434,0.0429599445053901,0.1222130257000229,1.230228760262626,-0.4643613639078336,0.675718477200356,0.9171891112834945,11.394804369863778,-1.1297638511931398,0.2151869267333035,-1.058274228329471
2.28,0.6495528191462586,-0.1828760818231962,1.2340403959383943,-0.0576500826985968,0.0752952323062643,0.0241155057613173,-0.8889041168544819,0.0203993072934695,0.0996358840144948,0.6651962560729724,-0.1830963980457169,1.2318259017878368,-0.9979882147869898,0.0737249534317817,0.1622130262960693,1.3808544961945084,-0.3715860335905319,0.8203316846745696,1.0467754708723491,11.602060992549012,-1.1283722538238463,0.219405724079391,-1.066250270601515
2.3000000000000003,0.6326061698839438,-0.1823150549748414,1.236150054450456,-0.0604248170712807,0.0777008439333603,0.0242779146981152,-0.8945945745552437,0.0377341263046716,0.1213652142481295,0.646436491795114,-0.182544849244873,1.2338701622958768,-1.0379882153830362,0.1044899623581734,0.2022130268921158,1.4186622672412583,-0.284522885038091,0.8667409505601048,1.0864665116817336,11.767034436417816,-1.127920293844086,0.2236573656050848,-1.07475387719725
2.32,0.6146616740541759,-0.1813590219543982,1.238834780947552,-0.0627393102821785,0.0794841609820522,0.024532985866402,-0.8995725031628082,0.0568812761971994,0.1460351105113576,0.6256767274874533,-0.1804550499977096,1.237914422833719,-1.0779882159790826,0.1352549712845649,0.2422130274881622,1.5811363823745357,-0.2488964303782259,0.9573574946263878,1.233494813161408,11.905586368226068,-1.1287412189479256,0.2274370028559019,-1.0831834477703723
2.34,0.5966232917912416,-0.1800102685021665,1.2420225578868451,-0.0642931528778956,0.0803126800795548,0.0248999124138712,-0.9041288364729412,0.0768633676039076,0.1714863018612007,0.6049169631797925,-0.1783652507505461,1.2419586833715617,-1.1179882165751291,0.1660199802109566,0.2822130280842088,1.6338660374594636,-0.2278166655066527,0.9991045703354098,1.2725595674921528,12.042905844647976,-1.131275734947508,0.2304799858508179,-1.0909512419955212
2.36,0.5793966903069417,-0.1783455455774356,1.2455268775675008,-0.0646936471284995,0.0803967611996978,0.0253683591932371,-0.9090290769676818,0.097142656324871,0.1961114512777047,0.5831571988572306,-0.1755063262802228,1.2470029439243049,-1.1579882171711755,0.1967849891373482,0.3222130286802552,1.61373781305982,-0.2450120247370235,1.013964436048171,1.2312574708252004,12.09865543615615,-1.135426888315008,0.2326682701485992,-1.0987736304631657
2.38,0.561156824605948,-0.1761713004770362,1.2497295416347478,-0.0634971127829117,0.0800936905856202,0.0259971820082487,-0.9147454003470225,0.1190343063150734,0.2229038187459675,0.5603974345197676,-0.1718782765867398,1.2530472044919496,-1.197988217767222,0.2275499980637398,0.3622130292763016,1.7533907485392082,-0.2858161689670346,1.0945824995101197,1.3396183734131415,12.150271039936342,-1.140054754318191,0.2331356708979879,-1.1060465324405602
2.4,0.5427961859637868,-0.1735604698285319,1.254476168249285,-0.0603735529647703,0.0796824215625081,0.0267602460289236,-0.9210442575729796,0.1404613481494834,0.2504689000395565,0.5154195545885968,-0.1702195851612825,1.2608747325720462,-1.014745401837139,0.1822928424750656,0.3229038202360836,1.77385697763991,-0.3149428612978622,1.071352091720501,1.3782540646794474,12.229176055268,-1.1444966382647928,0.2315562320757566,-1.1133665527613237
2.42,0.5242653380387029,-0.1705041139619512,1.2595504285711778,-0.0541148782437974,0.0799918913163173,0.0276876233221966,-0.9314476787867066,0.1623672844565774,0.2556838227438301,0.5154195545885968,-0.1702195851612825,1.2608747325720462,-1.014745401837139,0.1822928424750656,0.3229038202360836,1.2402586799255133,-0.5201710606863474,1.0952968153546987,0.2607461352136825,12.2863832752937,-1.154118398339096,0.2273173966465304,-1.119566836699473
2.44,0.506487034242846,-0.1672754478308027,1.2644940740390804,-0.0468927285611148,0.0810578016165017,0.0286043685302802,-0.9393656783656452,0.1763286834086282,0.2644872167734252,0.5154195545885968,-0.1702195851612825,1.2608747325720462,-1.014745401837139,0.1822928424750656,0.3229038202360836,0.9153074954225824,-0.3958999789469231,0.6980699476025406,0.4401697014797506,10.821185784058798,-1.150837837581658,0.2202015393991008,-1.126418661991107
2.46,0.4876259966169612,-0.1636278401447296,1.2699201108514286,-0.0400600883231475,0.0823303421376111,0.0294992355949332,-0.9462699313360206,0.1877998391347396,0.2778037100876034,0.5052721005702254,-0.1683966567365319,1.264103770774407,-1.034745402135162,0.1949445497070641,0.3429038205341069,0.944173073326854,-0.3452126485187723,0.5735577863055688,0.665824665708914,11.119768945953185,-1.1491375181173031,0.2139278192983075,-1.1332170605281833
2.48,0.4686393474111586,-0.159771712762963,1.2756501849965312,-0.0346663183896022,0.0833819355423977,0.0302923954471961,-0.952090621775136,0.1975619632057426,0.294487220042353,0.4849771925334826,-0.1647507998870305,1.270561847179129,-1.0747454027312084,0.220247964171061,0.3829038211301533,1.0093550019392252,-0.2910345219557686,0.4881062035501524,0.8341754977374771,11.37149994099218,-1.1488665767595765,0.2091869886682197,-1.1395931800337051
2.5,0.450501230940654,-0.1559355410949332,1.281426763325889,-0.0308723127452847,0.0839689078041886,0.0309563912514126,-0.95696158666966,0.2060514725321741,0.3127081756993928,0.4646822844967399,-0.1611049430375292,1.2770199235838504,-1.1147454033272548,0.2455513786350578,0.4229038217261998,1.034167893360484,-0.2435482447262049,0.4244754663215708,0.9110477828519924,11.568580318519707,-1.149686484922843,0.2060875308778236,-1.1450771302334937
2.52,0.4313126809794039,-0.1517256528688075,1.2879034055876768,-0.0280911477641767,0.0840252906472677,0.0315751132565429,-0.9616975124372436,0.2146866555118988,0.3340790775331215,0.4423873764301947,-0.1561939154648281,1.2854780000183743,-1.1547454039233012,0.2708547930990547,0.4629038223222462,1.1765530408318388,-0.2367962883791818,0.4317591489862354,1.0685450916864347,11.73102080433273,-1.1515213855421391,0.2041040172228738,-1.1501875705117457
2.54,0.4120288770734636,-0.1473445849396625,1.2948192303687125,-0.0263448137070638,0.0834834467219341,0.0321248843641034,-0.9665305071400342,0.223111708063663,0.3564511825991266,0.4200924683636496,-0.1512828878921269,1.2939360764528984,-1.1947454045193475,0.2961582075630516,0.5029038229182927,1.2194777912917891,-0.2416497351395263,0.4212526275882131,1.1186052533002533,11.8851527621282,-1.1546105573732863,0.2032402729103309,-1.154481918799002
2.56,0.3926393770066051,-0.1427923899274503,1.302190862285521,-0.0253824204878759,0.0826016537003563,0.0326161928332875,-0.9722287892306348,0.2317315415212935,0.3795695562651973,0.3967975602822033,-0.1457392749578258,1.3033941529023236,-1.234745405115394,0.3214616220270485,0.5429038235143391,1.2661271150494895,-0.2849141045300318,0.4309916728815213,1.1559186833035362,11.947773139966555,-1.1581861274521812,0.2033188598744408,-1.1602024816378955
2.58,0.3741061772695948,-0.1383066509091781,1.30962959491018,-0.0249801161368347,0.0818108911239005,0.0330354349429972,-0.9783519911861088,0.2400265862046335,0.402280130903993,0.372502652185856,-0.1395630766619248,1.31385222936665,-1.2747454057114405,0.3467650364910454,0.5829038241103855,1.2470681305670916,-0.3061600977737055,0.4147522341669998,1.135528731939786,12.003526523126313,-1.1624253928340211,0.2040622950136177,-1.1671722538461813
2.6,0.3544671722562368,-0.1334129384655417,1.3179352869418408,-0.0249753817734485,0.0812632848759002,0.0334305355050943,-0.9852217756825205,0.2489125478498528,0.4271242971274569,0.3251885777102893,-0.1263053215989464,1.3297436014553796,-1.064357328722444,0.29570009231554,0.5022801323941092,1.363256073456623,-0.3434892248205756,0.4442980822609674,1.242208311173193,12.068115106269945,-1.1667672938566576,0.2053036024553128,-1.1745317973803306
2.62,0.3346227906449859,-0.1283037594307556,1.32651380795958,-0.0239165731699473,0.082501542149997,0.0338450559606205,-0.9987056352366266,0.2611827692889967,0.4283266897186169,0.3251885777102893,-0.1263053215989464,1.3297436014553796,-1.064357328722444,0.29570009231554,0.5022801323941092,0.9135350986466824,-0.6741929777053068,0.6135110719571929,0.0601196295580003,12.146554342717536,-1.1759203912927263,0.2062668304650919,-1.1877154062953617
2.64,0.3155454278599333,-0.1232443061587093,1.3346868327724135,-0.0213914896135921,0.0859432608870711,0.0342835235040121,-1.0084597048277508,0.2705003514108449,0.4320635864657904,0.3251885777102893,-0.1263053215989464,1.3297436014553796,-1.064357328722444,0.29570009231554,0.5022801323941092,0.699863571499683,-0.4877034795562118,0.4658791060924122,0.1868448373586767,10.877038396425633,-1.1675749703599367,0.2034071110788694,-1.191369872826738
