t,x,y,z,roll,pitch,yaw,v_x,v_y,v_z,ref_x,ref_y,ref_z,ref_v_x,ref_v_y,ref_v_z,a_com,a_x,a_y,a_z,thrust,wind_x,wind_y,wind_z
0.0,-2.4479571807467466,2.4418634960766608,3.0295078987649773,0.0220854464357454,0.1500090225249109,0.0287848945327741,0.0012802785326537,0.0057147595467447,-0.0033605873927081,-2.447918533010321,2.4420899011462267,3.0294061597940694,0.0015717920845477,-0.0930933720207314,-0.1033012878999906,0.3376060478661251,0.0640139266326878,0.2857379773372391,-0.1680293696354082,10.658551702984369,-1.4131929935268737,0.1692979310559935,-1.2809295657212734
0.02,-2.448000998734566,2.442185477723845,3.029228739953437,0.0307988863038399,0.1510399038623642,0.0294100878064055,-0.0055727174439702,0.0227612046633295,-0.0257591253771763,-2.447918533010321,2.4420899011462267,3.0294061597940694,0.0015717920845477,-0.0930933720207314,-0.1033012878999906,1.4484814020294043,-0.3426497988311985,0.852322255829239,-1.1199268992234117,9.250644583377834,-1.4076409154746694,0.1587206973989804,-1.278398056227238
0.04,-2.4481829925062133,2.442650461634441,3.0284184263417435,0.0454263521114539,0.1539207765553304,0.0305092431345346,-0.0120079022447931,0.0221972342600894,-0.0542201675713465,-2.447918533010321,2.4420899011462267,3.0294061597940694,0.0015717920845477,-0.0930933720207314,-0.1033012878999906,1.4592468852243647,-0.3217592400411456,-0.0281985201620064,-1.4230521097085052,9.250644583377834,-1.4011446918208803,0.1413978738629343,-1.279503865528552
0.06,-2.4484735715910477,2.4430312517161883,3.027033260656623,0.0603959187072882,0.1581088037881831,0.0317181928874387,-0.0164823790636348,0.0155701086594751,-0.0828646771092393,-2.4479028150894755,2.4411589674260195,3.0283731469150696,0.0016352196978974,-0.1130933723187546,-0.1233012881980138,1.486983240654637,-0.2237238409420872,-0.3313562800307143,-1.4322254768946447,9.076805286978924,-1.394094773596279,0.1246414889403004,-1.2813399690522298
0.08,-2.448812389134105,2.443237601831965,3.0251934332604478,0.0740974584737298,0.162720046611518,0.0329050806248228,-0.0187841104020792,0.0062163931479424,-0.1094005245147034,-2.4478713792477844,2.4392970999856045,3.02630712115707,0.0017620749245966,-0.1530933729148011,-0.1633012887940602,1.411507313611178,-0.1150865669222213,-0.4676857755766351,-1.3267923702732023,9.076805286978924,-1.3859451754037595,0.1077177012271679,-1.2827306862131918
0.1,-2.449196457130169,2.443235065403642,3.0227156791897816,0.0878502280094162,0.1677380950408542,0.0341603282404231,-0.0193356785226729,-0.0062737517719816,-0.1369838524219945,-2.4478399434060933,2.43743523254519,3.02424109539907,0.0018889301512959,-0.1930933735108476,-0.2033012893901067,1.5142225116817427,-0.0275784060296819,-0.624507245996205,-1.379166395364556,9.126866649180556,-1.3778426811681015,0.0917165607555948,-1.2830546979362367
0.12,-2.449572594928239,2.4429558825136435,3.019691653808553,0.1009176944355087,0.1725316634356488,0.0353838176251467,-0.0181290767966575,-0.0212994951173387,-0.1640357160485861,-2.4478021648030674,2.433573365074973,3.020175069611268,0.0020157853779952,-0.233093374106894,-0.2433012899861531,1.5484122323185407,0.060330086300769,-0.7512871672678556,-1.3525931813295782,9.203677581421289,-1.3710174466539973,0.0766841018675133,-1.2825002183203664
0.14,-2.449910224017905,2.44235141787188,3.016124099704121,0.1133218465740964,0.1768246397235935,0.0365358132439448,-0.0156192567214767,-0.0386568646055864,-0.1914077805622107,-2.4477643862000416,2.429711497604756,3.016109043823465,0.0021426406046944,-0.2730933747029405,-0.2833012905821996,1.625428703526674,0.1254910037590427,-0.867868474412386,-1.3686032256812308,9.19836492198101,-1.365430213570691,0.0630881965945281,-1.282717627517857
0.16,-2.4501731756416114,2.441434542661706,3.0122256710041078,0.1245133523881865,0.1802645943127465,0.0375281070897937,-0.0121744196028308,-0.0572063029083196,-0.2176058556328216,-2.447723436216348,2.424849630119638,3.011043018020762,0.0022694958313937,-0.3130933752989869,-0.3233012911782461,1.614224040774907,0.1722418559322918,-0.9274719151366596,-1.3099037535305431,9.19836492198101,-1.3594300282799732,0.0494892860482082,-1.2812357151658715
0.18,-2.450371394101738,2.4400672629665325,3.007581456297691,0.1356943183183939,0.1831424059327741,0.0384370149969998,-0.0078063781321337,-0.0787854478439009,-0.2454624005261865,-2.447679314851987,2.4189877626196186,3.004976992203158,0.002396351058093,-0.3530933758950333,-0.3633012917742925,1.7753354442446996,0.218402073534857,-1.0789572467790636,-1.3928272446682477,9.2044039506618,-1.3535927671409704,0.0366109913269392,-1.2780533150067963
0.2,-2.4504750612559234,2.438228579281875,3.002378328631836,0.1456938568563145,0.185261514031479,0.0391460916770008,-0.0027802862612673,-0.1039151587094869,-0.2734198875514093,-2.4507617130083448,2.4361279905743376,2.995308336271381,-0.023346108099847,-0.178785449334017,-0.3454624020163027,1.896302354878988,0.2513045935433185,-1.256485543279298,-1.3978743512611385,9.203174745931392,-1.3491877319427348,0.0257111451873664,-1.273807175730847
0.22,-2.4504073628920087,2.435701873680985,2.99676628052313,0.1494584096890236,0.1857408836782752,0.0391465856020077,0.009057787618391,-0.1445279012887435,-0.2859270855407115,-2.4507617130083448,2.4361279905743376,2.995308336271381,-0.023346108099847,-0.178785449334017,-0.3454624020163027,2.2056545822798403,0.5919036939829216,-2.0306371289628324,-0.6253598994651111,9.225379229918872,-1.3448899302530746,0.0210972609650896,-1.2645780123786632
0.24,-2.450123946232294,2.432628853380819,2.9912098587076983,0.1472540571057465,0.1838286399177432,0.0383589902742846,0.0200142263876323,-0.1763064143977295,-0.2982408492399485,-2.4507617130083448,2.4361279905743376,2.995308336271381,-0.023346108099847,-0.178785449334017,-0.3454624020163027,1.7899345116251946,0.5478219384620637,-1.588925655449297,-0.6156881849618462,10.257116022147784,-1.347326764350704,0.0237108906331552,-1.2551767386590291
0.26,-2.4496154895605624,2.4288023705942785,2.9850903251056358,0.1421279846159423,0.179310189009146,0.0369587991633774,0.0298613272771401,-0.204084638811266,-0.3130429563361172,-2.450995174089343,2.4343401360809973,2.9918537122512183,-0.0264540540933897,-0.1987854496320402,-0.3654624023143259,1.6490129790145598,0.4923550444753882,-1.388911220676825,-0.7401053548084374,10.096595206807253,-1.3539479119545672,0.0296660343243685,-1.241567993634228
0.28,-2.4489460471615,2.4244638795908435,2.978653068808361,0.1363673795024662,0.1729291194460779,0.0352701659535638,0.0362372912611851,-0.2282105415203806,-0.3298341699698077,-2.4514620962513405,2.430764427094317,2.9849444642108924,-0.032669946080475,-0.2387854502280867,-0.4054624029103723,1.5038757873805055,0.3187981992022531,-1.2062951354557288,-0.839560681684523,9.91497990046446,-1.362243904457322,0.0358489402438108,-1.2260825320338382
0.3,-2.4482256077830145,2.419918475316785,2.9722096028235616,0.1311547763107308,0.1661210141856588,0.0336147193276983,0.0390756260619509,-0.2490489979678977,-0.3475326356120068,-2.4519290184133373,2.4271887181076366,2.9780352161705665,-0.0388858380675604,-0.2787854508241332,-0.4454624035064188,1.3743481160575823,0.1419167400382878,-1.0419228223758557,-0.884923282109959,9.757287660294423,-1.3706144673861118,0.0418408461714613,-1.2084080870212128
0.32,-2.4474401037932703,2.4147232764325004,2.965046034803056,0.1263107205895917,0.1589752287506421,0.031955342009871,0.0391264851125823,-0.2694019990383451,-0.3679630395252449,-2.4527067351746883,2.421613009091154,2.969125968100438,-0.0451017300546457,-0.3187854514201796,-0.4854624041024652,1.441915950458554,0.0025429525315714,-1.0176500535223705,-1.021520195661904,9.614977547505076,-1.377524078275774,0.0468613013572938,-1.1910487163795964
0.34,-2.4466796037593967,2.409131198218076,2.957462708541929,0.1222228901894867,0.1524495985712747,0.030457643709496,0.0368082845641479,-0.2888357528514916,-0.3893694016629569,-2.45348445193604,2.416037300074671,2.9602167200303096,-0.0513176220417311,-0.3587854520162261,-0.5254624046985117,1.4502389294730178,-0.1159100274217214,-0.9716876906573274,-1.0703181068855985,9.478937341037636,-1.382693461904705,0.0509421205991632,-1.174262127781886
0.36,-2.4459865730252908,2.4031492384430524,2.9494431495274327,0.1185691299137238,0.1469915617328695,0.0291435284953907,0.0324935589030424,-0.3082956156993534,-0.4115138661399748,-2.454417565997068,2.4094615910432875,2.95030747194528,-0.0575335140288164,-0.3987854526122725,-0.565462405294558,1.489698313889511,-0.215736283055274,-0.9729931423930888,-1.107223223850895,9.407884089959223,-1.38632585871457,0.054303908188811,-1.1600401375704372
0.38,-2.445427647394379,2.3971096207071243,2.941407110116314,0.1152000617325195,0.1432904396623383,0.0280942774669762,0.0265215429078604,-0.32635339046569,-0.4332371170869483,-2.4555060773577733,2.4018858819970026,2.939398223845349,-0.0637494060159018,-0.4387854532083189,-0.6054624058906045,1.4436480148080038,-0.2986007997591022,-0.9028887383168288,-1.0861625473486736,9.355228574562716,-1.3881539150440845,0.0576892472441498,-1.1471506254266566
0.4,-2.4449781481197665,2.3903896759848378,2.9324941124214674,0.1117253297793701,0.1415158055295582,0.0272498779511101,0.0187139161700679,-0.3445766575902965,-0.4569399477231199,-2.444101570248986,2.38079195118384,2.919745254261967,0.022769415152427,-0.4263533919558061,-0.5332371185770644,1.5450490931832015,-0.3903813368896245,-0.9111633562303268,-1.1851415318085812,9.30479915370961,-1.3870133386723416,0.0609195909151521,-1.1376462338800468
0.42,-2.4446915049153475,2.383299926563677,2.923331507346426,0.1087429625508903,0.1433532995585463,0.0268449670864805,0.0109888325998407,-0.3636985263811081,-0.4570010291354051,-2.444101570248986,2.38079195118384,2.919745254261967,0.022769415152427,-0.4263533919558061,-0.5332371185770644,1.0311722857492538,-0.3862541785113589,-0.9560934395405812,-0.0030540706142612,9.2420668106447,-1.3817914721508426,0.0641102253617367,-1.1253778651953696
0.44,-2.444521750533887,2.3758402269455323,2.914161344828046,0.106679291006218,0.1487348268608207,0.0268820417386056,0.0068358146622014,-0.3815493256693405,-0.4601995525912601,-2.444101570248986,2.38079195118384,2.919745254261967,0.022769415152427,-0.4263533919558061,-0.5332371185770644,0.930227318343164,-0.2076508968819671,-0.8925399644116178,-0.1599261727927514,10.694316168591286,-1.3734606203427395,0.0654950202290187,-1.133189829639302
0.46,-2.444410086399319,2.368423613070036,2.9053391225601057,0.1053137265691611,0.1554811461735618,0.0271220605548463,0.0054325810487124,-0.3982725212231424,-0.468307057674,-2.4438738760974617,2.3765284172642818,2.914412883076196,0.0220189896013404,-0.4463533922538293,-0.5532371188750875,0.9318878322676188,-0.0701616806744483,-0.8361597776900931,-0.4053752541369942,10.328885629536671,-1.3634040113765828,0.0663884619942763,-1.141990114503039
0.48,-2.4442983251691315,2.360281139327322,2.895845128909044,0.1043487413932751,0.1633250653951369,0.0274745988060023,0.0060815598658435,-0.4150811159997241,-0.4808592608282473,-2.443418487794413,2.3680013494251657,2.903748140704655,0.0205181384991671,-0.4863533928498758,-0.593237119471134,1.049413926787129,0.0324489408565533,-0.8404297388290877,-0.6276101577123661,10.037243837816275,-1.3523888954078105,0.0668954584371489,-1.150481469424809
0.5,-2.444154449371559,2.3518090849023183,2.8860618719891424,0.1039235053218237,0.1713723886249925,0.0278770656905414,0.0085247767993637,-0.4313099886560907,-0.4968489498785797,-2.4429630994913647,2.3594742815860497,2.893083398333113,0.0190172873969937,-0.5263533934459222,-0.6332371200671805,1.1456611329349573,0.1221608466760139,-0.8114436328183317,-0.7994844525166189,9.652598498407317,-1.3410497251171902,0.0669082404781148,-1.1582835967994924
0.52,-2.4439430674014315,2.343017215419477,2.8759318180855606,0.1040765416801218,0.179265604142945,0.0282983763352941,0.0126965172904636,-0.4471072255158421,-0.5153789092844339,-2.442582753743425,2.3489472137171314,2.88041865593177,0.0175164362948204,-0.5663533940419687,-0.6732371206632269,1.2352282245710415,0.2085870245549937,-0.7898618429875687,-0.9264979702927056,9.652598498407317,-1.3302508642177129,0.0663747720400309,-1.165008181059497
0.54,-2.443642078285028,2.33437410932309,2.865953692703357,0.1048071140985943,0.1862015868421698,0.028678878288367,0.0188630246153178,-0.4619599049810559,-0.5340384049699395,-2.442202407995485,2.338420145848213,2.8677539135304264,0.0160155851926471,-0.6063533946380152,-0.7132371212592734,1.2316702877812578,0.3083253662427079,-0.7426339732606896,-0.9329747842752812,9.528643030274909,-1.319145632310952,0.0651524486784758,-1.170788220267442
0.56,-2.443179678443946,2.3249617151975324,2.8550573527299847,0.1059233115940472,0.1924711710158964,0.0289949592660888,0.0271267134213355,-0.4784841934448556,-0.554654299418496,-2.4418595835251,2.3268930779643933,2.8540891711141816,0.0145147340904737,-0.6463533952340615,-0.7532371218553198,1.3841565715550292,0.4131844403008852,-0.826214423189986,-1.0307947224278249,9.48699753465371,-1.3098206911271253,0.0635387356783542,-1.1754561792496427
0.58,-2.4425365425739827,2.315208313810444,2.8437406092382336,0.1068563893083532,0.1974238378295362,0.0291561956412991,0.036787738276091,-0.4959726412552255,-0.5760017752413142,-2.4415542803322685,2.3143660100656724,2.8394244286830355,0.0130138829883004,-0.686353395830108,-0.7932371224513662,1.46193017280755,0.4830512427377788,-0.8744223905184922,-1.0673737911409131,9.429959668398624,-1.3021964314212389,0.0621220960336616,-1.177973080677832
0.6,-2.441689479740961,2.305095468641978,2.8319894363951854,0.1070664433666509,0.2009185662410933,0.0291047305281345,0.0473475643150587,-0.5142717245298376,-0.5980145081323488,-2.440697155660178,2.2904096817476822,2.814940520476168,0.045514092964497,-0.5959726427453416,-0.6760017767314304,1.5255546401198503,0.5279913019483828,-0.9149541637306052,-1.100636644551728,9.429959668398624,-1.2966475943700797,0.0614833489247836,-1.1781883261386572
0.62,-2.4406529435384736,2.295096038608748,2.82066558902391,0.105529846158364,0.2035770210913755,0.0288552282344258,0.0613416683056214,-0.5368991494805664,-0.592827654758286,-2.440697155660178,2.2904096817476822,2.814940520476168,0.045514092964497,-0.5959726427453416,-0.6760017767314304,1.3553032449636258,0.6997051995281365,-1.131371247536439,0.2593426687031386,9.40658967680156,-1.2925065569693186,0.0632837018355326,-1.1694008337652275
0.64,-2.439268744493728,2.2841383063901466,2.8088320807136413,0.1021053431972563,0.2061625855545894,0.0284337730467856,0.076323418051637,-0.5571886660542902,-0.591103809084109,-2.440697155660178,2.2904096817476822,2.814940520476168,0.045514092964497,-0.5959726427453416,-0.6760017767314304,1.2640104352378074,0.7490874873007775,-1.01447582868619,0.0861922837088524,11.071307083692773,-1.2891836016929423,0.066349993929748,-1.1714263309623705
0.66,-2.437585245438719,2.272807503680448,2.7969689937368063,0.0982102301045727,0.2080863521514256,0.0279033791769366,0.0912742807011516,-0.5747252586828397,-0.5952416902372485,-2.4402420147305333,2.2844499553202287,2.8081805027088538,0.0472593639021782,-0.6159726430433647,-0.6960017770294535,1.1706648062338938,0.7475431324757288,-0.8768296314274782,-0.2068940576569755,10.70053197888592,-1.2868201727435506,0.0697173291743214,-1.1727472698954038
0.68,-2.4357107666777007,2.261736850722712,2.7855787597185566,0.094549953675022,0.2089578933755008,0.0273044940159532,0.1051802642438408,-0.5896771380334404,-0.6034851707845655,-2.4393317328712434,2.272530502465322,2.794660467174225,0.0507499057775406,-0.6559726436394112,-0.7360017776255,1.1010109512834727,0.6952991771344612,-0.7475939675300303,-0.4121740273658525,10.370996223524344,-1.2855241482860222,0.0732591519541412,-1.1718796333751504
0.7000000000000001,-2.433459387843449,2.2497922509952075,2.7733835889028726,0.0910167092736673,0.2087903529702698,0.0265951328840282,0.1191350828659045,-0.6039790182268693,-0.6157438776527945,-2.438421451011953,2.2606110496104157,2.781140431639596,0.054240447652903,-0.6959726442354577,-0.7760017782215465,1.1721312148422771,0.6977409311031836,-0.7150940096714464,-0.6129353434114471,10.10987695717995,-1.285253612265701,0.0764353924241739,-1.1689777201708096
0.72,-2.4309350154493425,2.2375721226450915,2.760910342961937,0.0879155503501275,0.2074062105480215,0.0258112518598919,0.1325245700223571,-0.6173228115719427,-0.6310698688875499,-2.437336642058896,2.246691596725706,2.7656203960751653,0.0577309895282654,-0.7359726448315042,-0.816001778817593,1.2167797607585322,0.6694743578226338,-0.6671896672536703,-0.766299561737771,9.893046574756228,-1.2859439064818912,0.0789857096910242,-1.1643714852828837
0.74,-2.428147419855752,2.2250929683930853,2.748113988197348,0.0852602658872525,0.2046220721071741,0.0249454761553005,0.1454690809002447,-0.6299583278758697,-0.6478231735187391,-2.436251833105837,2.2327721438409966,2.7501003605107344,0.0612215314036278,-0.7759726454275506,-0.8560017794136394,1.2327711164283282,0.6472255438943766,-0.6317758151963504,-0.837665231559459,9.640231602264976,-1.288053802737297,0.0811949863516638,-1.157035939825948
0.76,-2.425264313592098,2.213000927427089,2.735636063408758,0.0828923813782649,0.2004915195706646,0.0240198495350158,0.1572112216201441,-0.64214739215742,-0.6647466665355648,-2.435079760605895,2.2178526909413865,2.733580324931402,0.0647120732789902,-0.815972646023597,-0.8960017800096858,1.1967202812648354,0.5871070359949715,-0.6094532140775155,-0.846174650841286,9.577177838115858,-1.292087471617818,0.0831771151089661,-1.1475070504608906
0.78,-2.42200768903774,2.200026407451192,2.7221448660648617,0.0803429849315719,0.1947228520756678,0.0229425343872323,0.1675073290389043,-0.654556360400067,-0.6834755721644462,-2.4338204245590687,2.201933238026875,2.716060289337169,0.0682026151543526,-0.8559726466196435,-0.9360017806057322,1.2356822274367485,0.5148053709380109,-0.6204484121323517,-0.9364452814440704,9.577177838115858,-1.297762851377576,0.0851589787866045,-1.1365196541600526
0.8,-2.418571535895298,2.1868080953762634,2.708269414637845,0.0776893173627178,0.1881523778024868,0.0218182281433701,0.1753440340716831,-0.6665276976640778,-0.7031292184219764,-2.4136323225857947,2.1672985894311885,2.68797108745664,0.1799756819527608,-0.7545563618901832,-0.7834755736545623,1.2155170431503663,0.3918352516389389,-0.5985668632005392,-0.9826823128765094,9.427328290515106,-1.3033420868322434,0.0871402143043174,-1.1247436835399316
0.8200000000000001,-2.414997197451926,2.1733299749603145,2.694291538853175,0.0748213397393628,0.1829119796136309,0.0208090020422847,0.1816631959807441,-0.6805953971725073,-0.6921273468450282,-2.4136323225857947,2.1672985894311885,2.68797108745664,0.1799756819527608,-0.7545563618901832,-0.7834755736545623,0.947197385564454,0.3159580954530505,-0.7033849754214727,0.5500935788474104,11.378559031058105,-1.3117522486787525,0.0900113225689983,-1.1035020531323398
0.84,-2.411507991798996,2.160284985278993,2.6812128786861367,0.072295130056614,0.1813155049935765,0.020138524623065,0.1856013790678577,-0.691939786202993,-0.6853254872556687,-2.4136323225857947,2.1672985894311885,2.68797108745664,0.1799756819527608,-0.7545563618901832,-0.7834755736545623,0.6900538790123477,0.1969091543556816,-0.5672194515242868,0.3400929794679763,10.882683357001042,-1.3137682290188408,0.0919927919298269,-1.102826455614748
0.86,-2.407745125829199,2.146330474340681,2.667516940185646,0.0701286892313175,0.1823926470070291,0.0196786079205064,0.1907074346436484,-0.702930380391308,-0.6849431546945368,-2.411832565766267,2.159753025812287,2.6801363317200937,0.1824693525355321,-0.7745563621882063,-0.8034755739525855,0.6062407573369395,0.2553027787895318,-0.549529709415747,0.0191166280565924,10.882683357001042,-1.311576571805117,0.0934766801927036,-1.1052710821489655
0.88,-2.403868143643689,2.1321645276512062,2.653761371017475,0.0684086661215451,0.1849949908592641,0.0193633350140706,0.1969336483804028,-0.7131738936473244,-0.6906213170061579,-2.408233052127212,2.144661898574483,2.6644668202470028,0.1874566937010747,-0.8145563627842528,-0.843475574548632,0.6632059042240366,0.3113106868377208,-0.5121756628008234,-0.2839081155810552,10.461671048044993,-1.3076483166417117,0.0945117403416191,-1.1089107159059084
0.9,-2.400059058693781,2.1185244093849747,2.6405460649584995,0.0671903883191942,0.1880284458000794,0.0191354990658924,0.2038158019975834,-0.7221550072397278,-0.7001808147151017,-2.4046335384881568,2.129570771336679,2.6487973087739114,0.1924440348666173,-0.8545563633802993,-0.8834755751446784,0.740622096985749,0.3441076808590307,-0.4490556796201694,-0.477974885447191,10.143950425554976,-1.3025565059644684,0.0952027556236706,-1.1127267202353313
0.92,-2.395899896386387,2.103991001852634,2.626404391310889,0.066549411684449,0.191242511060789,0.0189465846245159,0.2118018171337477,-0.7307469569994194,-0.7136405161414633,-2.4007846577908243,2.112479644069073,2.631127797271018,0.19743137603216,-0.8945563639763457,-0.9234755757407248,0.8926947979501558,0.399300756808213,-0.4295974879845787,-0.6729850713180774,9.908130885159151,-1.2972390867976833,0.0952538501844195,-1.116099332590056
0.94,-2.3915714238586503,2.0892918729556977,2.611973700059507,0.0668258063866218,0.1940896168485716,0.0188033702150635,0.220666426684994,-0.7388527970251944,-0.7287493571622148,-2.3969357770934923,2.095388516801467,2.6134582857681243,0.2024187171977025,-0.9345563645723922,-0.9634755763367714,0.9650945834604064,0.4432304775623161,-0.4052920012887484,-0.7554420510375748,9.720241964487286,-1.2924610353718855,0.0944716659906443,-1.118030027549454
0.96,-2.387286977082641,2.0751689552251045,2.597974884471025,0.0677502766992518,0.1961928071513253,0.0186794946234134,0.2298520818926671,-0.747354083103294,-0.7440465424869157,-2.392962212867021,2.07729738951896,2.594788774250329,0.2074060583632452,-0.9745563651684386,-1.003475576932818,0.9882459276847376,0.459282760383653,-0.4250643039049817,-0.7648592662350462,9.650943231579731,-1.2882546880069838,0.0929416301177243,-1.1192894793918775
0.98,-2.38258485836542,2.0601223301905915,2.582914734389644,0.0690694037452976,0.1976181235560938,0.0185254384675995,0.2398364542641554,-0.756869224302254,-0.7612024170778775,-2.388863965111412,2.058206262221552,2.5751192627176334,0.2123933995287877,-1.014556365764485,-1.0434755775288642,1.1006244099027316,0.4992186185744166,-0.475757059948001,-0.8577937295480897,9.606512138913786,-1.2853103925887692,0.0910594593310212,-1.11985540832302
1.0,-2.377681372330418,2.044877049245279,2.567501432900249,0.0704293250199775,0.1981781132570158,0.0183185945539671,0.2499455654450674,-0.767169908760876,-0.7792905239516115,-2.370593035652212,2.0222788689754787,2.54485461353575,0.2586442305364523,-0.8568692257923701,-0.8612024185679936,1.1570197053850888,0.5054555590456019,-0.5150342229310989,-0.9044053436866984,9.551084645167066,-1.2831285139988553,0.0891277920282981,-1.118987705134379
1.02,-2.37253353058632,2.0293573710331643,2.55206490205672,0.0703087778063143,0.1987641543654778,0.0180141023478144,0.2644892211363683,-0.7837196978301879,-0.7634363219707233,-2.370593035652212,2.0222788689754787,2.54485461353575,0.2586442305364523,-0.8568692257923701,-0.8612024185679936,1.357174601476007,0.7271827845650447,-0.8274894534655963,0.792710099044408,9.505289931784318,-1.2795886175459694,0.0890800696946704,-1.1031824284780385
1.04,-2.3673709557110127,2.0143271086698062,2.5376597596186974,0.0683920068444852,0.1997845341053236,0.0176370691496773,0.2782343206569683,-0.7974507666036625,-0.7537734955739206,-2.370593035652212,2.0222788689754787,2.54485461353575,0.2586442305364523,-0.8568692257923701,-0.8612024185679936,1.0849426534013606,0.6872549760299967,-0.6865534386737315,0.4831413198401357,11.596754878285536,-1.280120637481788,0.0905946608042392,-1.1075895420160589
1.06,-2.3616567001378064,1.9982447516688413,2.5226264162228595,0.0651880272641326,0.2007392529060452,0.0171565051895408,0.2924113897439831,-0.8096527045766567,-0.7503398118136535,-2.368006593346848,2.013710176717555,2.53624258935007,0.2624057857909117,-0.8768692260903933,-0.8812024188660168,0.95087691416964,0.7088534543507413,-0.6100968986497091,0.1716841880133546,11.099772217075952,-1.280309633168308,0.0933650542312861,-1.110894454902602
1.08,-2.35566446764642,1.9819470293042485,2.507597746318318,0.06174059595214,0.2011192375627731,0.0166315204105736,0.3060054248289666,-0.819416101407872,-0.7529198522776817,-2.362833708736119,1.996572792201708,2.5190185409787103,0.2699288962998305,-0.9168692266864398,-0.9212024194620632,0.8467265148375375,0.6797017542491735,-0.4881698415607649,-0.1290020232014077,10.675619109489162,-1.2803587093123272,0.0962347703169247,-1.1123064099026625
1.1,-2.3494084782635163,1.9654716518628956,2.492459718141826,0.0585692495913973,0.2006614583990856,0.0160873391886504,0.3188248116809983,-0.8276661117303927,-0.7607094650055438,-2.35766082412539,1.97943540768586,2.5017944926073503,0.2774520068087492,-0.9568692272824862,-0.9612024200581096,0.8559751982882087,0.6409693426015883,-0.4125005161260353,-0.389480636393108,10.32874454580633,-1.2806559463625815,0.0989886237502682,-1.1117785979222117
1.12,-2.34323482458796,1.949677646499692,2.477896409899427,0.0559927486658007,0.1993010927632528,0.0155614819482732,0.3303236164944569,-0.8345315970672141,-0.7718570980043139,-2.3521117839892147,1.9602980231402105,2.482570444206188,0.284975117317668,-0.9968692278785328,-1.001202420654156,0.8712449749114698,0.5749402406729276,-0.3432742668410704,-0.5573816499385043,10.050332844081822,-1.2813980873196074,0.1012515956473532,-1.1093706126388896
1.14,-2.336506293607735,1.9329191567887896,2.4623177358959216,0.0538409068260313,0.1967452386144052,0.0150016778681551,0.3418313980687027,-0.8410456567249344,-0.785488388661732,-2.34656274385304,1.9411606385945608,2.463346395805026,0.2924982278265868,-1.0368692284745793,-1.041202421250203,0.9495710807673944,0.5753890787122906,-0.3257029828860114,-0.6815645328709041,9.71756294615716,-1.2830781163648697,0.1029290232352239,-1.1047729403786382
1.16,-2.3295524821544102,1.9160258905531908,2.4464488031958505,0.0519988634599434,0.1928289219823597,0.0144093395364456,0.3528388416971455,-0.8478981247334689,-0.8006764101306735,-2.340825625954142,1.92102325403401,2.4431223473889627,0.3000213383355055,-1.0768692290706257,-1.081202421846249,0.998494027501371,0.5503721814221402,-0.3426234004267281,-0.7594010734470746,9.633117200697598,-1.2859735541736723,0.1042781018944115,-1.0981998253665264
1.18,-2.322390595866112,1.8989967231622027,2.430262046817175,0.0501616424660045,0.1874282914589695,0.0137619326242738,0.3624471118650975,-0.8545840733977229,-0.8171726036821417,-2.334900430292521,1.8998858694585576,2.421898298957998,0.3075444488444243,-1.116869229666672,-1.1212024224422954,1.0113668558551083,0.4804135083976008,-0.3342974332126991,-0.8248096775734126,9.547733404870996,-1.2903484741251905,0.1055650656904743,-1.089703311167533
1.2,-2.3154322118741577,1.8826984558498243,2.414566535588352,0.0483629119447236,0.1813562638173114,0.0131193045306446,0.3692987701751911,-0.8606023546213754,-0.8341105584250565,-2.304268240272857,1.8562675194923168,2.389403416633068,0.3988546607993188,-0.954584074887839,-0.9171726051722578,0.961846195290952,0.3425829155046772,-0.3009140611826222,-0.8468977371457409,9.547733404870996,-1.2958614085361475,0.1069620041615198,-1.0793926597968158
1.22,-2.3080070543654667,1.865394137230445,2.3980289256181,0.0460213099602647,0.176995735608072,0.0125347542797638,0.3727589584156739,-0.8692738766769397,-0.8170132665697029,-2.304268240272857,1.8562675194923168,2.389403416633068,0.3988546607993188,-0.954584074887839,-0.9171726051722578,0.9740194892902012,0.1730094120241415,-0.4335761027782159,0.8548645927676846,9.455151648092396,-1.299534666540709,0.1090193696565579,-1.05733385992454
1.24,-2.3005227006616,1.8479416957941657,2.3818303122722777,0.0435911611876647,0.1775557926807588,0.0121921224712054,0.3759993605013288,-0.8755248027095537,-0.8043597447832992,-2.304268240272857,1.8562675194923168,2.389403416633068,0.3988546607993188,-0.954584074887839,-0.9171726051722578,0.7240267528567588,0.1620201042827479,-0.3125463016307006,0.6326760893201833,11.114083011458206,-1.300461453289005,0.1109971141457849,-1.062500928900872
1.26,-2.292951923429412,1.830378612978238,2.365789697197802,0.0416468050274835,0.1811896561523193,0.0120286402837407,0.3812859208588698,-0.8805847831684427,-0.8003300565948084,-2.300279693664864,1.8467216787434384,2.380231690581345,0.4061361705861631,-0.9745840751858624,-0.9371726054702813,0.4177005792272882,0.2643280178770496,-0.2529990229444501,0.2014844094245405,11.114083011458206,-1.2971794540624202,0.1126499298518892,-1.0703100136488326
1.28,-2.285645086422911,1.813608737026473,2.3505664569786844,0.040368838540916,0.1860985091193174,0.0119800583570992,0.3878369210069944,-0.884508157935536,-0.8023316862497513,-2.2923026004488776,1.827629997245681,2.3618882384779,0.4206991901598516,-1.014584075781909,-0.9771726060663276,0.3946992328955688,0.3275500074062298,-0.1961687383546684,-0.1000814827471441,10.628817012408945,-1.2917368834507563,0.1137531977884092,-1.0788142695284826
1.3,-2.2778046475976788,1.79588497045122,2.334454436365164,0.0398839521833761,0.1919687479340473,0.0120247054765941,0.3960567340032963,-0.8877297599373584,-0.8089847615646314,-2.284325507232891,1.808538315747925,2.343544786374455,0.4352622097335401,-1.0545840763779553,-1.017172606662374,0.552737406681023,0.4109906498150906,-0.1610801000911155,-0.3326537657440065,10.037322596138438,-1.2851158570543295,0.1140163984311457,-1.0873497630740885
1.32,-2.269782943787412,1.7781048221787874,2.318166186615016,0.0406383560279893,0.1979200368357683,0.0121708900425183,0.4058531025434144,-0.8903063865749475,-0.819517664711841,-2.2756202630382205,1.7874466342203656,2.3232013342412072,0.4498252293072285,-1.0945840769740016,-1.0571726072584204,0.7306673150481127,0.4898184270059058,-0.1288313318794587,-0.526645157360478,9.852931037887174,-1.2781963125600155,0.1131264851464824,-1.0950606636473554
1.34,-2.2619639100608624,1.761168271784389,2.302483903929549,0.0427445558878241,0.2031373764277738,0.012405017515763,0.4167778738604322,-0.8925635412893056,-0.830736919619494,-2.2669150188435494,1.7663549526928064,2.30285788210796,0.4643882488809171,-1.1345840775700482,-1.097172607854467,0.7910705664107679,0.54623856585089,-0.1128577357179028,-0.5609627453826538,9.852931037887174,-1.270924731266106,0.1107310773976361,-1.1016504042098327
1.36,-2.2534929381493325,1.7432730782063603,2.2857363201729206,0.0460391969566528,0.2077697263656594,0.0127098915724407,0.4297923112714021,-0.8971515381035813,-0.8434842068354343,-2.2578456991595366,1.744263271150346,2.281514429959812,0.4789512684546056,-1.1745840781660946,-1.1371726084505134,0.9393064293103884,0.6507218705484957,-0.2293998407137842,-0.6373643607970159,9.80382571318205,-1.2638248962386196,0.1071640102336884,-1.1068256598070625
1.38,-2.244748270956461,1.7252629289578372,2.268725723503297,0.0493438252174011,0.2112031360918841,0.012977593245068,0.4440057192606554,-0.9036510310974516,-0.8569586158940826,-2.248412303986181,1.7211715895929849,2.259170977796761,0.4935142880282941,-1.214584078762141,-1.1771726090465595,1.0317752605656467,0.7106703994626679,-0.3249746496935157,-0.6737204529324137,9.74685920464799,-1.2583200879898833,0.1035969603127288,-1.1100412110911306
1.4,-2.235710653079696,1.7071107534422525,2.251436988782716,0.0521834507526701,0.2132195277309653,0.0131537385176136,0.4589126286269216,-0.9111506840683484,-0.8712197180672566,-2.2225479849934286,1.680080377402965,2.225877792708593,0.4956813332302199,-1.0036510325875678,-0.9569586173841989,1.0975424555930249,0.7453454683133104,-0.3749826485448471,-0.7130551086587,9.714441509222524,-1.254634246641372,0.1006388860963755,-1.1112362317211448
1.42,-2.226804350797715,1.6896558959361416,2.2350793494610905,0.0527900785344781,0.2148103759608643,0.0131642078114863,0.4780103745796149,-0.9250102444085868,-0.8499160019176788,-2.2225479849934286,1.680080377402965,2.225877792708593,0.4956813332302199,-1.0036510325875678,-0.9569586173841989,1.5895436727879642,0.9548872976346628,-0.6929780170119137,1.0651858074788911,9.714441509222524,-1.2488089048047075,0.0997642239829462,-1.0961794900295214
1.44,-2.217033344646108,1.6710294985269083,2.218265211056957,0.0508483720491467,0.2168462395006808,0.0130189944969934,0.4980710632018454,-0.936695549839034,-0.8331063050903047,-2.2225479849934286,1.680080377402965,2.225877792708593,0.4956813332302199,-1.0036510325875678,-0.9569586173841989,1.4331290053839905,1.003034431111527,-0.5842652715223662,0.8404848413687049,12.04484447140294,-1.2488638375180288,0.1016258473742758,-1.1033187462448404
1.46,-2.2068625657792245,1.6521948173029155,2.201702584108649,0.0473436515154329,0.2185725954253209,0.0127541590352892,0.5179391359417457,-0.9456990879029435,-0.8242885811541435,-2.2175911716611263,1.670043867077089,2.2163082065347512,0.5060164560241328,-1.023651032885591,-0.976958617682222,1.176388825474579,0.9934036369950106,-0.4501769031954761,0.4408861968080602,11.4929309495501,-1.2490394928471091,0.1049020019753752,-1.1086571055813703
1.48,-2.1963008721032264,1.6332146893945545,2.1852385804595094,0.043559455823815,0.2193990215362712,0.012435445692341,0.5371191571876592,-0.9518117215677024,-0.8224963565817851,-2.207677544996522,1.6499708464253378,2.197169034187067,0.5266867016119585,-1.0636510334816376,-1.0169586182782684,1.0105067716633591,0.959001062295678,-0.3056316832379335,0.0896112286179195,10.612364977117068,-1.249367554486279,0.1086544622076194,-1.1115674676284164
1.5,-2.185920250631489,1.61508762156261,2.169579199973388,0.0403163072628535,0.2191295989708512,0.0121231563676964,0.5545208921896215,-0.9560663722057636,-0.825919050830571,-2.1977639183319178,1.6298978257735863,2.178029861839383,0.5473569471997843,-1.103651034077684,-1.0569586188743147,0.9119173058056694,0.8700867500981146,-0.2127325319030704,-0.171134712439297,10.612364977117068,-1.2502714757000324,0.112028930463012,-1.1120591068410044
1.52,-2.1746461848820187,1.5959308089970876,2.1529823149233778,0.0375210082393433,0.217592473002697,0.0118034612063226,0.5718651969297116,-0.9594767604576806,-0.8337632158056677,-2.186816779387922,1.6078248050920327,2.1568906894618967,0.5680271927876102,-1.1436510346737303,-1.096958619470361,0.9669366306827673,0.8672152370045039,-0.1705194125958431,-0.3922082487548328,10.301536490718718,-1.2522700743520836,0.1147569491150734,-1.1102784062241664
1.54,-2.163032064470458,1.5767126515580565,2.1362017663025625,0.0354388667430223,0.2145798058162642,0.0114970326858733,0.5885693197655617,-0.962285212490934,-0.8439560365553218,-2.1758696404439264,1.585751784410479,2.1357515170844104,0.5886974383754359,-1.1836510352697769,-1.1369586200664077,0.988444127622844,0.835206141792505,-0.1404226016626764,-0.5096410374827054,10.047893993335492,-1.2559509139824667,0.116701020582447,-1.106236723286185
1.56,-2.15108877402942,1.5574340942206866,2.119196518589768,0.0337801919628805,0.2097397526929781,0.0111751426206667,0.6046373986857841,-0.9654195250762072,-0.8559898754955942,-2.1644057453602352,1.562678763714024,2.1136123446920227,0.6093676839632617,-1.2236510358658232,-1.176958620662454,1.015899054051528,0.803403946011122,-0.1567156292636595,-0.6016919470136217,9.922867705604403,-1.2615835561633948,0.1183037358013357,-1.0992650045250991
1.58,-2.1394657342507664,1.5390621944180851,2.1028035642117118,0.032332917811042,0.2035362834370707,0.0108440187952014,0.6176962990761922,-0.968268418930053,-0.8689146001989398,-2.152425094136848,1.538605743002668,2.0904731722847343,0.6300379295510874,-1.2636510364618696,-1.2169586212585004,0.9296499129435104,0.6529450195204012,-0.142444692692284,-0.6462362351672801,9.82001140392731,-1.2692675520469574,0.1197686683197982,-1.0898236478240713
1.6,-2.1269926507534525,1.5196688619180485,2.085265529717129,0.0309269101878817,0.1959428504586818,0.010492112193463,0.6286012201971547,-0.9708779194365624,-0.8842489147714063,-2.1085809192969567,1.4906487734715823,2.0593578342017644,0.6763684291840718,-1.0682684204201691,-0.968914601689056,0.949826301166752,0.5452460560481265,-0.1304750253254716,-0.7667157286233239,9.585417712011804,-1.2778485660588847,0.1211012303953775,-1.0789634136186803
1.62,-2.114307085896302,1.500193383596926,2.0677818051728973,0.0289712359182806,0.1894452484436978,0.0101598824926779,0.6394693159180229,-0.9762149112974562,-0.8614338581168401,-2.1085809192969567,1.4906487734715823,2.0593578342017644,0.6763684291840718,-1.0682684204201691,-0.968914601689056,1.2914389231321246,0.543404786043411,-0.2668495930446879,1.140752832728309,9.585417712011804,-1.2791943383589806,0.122529326605033,-1.0531390822335622
1.64,-2.1014317144539056,1.4806394441282336,2.0507506151562,0.0267081120357127,0.1863114142694314,0.0099296609948581,0.6474648221502101,-0.978897862872993,-0.8435095815898441,-2.1085809192969567,1.4906487734715823,2.0593578342017644,0.6763684291840718,-1.0682684204201691,-0.968914601689056,0.9904620614665652,0.3997753116093572,-0.1341475787768387,0.896213826349801,12.109216392821509,-1.2866937636636484,0.1248875369286412,-1.0551062710593095
1.66,-2.0890611718441168,1.462029097395313,2.034807232121767,0.0250467517775872,0.1860150865272298,0.0098339806736857,0.6545625617655461,-0.980103251919484,-0.835614449985219,-2.101817235005116,1.479966089267381,2.049668688184874,0.6881028552056477,-1.0882684207181923,-0.9889146019870791,0.5342377126683868,0.3548869807667998,-0.0602694523245461,0.3947565802312536,11.433713853429254,-1.289527771567051,0.1268042735285144,-1.059224219764325
1.68,-2.075888261793201,1.4424250687402655,2.018119224402227,0.0241328322326225,0.1873677333162543,0.0098452741078986,0.6624798138650201,-0.9803110876840704,-0.8338989040800957,-2.0882898664214347,1.4586007208589775,2.0302903961510927,0.7115717072487996,-1.1282684213142389,-1.0289146025831255,0.4051825954562111,0.3958626049737013,-0.0103917882293302,0.0857772952561675,10.868375393644785,-1.2897375714711528,0.1278774298572839,-1.0639340466536014
1.7,-2.0625524946986773,1.4228275452439632,2.0014024903150114,0.0245246554593669,0.1895971792161026,0.0099792410855955,0.6708347708147806,-0.9796424929642809,-0.8378473772160094,-2.074762497837753,1.437235352450574,2.0109121041173115,0.7350405592919514,-1.1682684219102852,-1.068914603179172,0.4632568527197265,0.4177478474880258,0.0334297359894819,-0.1974236567956866,10.47274957522768,-1.2882379381913371,0.127656991279868,-1.0685477009613515
1.72,-2.049044155415192,1.4032486656805934,1.9845648288877535,0.0265878418750213,0.1921299074115421,0.0102481817346931,0.6796673777952116,-0.9785428253072974,-0.8457245370869584,-2.060061686651914,1.4138699840123683,1.989533812053728,0.7585094113351033,-1.2082684225063316,-1.1089146037752184,0.5942934095610137,0.4416303490215489,0.0549833828491719,-0.3938579935474473,9.969740758041551,-1.2861900813721523,0.1259341156186854,-1.072641811024612
1.74,-2.0360401546356486,1.3846603950478806,1.9684095402507824,0.0301188951903878,0.1944790185773555,0.0106228454825408,0.6887770079085284,-0.9787593277399989,-0.8544498813642637,-2.045360875466075,1.3905046155741627,1.9681555199901448,0.7819782633782552,-1.2482684231023782,-1.148914604371265,0.6308008141686211,0.455481505665839,-0.0108251216350718,-0.4362672138652657,9.969740758041551,-1.283418823434807,0.122464143933084,-1.0759368558450833
1.76,-2.022155103572047,1.365056763080962,1.9512156281521311,0.0343388928994719,0.1965786172882959,0.011051544501377,0.6992652603827945,-0.9817231325151368,-0.8645201550850217,-2.030073342979157,1.3661392471210558,1.94577722791166,0.805447115421407,-1.2882684236984243,-1.1889146049673114,0.7419534882997528,0.5244126237133051,-0.1481902387569011,-0.5035136860378986,9.910901833650314,-1.2808436741805562,0.1184426538643161,-1.0784887385170885
1.78,-2.008052060579785,1.3453756267714767,1.9338109757348012,0.0383178502896577,0.1979648774556069,0.0114459626168744,0.7104418450505001,-0.9862348860598276,-0.8754315073621737,-2.0141990891911603,1.3407738786530476,1.9223989358182745,0.8289159674645589,-1.328268424294471,-1.2289146055633575,0.8129107783123151,0.5588292333852829,-0.2255876772345399,-0.5455676138576004,9.871376202722786,-1.2789979254931765,0.1148224115919165,-1.0797672805858416
1.8,-1.994444440860797,1.3265851093444931,1.9170652716126129,0.0416256860134042,0.1984561625814772,0.0117585214186548,0.72128148877801,-0.991425436000781,-0.8867123522432107,-1.97252996832726,1.2960638824684854,1.8900394003666927,0.7840227359444363,-1.086234887549944,-0.9754315088522898,0.8241619168265628,0.5419821863754948,-0.259527497047668,-0.5640422440518489,9.785858580251444,-1.277972821695765,0.1114830041657975,-1.0798565166950516
1.82,-1.9798564120441624,1.3066229971820151,1.8995624057831528,0.0427953925097913,0.1990898746877111,0.0119322437752622,0.7373844917833904,-1.003957231794697,-0.8611020941393458,-1.97252996832726,1.2960638824684854,1.8900394003666927,0.7840227359444363,-1.086234887549944,-0.9754315088522898,1.637252219236757,0.8051501502690184,-0.6265897896957973,1.280512905193243,9.785858580251444,-1.2697536464987746,0.110097647347492,-1.0639195120898737
1.84,-1.964938841434602,1.2864367615515198,1.88257385830418,0.0410720900952427,0.2005986831906748,0.0119448689755478,0.753565422683444,-1.0137954909507452,-0.8396650706003146,-1.97252996832726,1.2960638824684854,1.8900394003666927,0.7840227359444363,-1.086234887549944,-0.9754315088522898,1.4301746800888104,0.8090465450026785,-0.4919129578024095,1.0718511769515604,11.710584115118763,-1.2720860009045671,0.1120819373622911,-1.071719450527047
1.86,-1.9497022133850892,1.2660806286649309,1.8659126770420824,0.0376853396421955,0.2022722561154607,0.0118523875726171,0.769306944532296,-1.0208466153331883,-0.8274696813094542,-1.9646897409678157,1.2852015335929858,1.8802850852781696,0.7987389141232235,-1.106234887847967,-0.995431509150313,1.0562213133740077,0.7870760924426012,-0.3525562191221687,0.6097694645430196,11.710584115118763,-1.2735875978057254,0.1154935287306962,-1.0787712566143068
1.88,-1.934941416408692,1.2466442784974126,1.8502410481965588,0.0342040243838257,0.2035304670725861,0.0117385764432541,0.7836430905753318,-1.024715803803535,-0.8227638810300736,-1.9490092862489268,1.263476835841987,1.860776455101124,0.828171270480798,-1.1462348884440137,-1.0354315097463596,0.7788457149136345,0.7168073021517896,-0.1934594235173281,0.2352900139690306,11.161858688134089,-1.274743809574749,0.1193816062567041,-1.0837420836253626
1.9,-1.9191183721039653,1.2261242837249366,1.833783840000868,0.0309874287236116,0.204316855830434,0.0116390543371671,0.7978256092125362,-1.027134529036027,-0.8234485803968763,-1.933328831530038,1.2417521380909882,1.841267824924078,0.8576036268383724,-1.18623488904006,-1.075431510342406,0.7201785887331072,0.7091259318602217,-0.1209362616245934,-0.0342349683401355,10.731466423497295,-1.2758961631414645,0.12282409374269,-1.086701131502805
1.92,-1.903022016189114,1.2055674886889418,1.8172556222119904,0.0284989480018377,0.2045062458000781,0.0115812131534713,0.8110335045115649,-1.0285997908740032,-0.8293047918890363,-1.9161767589932703,1.218027440310187,1.81975919471723,0.8870359831959469,-1.2262348896361064,-1.1154315109384525,0.7261038209595778,0.660394764951433,-0.0732630918988119,-0.292810574607999,10.392677805672976,-1.2770477237718898,0.1255274718739589,-1.0877091434344055
1.94,-1.887492008961032,1.1860176568908722,1.8014220889324384,0.0268643486591836,0.2041698599893159,0.0115717015751451,0.8229785866638247,-1.0293765619667312,-0.8370714480317528,-1.8990246864565032,1.1943027425293855,1.798250564510382,0.9164683395535214,-1.266234890232153,-1.1554315115344989,0.7134586683787851,0.5972541076129934,-0.0388385546364,-0.3883328071358272,10.118561735380354,-1.2778493276550849,0.1273271680334894,-1.0867386878538146
1.96,-1.8709019514308576,1.1654192841418127,1.784577509257119,0.0257310261954781,0.2032272339806032,0.0115961972126746,0.8353481395582772,-1.03042168771884,-0.8470457213247183,-1.8811368050107964,1.1695780447336834,1.7757419342886327,0.9459006959110958,-1.306234890828199,-1.1954315121305452,0.7962164504221585,0.6184776447226259,-0.0522562876054344,-0.4987136646482759,9.993332313016252,-1.2789369714587513,0.1286238806472376,-1.0847265537962023
1.98,-1.8540651513147213,1.14480076649032,1.7675128308377768,0.0250166237518478,0.2013755180348336,0.0116354629016429,0.8476293517648054,-1.031376865946655,-0.8588933611107247,-1.8625131146561504,1.1438533469230798,1.7522333040519824,0.9753330522686704,-1.3462348914242457,-1.2354315127265916,0.8545570595455099,0.6140606103264057,-0.0477589113907495,-0.5923819893003168,9.787766522383208,-1.2808172669386957,0.1294992526797539,-1.081328650192614
2.0,-1.8378453068730691,1.125196766937956,1.751065216230748,0.0246834382723045,0.1984585474985899,0.0116753637568747,0.8590090079287778,-1.032157655022616,-0.8718131095929661,-1.811683683726481,1.0932319231929872,1.7245681627822405,0.939890688508637,-1.131376867436771,-0.9588933626008408,0.8617222679549298,0.5689828081986203,-0.039039453798062,-0.6459874241120711,9.787766522383208,-1.2836460687185307,0.129983507102419,-1.0767670011159258
2.02,-1.8205262217873,1.1045087016436663,1.733869361246883,0.023813321159942,0.195852533969071,0.0116999852523813,0.8722928805648609,-1.0364333122993383,-0.8450684387165397,-1.811683683726481,1.0932319231929872,1.7245681627822405,0.939890688508637,-1.131376867436771,-0.9588933626008408,1.5083268359742488,0.6641936318041552,-0.2137828638361094,1.33723354382132,9.68636111696378,-1.2819541330705524,0.1306011271696012,-1.0593228277715274
2.04,-1.8029555492456129,1.0837540447402183,1.7172058597780169,0.0221915264748281,0.1959795103373471,0.0117468665678574,0.8843264076185782,-1.0387462324323655,-0.8233549872210582,-1.811683683726481,1.0932319231929872,1.7245681627822405,0.939890688508637,-1.131376867436771,-0.9588933626008408,1.2466247919291304,0.6016763526858648,-0.1156460066513709,1.085672574774077,12.404477820451577,-1.2858183841331383,0.1326331974351381,-1.0668850091731397
2.06,-1.7860385416638758,1.064011952263079,1.7016802543699838,0.0207620819302191,0.1976549798726136,0.0118405639146959,0.8959647068086283,-1.0393364521381756,-0.8119788777576219,-1.8022847768413943,1.0819181545186196,1.714979229156232,0.9583429558574031,-1.1513768677347942,-0.978893362898864,0.8142699703758133,0.5819149595025053,-0.0295109852904928,0.5688054731718128,11.687803756271023,-1.2872970544933584,0.13464947569233,-1.0754540219771918
2.08,-1.7679902706807236,1.0432324734844942,1.6855025540418218,0.0199528918156164,0.2001429473422954,0.0120081246212794,0.9083221066221394,-1.0386535395061651,-0.8066916043307,-1.7834869630712218,1.0592906171698842,1.6958013619042154,0.995247490554936,-1.1913768683308408,-1.0188933634949104,0.6729170827541812,0.6178699906755569,0.0341456316005128,0.2643636713460962,10.71517277094972,-1.286814558001666,0.1359017239197931,-1.0824653174538723
2.1,-1.7496930379982183,1.0224768594837008,1.6693706129671624,0.0203703374718689,0.2028417749172112,0.0122712975526703,0.9208298556878344,-1.0370701138381162,-0.8069889105006037,-1.764689149301049,1.0366630798211487,1.6766234946521985,1.0321520252524683,-1.2313768689268871,-1.0588933640909568,0.6305541501237084,0.6253874532847481,0.0791712834024571,-0.0148653084951877,10.71517277094972,-1.2855192590064295,0.1359123092465368,-1.088635704129434
2.12,-1.731144824077928,1.001760070029346,1.653183284376466,0.0224811026105327,0.2053830861698855,0.0126564668883043,0.9334100345910784,-1.0349676214573778,-0.811716223879721,-1.7440461087959995,1.0120355424426108,1.6554456273703797,1.0690565599500013,-1.2713768695229335,-1.0988933646870032,0.6801265823967447,0.6290089451622016,0.1051246190369226,-0.2363656689558624,10.408534418332238,-1.2840219693723265,0.1343370223360169,-1.0935511702232503
2.14,-1.7132866169144088,0.9821087674468127,1.637703199677444,0.0260664919263645,0.2074703498448593,0.0131321983752339,0.9457877592070268,-1.0342858531827523,-0.8175365481092292,-1.7234030682909502,0.9874080050640732,1.6342677600885602,1.1059610946475338,-1.31137687011898,-1.1388933652830495,0.6847427414459003,0.6188862307974163,0.0340884137312702,-0.2910162114754089,10.118596800221894,-1.281973189897562,0.1309476605156321,-1.0970800163300585
2.16,-1.6942263952945282,0.9614044581815208,1.621278777179652,0.0303446651723175,0.2090952079558244,0.0136579475136983,0.9595666254538552,-1.0363167211993036,-0.8246378619591159,-1.7018374144184627,0.9617804676706344,1.61208989279184,1.1428656293450663,-1.3513768707150264,-1.178893365879096,0.7816812623173732,0.6889433123414224,-0.1015434008275639,-0.3550656924943385,10.118596800221894,-1.2800969609539945,0.126965386103567,-1.099452660180162
2.18,-1.6748848816671489,0.9406414505211648,1.604702300380224,0.0343970361598344,0.2098472002644408,0.0141416819425408,0.9738256220393228,-1.039909402096001,-0.832680479344662,-1.679349147178537,0.9351529302622944,1.5889120254802185,1.179770164042599,-1.3913768713110728,-1.2188933664751425,0.8380185470205231,0.7129498292733738,-0.1796340448348643,-0.4021308692773062,10.072825755890335,-1.2791069702565128,0.1231847325544246,-1.1003076990898424
2.2,-1.6552557483131225,0.9197950822722332,1.5879519019410755,0.0379323003417047,0.2094957776779313,0.0145464093428311,0.9882647339219164,-1.0444864496134507,-0.8419341730710563,-1.6261936005651827,0.8886459804163649,1.563068276412991,1.0738256235294388,-1.139909403586117,-0.8773321925669273,0.8875079767486106,0.7219555941296918,-0.2288523758724903,-0.4626846863197142,10.027340179765815,-1.2791193631073612,0.1200465563119451,-1.099783555078674
2.22,-1.6362053083885086,0.899816369995653,1.572373028242914,0.0386580342863335,0.2072476804499597,0.0146670108455329,1.0160831589868942,-1.057212431086517,-0.7974337824838603,-1.6261936005651827,0.8886459804163649,1.563068276412991,1.0738256235294388,-1.139909403586117,-0.8773321925669273,2.700046360695316,1.3909212532488835,-0.6362990736533125,2.2250195293598005,9.964932750764092,-1.2693756374229277,0.1186314417096734,-1.079192375091573
2.24,-1.6155869996554366,0.878556175290451,1.556866863095755,0.0358802113759386,0.2017590596749983,0.0144341935855868,1.043716711849373,-1.0676802169951476,-0.7560383719090699,-1.6261936005651827,0.8886459804163649,1.563068276412991,1.0738256235294388,-1.139909403586117,-0.8773321925669273,2.5430138626675918,1.3816776431239464,-0.5233892954315311,2.069770528739523,13.885361203772844,-1.280049280026819,0.1218479412768814,-1.082331335567909
2.26,-1.5944716378165558,0.8571374513000166,1.5420853964833126,0.0313177507998725,0.1933976470949355,0.0140120785946294,1.0657869410237433,-1.0732928049004906,-0.7245145306232702,-1.6154553443298882,0.8772468863805037,1.5542949544873217,1.093825623827462,-1.1599094038841402,-0.8862625352113803,1.9444464046462624,1.103511458718509,-0.2806293952671512,1.576192064289983,13.145229904893313,-1.2964578615121083,0.1270182278518566,-1.0807872575353603
2.28,-1.5729810280983971,0.8356450816274614,1.527828255663383,0.0268185768710324,0.1832455733573283,0.0135964907644712,1.08167738030697,-1.0757033409330428,-0.7026508297013276,-1.5939788318592996,0.8544486983087813,1.5367483106359832,1.1338256244235083,-1.1999094044801868,-0.9041232205002864,1.3567775817928889,0.7945219641613432,-0.1205268016276073,1.0931850460971282,11.746531993551798,-1.3128090122097549,0.1318396979863095,-1.0744330928250714
2.3000000000000003,-1.552326423018365,0.8152013603372013,1.5146141415202734,0.0232279002310032,0.1729331047047036,0.0132866249519643,1.0913752672166523,-1.0763137843611403,-0.6893347298938979,-1.5725023193887109,0.831650510237059,1.5192016667846446,1.173825625019555,-1.2399094050762332,-0.9219839057891924,0.8242271619118784,0.4848943454841103,-0.0305221714048786,0.665804990371488,11.746531993551798,-1.3281798285047792,0.136061011800986,-1.063874427230884
2.32,-1.53043798953428,0.7936800360810246,1.500916439694937,0.020382560684193,0.1622945726931236,0.0130790735832368,1.0966117125651211,-1.075946334079558,-0.6813846227458121,-1.5490258068883196,0.8068523221355344,1.5007619886688608,1.2138256256156013,-1.2799094056722795,-0.9398445910780986,0.4763391209605284,0.2618222674234394,0.0183725140791235,0.3975053574042875,11.22193005918507,-1.3421555964888954,0.1392854401981006,-1.0524456756906873
2.34,-1.508488452684549,0.7721727460473112,1.487338436839249,0.0185564549648728,0.1526377122367868,0.0129975429904882,1.0978709380456022,-1.0749646694956734,-0.6769165824029504,-1.5255492943879283,0.7820541340340097,1.482322310553077,1.2538256262116478,-1.319909406268326,-0.9577052763670048,0.2372377429467432,0.0629612740240537,0.0490832291942244,0.2234020171430872,10.816724365746268,-1.3536723010583849,0.1414394565247504,-1.040561504229998
2.36,-1.4876401588582078,0.7517560849472632,1.4744955239990976,0.0175841222612895,0.1447506850130774,0.0130163837158308,1.0965657238243671,-1.0742586961715967,-0.675161429514225,-1.5010727818726364,0.7562559459175838,1.4634361153050706,1.2938256268076942,-1.3599094068643724,-0.9755659616559108,0.1149189296898326,-0.0652607110617431,0.0352986662038312,0.0877576444362704,10.61289609751293,-1.3625126993751249,0.1427244179356114,-1.030469546269387
2.38,-1.465742840054119,0.7302802041515213,1.460994042394108,0.0171902242831534,0.1378955730663872,0.0131165671403259,1.0931073117847174,-1.0733924117228884,-0.6751509470127025,-1.475596269342443,0.7294577577862569,1.4441034029248414,1.3338256274037406,-1.3999094074604188,-0.993426646944817,0.1782636563135323,-0.1729206019824958,0.0433142224354199,0.0005241250761234,10.460286639612605,-1.369774924616965,0.1434608197883033,-1.0212003634844558
2.4,-1.4439367049608505,0.7088220704681489,1.4474737774323374,0.0174456559630963,0.1327549972357221,0.0132959948388223,1.087546407916155,-1.0725000993847855,-0.676940868904202,-1.4110874744648831,0.6766105835653768,1.4272364950434728,1.1931073132748335,-1.1733924132130045,-0.678502917821283,0.2954813594873294,-0.2780451934281225,0.0446156169051303,-0.0894960945749756,10.341832645712202,-1.375110151813663,0.14359649222516,-1.0138279449045349
2.42,-1.4221893256917408,0.6873336767453168,1.43434285327735,0.017058203163868,0.1293962244035042,0.0134638996223327,1.0873223023665528,-1.0759037699692895,-0.6360556635819216,-1.4110874744648831,0.6766105835653768,1.4272364950434728,1.1931073132748335,-1.1733924132130045,-0.678502917821283,2.051362480761389,-0.0112052774801085,-0.1701835292251874,2.044260266114023,10.235387686399918,-1.370206589652641,0.1435809589880433,-0.999956946774439
2.44,-1.401550529396544,0.6668723757217677,1.4226017511063611,0.0156147195553032,0.127944335734006,0.0135850043839469,1.0853495326010612,-1.0776496454025728,-0.6020261526357814,-1.4110874744648831,0.6766105835653768,1.4272364950434728,1.1931073132748335,-1.1733924132130045,-0.678502917821283,1.7065663749248463,-0.0986384882745827,-0.0872937716641653,1.7014755473070076,13.10638185593598,-1.3760306553725967,0.1457216036171927,-1.006450056294499
2.46,-1.3798723267012578,0.6453208790994627,1.4108773306337254,0.0138348961631122,0.1281525855037673,0.013728850015387,1.082700834935284,-1.0774156793198186,-0.5724992877339006,-1.3991564013321347,0.6648766594332468,1.42045146586526,1.2131073135728567,-1.1933924135110276,-0.6791733119829991,1.482317518605996,-0.1324348832888566,0.0116983041377083,1.4763432450940417,12.55784280250282,-1.3797283943473868,0.1481233116996901,-1.01453675231712
2.48,-1.3582484046311691,0.6237915695025584,1.3996831741768117,0.0126030660241573,0.1298147826437075,0.0139357368829368,1.0799735179845895,-1.0755999508969316,-0.5486293551646846,-1.375294255066638,0.6414088111689867,1.4068814075088345,1.2531073141689033,-1.2333924141070742,-0.6805141003064313,1.2046875199757636,-0.136365847534714,0.0907864211443509,1.1934966284607995,12.118860385267908,-1.3814812819850195,0.149942851215138,-1.0232069899611405
2.5,-1.336676347509374,0.6023134367015057,1.3889163766717691,0.0126110688703286,0.1326299246844046,0.0142466529627537,1.0775967650426233,-1.0725442902421074,-0.5292476439729104,-1.3514321088011414,0.6179409629047267,1.3933113491524087,1.2931073147649497,-1.2733924147031206,-0.6818548886298635,0.988226625458368,-0.1188376470983243,0.1527830327412105,0.9690855595887116,11.763372357860137,-1.380636716887689,0.1506716689084701,-1.0331176392101311
2.52,-1.316219279511739,0.5819726754261212,1.379018667381842,0.0142442385318914,0.1360840804875029,0.0146694425389252,1.0760847716792117,-1.0690126120969363,-0.5136020301986499,-1.3255699625058424,0.5924731146106642,1.3796742513798117,1.333107315360996,-1.313392415299167,-0.6831956769532957,0.8055186292467201,-0.0755996681705784,0.1765839072585429,0.7822806887130218,11.509766517032403,-1.377809289435706,0.1496944625765079,-1.043322584172006
2.54,-1.2947028901328528,0.5606273774437643,1.3689181888373574,0.0178677649441228,0.1402542282881252,0.0152640225548875,1.0758210649135882,-1.0663508257811958,-0.4972896423069718,-1.2997078162105435,0.5670052663166019,1.3660371536072142,1.3731073159570426,-1.3533924158952135,-0.684536465276728,0.8265117155513689,-0.0131853382811741,0.1330893157870383,0.8156193945839052,11.342422034864285,-1.37416405158241,0.1468193355559583,-1.0537820751746376
2.56,-1.2731699121984017,0.5392963665726287,1.359146039029265,0.0222313623524595,0.1445162420391644,0.0159251364169933,1.0775973313079958,-1.0670380071396686,-0.4807725641036641,-1.2728456699003434,0.5405374180076382,1.3523665361265311,1.413107316553089,-1.39339241649126,-0.6858772536001602,0.8313260685457837,0.0888133197203822,-0.0343590679236394,0.8258539101653833,11.352625623726452,-1.370144760464552,0.1433371982850307,-1.0637298824244994
2.58,-1.252663593312461,0.5189989094857412,1.3501698850991863,0.0261416278097341,0.1481659566338934,0.0165391490992097,1.080901635945581,-1.06947431765641,-0.46493239831561,-1.244983523575242,0.5130695696837736,1.3386623989377624,1.453107317149135,-1.4333924170873062,-0.6872180419235924,0.8181761580872896,0.1652152318792565,-0.1218155258370767,0.7920082894027042,11.38213830638324,-1.3662398567309575,0.1398263862870553,-1.0732226899750357
2.6,-1.2309978930651206,0.4975718368418028,1.3410452353727398,0.0297177906063273,0.1512815411869239,0.017136170799101,1.085521095510207,-1.0730791767077237,-0.4483812625529057,-1.198618511515182,0.4655251936029207,1.3269232651834058,1.180901637435697,-1.1694743191465262,-0.4435765439682618,0.8778873938104499,0.230972978231303,-0.1802429525656679,0.8275567881352169,11.409079271765222,-1.3631230980308968,0.1367949947769333,-1.081370836063891
2.62,-1.2091308881886824,0.4759845991156409,1.3324650528938564,0.0302666087627693,0.1514747144262772,0.0174356413763578,1.1011320608461528,-1.0846843059272528,-0.4093004254984371,-1.198618511515182,0.4655251936029207,1.3269232651834058,1.180901637435697,-1.1694743191465262,-0.4435765439682618,2.1827122392793803,0.7805482667972874,-0.5802564609764693,1.954041852723432,11.41638286957641,-1.3567872847860676,0.13622234582822,-1.082417352831154
2.64,-1.1869551819070343,0.4542014019947275,1.32468125876218,0.0268930599533347,0.146625886661418,0.0173193605835725,1.1148749410439929,-1.092411367298482,-0.3712735488084704,-1.198618511515182,0.4655251936029207,1.3269232651834058,1.180901637435697,-1.1694743191465262,-0.4435765439682618,2.0582866566399685,0.6871440098920045,-0.3863530685614624,1.9013438344983316,12.855230779865453,-1.3657563829508934,0.139968441613644,-1.0834484823897574
2.66,-1.1656920051247746,0.4334175717302452,1.3179340094578549,0.0224794686892409,0.1389412238567466,0.0170763803006777,1.1221843567889245,-1.0948526475626377,-0.3407982161226195,-1.186809495140825,0.4538304504114555,1.322487499743723,1.2009016377337205,-1.1894743194445494,-0.4393053730987922,1.5717293900141482,0.365470787246569,-0.1220640132077788,1.5237666342925449,12.855230779865453,-1.3774370691970803,0.1451290133031167,-1.078481570604885
