t,x,y,z,roll,pitch,yaw,v_x,v_y,v_z,ref_x,ref_y,ref_z,ref_v_x,ref_v_y,ref_v_z,a_com,a_x,a_y,a_z,thrust,wind_x,wind_y,wind_z
0.0,-2.3003865904307745,1.873719029088667,2.284843784322147,0.0244069523248933,0.1500636969268722,0.028937409440581,0.0015294670514056,0.0022235455321066,-0.0038309274035879,-2.3003425853989703,1.8738728549429944,2.28472699692279,0.0466903581512586,-0.0957131052989749,-0.1037832709051585,0.2343044438665641,0.0764733525702802,0.1111772766053321,-0.1915463701793979,10.660116494156682,-1.4130047121602485,0.16654836940973,-1.2805512237042422
0.02,-2.30046117350643,1.8739790694837704,2.284558160104501,0.0325470015240517,0.1522062821262162,0.0295513646513023,-0.0087272828865587,0.0199333666469931,-0.0259593419199133,-2.3003425853989703,1.8738728549429944,2.28472699692279,0.0466903581512586,-0.0957131052989749,-0.1037832709051585,1.5070711763363511,-0.5128374968982196,0.8854910557443271,-1.1064207258162688,10.661008610550198,-1.407151076469156,0.1567358551488431,-1.2785435252542934
0.04,-2.3007183063506886,1.874387646640244,2.283732439803122,0.0470297743487144,0.157683186637653,0.0307472345006268,-0.016010627693711,0.019338320720882,-0.0556540376037346,-2.3003425853989703,1.8738728549429944,2.28472699692279,0.0466903581512586,-0.0957131052989749,-0.1037832709051585,1.5290324906528396,-0.3641672403576142,-0.0297522963055581,-1.4847347841910663,9.262598043807884,-1.3961799962158223,0.1394685589441548,-1.284632328035489
0.06,-2.301062412373219,1.8746969035601109,2.28239415793989,0.061206470973349,0.1643786330727525,0.0320483176792567,-0.0195606560962057,0.0129606976211505,-0.0837466837396938,-2.2998756818174577,1.8729157238900045,2.2836891642137385,0.0557391493809835,-0.1157131055969981,-0.1237832712031817,1.4512697414514044,-0.1775014201247335,-0.3188811549865755,-1.4046323067979594,9.033763990531952,-1.3852960593915542,0.122690420500369,-1.2904349603243597
0.08,-2.301466947532432,1.8748563070904527,2.280417829657388,0.075613118847819,0.1720369453540023,0.0335033927886716,-0.0204251698404105,0.0030023026545365,-0.1123947207965153,-2.298941874654433,1.871001461784025,2.281613498795636,0.0738367318404333,-0.1557131061930445,-0.1637832717992282,1.5170918244572555,-0.0432256872102404,-0.4979197483306975,-1.432401852841074,9.033763990531952,-1.3735097867373605,0.1057076749051014,-1.2957554498913872
0.1,-2.3018617092341227,1.8747870608257695,2.2778812601499183,0.0893487333223505,0.1797837849361268,0.0350035105165696,-0.0187691565002865,-0.009721816679233,-0.1398084640088359,-2.2980080674914074,1.8690871996780452,2.279537833377532,0.0919343142998831,-0.195713106789091,-0.2037832723952746,1.5134058526331695,0.0828006670061989,-0.6362059666884825,-1.3706871606160298,9.10470910524873,-1.3622219263403756,0.0896325779279751,-1.2998261559116282
0.12,-2.302199998459613,1.8744360287768769,2.2748082080469234,0.1024128042414478,0.1873292893363536,0.0365156612751745,-0.0149339695427404,-0.0250244666453778,-0.1661139501674255,-2.29616938120541,1.8651729375422637,2.2754621679296267,0.1100318967593328,-0.2357131073851374,-0.2437832729913211,1.533670724948344,0.1917593478773044,-0.7651324983072395,-1.3152743079294802,9.19142031769934,-1.3525084844846464,0.0752290984192056,-1.30262065851427
0.14,-2.3024332070385607,1.8737963859026108,2.2714040998436063,0.114223015505053,0.1941833685731943,0.0379390569345633,-0.009655301468436,-0.0417667142227593,-0.1909504938703957,-2.294330694919412,1.8612586754064817,2.271386502481721,0.1281294792187826,-0.275713107981184,-0.2837832735873676,1.520707971382545,0.2639334037152211,-0.8371123788690714,-1.2418271851485128,9.293113244596498,-1.3430939421490653,0.060751506612061,-1.3067683464181956
0.16,-2.302554549439909,1.872756712106852,2.267309539220193,0.1260483008820754,0.2010133498534268,0.0394035203178454,-0.0025893204860501,-0.0615704943704361,-0.2172375524538571,-2.292039569071928,1.856344413255799,2.266310837018915,0.1462270616782323,-0.3157131085772304,-0.323783274183414,1.683097772227811,0.3532990491192936,-0.9901890073838407,-1.3143529291730696,9.308407730490217,-1.3333688537720982,0.0469684193520687,-1.309786391816811
0.18,-2.302518425885993,1.8712980226183764,2.2626910841401644,0.1372777129654021,0.2074309372515089,0.040816643879363,0.0060071754083302,-0.0835465283323741,-0.243313941170451,-2.2892960036629577,1.8504301510902144,2.260235171541207,0.1643246441376821,-0.3557131091732768,-0.3637832747794604,1.7584253316939955,0.4298247947190232,-1.098801698096902,-1.3038194358296908,9.308407730490217,-1.323353369354968,0.0338690552992897,-1.3115490022691998
0.2,-2.302294503601263,1.869357119317088,2.2575527813232874,0.1472681768676308,0.2134444039288716,0.0421169078100511,0.0160894659334351,-0.1092043361963189,-0.2692036706157414,-2.3022180671155765,1.8671206962017577,2.250525387081642,0.0438698115572598,-0.1835465298224902,-0.3433139426605671,1.8909348067596492,0.5041145262552422,-1.282890393197237,-1.2944864722645208,9.38958444122909,-1.3146620288911606,0.0228499159822946,-1.312364460352326
0.22,-2.3018476445621974,1.8668871438325465,2.252286933391461,0.1514184306179133,0.2185797134968587,0.0428958807386072,0.0306664254443277,-0.1478626682581684,-0.2828850408271885,-2.3022180671155765,1.8671206962017577,2.250525387081642,0.0438698115572598,-0.1835465298224902,-0.3433139426605671,2.176082648504589,0.728847975544632,-1.9329166030924765,-0.6840685105723554,9.38958444122909,-1.30588333256504,0.0179310266965458,-1.3099227442979249
0.24,-2.301061371325248,1.8635668328817647,2.246487609141993,0.1493738248344476,0.2230348788307369,0.04308913387422,0.0471836557144492,-0.1814702698897597,-0.2963814996981865,-2.3022180671155765,1.8671206962017577,2.250525387081642,0.0438698115572598,-0.1835465298224902,-0.3433139426605671,1.9902538690331035,0.8258615135060744,-1.680380081579563,-0.674822943549902,10.256981446980715,-1.3002888799019192,0.0207845776789336,-1.30887587018528
0.26,-2.299937749910935,1.8596327078462305,2.2404017116233126,0.1443210941796312,0.2263153985870967,0.0428522269912771,0.0642781198851724,-0.2095719422598696,-0.3113985658781462,-2.301779369000004,1.8652852309035328,2.2470922476550363,0.0514423387870457,-0.2035465301205135,-0.3633139429585904,1.8079248960717564,0.854723208536158,-1.4050836185054982,-0.7508533089979841,10.145110542707698,-1.2960264752874404,0.0267400319245843,-1.3062685983359472
0.28,-2.298552812185914,1.85541712558878,2.23432843277489,0.1388814548682379,0.2282496750936784,0.042376710546517,0.0805558318776656,-0.2326277520603387,-0.3270945662919996,-2.300901972768859,1.8616143003070829,2.2402259688018247,0.0665873932466176,-0.2435465307165599,-0.4033139435546368,1.6146971095670322,0.8138855996246634,-1.1527904900234545,-0.7848000206926692,10.019608155515924,-1.2931891639652129,0.033668202535979,-1.3022064390418018
0.3,-2.2967658173521035,1.850534174270248,2.227596255737028,0.1334694061037263,0.2291287151402359,0.0417111238524464,0.0971778844620036,-0.2544863097676294,-0.3452693409600467,-2.3000245765377136,1.857943369710633,2.233359689948613,0.0817324477061894,-0.2835465313126064,-0.4433139441506832,1.6465202787953588,0.8311026292168989,-1.0929278853645334,-0.9087387334023532,9.790948977819426,-1.2914688749994585,0.0400225776909292,-1.2968857677469745
0.32,-2.294765180897499,1.8455045816999291,2.2208511034902108,0.1289273657820056,0.2290223611618832,0.0409781178954666,0.1125155162071988,-0.2739257707850366,-0.3638198835156226,-2.2983899275835897,1.852272439084381,2.2244934110656,0.0968775021657613,-0.3235465319086528,-0.4833139447467297,1.5469794934845975,0.766881587259758,-0.9719730508703588,-0.927527127778796,9.701604245057752,-1.290708201478132,0.0451913562277435,-1.2907589403109812
0.34,-2.292349856601512,1.8398225534271024,2.2133626868737304,0.1248720478483215,0.228024109477443,0.0401312633087127,0.1281449566365721,-0.2933239276669678,-0.384072718221377,-2.296755278629466,1.8466015084581289,2.2156271321825862,0.1120225566253331,-0.3635465325046993,-0.5233139453427762,1.6052610474389808,0.7814720214686655,-0.9699078440965624,-1.0126417352877226,9.701604245057752,-1.2908560872765202,0.0496571338865364,-1.283143347754782
0.36,-2.289623622121069,1.8337503582544707,2.2054632535156804,0.1212511540253347,0.2260924249785521,0.0391901073959639,0.1436383659661494,-0.3128400057956093,-0.4048398559789418,-2.294742003313853,1.8399305778169757,2.2057608532846715,0.127167611084905,-0.4035465331007458,-0.5633139459388226,1.6218793487947394,0.7746704664788647,-0.9758039064320712,-1.038356887878236,9.644848532142532,-1.291884725931551,0.0534890820934983,-1.2742935693711503
0.38,-2.2865903726752794,1.8272913436895049,2.1971439116372498,0.1176861120312252,0.223040505265868,0.0381138028517962,0.1588016375534646,-0.331944016773473,-0.4259939671494355,-2.2923501016367505,1.8322596471609207,2.1948945743718555,0.1423126655444768,-0.4435465336967922,-0.603313946534869,1.6142989655626283,0.7581635793657587,-0.9552005488931896,-1.057705558524688,9.611317017594956,-1.293985165222096,0.0569777775592948,-1.264297280431155
0.4,-2.2834345155944487,1.820807285702884,2.1888452747926683,0.1142642592340294,0.2190120151873331,0.0369590263226381,0.1725132599243733,-0.3495016584275284,-0.4464300955413142,-2.2786502907976063,1.810694142850831,2.175844213279778,0.206773191653978,-0.4319440182635892,-0.5259939686395516,1.5115511173493068,0.6855811185454391,-0.8778820827027661,-1.0218064195939347,9.57717977586617,-1.2976188008662972,0.060574742796666,-1.2523881381426838
0.42,-2.279841659778166,1.813617925393032,2.1799135615084166,0.1111043451779377,0.2151194969728664,0.0358222222789159,0.1859422028358541,-0.3687383878742813,-0.4445105355943887,-2.2786502907976063,1.810694142850831,2.175844213279778,0.206773191653978,-0.4319440182635892,-0.5259939686395516,1.1769377404064565,0.6714471455740362,-0.9618364723376488,0.0959779973462748,9.537575664640826,-1.303251032575334,0.064425896216556,-1.2324189105186425
0.44,-2.2760087434864182,1.8060533468157756,2.1710238779480378,0.1088649892346917,0.2139001448484809,0.0350520315485974,0.1967535558002232,-0.3868823802445661,-0.4449755397716043,-2.2786502907976063,1.810694142850831,2.175844213279778,0.206773191653978,-0.4319440182635892,-0.5259939686395516,1.0562978284295026,0.540567648218454,-0.90719961851424,-0.0232502088607811,10.981794401181103,-1.3054851766630085,0.0661737866043353,-1.230470055459847
0.46,-2.2721660945312974,1.7985327152796895,2.162515197416067,0.1073823808274838,0.2149888128756925,0.0346068427557022,0.2074468847912997,-0.4038725072990317,-0.4506503494576047,-2.276582558881066,1.806374702668195,2.1705842735933825,0.2163675024740807,-0.4519440185616124,-0.5459939689375748,1.0430905607983003,0.5346664495538291,-0.8495063527232782,-0.2837404843000185,10.628798917216956,-1.3031387297881365,0.0671817032648788,-1.231064985443332
0.48,-2.267889987521305,1.790274825591062,2.1534024890902908,0.1062987334568477,0.2174415421578036,0.0343037489031702,0.2197479815662999,-0.4210059014707294,-0.4605004802960843,-2.272447095047987,1.7977358223029232,2.1600643942205915,0.2355561241142861,-0.4919440191576588,-0.5859939695336213,1.163932187936492,0.6150548387500079,-0.8566697085848868,-0.4925065419239788,10.32607764824752,-1.2988155140193656,0.0677305945431182,-1.2320693851795463
0.5,-2.26335680985014,1.7816807027478057,2.1440559683378866,0.1057395538292127,0.2204337959286331,0.0340851571259039,0.2330687196869791,-0.4375726753909934,-0.47365247269091,-2.268311631214907,1.7890969419376517,2.1495445148478005,0.2547447457544915,-0.5319440197537053,-0.6259939701296677,1.2498749599043972,0.6660369060339594,-0.8283386960131978,-0.6575996197412864,9.93647269169378,-1.293997310158176,0.0677542786026812,-1.232894156011855
0.52,-2.25854730354775,1.772759206437963,2.134423389850588,0.1057226798677251,0.2234062601696441,0.0338930805697066,0.2472739298570287,-0.4537610259821688,-0.4890470787514005,-2.263216736299817,1.7784580615425774,2.137024635445207,0.2739333673946968,-0.5719440203497518,-0.6659939707257142,1.3236734742713,0.7102605085024832,-0.8094175295587702,-0.7697303030245239,9.93647269169378,-1.2889181017609048,0.0672135287750791,-1.2331674515118531
0.54,-2.253706455938542,1.763985682244526,2.124975945110765,0.1062539391418421,0.2258616058271632,0.0337018043985765,0.2615853951887829,-0.4690089515098745,-0.5046405372962265,-2.258121841384728,1.7678191811475032,2.124504756042614,0.2931219890349023,-0.6119440209457983,-0.7059939713217607,1.3042940832397292,0.7155732665877074,-0.7623962763852854,-0.7796729272412983,9.813705976543131,-1.284296944078118,0.0660395858424517,-1.232161152587329
0.56,-2.248308776552768,1.7544275815666155,2.114702833511474,0.1071052553503831,0.227796557771017,0.0334430511484679,0.2774177225880699,-0.4859780180410205,-0.5218665908500416,-2.2525472309286325,1.7561803007375278,2.11098487662512,0.3123106106751077,-0.6519440215418446,-0.745993971917807,1.445120004407574,0.7916163699643514,-0.8484533265572969,-0.8613026776907562,9.772176155486704,-1.2805607565140882,0.0645073831340887,-1.2301592617101915
0.58,-2.2425875964013056,1.7445183497296055,2.104077455337264,0.1076619869092937,0.2288132889543975,0.0330550778703315,0.2938056505498598,-0.5039600340473932,-0.5397652452690801,-2.2464929049315328,1.7435414203126516,2.096464997192724,0.331499232315313,-0.6919440221378911,-0.7859939725138535,1.5101977623364646,0.8193963980894947,-0.8991008003186363,-0.8949327209519242,9.735064216413775,-1.2780000744591995,0.0633017171308667,-1.2265394021620368
0.6,-2.2365362927867647,1.7342411272592595,2.093087410904649,0.1074141893434967,0.228780373396254,0.0324873145782114,0.3104087022150338,-0.5226804351389933,-0.5582938391160605,-2.2278973138738127,1.719320348027236,2.07708919307381,0.3558046846863936,-0.6039600355375093,-0.6397652467591962,1.5567783493268852,0.8301525832586976,-0.9360200545800056,-0.9264296923490178,9.707463070477388,-1.2765912298793305,0.0629384230785946,-1.2217582874692596
0.62,-2.230450460148256,1.7240750680478478,2.082572385406546,0.1053238269363478,0.2287766984439794,0.0318144350069577,0.3295209259625006,-0.5459597960144871,-0.5475893386522496,-2.2278973138738127,1.719320348027236,2.07708919307381,0.3558046846863936,-0.6039600355375093,-0.6397652467591962,1.598274123487921,0.9556111873733424,-1.163968043774688,0.5352250231905442,9.674170957734532,-1.2769688857407926,0.06524776419452,-1.209601017496673
0.64,-2.223653318890951,1.7129373326224673,2.0717005799279518,0.1014045101188012,0.2296643066393709,0.0310776549663825,0.3492023974422213,-0.5661508758482215,-0.5405194502287279,-2.2278973138738127,1.719320348027236,2.07708919307381,0.3558046846863936,-0.6039600355375093,-0.6397652467591962,1.453464264077674,0.9840735739860328,-1.0095539916867236,0.3534944211760815,11.52808405885935,-1.2764701736357835,0.0687050160990261,-1.2118625486041863
0.66,-2.216464587435176,1.701427955539696,2.060899235617306,0.0971887760106309,0.2308317364727229,0.0303469026722197,0.36870481664095,-0.5836248681561971,-0.5399197098433048,-2.2243392670269486,1.713280747671861,2.0706915406062176,0.3682044915137003,-0.6239600358355325,-0.6597652470572194,1.3096225127036023,0.9751209599364374,-0.8736996153987764,0.0299870192711548,10.71668119028891,-1.2754089133675814,0.0723416943302544,-1.2136326777288873
0.68,-2.2092764336534736,1.690189298459592,2.050601762079596,0.0933203082470739,0.2316781806575648,0.0296358820487935,0.38693077392988,-0.5984758829520984,-0.5440269972348112,-2.217223173333221,1.7012015469611108,2.0578962356710337,0.3930041051683138,-0.663960036431579,-0.6997652476532659,1.1933230590271944,0.9112978644465004,-0.742550739795067,-0.2053643695753171,10.71668119028891,-1.2741260875903913,0.0760548947315643,-1.2138369521929175
0.7000000000000001,-2.201342190306075,1.6780702433550403,2.039639124445808,0.0896350160646801,0.2320601290664051,0.028868584700686,0.4054569598125981,-0.6126361885859835,-0.5521802187336905,-2.210107079639493,1.6891223462503606,2.04510093073585,0.4178037188229273,-0.7039600370276254,-0.7397652482493123,1.23512027735748,0.9263092941359048,-0.708015281694252,-0.4076610749439657,10.426927672549937,-1.2731592276492327,0.079349846536227,-1.2123567277487348
0.72,-2.1930448719074747,1.665678978689019,2.0284778417845044,0.0864408328192442,0.2318543630606881,0.0280872319355742,0.4232613122437197,-0.6257932214286714,-0.5636557606467597,-2.2017510052630342,1.675043145509808,2.030305625770864,0.4426033324775408,-0.7439600376236719,-0.7797652488453588,1.2467864100496169,0.8902176215560803,-0.6578516421343994,-0.5737770956534605,10.192109893283488,-1.272677027394012,0.0821035727548085,-1.209377807831569
0.74,-2.184396590137351,1.6530331122676754,2.0170670303825458,0.0837561356474857,0.231022647869629,0.0272938825296348,0.4406183699981871,-0.6382153316438397,-0.5768211236453031,-2.193394930886576,1.6609639447692557,2.0155103208058773,0.4674029461321543,-0.7839600382197184,-0.8197652494414053,1.2538969843782208,0.8678528877233666,-0.6211055107584129,-0.6582681499271714,10.002007028756452,-1.2726361815696303,0.0841839224703027,-1.2052114820955957
0.76,-2.1758586166698013,1.640786238137947,2.005970646658763,0.0813806494074643,0.2294679399238771,0.0264960239972312,0.4571826766175039,-0.6501988266824719,-0.5905250044858498,-2.184418866168752,1.6458847440138018,1.99971501582599,0.4922025597867678,-0.8239600388157647,-0.8597652500374516,1.2306266261660814,0.8282153309658397,-0.5991747519316082,-0.6851940420273317,9.914110977674682,-1.2732076006959328,0.0861148413058215,-1.199685563157414
0.78,-2.1665339793559872,1.6276534558562856,1.9939963475144316,0.0788376028580076,0.2267026084112546,0.0255725925295048,0.4743236282704066,-0.6623413399156752,-0.6062099087384356,-2.174822811109563,1.629805543243447,1.9829197108312016,0.5170021734413813,-0.8639600394118112,-0.8997652506334981,1.3107908610820147,0.8570475826451346,-0.6071256616601683,-0.784245212629292,9.8423406068423,-1.2751749520399238,0.0880756683414832,-1.1923524174710889
0.8,-2.156871762914917,1.6142826299951796,1.981695015396559,0.0761867364211974,0.2224967294461435,0.024544518397393,0.4909161854166514,-0.6740079606062724,-0.6231482783321888,-2.1428177979424667,1.5945363888605018,1.9636858520775096,0.5288909168777656,-0.7623413414057914,-0.7062099102285517,1.321297993910017,0.8296278573122429,-0.5833310345298603,-0.8469184796876583,9.758735598788007,-1.2785372203377077,0.0900160723606739,-1.1834168475398965
0.8200000000000001,-2.147337938879149,1.601342699344588,1.969971111716313,0.0733449397277319,0.2172413673356854,0.0234706153282381,0.5118688337041417,-0.6873978395253905,-0.6084180498842233,-2.1428177979424667,1.5945363888605018,1.9636858520775096,0.5288909168777656,-0.7623413414057914,-0.7062099102285517,1.445062245940604,1.0476324143745137,-0.6694939459559013,0.7365114223982727,9.676562230119089,-1.2836107674342971,0.0925513310810207,-1.167119697135078
0.84,-2.136897111409001,1.587470468826965,1.957939788854569,0.0704309668328495,0.211069603056759,0.0223284148809635,0.5307367193360192,-0.6991292503344773,-0.5960106532747547,-2.1428177979424667,1.5945363888605018,1.9636858520775096,0.5288909168777656,-0.7623413414057914,-0.7062099102285517,1.2723664943853843,0.9433942815938734,-0.5865705404543398,0.6203698304734329,11.821950258206924,-1.292886351527731,0.0948405350884227,-1.161850628361602
0.86,-2.126116858287462,1.5733747915867486,1.9460761891999407,0.0679900712514254,0.2046418928466641,0.0212315719839506,0.546061584844577,-0.7098617799536358,-0.5912477276676357,-2.137528888773689,1.586912975446444,1.956623752975224,0.5398043745992374,-0.7823413417038145,-0.7262099105265749,0.9653032622192488,0.7662432754278914,-0.5366264809579246,0.2381462803559497,11.295241894576977,-1.3016682497588763,0.0966228212053454,-1.155067629995114
0.88,-2.11506633441248,1.5590743048247968,1.9342337221672965,0.0659979593292052,0.1981960262963375,0.0201925606521249,0.5580474370396358,-0.7197303427971962,-0.5931631843882076,-2.126951070436134,1.571666148618328,1.942499554770653,0.5616312900421809,-0.822341342299861,-0.7662099111226214,0.7821735099827282,0.5992926097529383,-0.4934281421780206,-0.0957728360285958,10.80810672602911,-1.3093098296653476,0.0978859614466861,-1.147023893417335
0.9,-2.1043745822472446,1.5453134801486603,1.9228994070154128,0.0645475979465256,0.1923279369537368,0.0192758367208708,0.5666919990800786,-0.7283356568895407,-0.5997858351945443,-2.1163732520985783,1.5564193217902125,1.928375356566082,0.5834582054851245,-0.8623413428959075,-0.8062099117186678,0.6939729591303279,0.4322281020221419,-0.4302657046172276,-0.3311325403168363,10.422008865619318,-1.3163379349768811,0.0987416394791465,-1.137571637800478
0.92,-2.092969074366232,1.5306609760327907,1.9107924532659155,0.0636929895166946,0.1867182146972314,0.0184135601106656,0.5732365317865241,-0.7364982347204401,-0.6107214116883649,-2.104704087988876,1.539172494932294,1.9122511583317088,0.6052851209280681,-0.902341343491954,-0.8462099123147143,0.7567123271815818,0.3272266353222752,-0.4081288915449677,-0.5467788246910299,10.11630502754724,-1.3222605807476653,0.0989115498703908,-1.1278018554236982
0.94,-2.0814570684004643,1.5158518446941434,1.8984404757524136,0.0638021136307539,0.1820846528861802,0.0176938644338299,0.5775508349346588,-0.7441287959525377,-0.6238918292429398,-2.093034923879173,1.521925668074376,1.8961269600973352,0.6271120363710116,-0.9423413440880004,-0.8862099129107608,0.7910413625921384,0.2157151574067317,-0.3815280616048799,-0.6585208777287466,9.747865546143656,-1.3264092746596825,0.098167543298594,-1.119446453909487
0.96,-2.0704554227615284,1.501633564033463,1.886447943194415,0.0646215818789676,0.1789136100167019,0.0171452353943782,0.5802486704451051,-0.7521433574391371,-0.6377991991984995,-2.080820086883397,1.5036788412015567,1.8790027618480607,0.6489389518139552,-0.9823413446840468,-0.9262099135068071,0.8138280705172168,0.1348917755223166,-0.4007280743299701,-0.6953684977779817,9.747865546143656,-1.3288047586481282,0.0966184992051542,-1.1121868837353843
0.98,-2.058831698480644,1.4864966377268634,1.873525152490203,0.0658926994171045,0.1771294094344312,0.0167018162764844,0.5819295364538201,-0.7611357651730887,-0.6538005037455463,-2.0680595770015477,1.484432014313836,1.860878563583885,0.6707658672568988,-1.0223413452800931,-0.9662099141028536,0.9215889194757988,0.0840433004357488,-0.4496203866975801,-0.8000652273523423,9.661477417592325,-1.3291014852670386,0.0946718387305366,-1.1068347119737336
1.0,-2.04717597227937,1.471171618485447,1.860269019277212,0.067267103264152,0.1769764666864705,0.0163792668912865,0.583742646039947,-0.7709013966783904,-0.6710664553973767,-2.029735221657953,1.448439849468209,1.8408351273029255,0.6391750778177746,-0.8611357666632048,-0.7538005052356624,0.9959518205114052,0.0906554793063452,-0.4882815752650871,-0.8632975825915212,9.57723151015125,-1.3269345111732385,0.0926180957086131,-1.1036764465642943
1.02,-2.035427471283988,1.4555843585422428,1.8469949914620925,0.0672058044687854,0.1783874983875554,0.0160698247068845,0.5915202282657284,-0.7871160911746509,-0.6537250069364169,-2.029735221657953,1.448439849468209,1.8408351273029255,0.6391750778177746,-0.8611357666632048,-0.7538005052356624,1.249132636682327,0.3888791112890699,-0.8107347248130226,0.8670724230479931,11.791255591084337,-1.322489936942822,0.0922264891254153,-1.0940189147052497
1.04,-2.0241105326882427,1.440489964088699,1.8347059220002695,0.0651170020246774,0.1811026890205904,0.0157341680457208,0.5995239760919021,-0.8007705384332067,-0.6409348075311542,-2.029735221657953,1.448439849468209,1.8408351273029255,0.6391750778177746,-0.8611357666632048,-0.7538005052356624,1.0174638937427285,0.4001873913086873,-0.6827223629277901,0.6395099702631357,11.269264911080429,-1.3206952334723578,0.0937676703349398,-1.1016448452688046
1.06,-2.0120271967602177,1.4243471241987546,1.8219601465571025,0.0616844132147621,0.1847050182579687,0.0153476847056056,0.6084978512680032,-0.8123777069453567,-0.6346252780968417,-2.0233434708797757,1.439828491801577,1.8332971222505687,0.6506241860905655,-0.881135766961228,-0.7738005055336856,0.7985407914254381,0.4486937588050521,-0.5803584256075023,0.3154764717156255,11.269264911080429,-1.3168817299333264,0.0966127754296187,-1.1086320485055885
1.08,-1.999759317876252,1.4080026335627716,1.8092722212961103,0.0581194224100975,0.1884435548415617,0.0149628004618211,0.6179086642355806,-0.8214218186965264,-0.634741216543283,-2.0105599693234195,1.4226057764683129,1.818221112145856,0.6735224026361474,-0.9211357675572744,-0.8138005061297321,0.6526346600544061,0.4705406483788699,-0.4522055875584851,-0.0057969223220655,10.815071650784375,-1.3128429248007962,0.0995089645539785,-1.114306700606208
1.1,-1.987928048083894,1.3923242095058046,1.7971614623553904,0.0550932913033385,0.191733394615947,0.0146102705367652,0.627063476658767,-0.8285531064940947,-0.6400508090310212,-1.997776467767064,1.4053830611350486,1.8031451020411424,0.6964206191817292,-0.9611357681533208,-0.8538005067257786,0.638078421005841,0.4577406211593249,-0.3565643898784165,-0.2654796243869106,10.44903011164024,-1.3085666553153898,0.1022346869046561,-1.1185396102596763
1.12,-1.9752855215798384,1.375685522970048,1.7842636729449497,0.0524886277684813,0.1947434395485143,0.0142605936110335,0.636718907169141,-0.8350170468212706,-0.6496305970776465,-1.9838480553834297,1.3861603457719822,1.786069091906627,0.7193188357273109,-1.0011357687493674,-0.893800507321825,0.7529644777680693,0.4827715255186993,-0.3231970163587949,-0.4789894023312646,10.163222085530832,-1.3051610681848316,0.1044231546570077,-1.1214774830786538
1.14,-1.962446995334592,1.3589239546489127,1.7711508985978086,0.0505423368694581,0.1972170533266896,0.013937283614355,0.6466619631019248,-0.8409179310776997,-0.6612336574971563,-1.9699196429997952,1.3669376304089158,1.7689930817721116,0.7422170522728928,-1.041135769345414,-0.9338005079178716,0.8190174103598713,0.4971527966391886,-0.2950442128214547,-0.5801530209754935,9.841369690129795,-1.3020097809658064,0.105953727420526,-1.122943535410645
1.16,-1.9494034101625823,1.3420397600122334,1.757789063798153,0.0489523695414821,0.1989880355106781,0.0136138625916088,0.6571460303773633,-0.8471670793185887,-0.6743509706683808,-1.955418775202521,1.346714915030948,1.7509170716226947,0.7651152688184746,-1.0811357699414603,-0.973800508513918,0.8958674918821757,0.5242033637719246,-0.3124574120444479,-0.6558656585612221,9.769678249919709,-1.299564021319722,0.1070717626307046,-1.1232160422507995
1.18,-1.936815795017882,1.325884653525641,1.744839432373795,0.0474962444691224,0.199881988556371,0.0132828592126618,0.6672635058795736,-0.8529971811832315,-0.6880928893178704,-1.9403454519916072,1.3254921996380795,1.7318410614583768,0.7880134853640564,-1.121135770537507,-1.0138005091099642,0.901656429105798,0.5058737751105158,-0.2915050932321417,-0.6870959324744796,9.769678249919709,-1.2979230144190164,0.10820017205898,-1.1221465983204262
1.2,-1.923360696788161,1.308763579894911,1.7309114989606182,0.0459714637078127,0.1999869797986106,0.0129084568153141,0.67763610671878,-0.8587493466886746,-0.7040292314308857,-1.9034526197239032,1.2832347944664797,1.7104347879079016,0.7533720861112402,-0.9529971826733477,-0.7880928908079865,0.993284017935682,0.5186300419603218,-0.2876082752721554,-0.7968171056507656,9.69684699143818,-1.2972415570353326,0.1093306398816914,-1.119774265149252
1.22,-1.9096818899837724,1.2914942681112087,1.7170060796074331,0.04379516382123,0.2009486158463682,0.0125414974639251,0.6902455610273367,-0.8675429227368695,-0.683933925421361,-1.9034526197239032,1.2832347944664797,1.7104347879079016,0.7533720861112402,-0.9529971826733477,-0.7880928908079865,1.265055968417409,0.6304727154278322,-0.4396788024097431,1.0047653004762347,9.608836212208187,-1.2919699749054616,0.1110030089308269,-1.1080378950843657
1.24,-1.8957364634240648,1.2740789309529588,1.703500843809316,0.0412783722340923,0.2039827499294146,0.0122533506454403,0.7038264241168906,-0.8735131943955617,-0.6682461283931783,-1.9034526197239032,1.2832347944664797,1.7104347879079016,0.7533720861112402,-0.9529971826733477,-0.7880928908079865,1.0795727876494103,0.6790431544776931,-0.2985135829346119,0.7843898514091341,11.99003077974885,-1.291876381245301,0.1133656275788857,-1.118236758377043
1.26,-1.881517031918748,1.2565615402054588,1.690216827247728,0.039214396791288,0.2080897980434067,0.012049331048159,0.7176580410971969,-0.8780575616975618,-0.6609365118553844,-1.8959188988627909,1.273704822639746,1.7025538589998217,0.7705938021575734,-0.9729971829713708,-0.8080928911060097,0.8145480286560394,0.6915808490153164,-0.2272183651000014,0.3654808268896969,10.920955607366524,-1.2899930799388533,0.1152171317735244,-1.127513871586823
1.28,-1.8677443433753955,1.239845560921809,1.6776728950550297,0.0378767562185315,0.2123161429613976,0.0119191091143373,0.7315204574108853,-0.881414883738916,-0.659852463615355,-1.880851457140566,1.254644878986279,1.686792001183662,0.8050372342502401,-1.0129971835674174,-0.8480928917020562,0.7152156282025884,0.6931208156844226,-0.1678661020677097,0.0542024120014694,10.920955607366524,-1.2862102357792673,0.1164747475512327,-1.135683093367867
1.3,-1.8529556956611848,1.2221901964562392,1.6644441600238948,0.037408388575382,0.2165784131562684,0.011850316629569,0.7466745923381989,-0.8840264346113075,-0.6632905408202473,-1.8657840154183407,1.235584935332812,1.6710301433675023,0.8394806663429067,-1.0529971841634638,-0.8880928922981026,0.7878584552778394,0.7577067463656773,-0.1305775436195755,-0.1719038602446154,10.574654814998212,-1.2822994780932793,0.1167537170970513,-1.1425871111111374
1.32,-1.837858327262072,1.2044895663335091,1.651106098404476,0.038251394692624,0.2203146945386333,0.0118664924043748,0.7623285883630884,-0.8860325441334478,-0.6704950449324389,-1.848994402091483,1.2145249916495429,1.6532682855215404,0.8739240984355734,-1.09299718475951,-0.9280928928941492,0.867434358416624,0.7826998012444741,-0.1003054761070154,-0.3602252056095822,10.315273361666186,-1.2787318552883156,0.1156735718501494,-1.148128967726057
1.34,-1.8224408295727483,1.186751837668801,1.6376052880534684,0.0407179175640221,0.2232908835001608,0.0119822784896829,0.778623204069704,-0.8879421551981448,-0.6792212438223051,-1.832204788764625,1.1934650479662736,1.6355064276755782,0.90836753052824,-1.1329971853555567,-0.9680928934901956,0.929122788589052,0.8147307853307806,-0.0954805532348501,-0.4363099444933072,10.119698443069865,-1.2759323415962092,0.113069534521884,-1.1518153222146
1.36,-1.8074828996284509,1.1698404976042147,1.6246087816451489,0.0439895536573478,0.2251814328831986,0.0121319375231685,0.7949902711484016,-0.8922968162608991,-0.6883910786257139,-1.81455408963545,1.171405104268103,1.616744569814715,0.9428109626209066,-1.172997185951603,-1.008092894086242,0.9629769312551878,0.8183533539348808,-0.2177330531377141,-0.4584917401704413,10.059705890491388,-1.2738206341558014,0.1092578368003099,-1.154179017860198
1.38,-1.791399277476952,1.1519299855946874,1.6107302651706277,0.0473531880783413,0.2259902580987777,0.0122404015219711,0.8124132998956177,-0.8985474800166741,-0.6990037384398724,-1.7960423047039586,1.1483451605550314,1.5969827119389506,0.9772543947135732,-1.2129971865476494,-1.0480928946822885,1.0668426271539926,0.8711514373608065,-0.3125331877887494,-0.5306329907079244,10.02332534879315,-1.2729850783190395,0.1055070389556888,-1.154487118776956
1.4,-1.774966003472444,1.133882700023812,1.5966285166966698,0.0502390702042178,0.22547566141482,0.0122561323413101,0.8299885541809942,-0.9058145365888414,-0.7106652609248302,-1.7507786124821711,1.1070026115938536,1.5757800782486338,0.9042229526413414,-0.9985474815067902,-0.7762774649031903,1.1154492156592095,0.8787627142688215,-0.3633528286083654,-0.5830761242478888,9.918520973737031,-1.2733619877303433,0.1022357240026533,-1.152830288088501
1.42,-1.758080105294335,1.1156049673927404,1.5826924958447426,0.0506233637807391,0.2232403672102288,0.0120115008943666,0.8580755487873466,-0.9210841529709752,-0.6801834637002376,-1.7507786124821711,1.1070026115938536,1.5757800782486338,0.9042229526413414,-0.9985474815067902,-0.7762774649031903,2.2086083924702336,1.4043497303176222,-0.7634808191066933,1.5240898612296272,9.918520973737031,-1.2660139169872355,0.1010971885948992,-1.136349845861794
1.44,-1.7415169121662175,1.097977315280502,1.5700278518351718,0.0477654191494649,0.2190877571047769,0.0114656456134332,0.8837561607949966,-0.9332351686773924,-0.6546390884895558,-1.7507786124821711,1.1070026115938536,1.5757800782486338,0.9042229526413414,-0.9985474815067902,-0.7762774649031903,1.910272310882113,1.284030600382502,-0.6075507853208595,1.2772187605340934,12.268987957744685,-1.2757552746815572,0.1040400180640696,-1.139436159759951
1.46,-1.7235915117830125,1.079221658875262,1.5571400533163964,0.0431884681705652,0.212503482112854,0.010715477942984,0.9068617091934418,-0.9413394920675018,-0.6357707360164234,-1.7417363829557575,1.0970171367787858,1.568017303599602,0.922584883190486,-1.0185474818048137,-0.7917322101958538,1.545607606618449,1.155277419922257,-0.4052161695054679,0.9434176236566172,12.268987957744685,-1.2883110698742906,0.10876213907238,-1.1362345380814796
1.48,-1.7052585555355462,1.060340135272837,1.5445383133617043,0.0386774702085343,0.2043830732781281,0.0099602513632332,0.9248804973783972,-0.946427142932978,-0.6252346482826755,-1.7236519239029309,1.07704618714865,1.552491754301538,0.9593087442887756,-1.0585474824008598,-0.822641700781181,1.0742090854630069,0.9009394092477752,-0.2543825432738178,0.5268043866873962,11.67212345678763,-1.3015887723644504,0.113389726388972,-1.1295848394753332
1.5,-1.6875547324819562,1.0423267636924192,1.5326972720666123,0.0350122266355696,0.1960217137293885,0.0093158144794012,0.9375118261038206,-0.9495999879971464,-0.6216548745636128,-1.705567464850104,1.0570752375185142,1.5369662050034745,0.9960326053870652,-1.0985474829969064,-0.8535511913665081,0.6753373065561624,0.6315664362711637,-0.1586422532084186,0.1789886859531353,11.13964967008542,-1.3139506845125797,0.1171169635093608,-1.1208213807534968
1.52,-1.668704191245158,1.0233118522273792,1.520252623130623,0.0320161009822263,0.1872917810798126,0.008751225499696,0.9465830009247476,-0.9518573327592438,-0.6232146674529875,-1.6856468127423627,1.035104287858576,1.519895181176144,1.0327564664853546,-1.1385474835929528,-0.8844606819518352,0.473853278622534,0.4535587410463448,-0.1128672381048634,-0.0779896444687344,10.703328620439606,-1.32581096042691,0.1201198072273254,-1.110100040910898
1.54,-1.649708971007012,1.0042585465638467,1.5077411276568284,0.029949595123393,0.1792672913732858,0.0083153381150952,0.952303963214154,-0.9535181471613932,-0.6279514703181728,-1.6657261606346214,1.013133338198638,1.502824157348814,1.0694803275836442,-1.1785474841889994,-0.9153701725371624,0.3805424266058472,0.2860481144703275,-0.0830407201074745,-0.2368401432592648,10.354583829542207,-1.335471979380516,0.1221213501728331,-1.0991285976865774
1.56,-1.630624018080002,0.985168340834254,1.4951066484036053,0.0285339320122185,0.1722513288962799,0.0079854833717169,0.95582632093102,-0.9554434580816512,-0.6352208900886195,-1.6448874119994228,0.9901623885237988,1.4849803962568506,1.1062041886819336,-1.2185474847850457,-0.9462796631224896,0.4152056412917292,0.1761178858432965,-0.0962655460128913,-0.3634709885223353,10.168664453760355,-1.342889220172833,0.1233926622194027,-1.0894260340385922
1.58,-1.6124459389132533,0.9669981309587824,1.482950161007048,0.0275767481684424,0.1665658353980666,0.0077492290185708,0.957404992416918,-0.9571151084605756,-0.6440207558203619,-1.623130566836767,0.9661914388340582,1.4663638979002542,1.142928049780223,-1.258547485381092,-0.9771891537078168,0.4547643773055467,0.0789335742949093,-0.0835825189462236,-0.4399932865871203,9.900625357392528,-1.3491566179921866,0.124323998558277,-1.079961217995053
1.6,-1.5932974579757238,0.9478403129676832,1.4699557311062383,0.0269860185046021,0.161800156963617,0.0075818002664336,0.9572247039035418,-0.9585813171293112,-0.6550249021474824,-1.5645756892924074,0.9191423755357536,1.45074912321603,1.0574049939070342,-1.0571151099506917,-0.6631301129687708,0.5551430180525813,-0.0090144256688184,-0.0733104334367795,-0.5502073163560273,9.900625357392528,-1.3537747435409473,0.124838939569805,-1.072115255739683
1.62,-1.574090717475598,0.928604380666492,1.4572061549783,0.0256474428078342,0.1586548098140657,0.0074227054326331,0.9636878988400844,-0.9646959346214103,-0.6169068654369544,-1.5645756892924074,0.9191423755357536,1.45074912321603,1.0574049939070342,-1.0571151099506917,-0.6631301129687708,1.9571319312501647,0.3231597468271285,-0.3057308746049647,1.9059018355264024,9.789826099788115,-1.345575654486032,0.1252656831703678,-1.0523432907010786
1.64,-1.5557313305025635,0.9102346752556018,1.4458276929790868,0.0231764807802102,0.1575375651869155,0.007254991852488,0.9687159972781751,-0.9683341648883386,-0.5830265183742077,-1.5645756892924074,0.9191423755357536,1.45074912321603,1.0574049939070342,-1.0571151099506917,-0.6631301129687708,1.7222052799176493,0.2514049219045466,-0.1819115133464055,1.6940173531373337,13.243505733347774,-1.351607826835074,0.12812101550295,-1.0605131704018844
1.66,-1.5363063158651364,0.8908558395495477,1.4344718102909857,0.0206725368968023,0.1579257431821137,0.0071396471929139,0.973612476096911,-0.9694318365336404,-0.5546906403936901,-1.5540016393533371,0.9085712244362466,1.4441178220863422,1.0774049942050574,-1.0771151102487149,-0.6669519843984526,1.4388383932794635,0.2448239409367891,-0.0548835822650917,1.416793899025881,12.63259451592603,-1.3557675977501895,0.1309670234720588,-1.0701376892742456
1.68,-1.5167850290936045,0.8714705345932598,1.423612483752507,0.0189675380805355,0.1593847118035148,0.0071167802844563,0.9783628030452524,-0.9691856827078544,-0.5329320145643494,-1.5328535394751963,0.8874289222372327,1.4308552198269666,1.117404994801104,-1.1171151108447614,-0.6745957272578161,1.1136247076588917,0.237516347417066,0.0123076912892927,1.087931291467037,12.115169305011475,-1.3571958641623911,0.1329869802658348,-1.0789251853125634
1.7,-1.497168446462046,0.8521024844167197,1.4131292850423622,0.0184838737432843,0.1615134120567377,0.0072043915140513,0.9831930975352388,-0.9678621264436632,-0.5164736572454818,-1.5117054395970555,0.8662866200382189,1.4175926175675913,1.1574049953971504,-1.1571151114408078,-0.6822394701171797,0.8601759582782992,0.2415147244993254,0.0661778132095669,0.8229178659433789,11.702019735958856,-1.3567706014165224,0.1337629808035276,-1.0869231101163286
1.72,-1.4784397879813858,0.8337347767737647,1.4034399012874743,0.019549167388421,0.1638728043067905,0.0074118933630302,0.9880989578330702,-0.9658991030526332,-0.5042958701291954,-1.4885573396891127,0.8431443178094027,1.4039478281652475,1.1974049959931967,-1.1971151120368542,-0.6898832129765432,0.6637383240878125,0.2452930148915677,0.0981511695515024,0.6088893558143182,11.40165946047,-1.3547949061959097,0.1329582780188102,-1.0949322821077216
1.74,-1.4586167495052793,0.8144402199788798,1.3934836655389018,0.0226048693678494,0.1664960608868019,0.0077815482880468,0.9940385885732074,-0.9641340794603448,-0.4919973959360257,-1.4654092397811698,0.8200020155805866,1.390303038762904,1.2374049965892433,-1.2371151126329007,-0.6975269558359067,0.6885618873612188,0.2969815370068573,0.0882511796144125,0.6149237096584853,11.190544070238502,-1.352634376837188,0.1301719579763193,-1.102438465574491
1.76,-1.4386603782936214,0.7951446919832447,1.3837708967643252,0.0267231946708963,0.1689199968961032,0.0082351474484864,1.0013503609748802,-0.9657287502550594,-0.4799119224777504,-1.4412611398583255,0.7958597133368692,1.3764671557890764,1.2774049971852897,-1.277115113228947,-0.7051706986952704,0.7107454876889068,0.36558862008364,-0.0797335397357268,0.604273672913766,11.177231061877135,-1.3502987922744043,0.1262745054248055,-1.109581306761558
1.78,-1.4185456360976327,0.7757928166029654,1.3742976412706087,0.0307054680456565,0.1706978179488455,0.0086736199947673,1.0097010422719972,-0.9693726529617936,-0.4680261145925297,-1.41611303992058,0.7707174110782508,1.3624401792437646,1.317404997781336,-1.3171151138249937,-0.7128144415546339,0.7488062735890698,0.4175340648558512,-0.1821951353367101,0.594290394261035,11.181219334890557,-1.34863351482645,0.12265290028962,-1.11504515428673
1.8,-1.3992765412868982,0.757328390219423,1.3655135563455012,0.033977432389047,0.1715753547606952,0.0090363687534398,1.0181164041495117,-0.9739798915857564,-0.4572061911146907,-1.368060583984033,0.7273241839548757,1.3508963355409822,1.109701043762113,-1.0693726544519098,-0.4530722107386364,0.7230416781450898,0.420768093875723,-0.2303619311981308,0.5409961738919472,11.182835901107865,-1.3478442749879145,0.1193470457287307,-1.1192622736324531
1.82,-1.3787185508502098,0.7377071538703488,1.3567568584882097,0.0343847056242786,0.1699350994285273,0.0091224589485598,1.0375143207840225,-0.9871470962084512,-0.41757017478934,-1.368060583984033,0.7273241839548757,1.3508963355409822,1.109701043762113,-1.0693726544519098,-0.4530722107386364,2.3025356878226746,0.9698958317255424,-0.6583602311347414,1.9818008162675345,11.161991786545514,-1.3448214405008398,0.1188039795855047,-1.1161595389127994
1.84,-1.3577755073096007,0.7178575361706878,1.348813430412387,0.030794416308411,0.163849836507983,0.0087988829035991,1.0550007236377104,-0.9964269619393704,-0.3790417061055879,-1.368060583984033,0.7273241839548757,1.3508963355409822,1.109701043762113,-1.0693726544519098,-0.4530722107386364,2.1658330336502285,0.8743201426843927,-0.4639932865459717,1.9264234341876043,13.342246173036983,-1.354983271146425,0.1227910277670834,-1.1153309578150052
1.86,-1.336548852966465,0.6978844553702904,1.341571684113617,0.0259231139139351,0.1548484363308861,0.0083499797157489,1.06623858839893,-1.000260023909745,-0.3469711661877537,-1.3569635735464118,0.7166304574103567,1.346365613433596,1.1297010440601365,-1.089372654749933,-0.4500814299678577,1.7098987536412729,0.5618932380609842,-0.1916530985187237,1.6035269958917102,12.954086649209785,-1.3670186177156685,0.1277968607075275,-1.109631225476628
1.88,-1.3162349624227607,0.6788721215625256,1.3352281940987676,0.0217898897829714,0.1452595920813903,0.0079928979131577,1.0711898798830328,-1.001039561596291,-0.3223269178633596,-1.3347695526711696,0.6952430043213185,1.3373041692188232,1.169701044656183,-1.1293726553459795,-0.4440998684263004,1.2574398015806747,0.2475645742051391,-0.0389768843273019,1.232212416219708,12.464506071853066,-1.3803110464387416,0.1325615098725349,-1.1009339658804154
1.9,-1.2948045621390298,0.6588594858751922,1.329008314012593,0.0185426801348662,0.1354691931304198,0.0077574869491862,1.0712838427652502,-1.000395199006042,-0.3011649107114388,-1.3125755317959271,0.6738555512322802,1.3282427250040505,1.2097010452522294,-1.169372655942026,-0.4381183068847431,1.058601174745347,0.0046981441108706,0.0322181295124512,1.0581003575960368,12.024209895866989,-1.3927216773114124,0.1361731890758383,-1.0904513051236675
1.92,-1.2734189654857857,0.6388683664358817,1.3231639295120254,0.0165760695568682,0.12704314197107,0.0076775346640712,1.067120814213625,-0.998973035870709,-0.2845135461805901,-1.2883815108908827,0.6504680981134398,1.3194803588663555,1.2497010458482758,-1.2093726565380722,-0.4321367453431858,0.8611348550667792,-0.2081514275812601,0.0711081567666527,0.832568226542435,11.68676171167226,-1.4027418142915071,0.1384218866274933,-1.0817244220074549
1.94,-1.253214973179967,0.6199114201803951,1.3178950777896827,0.0160685566581918,0.1211133043223352,0.0077518731330463,1.0597754338226155,-0.9968174579866234,-0.2709173789856404,-1.264187489985838,0.6270806449945993,1.3107179927286607,1.2897010464443224,-1.2493726571341188,-0.4261551838016285,0.7801552593811233,-0.3672690195504646,0.1077788942042801,0.6798083597474885,11.398537681495329,-1.4107927700327312,0.1394016960528525,-1.0742563006455723
1.96,-1.232122915149282,0.5999960413443668,1.3126177310568836,0.0169743517314996,0.1178590986874767,0.0079866895448644,1.0497543800933196,-0.9949495574462204,-0.2575769520859453,-1.2389934690658924,0.6026931918608576,1.3021051656295048,1.3297010470403687,-1.2893726577301652,-0.4201736222600712,0.8394604817089175,-0.501052686464809,0.0933950270201433,0.6670213449847556,11.280454726758762,-1.4149650321931946,0.1389332585276531,-1.071602324737332
1.98,-1.211233862546423,0.5801118965918356,1.3076010610301878,0.0191926429737966,0.1178847462392628,0.0083722104554366,1.0400072309751278,-0.9936755184559696,-0.2447895574985638,-1.2127994481310456,0.5773057387122148,1.2936418775688878,1.369701047636415,-1.3293726583262115,-0.4141920607185139,0.8064545114486281,-0.4873574559095872,0.0637019495125457,0.6393697293690728,11.22553886370497,-1.4146828116428098,0.1371631258682971,-1.0748692192329146
2.0,-1.1905207734183438,0.5602355602193264,1.3028404147800507,0.0222842964839027,0.1203219609516076,0.0088715749911183,1.0321112257606888,-0.9942993294499476,-0.2319380186138589,-1.1592335009976666,0.5304281206690371,1.2953615831552596,1.140007232465244,-1.0936755199460857,-0.1996245328007832,0.7548146961469046,-0.3948002607219503,-0.0311905496989006,0.6425769442352444,11.184441628043714,-1.4122248379419164,0.1346901742312153,-1.0814068561916752
2.02,-1.1709103215401966,0.5412650369748354,1.2987309306247543,0.0234826999807287,0.1228684272003004,0.0092383263458288,1.0327301534047482,-1.0020182262950184,-0.2002413000438305,-1.1592335009976666,0.5304281206690371,1.2953615831552596,1.140007232465244,-1.0936755199460857,-0.1996245328007832,1.6314459905563894,0.0309463822029676,-0.3859448422535383,1.58483592850142,11.191493803567027,-1.4068003879739557,0.1335876510290295,-1.0865729544506195
2.04,-1.1502474451784364,0.5211638897491285,1.295088737524013,0.0219772106498089,0.1242940389118417,0.0094092175987878,1.0334092337355216,-1.0074720649167352,-0.1658413322070656,-1.1592335009976666,0.5304281206690371,1.2953615831552596,1.140007232465244,-1.0936755199460857,-0.1996245328007832,1.7418117672253195,0.0339540165386731,-0.2726919310858444,1.7199983918382469,12.598178208722857,-1.4067381343183385,0.1355672947495233,-1.092366679175211
2.06,-1.129582581606732,0.5009823900577264,1.2921007141488303,0.0191324297566676,0.1250334460698779,0.0094795204217753,1.0330196717886069,-1.0101827457913963,-0.1346773451524625,-1.1478334286730143,0.5194913654695763,1.2933653378272518,1.1600072327632671,-1.1136755202441089,-0.1905915278612271,1.5642039816262807,-0.0194780973457486,-0.1355340437330543,1.5581993527301523,12.598178208722857,-1.4080441026327082,0.1387591850196946,-1.0966168968269558
2.08,-1.1089364691089247,0.4807813081750735,1.2897037290000946,0.0164130406024657,0.1255654100853449,0.0095639879898817,1.0316365803058558,-1.0099732201995224,-0.1065897883552676,-1.1250332840237094,0.4976178550706545,1.289372847171236,1.2000072333593137,-1.1536755208401557,-0.1725255179821148,1.4061184959481163,-0.0691545741375421,0.0104762795936963,1.4043778398597446,12.377232406419353,-1.4096205445544008,0.1420823637987942,-1.101140401287267
2.1,-1.0893556043445018,0.4616097987166618,1.2879219892041096,0.0147356105855629,0.1262043505904805,0.0097178382341308,1.0296358534019143,-1.0083761752022402,-0.0823784275984513,-1.1022331393744045,0.4757443446717328,1.2853803565152204,1.24000723395536,-1.1936755214362018,-0.1544595081030026,1.2173161571303128,-0.1000363451970631,0.0798522498641096,1.2105680378408172,12.1742731876966,-1.4111784035048731,0.1445101463894721,-1.1062926165890798
2.12,-1.0687889686506389,0.4414713053743919,1.286526603655629,0.0143261282483337,0.1272388220642366,0.0099867549478906,1.0271916020251082,-1.00571422463765,-0.0585178211673188,-1.0774329946952972,0.4518708342430088,1.2822911663531604,1.2800072345514064,-1.2336755220322482,-0.1363934982238903,1.2066367357895451,-0.1222125688403186,0.1330975282295088,1.193030321556621,11.910517101311598,-1.412263249652507,0.1455830158983063,-1.112923699135354
2.14,-1.0482708806200596,0.4213947439469183,1.2856011102553058,0.015837743047144,0.1287592475924344,0.0104024285053736,1.024859643883848,-1.0024033544090598,-0.0352400347783749,-1.05263285001619,0.4279973238142847,1.2792019761911002,1.320007235147453,-1.2736755226282948,-0.1183274883447781,1.1813712684973956,-0.1165979070630096,0.1655435114295111,1.1638893194471966,11.910517101311598,-1.412518046005238,0.1447970407083088,-1.1197598949486076
2.16,-1.0288128393042597,0.402369355703816,1.2851527322202023,0.0189268793657512,0.1304840680542384,0.0109220035567789,1.0235358520591082,-1.0008663737957677,-0.0131412708890798,-1.0268327053221815,0.4031238133706595,1.276564436276018,1.3600072357434994,-1.3136755232243411,-0.1002614784656658,1.10958336734526,-0.0661895912369869,0.0768490306646163,1.1049381944647565,11.890503517192885,-1.4118780847543764,0.1421399786392028,-1.1273532692882404
2.18,-1.0083483906011523,0.3823414491164322,1.2851380890749122,0.0227422880107896,0.1322984984678398,0.0115132525666787,1.023035260634523,-1.0021421493552567,0.0105231629730972,-1.000032560613272,0.3772503029121332,1.2743785466079136,1.4000072363395455,-1.3536755238203877,-0.0821954685865536,1.1852042282555264,-0.0250295712292625,-0.0637887779744605,1.1832216931088535,11.897554212360774,-1.4110998029087696,0.13881644866032,-1.134809300085189
2.2,-0.987885031218929,0.3622662283224237,1.2855992533654277,0.0262199294512278,0.1338756696453162,0.0120793694194085,1.0233284779913414,-1.005239866401994,0.0343926138654936,-0.957196627569426,0.3322343416486694,1.285664247223567,1.123035262124639,-1.1021421508453728,0.0733184816362175,1.2035702235687258,0.014660867840921,-0.1548858523368723,1.1934725446198184,11.938770684375411,-1.4099430171923193,0.1358952443024894,-1.1417500410245682
2.22,-0.9683696119117412,0.3430575209655556,1.2865378424099916,0.0267106371799543,0.1332633808060376,0.0123667033918004,1.031044048804029,-1.0158578524963524,0.0635946807323599,-0.957196627569426,0.3322343416486694,1.285664247223567,1.123035262124639,-1.1021421508453728,0.0733184816362175,1.6008063366336007,0.3857785406343739,-0.5308993047179134,1.4601033433433188,11.961501280001356,-1.4079044249996793,0.1355288295592947,-1.1511448297678464
2.24,-0.9476756750970106,0.3226616850073863,1.2881399516602785,0.0233608855469873,0.1283970906106626,0.0123016417072042,1.037302327565094,-1.0225583535200855,0.0950801459824717,-0.957196627569426,0.3322343416486694,1.285664247223567,1.123035262124639,-1.1021421508453728,0.0733184816362175,1.6396625331422936,0.3129139380532497,-0.3350250511866548,1.5742732625055884,12.539348871701804,-1.4149078315721229,0.1395563715921742,-1.146450407376131
2.26,-0.926914346689374,0.3021917857330171,1.2903497228350402,0.0189625348716586,0.1210657590045923,0.0121443146285202,1.0380575065233009,-1.0239998973009328,0.12421518168347,-0.9459662749481798,0.3212129201402156,1.2863974320399292,1.1430352624226623,-1.122142151143396,0.0858775453688415,1.45902248871416,0.037758947910349,-0.0720771890423632,1.456751785049916,12.492567472982046,-1.424960406381669,0.1446908965896083,-1.1380510111839188
2.28,-0.9061967862562136,0.2817281601315627,1.2931076341454877,0.0154042470082551,0.1133540716204367,0.0120826074059752,1.033494559170397,-1.0226372394861238,0.1501342568487405,-0.923505569705687,0.2991700771233082,1.2878638016726536,1.1830352630187089,-1.1621421517394426,0.1109956728340896,1.3176454210907556,-0.2281473676451928,0.0681328907404466,1.2959537582635243,12.285745710248191,-1.434746144108446,0.1487644038111935,-1.129568525669877
2.3000000000000003,-0.886643605560072,0.2623253873205822,1.2961826526282387,0.0133143067371392,0.1071520709072644,0.0121610331844566,1.0248995539129755,-1.0202271597997503,0.1722549125264849,-0.9010448644631942,0.2771272341064007,1.289330171305378,1.2230352636147552,-1.202142152335489,0.1361138002993377,1.192692339921633,-0.4297502628710758,0.1205039843186761,1.1060327838872162,12.070766162471044,-1.4437422341489772,0.1516893448779701,-1.1219859031419477
2.32,-0.8662762901024965,0.2419570496527066,1.2998585923283887,0.0126630253830624,0.1032184730588045,0.0124011057418772,1.0121071860255817,-1.0169164689582255,0.1941068031773802,-0.876584159190899,0.2530843910596909,1.2920524473113648,1.2630352642108016,-1.2421421529315353,0.1612319277645859,1.276822692304286,-0.6396183943696898,0.1655345420762288,1.0925945325447677,11.906898917125543,-1.4498430224557983,0.1530095491412437,-1.1179225308037537
2.34,-0.8461854484767659,0.221661449082657,1.303964280703507,0.0140169146598898,0.1030561886840652,0.0128324280913071,0.9980752911000916,-1.013032675477456,0.21533433034083,-0.852123453918604,0.2290415480129811,1.2947747233173514,1.3030352648068482,-1.282142153527582,0.186350055229834,1.2870371366789126,-0.7015947462745031,0.1941896740384807,1.0613763581724902,11.838172682772893,-1.4505964802805538,0.1522810590963065,-1.122386327393038
2.36,-0.8263538705171308,0.2014298301445294,1.308497886674487,0.0172924613052508,0.1060775317980298,0.0134456677936405,0.9862222043056192,-1.0108174578339753,0.2369391931171137,-0.8266627486314078,0.2039987049513702,1.2981249525099694,1.3430352654028943,-1.3221421541236282,0.2114681826950821,1.237106453935285,-0.592654339723625,0.1107608821740435,1.0802431388141824,11.795127449777285,-1.4477489210497425,0.1497378901276733,-1.1317257822740143
2.38,-0.8077044432977931,0.1822176328483966,1.3132161178767594,0.0209696499860572,0.1108008794417583,0.014110265058995,0.9777665367065514,-1.0117045282220922,0.2586098141893661,-0.8002020433293103,0.1779558618748581,1.3021031348892187,1.3830352659989409,-1.3621421547196746,0.2365863101603302,1.163938385478961,-0.4227833799533842,-0.0443535194058486,1.0835310536126213,11.817715086756834,-1.4419928790848764,0.1463333178936673,-1.1439876231249004
2.4,-0.7882145842624749,0.1619562692342469,1.3186416504416048,0.0245065093933059,0.1166760636801831,0.0148217075952596,0.9719382408521768,-1.014360713099481,0.2828482588230192,-0.7588161164624655,0.131632406437292,1.3261466085862277,1.0777665381966677,-1.0890586539006315,0.3044781401678836,1.2535215882940118,-0.291414792718736,-0.1328092438694361,1.211922231682655,11.90197757040005,-1.434930115773753,0.1431988718350089,-1.1574439734968414
2.42,-0.7687664571574624,0.1414878444016787,1.3244817731159932,0.0227275246084526,0.1209868782948913,0.0151336904890104,0.9730370428593808,-1.0306983956942717,0.2996311117546143,-0.7588161164624655,0.131632406437292,1.3261466085862277,1.0777665381966677,-1.0890586539006315,0.3044781401678836,1.172381540863206,0.0549401003602068,-0.8168841297395368,0.8391426465797547,12.012762837863193,-1.4273513266993318,0.1454490680328015,-1.1658831344810416
2.44,-0.7493038860176182,0.1208089841100027,1.3306574857763376,0.0151583161995511,0.1223279989227496,0.014972311448724,0.9729360414157424,-1.035387116104745,0.3171665585639929,-0.7588161164624655,0.131632406437292,1.3261466085862277,1.0777665381966677,-1.0890586539006315,0.3044781401678836,0.9075877301723388,-0.0050500721819279,-0.234436020523665,0.8767723404689287,11.52875101405607,-1.4260857582953683,0.1535461560892675,-1.1672898238989375
2.46,-0.730835117634908,0.1011576275130598,1.3368410406313622,0.0076507227155889,0.1220454594411365,0.0147828402920814,0.9710388467505304,-1.0330978431989224,0.3328447548492975,-0.7480384510804988,0.1207418198982857,1.3291913899879064,1.0977665384946909,-1.1045294790363394,0.3136518053635871,0.7978815024732371,-0.0948597332605882,0.1144636452911296,0.7839098142652295,11.593040989761905,-1.426955110355235,0.1625420454887368,-1.166709732725357
2.48,-0.7114547449781781,0.0805571025036631,1.34366052145506,0.0012362197557647,0.121159480371816,0.0147015154585294,0.9669813607085608,-1.0273728377919331,0.3482187961205212,-0.7264831203165655,0.0989606468202731,1.335280952791264,1.1377665390907374,-1.135471129307755,0.3319991357549942,0.844985243806253,-0.2028743020984824,0.286250270349464,0.7687020635611858,11.513187218563871,-1.428684925965755,0.1699851957812298,-1.1657910240513354
2.5,-0.6921741120226055,0.060091582051098,1.3507742921401344,-0.0030471469996607,0.1206210988696395,0.0147859230155014,0.9613851563041016,-1.0200678098856182,0.3623826577277004,-0.7049277895526321,0.0771794737422604,1.3413705155946218,1.1777665396867838,-1.1664127795791708,0.3503464661464012,0.8445352450843262,-0.2798102202229702,0.3652513953157466,0.7081930803589626,11.378919927185962,-1.4297628409729273,0.1749819648853654,-1.1660510029877174
2.52,-0.6739684145283928,0.0407890544774252,1.3577899574557266,-0.005252175727371,0.1208785435451016,0.0150030839979625,0.9554244962170152,-1.0126405508432834,0.3753926381413158,-0.6813724587588964,0.053851218150677,1.3483774449175498,1.2177665402828302,-1.1973544298505865,0.3686937965378082,0.806153266938714,-0.29803300435432,0.3713629521167383,0.6504990206807698,11.378919927185962,-1.429898552623883,0.1782138284978388,-1.1680597390168967
2.54,-0.6549269023702304,0.0206242404169375,1.3654416088881949,-0.0057343860445529,0.1221524597926587,0.0153595211141902,0.9491805843837544,-1.0044373635508306,0.3890813817720571,-0.6578171279651608,0.0305229625590936,1.355384374240478,1.2577665408788767,-1.2282960801220022,0.3870411269292152,0.8568261476588364,-0.3121955916630337,0.410159364622642,0.6844371815370648,11.357896831153994,-1.4288115190759252,0.1794578370013674,-1.1720484899458905
2.56,-0.6360000812189651,0.0006199691581842,1.3733692764921437,-0.0043125486386263,0.1243013724918103,0.0158470993490211,0.943962211692514,-0.996573944191622,0.4030038156401017,-0.633261797156524,0.0064211657107248,1.3628499868231911,1.297766541474923,-1.259237730393418,0.4053884573206222,0.8409799973446664,-0.2609186345620184,0.3931709679604322,0.6961216934022268,11.386222448443732,-1.4264607354859382,0.1786750845114406,-1.1779712368770228
2.58,-0.6171638644622243,-0.0192369072265359,1.3815829300592102,-0.0012163616019596,0.1269193990826816,0.016453793358204,0.9400453789639056,-0.989947120037912,0.4176507210795009,-0.607706466332986,-0.0184541723944293,1.3707742826656897,1.3377665420709697,-1.2901793806648336,0.4237357877120292,0.827327347455038,-0.1958416364304271,0.3313412076854927,0.7323452719699641,11.386222448443732,-1.4236752864382838,0.1762431033220691,-1.1845916804344967
2.6,-0.5993288019717525,-0.0380073145326686,1.389665943032167,0.0022925076737849,0.129493700961166,0.0170747540311831,0.9375917454840452,-0.9863154292712616,0.4324430823089849,-0.570161595514029,-0.0687342632284316,1.4024654661131852,1.0400453804540215,-0.9973946272703396,0.4665351724688137,0.7714004242635694,-0.1226816739930136,0.1815845383325243,0.7396180614741982,11.435547250584024,-1.4205523936884086,0.1729758372907923,-1.191798556995926
2.62,-0.5805330082692176,-0.0579659221753457,1.3984554112225585,-0.0025678546470623,0.1301130046900498,0.0171345619514982,0.9420863919316712,-1.005854983445874,0.4456649878190976,-0.570161595514029,-0.0687342632284316,1.4024654661131852,1.0400453804540215,-0.9973946272703396,0.4665351724688137,1.2008484597880278,0.2247323223812936,-0.9769777087306142,0.6610952755056326,11.500905640945348,-1.4177108583175544,0.1787572991272993,-1.1930768520405548
2.64,-0.5616605024747496,-0.0781059627338176,1.4075123309703406,-0.0161853824697313,0.1268543962806825,0.0166383650882336,0.9445848530552,-1.005741499328443,0.4594033551964935,-0.570161595514029,-0.0687342632284316,1.4024654661131852,1.0400453804540215,-0.9973946272703396,0.4665351724688137,0.6982082870229196,0.1249230561764402,0.0056742058715419,0.6869183688697988,11.383814472332231,-1.421778803669997,0.1933994133659716,-1.1878044028009238
2.66,-0.5437286687672142,-0.0971139471036164,1.416350339330939,-0.0295900597156068,0.1216746177204135,0.0162577587374013,0.942566503266706,-0.9952507913979932,0.4702309485597576,-0.5597611417094888,-0.078708209501135,1.4071308178378734,1.060045380752045,-0.9988841287168252,0.4763120627466762,0.7605351188323222,-0.10091748942469,0.5245353965224964,0.5413796681632027,11.37485987951368,-1.429420834108429,0.2094205556476991,-1.1776604446722925
