t,x,y,z,roll,pitch,yaw,v_x,v_y,v_z,ref_x,ref_y,ref_z,ref_v_x,ref_v_y,ref_v_z,a_com,a_x,a_y,a_z,thrust,wind_x,wind_y,wind_z
0.0,-1.3466523119787457,0.5188440280091748,2.8889936853899334,0.0128601498252134,0.1363391530567393,0.0258091267691731,0.0017954141268403,-0.0053309866574076,-0.0030595552963956,-1.3465985641872344,0.5186281621345501,2.888899956443622,0.0705473512300697,-0.092803080165448,-0.1031067494483428,0.320171084109803,0.0897707063420157,-0.2665493328703802,-0.1529777648197848,10.543013381969104,-1.284374897534275,0.1629593066674656,-1.1594687897811873
0.02,-1.346744185329478,0.519035374653315,2.8886923414875354,0.0204399429594471,0.1388584654949503,0.0263807462049524,-0.0099924349154893,0.0186097588205017,-0.0270270511579406,-1.3465985641872344,0.5186281621345501,2.888899956443622,0.0705473512300697,-0.092803080165448,-0.1031067494483428,1.7934279585168469,-0.5893924521164841,1.197037273895465,-1.1983747930772477,9.177296985176326,-1.308963250070471,0.1580635425152349,-1.17739006664287
0.04,-1.3470164271108127,0.5194258412330293,2.887886557338276,0.0345447945035628,0.1445866671726483,0.0275096947729823,-0.0176183189315242,0.020706509634515,-0.0565120603424694,-1.3465985641872344,0.5186281621345501,2.888899956443622,0.0705473512300697,-0.092803080165448,-0.1031067494483428,1.5263651575014994,-0.3812942008017461,0.1048375407006665,-1.4742504592264405,8.82085118351688,-1.2986888967607513,0.1418842350280801,-1.1623957081846668
0.06,-1.34741705002349,0.5197988383524874,2.8864382693859105,0.0500108961169176,0.1522987501921732,0.0288843298903912,-0.0216648758647277,0.0161126491665226,-0.0866995911295936,-1.3458930906749338,0.5177001313328956,2.8878688889491384,0.084298126388475,-0.1100223539114616,-0.123106749746366,1.5401016135604602,-0.2023278466601713,-0.22969302339962,-1.5093765393562115,8.878542156613548,-1.2847571852706023,0.125361869942267,-1.1509880542361548
0.08,-1.3478626903163915,0.5200406399686415,2.884405098510264,0.0649609036230056,0.1606718079959242,0.0303598637365761,-0.0223928755678553,0.0079787984927572,-0.1150370659232687,-1.3444821436503325,0.5158440697295866,2.885806753960172,0.1117996767052856,-0.1444609014034889,-0.1631067503424124,1.4745355099429065,-0.0363999851563833,-0.4066925336882701,-1.4168737396837507,8.878542156613548,-1.2718177998018043,0.1099680640120282,-1.1414868940092937
0.1,-1.3482927202107502,0.5200890693736591,2.8818263063067304,0.0792207314040801,0.1691146911148348,0.0318947997413731,-0.0203323935208192,-0.0030261383432025,-0.1414525295372348,-1.343071196625731,0.5139880081262777,2.883744618971205,0.1393012270220963,-0.1788994488955162,-0.2031067509384589,1.4345129303795,0.1030241023518089,-0.5502468417979907,-1.3207731806983063,9.076938337020692,-1.2607710862520591,0.0964660320583198,-1.1332302010432067
0.12,-1.3486402289896653,0.5199058849828447,2.8789018204512127,0.0921251712006333,0.1769185802437019,0.0333782485722075,-0.0161702164356341,-0.0159525385662071,-0.1650979338227607,-1.340285172085289,0.5104100191483674,2.879682483952436,0.1668027773389069,-0.2133379963875435,-0.2431067515345053,1.3633787850774437,0.2081088542592526,-0.6463200111502287,-1.1822702142762944,9.076938337020692,-1.2512811661053689,0.0832856477533701,-1.1273917574598042
0.14,-1.3489020036807335,0.5194230961132998,2.875338422448321,0.1050557240014011,0.1847653363123739,0.0349402929980016,-0.0100360160931737,-0.0319176012087764,-0.1900261519298342,-1.3374991475448472,0.5068320301704571,2.8756203489336665,0.1943043276557175,-0.2477765438795708,-0.2831067521305518,1.5115618553473371,0.3067100171230214,-0.7982531321284665,-1.2464109053536774,9.170477576544728,-1.2441715326053948,0.0710704142357391,-1.1232666774402134
0.16,-1.349023305783721,0.5185964463286763,2.871278340286593,0.117343857038715,0.1921769745272022,0.0364810291393519,-0.0022276985003037,-0.0502059577257255,-0.2147460191656193,-1.334025584246485,0.5023930775052461,2.8705582138999963,0.2218058779725281,-0.2822150913715981,-0.3231067527265983,1.586273655361043,0.3904158796434975,-0.9144178258474528,-1.2359933617892518,9.170477576544728,-1.2382041704710252,0.0597119862235202,-1.1191743960617475
0.18,-1.3489716564367749,0.5173803432464551,2.866728379006052,0.1290170783606425,0.1991340231399684,0.0379818254655209,0.0071556615818891,-0.0707314819904696,-0.2390485971413997,-1.3298644821902024,0.4970931611527344,2.864496078851425,0.2493074282893387,-0.3166536388636253,-0.3631067533226447,1.658282160131061,0.4691680041096442,-1.026276213237202,-1.215128898789021,9.2330186522031,-1.2333657502285118,0.0496849291288797,-1.114746787302388
0.2,-1.348734754821001,0.515824460293613,2.8619601159151924,0.1395613907515872,0.205325440810927,0.0393568564105124,0.0174342749916343,-0.092219276479673,-0.2616887627827658,-1.3486138733576805,0.5138437691469316,2.854775949148982,0.0709170746792707,-0.1510252938481699,-0.3390485986315158,1.6431313899881332,0.5139306704872608,-1.0743897244601743,-1.1320082820683073,9.2330186522031,-1.2292153689340497,0.0398661038021143,-1.109879918481792
0.22,-1.3482296206599351,0.5135052497900847,2.856568174022297,0.1434575559097281,0.2114301121668972,0.0402580892078473,0.0327864317106614,-0.1360474684992544,-0.2753549276769317,-1.3486138733576805,0.5138437691469316,2.854775949148982,0.0709170746792707,-0.1510252938481699,-0.3390485986315158,2.4204148376597554,0.7676078359513566,-2.19140960097907,-0.6833082447082944,10.079075556141106,-1.2147828936462208,0.0372851871473528,-1.0957795441313567
0.24,-1.3474038469192642,0.5104132776539688,2.8509301041585093,0.138612700435946,0.2171336136965186,0.0404517179300859,0.0490953619250672,-0.1693061305526388,-0.2876825083332983,-1.3486138733576805,0.5138437691469316,2.854775949148982,0.0709170746792707,-0.1510252938481699,-0.3390485986315158,1.9519791566246336,0.8154465107202874,-1.662933102669216,-0.6163790328183288,9.969171937843385,-1.211078090350301,0.0422632279292204,-1.097168643327504
0.26,-1.3462484668035857,0.5067527867853102,2.845032138072126,0.1308315485431007,0.2224590868765671,0.040330415205895,0.0657358255249773,-0.1944865814559317,-0.3014195866731546,-1.3479047026108877,0.5123335162084499,2.851385463162667,0.083669357298747,-0.1670840562197099,-0.359048598929539,1.6580617131370812,0.8320231799955058,-1.2590225451646466,-0.6868539169928162,9.83337410814147,-1.2089707037260944,0.0505207713092836,-1.0979052826968083
0.28,-1.3448395536699185,0.5028575021965627,2.839158027074736,0.1231258521894818,0.2271952095539556,0.0400989807064808,0.0818320356223251,-0.2141677617220889,-0.3162134076671452,-1.3464863611173024,0.5093130103314866,2.844604491190037,0.1091739225376996,-0.1992015809627901,-0.3990485995255854,1.470793982657985,0.8048105048673911,-0.9840590133078614,-0.7396910496995285,9.83337410814147,-1.2065391013096487,0.0589217728288004,-1.0995478496934905
0.3,-1.3430226850651263,0.4983843265737659,2.832652892761069,0.1156586736129271,0.2318700264827549,0.0398139288992962,0.0990826608886153,-0.232091835867379,-0.3336230313102348,-1.345068019623717,0.5062925044545231,2.837823519217406,0.1346784877766523,-0.2313191057058702,-0.4390486001216319,1.518182714166719,0.8625312633145101,-0.8962037072645048,-0.8704811821544783,9.70768970906829,-1.2053401484728363,0.0666962262349434,-1.1007944245413632
0.32,-1.34085750238957,0.4935737389208947,2.825781022837999,0.1092033138502762,0.236251994014394,0.0395238068797606,0.11666656973199,-0.2481911910687602,-0.3527064628674135,-1.342374449868184,0.5016661223404058,2.8290425472149736,0.1601830530156049,-0.2634366304489504,-0.4790486007176783,1.5268926354772565,0.8791954421687364,-0.8049677600690571,-0.9541715778589338,9.59213622057905,-1.2049910087237312,0.0731644752977638,-1.101233219442921
0.34,-1.3383294396930143,0.4884550539535883,2.818518387178192,0.1037713269071567,0.2401783800861923,0.0392208151843935,0.1352856744985935,-0.2630191743417948,-0.3726141885955523,-1.339680880112651,0.4970397402262883,2.820261575212541,0.1856876182545576,-0.2955541551920306,-0.5190486013137249,1.5514974169507594,0.9309552383301736,-0.741399163651732,-0.9953862864069408,9.504619074124092,-1.204942689595339,0.0789373851072396,-1.1006882543423162
0.36,-1.3355711496570062,0.4833197678663409,2.811244301913418,0.0992735006190475,0.2431464150247614,0.0388741588757074,0.1540750033690326,-0.2767844348034185,-0.3920674574881648,-1.336349696226144,0.4916104199935939,2.810480603195207,0.2111921834935102,-0.3276716799351107,-0.5590486019097712,1.5173586800639338,0.9394664435219564,-0.6882630230811843,-0.972663444630628,9.464287768865688,-1.205179659151579,0.0838597326400713,-1.0990793860547423
0.38,-1.3322769961115586,0.4776387383998567,2.8031824832500973,0.0949778542619647,0.2452279208604686,0.0384154726419466,0.1742938784205487,-0.2905503144967393,-0.4130956661252888,-1.3323808982086631,0.4853781616423224,2.799699631162972,0.2366967487324628,-0.3597892046781908,-0.5990486025058177,1.6128297419180786,1.0109437525758005,-0.6882939846660385,-1.0514104318562003,9.440931535409618,-1.206743396528919,0.0882887993987949,-1.0957083995554189
0.4,-1.328575099203441,0.4716893301022936,2.7946955327190244,0.0910192722524106,0.2461309649991935,0.0378535183642212,0.1947412164797989,-0.3036554402806941,-0.4345043069849265,-1.3235623021905312,0.4631112226750197,2.782527699943833,0.2478187782012989,-0.3520944348084763,-0.513095667615405,1.618771029963384,1.022366902962511,-0.655256289197742,-1.0704320429818808,9.383729070689697,-1.2099228192178366,0.0923339009539907,-1.0907899609499807
0.42,-1.3246476010384869,0.4657592300573026,2.786429584691501,0.0866922844913112,0.2464591218037301,0.0372228800122633,0.217907791095111,-0.3195116944610212,-0.4333606344224109,-1.3235623021905312,0.4631112226750197,2.782527699943833,0.2478187782012989,-0.3520944348084763,-0.513095667615405,1.4048300279466326,1.1583287307656052,-0.792812709016355,0.0571836281257759,9.383729070689697,-1.209671276852461,0.0967784190882821,-1.0750445800491744
0.44,-1.3200409825756487,0.4592267001312099,2.777761252389133,0.0817252126431394,0.2469255615221459,0.0365362939072705,0.2414611400812818,-0.332775992536086,-0.4338950327056034,-1.3235623021905312,0.4631112226750197,2.782527699943833,0.2478187782012989,-0.3520944348084763,-0.513095667615405,1.3518389636099413,1.177667449308542,-0.663214903753237,-0.026719914159623,10.802195695532646,-1.2146887454065418,0.1014077712083165,-1.0787643970969183
0.46,-1.314970276199641,0.4524490572593083,2.769031042226846,0.0771183178968369,0.247330251236276,0.0358670799215345,0.2643722920790918,-0.3442676912152746,-0.4392830763289427,-1.321084114408518,0.459590278326935,2.777396743267679,0.262523758157449,-0.3644032588708237,-0.5330956679134282,1.309590621613321,1.1455575998904997,-0.5745849339594322,-0.2694021811669639,10.215680507868456,-1.2188657195417465,0.1056753545371368,-1.0811435706281776
0.48,-1.3094489471979165,0.4454566113427974,2.760147445165065,0.073004222636483,0.2473307059296638,0.0351998800713789,0.2865394599243823,-0.3544295138686907,-0.4487653155535106,-1.3161277388444923,0.4525483896307654,2.767134829915371,0.2919337180697491,-0.3890209069955186,-0.5730956685094747,1.30820375958095,1.1083583922645217,-0.5080911326708043,-0.4741119612283961,9.99715689077766,-1.2228339864421889,0.1093113714140633,-1.0809804675451016
0.5,-1.3038011261332962,0.4386356966907835,2.7515031515227144,0.0695917414553192,0.2468467369407109,0.034566241205037,0.3067875035686196,-0.3631092364491128,-0.4606605369968234,-1.3111713632804662,0.4455065009345959,2.7568729165630628,0.3213436779820492,-0.4136385551202134,-0.6130956691055212,1.2518158297823576,1.012402182211866,-0.433986129021105,-0.5947610721656393,9.99715689077766,-1.2278111372429832,0.1126654293236326,-1.0792364851065497
0.52,-1.2974510175678382,0.4312862712740058,2.742134945945892,0.0665494152689283,0.2458443584731673,0.0339062544920656,0.3270731974822545,-0.3714186952875317,-0.4756318392036424,-1.3047444897208254,0.4372337298321916,2.7446110031809523,0.3507536378943493,-0.4382562032449082,-0.6530956697015676,1.3273058930715325,1.0142846956817468,-0.4154729419209441,-0.7485651103409513,9.822936942374326,-1.2335547385259409,0.1154770436797559,-1.0763838871968845
0.54,-1.290702614926014,0.4237764979309003,2.732453471807465,0.0640595970805024,0.2443676390306071,0.0332573426482799,0.3466852042946441,-0.379197178354566,-0.4917890888939464,-1.2983176161611842,0.4289609587297873,2.732349089798842,0.3801635978066494,-0.4628738513696031,-0.6930956702976141,1.3287139718428698,0.980600340619478,-0.3889241533517162,-0.8078624845151983,9.672848283180429,-1.2394936464076411,0.1177298397518535,-1.071727047626354
0.56,-1.2835633187356068,0.4161099275696292,2.7224382234804376,0.0618861387114404,0.2422350884372514,0.0325932731620075,0.3661811892924804,-0.3870336291371981,-0.508891015495997,-1.2911554936037355,0.4200727464242657,2.7190871764018305,0.4095735577189495,-0.4874914994942979,-0.7330956708936605,1.3546026035395038,0.9747992498918168,-0.3918225391316032,-0.855096330102531,9.606746467057746,-1.244060233320858,0.119418367741739,-1.0664679219144348
0.58,-1.2764225977044108,0.4086835901797284,2.712598670419055,0.0599084813254601,0.2393043486046971,0.0319184889112008,0.384400227161131,-0.3942389757207273,-0.5259584435008947,-1.2832581220484798,0.4105690929156267,2.704825262989917,0.4389835176312496,-0.5121091476189927,-0.7730956714897069,1.2991799903693717,0.9109518934325268,-0.3602673291764613,-0.8533714002448844,9.497595383994849,-1.249748589319916,0.1210696226421999,-1.0595846950929604
0.6,-1.2685403636898982,0.4007229550249991,2.701881282355864,0.0578821693509991,0.2350666656538865,0.0311522641895535,0.4027268465933833,-0.4013959309145281,-0.5448945362775756,-1.2572025863463543,0.388971641393692,2.68630074824401,0.4390845867414094,-0.4346458659342168,-0.6259584449910108,1.3653411635079966,0.9163309716126194,-0.3578477596900414,-0.9468046388340424,9.497595383994849,-1.256721148094268,0.1226397452140136,-1.051202372844239
0.62,-1.2602203885547834,0.3925469387734783,2.6910490146600914,0.0538841804036144,0.2291175905213673,0.0301675094305788,0.4282710970265482,-0.4147741303525,-0.5358311176707028,-1.2572025863463543,0.388971641393692,2.68630074824401,0.4390845867414094,-0.4346458659342168,-0.6259584449910108,1.5113160715398053,1.2772125216582442,-0.6689099718985958,0.4531709303436382,9.426483043317605,-1.2577889005556468,0.1255796998781891,-1.0276280261566015
0.64,-1.2518725886565325,0.3845815599043946,2.680929536553532,0.0483092208788743,0.2219830505475959,0.0290721532984297,0.4487827623115807,-0.4226643187714632,-0.5299113668854031,-1.2572025863463543,0.388971641393692,2.68630074824401,0.4390845867414094,-0.4346458659342168,-0.6259584449910108,1.1380102541409782,1.0255832642516254,-0.3945094209481609,0.2959875392649858,11.222366209013671,-1.2711241884183175,0.1305397283754872,-1.0268195768270365
0.66,-1.2427109429840204,0.3760703099284983,2.670337813667103,0.042316669100258,0.2137515875627837,0.0279404426016141,0.4659213598665886,-0.4279106032088139,-0.5298117779720617,-1.2528117404789405,0.3846251827343498,2.6800411637941,0.450021458657465,-0.4427272439769147,-0.645958445289034,0.8961932611074602,0.8569298777503925,-0.262314221867535,0.0049794456670693,10.791558288893611,-1.2844055913653294,0.13582913219475,-1.0216145609255916
0.68,-1.2332511074863657,0.3674759025776998,2.6596869804881025,0.0367948836120599,0.205391998919469,0.0269048092225519,0.4789028027009152,-0.4312326636098134,-0.5354731649601416,-1.244030048744112,0.3759322654156655,2.66752199489428,0.4718952024895764,-0.4588900000623105,-0.6859584458850805,0.7273328777072745,0.6490721417163281,-0.1661030200499735,-0.2830693494039971,10.379898528138256,-1.2970113673708616,0.1406558850901579,-1.013657210615137
0.7000000000000001,-1.2235725100536767,0.358830660534894,2.648866729209252,0.0319738407719512,0.1974455681538415,0.0259957296868592,0.4881642051214483,-0.4331982881221638,-0.5462052134736772,-1.2352483570092838,0.3672393480969812,2.65500282599446,0.4937689463216878,-0.4750527561477063,-0.725958446481127,0.7155664186773517,0.4630701210266597,-0.0982812256175191,-0.5366024256767798,10.030755153577047,-1.3078228202925164,0.1445931596420152,-1.004411549900259
0.72,-1.2142362413248815,0.3505909401107533,2.6383514346927903,0.0280857234181877,0.190679240501269,0.0252540283544368,0.4940824716821428,-0.4341402313735276,-0.5600988679105062,-1.22537297808285,0.3577382929740271,2.640483657064837,0.5156426901537992,-0.4912155122331021,-0.7659584470771734,0.7565493536152184,0.295913328034722,-0.0470971625681909,-0.6946827218414497,9.746877352189586,-1.3174246910431011,0.1480008263374417,-0.9936782411770794
0.74,-1.2043112476151183,0.3419052449591218,2.626976662269017,0.0247139273658278,0.1847291468724453,0.0245967151654419,0.4979708694093108,-0.4344530663508423,-0.5767146737066174,-1.2154975991564163,0.3482372378510729,2.625964488135214,0.5375164339859105,-0.507378268318498,-0.8059584476732199,0.8533793190336876,0.1944198863584018,-0.0156417488657356,-0.8307902898055608,9.518044340252343,-1.3251593165408695,0.1506708579974093,-0.9824780295422426
0.76,-1.194328066596261,0.3332150208812828,2.6152532131100057,0.0219279149007934,0.1803176992111793,0.024049244772674,0.5000453914741169,-0.434574825419057,-0.5948414413425469,-1.2050753766341795,0.3383321138259839,2.6104453191906907,0.5593901778180218,-0.5235410244038938,-0.8459584482692662,0.9122748653709574,0.1037261032403008,-0.0060879534107327,-0.9063383817964732,9.394589573567828,-1.3308497127046583,0.1527722208457115,-0.9727010765448604
0.78,-1.1843214272056528,0.3245257650637976,2.603151735008479,0.0195622224097266,0.177793596722879,0.0235950920039449,0.5004958234405248,-0.4343768374499097,-0.6143747563178592,-1.1941063105161402,0.32802292089876,2.593926150231266,0.5812639216501332,-0.5397037804892896,-0.8859584488653127,0.976975539761678,0.0225215983203963,0.0098993984573636,-0.976665748765615,9.30437055375387,-1.3342978833258994,0.1543993455744864,-0.9652174826240796
0.8,-1.1748145204446103,0.3162777853423603,2.591282039106649,0.0176291583251214,0.1773747300788073,0.023239149637808,0.5004648940721254,-0.4338638235825018,-0.6340955055725296,-1.1592966360336263,0.3028069231913021,2.572432997192586,0.5609412476098268,-0.4459677643578663,-0.7143747578079753,0.9863722560721748,-0.0015464684199717,0.0256506933703964,-0.9860374627335188,9.223972536789915,-1.3341341267091769,0.1556914916293182,-0.9597977125583372
0.8200000000000001,-1.1647627585396736,0.3075292760724831,2.578682167128994,0.0134401314050613,0.1793046367001089,0.0227646183503973,0.5052831046515103,-0.4397014805566542,-0.6232874157742645,-1.1592966360336263,0.3028069231913021,2.572432997192586,0.5609412476098268,-0.4459677643578663,-0.7143747578079753,0.6597503263025504,0.2409105289692459,-0.2918828487076197,0.5404044899132543,9.149283479194764,-1.3233709197305903,0.1578745401373752,-0.942469008616298
0.84,-1.1545914651827434,0.298725487777259,2.5662996503680358,0.0070166050439663,0.1835008951593722,0.0221632890725561,0.5118241141138692,-0.4399213524119413,-0.6160607337204053,-1.1592966360336263,0.3028069231913021,2.572432997192586,0.5609412476098268,-0.4459677643578663,-0.7143747578079753,0.4874886714760338,0.3270504731179458,-0.010993592764355,0.3613341026929617,10.651730615718408,-1.3210401008049637,0.1633577664940046,-0.955389094839482
0.86,-1.1442778227506984,0.2899586902560538,2.553985750133923,0.0003606116079084,0.1888896771898569,0.0215402326457097,0.5194053151569327,-0.4366060429053995,-0.6159951344546658,-1.1536872235575282,0.2983472455477234,2.5652892496145063,0.5730303324436872,-0.4482859497394577,-0.7343747581059985,0.4137335786565382,0.3790600521531739,0.165765475327087,0.0032799632869728,10.651730615718408,-1.3188405085290966,0.1689423687100228,-0.967500612060853
0.88,-1.1343320101384715,0.2817143532508186,2.5422288733580123,-0.0054271198556727,0.1944947898457468,0.020969048713698,0.5273305024149997,-0.4314338451826679,-0.6215707961651478,-1.1424683986053317,0.2894278902605661,2.5510017544583468,0.597208502111408,-0.4529223205026403,-0.774374758702045,0.5491999314188611,0.3962593629033506,0.2586098861365821,-0.278783085524098,10.25996068717086,-1.3157721752413152,0.1743339950566834,-0.9776412012005576
0.9,-1.12368985977607,0.273156408061026,2.529695659698484,-0.0107127478572096,0.200486432472065,0.0204078609524339,0.5366025382626872,-0.424677619458603,-0.6316556376345923,-1.1312495736531352,0.2805085349734088,2.536714259302187,0.6213866717791288,-0.4575586912658229,-0.8143747592980914,0.7637428596378941,0.4636017923843771,0.3378112862032434,-0.5042420734722275,9.966722446058156,-1.3126956922608248,0.1790302357308056,-0.9863576265056384
0.92,-1.1128512327051767,0.2647456339585932,2.516920635947959,-0.0150685044361743,0.2061916512105649,0.0199040572503669,0.5469017293167951,-0.4168970689131991,-0.6453417614392373,-1.1188218402175525,0.2713573611480923,2.520426764116225,0.6455648414468496,-0.4621950620290055,-0.8543747598941379,0.9406384639630035,0.5149595527053963,0.389027527270197,-0.6843061902322478,9.74464706440449,-1.3099747364955998,0.1829163570850136,-0.9935341707850364
0.94,-1.1017943319423875,0.2564975938970972,2.503858107227842,-0.0185439169261103,0.211327313903739,0.0194664743325855,0.5583490164486247,-0.4084037538454308,-0.6602784485776715,-1.10639410678197,0.2622061873227758,2.5041392689302637,0.6697430111145704,-0.4668314327921882,-0.8943747604901844,1.0323291701177435,0.572364356591476,0.4246657533884146,-0.7468343569217106,9.529026023532424,-1.3075295863095244,0.1858404435600425,-0.9986763659821896
0.96,-1.0910651171054866,0.2488242154414617,2.491162391726428,-0.0210617361933037,0.2153919127188063,0.019123236810766,0.5704490197352208,-0.3999018575746246,-0.6753618885104709,-1.0933619191046944,0.2529391042283798,2.4868517737294003,0.6939211807822911,-0.4714678035553709,-0.9343747610862309,1.056175269476558,0.6050001643298053,0.425094813540311,-0.7541719966399685,9.529026023532424,-1.3058415753627708,0.1882154704268936,-1.0029494614005363
0.98,-1.0795159392896927,0.240923439489924,2.477478456586649,-0.0230221565690246,0.2186027334666434,0.0188408234472865,0.5838052045803567,-0.3907267324690555,-0.6922775899179286,-1.0797252771857258,0.2435561118649042,2.4685642785136364,0.7180993504500119,-0.4761041743185535,-0.9743747616822772,1.1712296406197975,0.6678092422567949,0.4587562552784557,-0.8457850703728897,9.495086219890254,-1.3056853286106822,0.1900170112022259,-1.0059669140564755
1.0,-1.0676947344364522,0.2332115865467539,2.463445106178461,-0.0242488318802277,0.2206095471686477,0.0186497232313681,0.5975380544227661,-0.3810318359124619,-0.7101898357293179,-1.0503256790606748,0.2213871028664712,2.442864577090753,0.6443459104996224,-0.3882182526000623,-0.7922775914080448,1.2282413586555847,0.6866424921204706,0.4847448278296778,-0.8956122905694641,9.444731091802169,-1.306652026369593,0.1911341761188289,-1.0073389415276028
1.02,-1.056134641693914,0.2260357167393782,2.4500789857905145,-0.0259450310560197,0.2212483718708247,0.0184751934931935,0.6184394172661348,-0.374218803140738,-0.6958939113868982,-1.0503256790606748,0.2213871028664712,2.442864577090753,0.6443459104996224,-0.3882182526000623,-0.7922775914080448,1.311161543310863,1.0450681421684371,0.3406516385861952,0.7147962171209887,11.404402365428725,-1.3010696378833546,0.1915724504756775,-0.9965154371784516
1.04,-1.043549948940767,0.2186499097781058,2.436272057685522,-0.0285034425237845,0.2206144306465499,0.0182891175427164,0.6387317953064067,-0.3646005511634324,-0.6859887069393243,-1.0503256790606748,0.2213871028664712,2.442864577090753,0.6443459104996224,-0.3882182526000623,-0.7922775914080448,1.2271964520569698,1.014618902013592,0.4809125988652796,0.4952602223786906,11.404402365428725,-1.3074175731856468,0.1950023177366289,-1.0071362401640864
1.06,-1.0305764358314975,0.2114744282441969,2.42258732413568,-0.0308346451002929,0.2186129539360719,0.0181807045395152,0.6574682461037831,-0.3535051754546429,-0.6832473085907738,-1.0438822199556783,0.2175049203404706,2.434941801176673,0.6564540516834756,-0.3877165566262637,-0.812277591706068,1.097357297678313,0.93682253986882,0.5547687854394773,0.1370699174275291,10.940970089679467,-1.3144969560879505,0.1981060899249836,-1.013608588926365
1.08,-1.0172448101315348,0.2045293328404199,2.4088888384000184,-0.0324747863450529,0.214895468049311,0.0181983308084775,0.6746048638561195,-0.3417362489203726,-0.6866707764411648,-1.030995301745686,0.2097405552884693,2.419096249348512,0.6806703340511818,-0.3867131646786664,-0.8522775923021144,1.0534365570377329,0.8568308876168218,0.5884463267135154,-0.1711733925195524,10.53055656925244,-1.322669978812327,0.2003607155741348,-1.0154291179998625
1.1,-1.0042822462300067,0.1981544159733733,2.395767295788363,-0.0331794887428345,0.2096609762614446,0.0183513603982357,0.6886700532246612,-0.3300434021754732,-0.6942972478055299,-1.0181083835356937,0.2019761902364681,2.4032506975203507,0.7048866164188882,-0.3857097727310691,-0.8922775928981609,0.9908522625045112,0.7032594684270865,0.5846423372449672,-0.3813235682182558,10.202311882520007,-1.3333474490900303,0.2018175102725961,-1.0126073668790183
1.12,-0.9903862637783832,0.1916864416044223,2.381762285260191,-0.0327538603438628,0.202988211060575,0.0186477534454436,0.6998567175206524,-0.3174917286265143,-0.7059218413867976,-1.004010651207316,0.1942619947818467,2.3854051456623875,0.7291028987865945,-0.3847063807834719,-0.9322775934942074,1.0220287947025846,0.5593332147995567,0.627583677447946,-0.5812296790633831,9.937327120193912,-1.3449007850703527,0.2020565900068055,-1.0063028455776313
1.14,-0.9763001911441817,0.1854709095020378,2.3675019412073737,-0.0308603518801605,0.1959329681027973,0.0190617299738635,0.7079523056876481,-0.3048536266860907,-0.7195619356192319,-0.9899129188789382,0.1865477993272253,2.3675595938044243,0.7533191811543007,-0.3837029888358746,-0.9722775940902538,1.0140418372727875,0.4047794083497869,0.631905097021182,-0.6820047116217143,9.588603088531272,-1.3557475694395604,0.2007842889379515,-0.9975999459465344
1.16,-0.9620776164614504,0.179499832343869,2.3529507425207443,-0.0274506340702436,0.1889896765558696,0.0195644281581006,0.7137388920079575,-0.2934587254977823,-0.7348066656179348,-0.9752097794913678,0.1788586886712939,2.34871404193156,0.7775354635220071,-0.3826995968882773,-1.0122775946863003,0.9946483638289668,0.2893293160154686,0.5697450594154163,-0.7622364999351483,9.588603088531272,-1.3654740814896245,0.1982305919691187,-0.988492782095077
1.18,-0.9484787850082488,0.1740153909774242,2.3388313413245285,-0.0236073503665132,0.1827310680273776,0.020052017297621,0.7173174143389318,-0.2846358521784401,-0.7506437209313557,-0.9599012330446046,0.1711946628140524,2.3288684900437944,0.8017517458897133,-0.3816962049406801,-1.0522775952823469,0.923933488789634,0.1789261165487166,0.4411436659671114,-0.7918527656710417,9.487271535728723,-1.3744641104835065,0.1948876712876525,-0.9784083193871792
1.2,-0.9341099295887338,0.1684074976448094,2.323628984223517,-0.0194474990480429,0.1766986458424991,0.0205339361700045,0.7192533608969631,-0.2767599384682518,-0.7688055789057647,-0.912612914291302,0.1597835983685022,2.301299155277961,0.7460487511560772,-0.2861115550332448,-0.8506437224214718,0.9945237439705632,0.0967973279015654,0.3937956855094127,-0.9080928987204528,9.288342082729288,-1.3822679387272852,0.1913787774429961,-0.968024300042539
1.22,-0.9196256120965864,0.1629418013388677,2.3083798929750885,-0.0157409997672315,0.1703362228878951,0.0209637128084924,0.7291083708520657,-0.2700966352219555,-0.7534887485775548,-0.912612914291302,0.1597835983685022,2.301299155277961,0.7460487511560772,-0.2861115550332448,-0.8506437224214718,0.9696985648520464,0.4927504977551289,0.3331651623148191,0.7658415164104981,9.288342082729288,-1.3790285262479136,0.1870765071780549,-0.9462337830988138
1.24,-0.904968269315456,0.1576078916222711,2.293438139505385,-0.0125577015731308,0.1629579492262969,0.0213487026836548,0.7356999951576828,-0.2636859240904562,-0.7419948676045653,-0.912612914291302,0.1597835983685022,2.301299155277961,0.7460487511560772,-0.2861115550332448,-0.8506437224214718,0.7359620031278422,0.3295812152808552,0.3205355565749607,0.5746940486494712,10.881217878411007,-1.391101607330827,0.1853706182338672,-0.946894261056441
1.26,-0.8909616907806528,0.1526551306641835,2.279372135475008,-0.0097324012340144,0.1556221493239139,0.0216823384271619,0.738136820723702,-0.258064030805415,-0.7391399561266982,-0.9051524267797412,0.1569224828181698,2.292792718053746,0.7517950185195063,-0.2864066956042057,-0.870643722719495,0.3379878788287143,0.1218412783009603,0.2810946642520601,0.1427455738933547,10.881217878411007,-1.4025248557660932,0.1835922387765493,-0.94349441541791
1.28,-0.8762043097502864,0.1475499639262011,2.2645606759366848,-0.006872185047568,0.1480710164511265,0.0220010318418576,0.7372299377812558,-0.2528365859941142,-0.7424101876765972,-0.8902314517566198,0.1512002517175049,2.2757798436053167,0.7632875532463643,-0.2869969767461276,-0.9106437233155414,0.3116208847159083,-0.0453441471223114,0.2613722405650415,-0.1635115774949458,10.40101702906577,-1.4126652906877242,0.1816757480941582,-0.9367763123502144
1.3,-0.8614980423201871,0.1425418753063285,2.2496249692606867,-0.0041277681621022,0.1411500237324616,0.0222856516822326,0.7332801413814952,-0.2483072278343646,-0.7511913619843749,-0.8753104767334983,0.14547802061684,2.2587669691568872,0.7747800879732225,-0.2875872578880495,-0.950643723911588,0.5320361810122203,-0.1974898199880281,0.226467907987482,-0.4390587153888847,10.02319989078842,-1.4211332448911485,0.1796741185888413,-0.9279654560948256
1.32,-0.8469001361145971,0.1376172101557192,2.234461652269396,-0.001522998755174,0.1352731751149287,0.0225377528220137,0.7266490201786525,-0.2444390372141934,-0.764649374177297,-0.8598148749740339,0.139726275459079,2.239754094678656,0.7862726227000807,-0.2881775390299714,-0.9906437245076344,0.7746818044616928,-0.3315560601421352,0.1934095310085579,-0.6729006096461043,9.71613425432406,-1.4274155769793078,0.1777585332758383,-0.9187283969064068
1.34,-0.8331762409198318,0.1330045279865363,2.219787038245018,0.0007929587938451,0.1310966957257985,0.0227509669701075,0.7182543670255633,-0.2413281098152829,-0.7793440415227754,-0.8443192732145693,0.133974530301318,2.220741220200424,0.7977651574269388,-0.2887678201718933,-1.0306437251036809,0.8603506832045753,-0.4197326576544591,0.1555463699455236,-0.7347333672739209,9.472680759652576,-1.4315407586421385,0.1757381148401771,-0.9085203609122982
1.36,-0.8189194987696403,0.1282071133277714,2.204023828327492,0.0030296636610746,0.1287191559284722,0.0229546905579006,0.7077928554541097,-0.2385988194544717,-0.7962547126228693,-0.8285363580869335,0.128208028115009,2.200728345707291,0.809257692153797,-0.2893581013138151,-1.0706437256997272,1.00357242799016,-0.5230755785726793,0.1364645180405591,-0.8455335550046961,9.363556705978226,-1.4330945561763455,0.173829088246008,-0.9000837064199758
1.38,-0.8048793353404038,0.1234592201670137,2.187907819048823,0.0050308560217835,0.1287320796028319,0.0231464826308383,0.6970932971842457,-0.2363131413407765,-0.8144881131017427,-0.8124661295911262,0.1224267689001519,2.179715471199257,0.820750226880655,-0.289948382455737,-1.1106437262957736,1.0632047834643896,-0.5349779134932009,0.1142839056847644,-0.9116700239436726,9.277119010926526,-1.4309646731472727,0.1720105851123906,-0.8948058783106186
1.4,-0.7910405888775565,0.1187533944355221,2.1714163438197978,0.0067953516012261,0.1305913167727354,0.0233330264406585,0.6875669148829908,-0.2343635841350501,-0.8337393430359881,-0.7700246704811915,0.1116435630999749,2.147183413393736,0.7110140811808278,-0.2356106641058951,-0.8415768278652649,1.0783814109920082,-0.4763191150627455,0.0974778602863185,-0.9625614967122664,9.142324618370369,-1.4273216841045495,0.1704666857914609,-0.8921902291943735
1.42,-0.7779324055300862,0.1142984376388151,2.155883872353465,0.0077181507410191,0.1317731470686068,0.0234562863370896,0.692395172673216,-0.2344634448377031,-0.8003141890382734,-0.7700246704811915,0.1116435630999749,2.147183413393736,0.7110140811808278,-0.2356106641058951,-0.8415768278652649,1.6886110899343745,0.241412889511261,-0.0049930351326527,1.671257699885731,9.142324618370369,-1.4053076276184395,0.1678182431517036,-0.880248407434469
1.44,-0.7640387143575645,0.1096064957117237,2.140212554206197,0.0074504463679881,0.1306275957920923,0.0234841049245272,0.6964890633680288,-0.2346244816470972,-0.7690749479674284,-0.7700246704811915,0.1116435630999749,2.147183413393736,0.7110140811808278,-0.2356106641058951,-0.8415768278652649,1.5753381038347205,0.2046945347406403,-0.0080518404697013,1.561962053542254,12.537325336457798,-1.4115678004437222,0.1687489776095065,-0.8881951865566914
1.46,-0.7500824763928381,0.1049140127644429,2.125077176394069,0.0059130971978863,0.1272391012627201,0.0234142749616676,0.6987300428946348,-0.2344770029056061,-0.7459759430445158,-0.7629145296693832,0.109287456458916,2.138767645115083,0.7137982379801442,-0.2354701686589188,-0.8469945708179694,1.160396233670422,0.1120489763302978,0.007373937074552,1.154950246145631,12.029868508368963,-1.4189458256129568,0.1705006843590751,-0.8911829228169286
1.48,-0.7368043850311009,0.1004656386874563,2.1110637336567373,0.0033839722568826,0.1220936137373178,0.0232785629317216,0.698503604464449,-0.2335022905514375,-0.7302399484530328,-0.7486942480457667,0.1045752431767981,2.1219361085577777,0.7193665515787769,-0.2351891777649663,-0.8578300567233782,0.788388965421283,-0.0113219215092885,0.0487356177084327,0.7867997295741502,11.534992891854015,-1.4273840980455943,0.1731696755752658,-0.891286212334322
1.5,-0.7228704706161164,0.0958244576545741,2.0965838305703843,0.000258003326723,0.1153931424082551,0.0231272233858472,0.6945460565699904,-0.230536276674377,-0.7187876445368557,-0.7344739664221501,0.0998630298946802,2.1051045720004726,0.7249348651774098,-0.2349081868710137,-0.868665542628787,0.6237280830705259,-0.1978773947229339,0.1483006938530234,0.572615195808851,10.811357903187854,-1.4363328404636029,0.1761445325705731,-0.8872893582857273
1.52,-0.7090540774543985,0.0912565849985579,2.0822826681639177,-0.0027460979914562,0.1083268248620931,0.0230171599705862,0.6870364229030379,-0.2263717731968909,-0.7120747606958524,-0.719975269118602,0.0951648661572599,2.087731261147897,0.7305031787760426,-0.2346271959770612,-0.8795010285341959,0.5449782025196583,-0.3754816833476226,0.2082251738743046,0.3356441920501662,10.535472423179272,-1.4447383858394358,0.1789103653740722,-0.8805538118936385
1.54,-0.6954193594609962,0.0867811381077605,2.0680913995556454,-0.0053909927695116,0.1016588104294856,0.0229616977598092,0.6767059866066002,-0.2214246789867645,-0.7073514378195054,-0.7054765718150537,0.0904667024198396,2.070357950295321,0.7360714923746754,-0.2343462050831086,-0.8903365144396047,0.6194784786270764,-0.5165218148218853,0.24735471050632,0.2361661438173512,10.535472423179272,-1.4509745672805674,0.1810957192599189,-0.8722207549365839
1.56,-0.6826799724906025,0.0826262835153542,2.0546853964881677,-0.0075117424699453,0.0961901804074295,0.0229551903441888,0.6647099122416091,-0.2162373208999984,-0.704029994435197,-0.6908386666715397,0.0857755634547682,2.05271375229511,0.7416398059733083,-0.2340652141891561,-0.9011720003450135,0.6742523085720575,-0.599803718249553,0.2593679043383062,0.1660721692154199,10.440097438293378,-1.4563330498837876,0.183017263204875,-0.8637842159488829
1.58,-0.6695385320501436,0.0783624868254063,2.040630900035369,-0.0093408748918309,0.0918955897019671,0.0229840548652449,0.6499250775505061,-0.2104579410393759,-0.7016392577243418,-0.6760615536880599,0.0810914492620455,2.034798667147264,0.747208119571941,-0.2337842232952035,-0.9120074862504224,0.8026646099667704,-0.7392417345551516,0.2889689930311231,0.1195368355427606,10.37008960242656,-1.4601711795948138,0.1845769101835201,-0.856751863949504
1.6,-0.6567162931398325,0.0742189280251012,2.026611062925316,-0.0107175562762137,0.08984785407105,0.0230362470423487,0.6330906279647063,-0.2042446931114195,-0.7004527744882209,-0.6370422781726183,0.0678395897734376,2.005548937149152,0.64894867744988,-0.1977335740690156,-0.6810030344677538,0.8991814126480362,-0.8417224792899913,0.3106623963978233,0.0593241618060458,10.244831914957103,-1.461418869362474,0.1856770349154922,-0.8526287564319865
1.62,-0.6447831525469724,0.0703804862393832,2.0136072712736617,-0.0123372197319184,0.0891126220813467,0.0230594123722604,0.6237916741338739,-0.1997155458325494,-0.6684495161893463,-0.6370422781726183,0.0678395897734376,2.005548937149152,0.64894867744988,-0.1977335740690156,-0.6810030344677538,1.681660086912727,-0.4649476915416173,0.2264573639435038,1.6001629149437258,12.314601851265252,-1.448968588466032,0.1857347670249305,-0.8419437973348741
1.64,-0.632415170435811,0.0664533320208306,2.000571191869813,-0.0144459663235721,0.0883326131377249,0.0230646304673636,0.6134291501635065,-0.1931595257712503,-0.6371551923008314,-0.6370422781726183,0.0678395897734376,2.005548937149152,0.64894867744988,-0.1977335740690156,-0.6810030344677538,1.680549024664166,-0.5181261985183705,0.3278010030649536,1.564716194425747,12.314601851265252,-1.4519320218425154,0.188135158476827,-0.8509026775472713
1.66,-0.6202647501083549,0.0626694534359352,1.9881081298475356,-0.0163761805383942,0.0877267408751846,0.0230889540066901,0.6021467565212292,-0.1856003439645719,-0.6107087216527414,-0.6305527913981195,0.0658622540327474,1.9987389068044743,0.6487533974297548,-0.1951887006749436,-0.6768757898164361,1.4864802770521428,-0.5641196821138672,0.3779590903339222,1.3223235324045013,12.02218939130762,-1.4545922924803951,0.1903716525000831,-0.8586042828502191
1.68,-0.6083473951346094,0.0590437662490397,1.9761344142285973,-0.0178996199119595,0.0874272193807784,0.0231446324479793,0.5901936735985732,-0.177418859720541,-0.5879866087819737,-0.6175738178491218,0.0619075825513671,1.9851188461151197,0.6483628373895044,-0.1900989538867995,-0.668621300513801,1.3473189016553568,-0.5976541461327978,0.409074212201542,1.136105643538382,11.737697689915876,-1.4564797264757685,0.1921537019900811,-0.864993462526168
1.7,-0.5972517752231038,0.0557564393896962,1.96515201834354,-0.0188072050318153,0.0875097047192573,0.0232345603611411,0.5784201816716589,-0.1690935836006951,-0.5691918313913686,-0.6045948443001242,0.0579529110699868,1.9714987854257644,0.647972277349254,-0.1850092070986554,-0.6603668112111658,1.1844502857731034,-0.5886745963457174,0.4162638059922965,0.9397388695302544,11.517117730459177,-1.4576394875604917,0.1935323374552718,-0.871095315764883
1.72,-0.5858154205548279,0.0524709798563494,1.953956222640782,-0.0189979627515632,0.0880150560549737,0.0233793385589823,0.5658831847810114,-0.1599465308852829,-0.5514703986647366,-0.5916353987531392,0.0542527269280137,1.958291449201541,0.6475817173090036,-0.1799194603105113,-0.6521123219085306,1.1778094522238942,-0.6268498445323734,0.4573526357706095,0.8860716363316035,11.346528875275908,-1.4580644222466463,0.1942504604005717,-0.8769434274604914
1.74,-0.5746292820897761,0.0493721353121674,1.9431058334577325,-0.0181851340991856,0.0889545861857481,0.0235892717404972,0.5534494295975626,-0.1505307153629382,-0.534453681517667,-0.5786759532061541,0.0505525427860405,1.9450841129773175,0.6471911572687532,-0.1748297135223671,-0.6438578326058955,1.1541495920981584,-0.6216877591724401,0.4707907761172358,0.8508358573534769,11.200163568219068,-1.45763305590404,0.1941369274185243,-0.8823102675779019
1.76,-0.5642299246150689,0.04660260519035,1.9331093100080745,-0.0163300167244452,0.0902087648425127,0.0238600322580445,0.5419249336585233,-0.141623646005577,-0.5186689495165631,-0.5657262716601753,0.046979602313771,1.9320831389856603,0.6468005972285027,-0.169739966734223,-0.6356033433032602,1.0739036915995428,-0.5762247969519629,0.4453534678680579,0.7892366000551987,11.200163568219068,-1.4567637942159517,0.1931138770215744,-0.8885495983665391
1.78,-0.5535149005830945,0.043859002046462,1.9229075158233988,-0.0133492589097511,0.0918310347852298,0.024214167169136,0.5302696957222286,-0.1335829816670204,-0.5023583014293728,-0.5527863541152027,0.0435339055112051,1.919288527226569,0.6464100371882523,-0.1646502199460789,-0.627348854000625,1.0799700173860671,-0.5827618968147374,0.4020332169278315,0.8155324043595147,11.182136795665429,-1.455687718552434,0.1912447517312605,-0.8955112803932564
1.8,-0.5430277561444921,0.0412554439670192,1.913026358137056,-0.0100501738663264,0.0936850666681235,0.0245901622223917,0.5191205160299314,-0.127308649817108,-0.4865854397865439,-0.5270014157969831,0.037179852963111,1.8977896007519304,0.5340494690897974,-0.1197583036408806,-0.4963751182689485,1.0154489307416932,-0.5574589846148614,0.313716592495622,0.7886430821414409,11.166905832168595,-1.4535709070073497,0.1890255758756257,-0.9029554606673466
1.82,-0.5327542390041077,0.0387522985645858,1.9034915825019356,-0.0072447645714344,0.0957066616070587,0.0249330216158073,0.5088726799625024,-0.1230949242126497,-0.4677025462286307,-0.5270014157969831,0.037179852963111,1.8977896007519304,0.5340494690897974,-0.1197583036408806,-0.4963751182689485,1.0946886505464075,-0.5123918033714481,0.2106862802229138,0.9441446778956614,11.347263544228554,-1.4504732164395773,0.1871178514232056,-0.9088206464663092
1.84,-0.5231804638161364,0.0364516858511666,1.894768306623896,-0.0051780833873371,0.0977422528395171,0.0252186328050532,0.4994801538052655,-0.1192078991275372,-0.4515052940428861,-0.5270014157969831,0.037179852963111,1.8977896007519304,0.5340494690897974,-0.1197583036408806,-0.4963751182689485,0.9561373985930092,-0.4696263078618451,0.1943512542556251,0.8098626092872319,11.347263544228554,-1.4484079142717152,0.1857869387704745,-0.917683957085125
1.86,-0.5132908997807835,0.0341085123990705,1.8859020187331608,-0.0034229235582783,0.0999561930390409,0.0254916995247337,0.4900412264878743,-0.1152886536683594,-0.4360551088994597,-0.5216609211060852,0.0359822699267022,1.8928258495692407,0.5348054237633112,-0.1169933680356527,-0.4951784816368637,0.926231686510498,-0.4719463658695605,0.1959622729588862,0.7725092571713194,11.228252336746664,-1.4460682561585725,0.1847404798041543,-0.925853419407901
1.88,-0.5035853265194778,0.0318402816042058,1.877328640234568,-0.0020340572178115,0.1021889924431107,0.0257407931188038,0.4810549848838193,-0.1117360803389609,-0.4221247475399535,-0.5109799317242892,0.0335871038538846,1.8828983472038616,0.5363173331103388,-0.1114634968251968,-0.492785208372694,0.8476855003974443,-0.4493120802027489,0.1776286664699283,0.6965180679753102,11.137236262145962,-1.443649650046032,0.1839569962699239,-0.9336223273541612
1.9,-0.494054667091047,0.0296381909118829,1.869019237081304,-0.0011016518278852,0.1043966618478124,0.0259591734756931,0.4725291221981067,-0.1086206371401289,-0.4095219556855043,-0.5002989423424933,0.031191937781067,1.8729708448384828,0.5378292424573663,-0.1059336256147409,-0.4903919351085243,0.7765736980276654,-0.4262931342856296,0.1557721599415994,0.630139592722459,11.055183446618685,-1.4413408894773818,0.1835437864643502,-0.9408237320543394
1.92,-0.485154045282104,0.0276008674640102,1.8613487115084149,-0.0007365990222543,0.1064328790313416,0.026130855394697,0.4648569732491258,-0.105948991713606,-0.3985433529296633,-0.4895423574933459,0.0290732652687721,1.863163006136312,0.5393411518043938,-0.100403754404285,-0.4879986618443546,0.6828786078999873,-0.3836074474490469,0.1335822713261457,0.5489301377920502,10.989006954418985,-1.4390269856366649,0.1835563733157487,-0.9480986251405806
1.94,-0.4759375741931426,0.0255100443812185,1.8534930158028784,-0.0009805174724413,0.1084757763767989,0.0262678614454564,0.457245162142684,-0.103232649649112,-0.3876407581487149,-0.4787857726441986,0.0269545927564773,1.8533551674341415,0.5408530611514214,-0.0948738831938291,-0.4856053885801849,0.6785734217626196,-0.3805905553220856,0.1358171032246967,0.5451297390474202,10.93536502992174,-1.436726941661084,0.1840935951447024,-0.9547646242310146
1.96,-0.4668685436898369,0.0234760497593992,1.8458481122406345,-0.0018599410760208,0.1103744860698104,0.0263604257590692,0.4500797209585257,-0.1002566444722158,-0.3774319330717733,-0.4679913900613756,0.0249741670244439,1.8436071605635755,0.5423649704984489,-0.0893440119833732,-0.4832121153160152,0.6411323257100238,-0.3582720592079175,0.1488002588448132,0.5104412538470798,10.87031018383641,-1.4347067828283813,0.1851135593059379,-0.9607702365129144
1.98,-0.4579388992762992,0.0215066788312755,1.8383995596273217,-0.003260204953548,0.1120934305510944,0.0264167488767109,0.4432739379458452,-0.0967876603999338,-0.3679442287405433,-0.4571592097448769,0.0231319880726719,1.8339189855246136,0.5438768798454765,-0.0838141407729173,-0.4808188420518455,0.6090342075497012,-0.3402891506340266,0.173449203614099,0.4743852165614987,10.87031018383641,-1.4328528224331365,0.1866462601274635,-0.9667030839669344
2.0,-0.4495789815365487,0.019706633755516,1.831493066636085,-0.0049083275237658,0.1135485961707992,0.0264487302312785,0.4370784077079683,-0.0928435515599168,-0.3595389667005914,-0.435775202379007,0.0166672958112788,1.8200023481902945,0.439690385630014,-0.0844519576230249,-0.3638915725035073,0.5580972572737711,-0.3097765118938417,0.1972054420008473,0.420263101997595,10.836728446152849,-1.4312907764774376,0.1885089002751405,-0.9722876414411455
2.02,-0.4408700350533416,0.0179212783476053,1.8244643390118271,-0.0061404412549965,0.1141012041005871,0.0265233663139984,0.4341287817954593,-0.0860249749397789,-0.3434225891201005,-0.435775202379007,0.0166672958112788,1.8200023481902945,0.439690385630014,-0.0844519576230249,-0.3638915725035073,0.8873146376362018,-0.1474812956254512,0.3409288310068959,0.8058188790245446,10.806044761714476,-1.4272440122672945,0.1896521201474732,-0.975693329055635
2.04,-0.4322240277621206,0.0162724450063295,1.8177541709901432,-0.0062923011659564,0.113012443454809,0.0266843197799936,0.4304701982188446,-0.0792789405412253,-0.3285499633682319,-0.435775202379007,0.0166672958112788,1.8200023481902945,0.439690385630014,-0.0844519576230249,-0.3638915725035073,0.8367932998188504,-0.1829291788307346,0.3373017199276802,0.7436312875934298,11.168474055164552,-1.4304334122212488,0.1905517657245026,-0.98313992163264
2.06,-0.4240902317972504,0.0148306702393533,1.811632242748168,-0.005499848440299,0.1108191601176041,0.0269083731585062,0.4257873200690125,-0.072928194138442,-0.3166032298265381,-0.4313782985227068,0.0158227762350486,1.8163634324652596,0.4389736751668477,-0.0819848170676431,-0.3630810412561001,0.7158662059960529,-0.2341439074916046,0.3175373201391676,0.5973366770846922,11.168474055164552,-1.435101864174975,0.190652750103996,-0.9897181756006644
2.08,-0.4156396029153263,0.0134387921193475,1.8054164260660976,-0.0037175420173459,0.1076696346775998,0.0272083099769844,0.4193723491548048,-0.0666894289628022,-0.3056793211249278,-0.4225844908101066,0.0141337370825881,1.8090856010151888,0.4375402542405153,-0.0770505359568796,-0.3614599787612857,0.7060556353220714,-0.3207485457103837,0.3119382587819859,0.5461954350805126,10.949690081600238,-1.4401234643831022,0.1897732611052952,-0.9936662281555442
2.1,-0.4073359605947667,0.012162014029057,1.7994024304430438,-0.0011312865073246,0.1041269277265314,0.0275529338515219,0.4111633171676253,-0.0615730912267691,-0.2963273561123815,-0.4137906830975063,0.0124446979301276,1.8018077695651191,0.4361068333141828,-0.072116254846116,-0.3598389162664713,0.6727264815502376,-0.4104515993589797,0.2558168868016571,0.4675982506273157,10.949690081600238,-1.4450826254580569,0.18817682723544,-0.9955812113349736
2.12,-0.3992176190218267,0.01096739972367,1.7935601824501923,0.0015980093883788,0.1008070696060392,0.0278912133426221,0.4009840126707779,-0.0581861363847922,-0.2883592462320996,-0.4050685464312227,0.0110023728332052,1.7946109912397896,0.4346734123878503,-0.0671819737353525,-0.3582178537716569,0.6681700348814187,-0.5089652248423671,0.1693477420988468,0.3984054940140979,10.861974965059744,-1.4492609347675829,0.1862034029126645,-0.996256406006364
2.14,-0.3917115418351801,0.0098843269180703,1.7881504040444371,0.0039243545637283,0.0984840791499571,0.0281820203491959,0.3895870537248415,-0.0559463341804021,-0.2814887042804364,-0.396346409764939,0.0095600477362829,1.7874142129144603,0.4332399914615178,-0.0622476926245889,-0.3565967912768426,0.6747439029730359,-0.5698479472968199,0.1119901102195033,0.34352709758316,10.791543083666513,-1.4516556793964983,0.1843246301684738,-0.9963561658827502
2.16,-0.3840566722897947,0.0087845362371372,1.7825918696162362,0.0059918698508432,0.097487985790568,0.0284574145064535,0.3766445056896563,-0.0541196211230982,-0.274747958510838,-0.3876601086218136,0.0082410796671297,1.7802579611515013,0.4318065705351854,-0.0573134115138254,-0.3549757287820281,0.7353300003521517,-0.6471274017592593,0.0913356528651949,0.3370372884799161,10.757376574161754,-1.4504556414214078,0.1825608165438628,-0.996940903537804
2.18,-0.3766578189768224,0.0077164457406924,1.7771625891469618,0.0076487027151687,0.0979553580470795,0.0287068176507006,0.3640828117076415,-0.052718197228124,-0.2685174603892751,-0.3790096430018466,0.0070454686257455,1.7731422359509126,0.4303731496088529,-0.0523791304030618,-0.3533546662872138,0.7045907526252209,-0.6280846991007394,0.0700711947487109,0.311524906078145,10.728877091935829,-1.4476165259861542,0.1811667473824999,-0.9987030746539006
2.2,-0.3695018638219398,0.0066718920343019,1.7718539852937274,0.0088546546524405,0.0995512482096182,0.0289299817287418,0.3523221269413236,-0.0517651568109451,-0.2626579902120288,-0.3584536783914403,0.0050805358792862,1.763736716127498,0.3668704254832227,-0.0516936409983016,-0.2784465101493784,0.6587021006637213,-0.5880342383158987,0.0476520208589438,0.2929735088623181,10.70040024055379,-1.4434837878670732,0.1800603326129889,-1.00158892269049
2.22,-0.362921391456162,0.0057309154518882,1.7669453473002363,0.0106892480604616,0.1021660794253186,0.0291981355861703,0.3412212511091202,-0.047952799034762,-0.2543460692823681,-0.3584536783914403,0.0050805358792862,1.763736716127498,0.3668704254832227,-0.0516936409983016,-0.2784465101493784,0.7191167248725193,-0.5550437916101686,0.1906178888091546,0.4155960464830327,10.679488912957822,-1.438149671818062,0.1783731037001666,-1.0071968787141905
2.24,-0.3562063283347383,0.004789293980925,1.761938422851669,0.0134305576433819,0.1059880794478416,0.029549768726589,0.3310852088892543,-0.0465489136719926,-0.2468725416653325,-0.3584536783914403,0.0050805358792862,1.763736716127498,0.3668704254832227,-0.0516936409983016,-0.2784465101493784,0.6335689801381075,-0.5068021109932958,0.0701942681384685,0.3736763808517812,10.864122157555355,-1.43251171790474,0.1759703186611132,-1.0152839384444987
2.26,-0.3496766618497423,0.0038586088416275,1.757065102853686,0.0160871983577299,0.110389695249371,0.0299072402158348,0.3225768228676532,-0.0465647629256194,-0.2408405318941114,-0.3547849741366081,0.0045635994693032,1.760952251026004,0.3674279482383389,-0.0514887297523372,-0.280432320101399,0.5214835226819791,-0.4254193010800516,-0.0007924626813392,0.3016004885610518,10.77437834923876,-1.4264381020486991,0.1736964276936414,-1.0228681166067353
2.28,-0.3436157495263857,0.002966084227144,1.7525368485791957,0.0182427068242659,0.1147038278514146,0.0302268277859695,0.3159595585223032,-0.0473046627644368,-0.2361288240873319,-0.3474475656269437,0.0035297266493371,1.7553833208230163,0.3685429937485713,-0.0510789072604082,-0.2844039400054403,0.4078474887877542,-0.3308632172675047,-0.0369949919408706,0.235585390338977,10.646311980597602,-1.4199248559319562,0.1716158647661281,-1.0302979308802418
2.3000000000000003,-0.337357112986232,0.0020073787118718,1.7478585996947218,0.0200587955341766,0.1190625244873408,0.0305303076387926,0.3103647216783385,-0.0484700917738443,-0.231987808856745,-0.3401101571172792,0.0024958538293711,1.749814390620029,0.3696580392588038,-0.0506690847684793,-0.2883755599094816,0.352875442707854,-0.2797418421982334,-0.0582714504703749,0.207050761529344,10.646311980597602,-1.4135597786307508,0.1699361294881929,-1.0371702977608934
2.32,-0.3311970589110285,0.0010202155924018,1.7432545578769116,0.0213427269852364,0.1229892561022363,0.0307876904605691,0.3059781550033255,-0.0501238231180858,-0.2286320341955529,-0.3327169963321031,0.0014824721340015,1.7440468794218391,0.3707730847690362,-0.0502592622765504,-0.2923471798135229,0.2882621121911443,-0.2193283337506485,-0.0826865672120747,0.1677887330596039,10.604979756873943,-1.407906634665041,0.1687510701708658,-1.0430554789241997
2.34,-0.3251141596727618,-4.851413183341204e-06,1.738712069495903,0.0219400826398786,0.1263385326448674,0.0309821210124441,0.3025570258082075,-0.0522232585437806,-0.2257921421098352,-0.325323835546927,0.0004690904386319,1.7382793682236497,0.3718881302792687,-0.0498494397846214,-0.2963187997175642,0.2458492481932453,-0.1710564597559027,-0.1049717712847363,0.1419946042858888,10.569845734768933,-1.4032184602097793,0.1682138848153019,-1.0475339416359477
2.36,-0.3193914054084271,-0.0010199440423859,1.7344450008844767,0.0217283174181179,0.1289130059721348,0.0310948553656327,0.3000050832816075,-0.0544385215699172,-0.2235186460493931,-0.3179027986239952,-0.0005340456944393,1.7324125665278591,0.3730031757895011,-0.0494396172926925,-0.3002904196216054,0.2036454349530278,-0.1275971263299979,-0.1107631513068311,0.1136748030221054,10.5479801081201,-1.3991587807346917,0.168421812387797,-1.0511682519825387
2.38,-0.3134150953534919,-0.0021327180985221,1.7299957720014385,0.0206117617453761,0.1309710769948185,0.0311317071323295,0.2977598254986461,-0.0566439620483338,-0.2215429592662809,-0.3104538855633075,-0.0015269362652125,1.7264464743344674,0.3741182212997336,-0.0490297948007636,-0.3042620395256468,0.1857988729833367,-0.1122628891480681,-0.1102720239208304,0.0987843391556095,10.528109062153815,-1.395998580620175,0.1695078803340811,-1.0538200261431236
2.4,-0.3074805652436136,-0.0032854124747355,1.7255810581122333,0.0185864344074007,0.1323877100236196,0.0310870646483477,0.29576965905127,-0.058408145710293,-0.2200246134167556,-0.2985271040785596,-0.0049649162009388,1.7189186240381242,0.29844860932309,-0.0328621241528212,-0.2153982223728058,0.1531215252679715,-0.0995083223688048,-0.0882091830979609,0.075917292476263,10.507163931785726,-1.393807377012682,0.1713529517294552,-1.055458386908876
2.42,-0.3018379351484724,-0.0044569390345051,1.7215230973276583,0.0143151872659793,0.1324939306369986,0.0308577491618089,0.2980664212177103,-0.06337242831111,-0.2071878642203437,-0.2985271040785596,-0.0049649162009388,1.7189186240381242,0.29844860932309,-0.0328621241528212,-0.2153982223728058,0.6976771246815149,0.1148381083220129,-0.2482141300408497,0.6418374598205934,10.484368771490152,-1.3827122474367814,0.174610785190596,-1.0497939481388
2.44,-0.2958585310685937,-0.0057277948792127,1.717511575092036,0.0081486482232947,0.1307270089812857,0.0304852389971072,0.2995882086825753,-0.0631057488343839,-0.194766172758391,-0.2985271040785596,-0.0049649162009388,1.7189186240381242,0.29844860932309,-0.0328621241528212,-0.2153982223728058,0.6258701418974176,0.0760893732432516,0.0133339738363047,0.6210845730976383,11.232198618346048,-1.387006496950001,0.1809934066498476,-1.056486075891478
2.46,-0.2898635762925372,-0.0069564190252908,1.7137253643881472,0.0019897675000375,0.1272869791087493,0.0301264271259888,0.2996563625642532,-0.059710317788256,-0.1844708430804423,-0.2955426179853287,-0.005293537442467,1.7167646418143965,0.2985863660879787,-0.0281057565737187,-0.2141692749941108,0.5420502977543882,0.0034076940838928,0.1697715523063976,0.5147664838974344,11.114033586196456,-1.3931884099685323,0.1871989637429429,-1.060681023891633
2.48,-0.2841853476716627,-0.0080407556717217,1.7103026077937835,-0.0032409016380472,0.1227945355430772,0.0298590422107393,0.2978877995262238,-0.0546802472026237,-0.1763302617854109,-0.2895736457988669,-0.0059507799255234,1.71245667736694,0.2988618796177563,-0.0185930214155137,-0.2117113802367208,0.4865657435972556,-0.0884281519014679,0.2515035292816103,0.407029064751567,10.996170663323936,-1.400745475962583,0.1931735579130271,-1.0629892391863442
2.5,-0.2782698128811705,-0.0090671408453685,1.706853564202676,-0.0079240390812034,0.1173362453921325,0.0296735768540463,0.293492044667779,-0.0482796467904934,-0.1690568134275704,-0.2836046736124051,-0.0066080224085798,1.708148712919484,0.2991373931475338,-0.0090802862573086,-0.2092534854793308,0.5319619286788241,-0.2197877429222422,0.3200300206065161,0.3636724178920275,10.898275484721124,-1.408783614357224,0.198355507915254,-1.0635392040150329
2.52,-0.2724725114593134,-0.0099558583806804,1.7035368224407543,-0.0117379845643831,0.1119710694458459,0.0295810816012552,0.2862713656357128,-0.0410046145952786,-0.1630296258017548,-0.2776219257494544,-0.006789628133726,1.7039636432098972,0.2994129066773113,0.0004324489008963,-0.2067955907219407,0.594540347248016,-0.3610339516033067,0.3637516097607422,0.3013593812907791,10.824315909855612,-1.4158044319701817,0.2026218753284888,-1.0628859735516194
2.54,-0.2668474061817504,-0.0106927477907889,1.700333827147417,-0.0147210639126292,0.1075569789925546,0.0295604824214923,0.276430615080282,-0.0331531726113178,-0.1575896426757883,-0.2716391778865037,-0.0069712338588722,1.6997785735003106,0.2996884202070888,0.0099451840591014,-0.2043376959645507,0.6857093574039114,-0.4920375277715411,0.3925720991980383,0.2719991562983248,10.75802605044464,-1.420722481652302,0.2058387457338148,-1.0622569029106923
2.56,-0.2617099510961034,-0.0112414163437911,1.6973872719719822,-0.0167837216299513,0.1051215610906658,0.029583486759443,0.2648194353522889,-0.0251852681223925,-0.1528460066856945,-0.2656495421853086,-0.0069150212050632,1.6956549511596588,0.2999639337368663,0.0194579192173064,-0.2018798012071607,0.7429822996325488,-0.5805589863996569,0.3983952244462648,0.2371817995046918,10.737811466234234,-1.423086443818275,0.2083463490959786,-1.0630640165427758
2.58,-0.2565484112473127,-0.0116530904570902,1.694380160837519,-0.0182011436489634,0.1049727202307701,0.0296268367151774,0.2522626683527585,-0.0164663561795829,-0.1481300999079348,-0.2596530186458691,-0.0066209901722991,1.6915927761879417,0.3002394472666439,0.0289706543755114,-0.1994219064497707,0.7998931173655077,-0.62783834997652,0.4359455971404812,0.2357953388879854,10.72704263659034,-1.419703029315314,0.2097685465287963,-1.065588114201264
2.6,-0.2516250894737236,-0.0118831634445145,1.6914645222985227,-0.0186827553676646,0.1068356626432103,0.029701102374749,0.240981208326427,-0.0071105245935143,-0.1436780755106016,-0.2439352778296747,-0.0124764082660694,1.6869736558421224,0.2623374402934667,-0.0088996121835886,-0.1412214922387601,0.7658711481493508,-0.5640730013165715,0.4677915793034288,0.2226012198666568,10.694693125499724,-1.4150371463367262,0.2103594216702102,-1.071183286493423
2.62,-0.2471523977878402,-0.0118447240002938,1.6888090845179595,-0.015517598071577,0.1102592074374454,0.029996295337732,0.2307723959307829,0.0091520945033024,-0.136042972220457,-0.2439352778296747,-0.0124764082660694,1.6869736558421224,0.2623374402934667,-0.0088996121835886,-0.1412214922387601,1.0331837114821163,-0.510440619782207,0.8131309548408386,0.3817551645072317,10.943747735473153,-1.407717008009833,0.2075562016649313,-1.0841200795594264
2.64,-0.2426279779024411,-0.0115523077335393,1.6861702722714385,-0.0085671523177482,0.1152614536240751,0.0305543058369145,0.2225073999702286,0.0185272679627116,-0.1282882190015816,-0.2439352778296747,-0.0124764082660694,1.6869736558421224,0.2623374402934667,-0.0088996121835886,-0.1412214922387601,0.7354254433789489,-0.4132497980277164,0.468758672970463,0.3877376609437696,10.943747735473153,-1.4004951020392735,0.2009838212575888,-1.097489530337363
