t,x,y,z,roll,pitch,yaw,v_x,v_y,v_z,ref_x,ref_y,ref_z,ref_v_x,ref_v_y,ref_v_z,a_com,a_x,a_y,a_z,thrust,wind_x,wind_y,wind_z
0.0,-1.8376818166224969,0.7216237813733474,1.934496208684715,0.0143239515454719,0.1498734924200998,0.028227522633945,0.0011826209050551,0.0054044814688955,-0.0036789914094055,-1.8376606946939291,0.7215264487889129,1.93445610084492,0.101438609667617,-0.0995081581591693,-0.1036621528643333,0.3321971927304191,0.0591310452527563,0.2702240734447783,-0.1839495704702752,10.658457026875112,-1.4134735434482932,0.1783502926750326,-1.2793067007614676
0.02,-1.8377644064594292,0.7219622459822346,1.934212096185526,0.0232619515921456,0.1520228466178797,0.0288974474386413,-0.0091653243250724,0.0244107255717241,-0.0259118536019647,-1.8376606946939291,0.7215264487889129,1.93445610084492,0.101438609667617,-0.0995081581591693,-0.1036621528643333,1.551303844073878,-0.5173972615063764,0.95031220514143,-1.1116431096279622,10.65836234751987,-1.4080654118715863,0.1683994868736504,-1.2770720027189189
0.04,-1.8380210200777016,0.7224515125305688,1.9334050767550768,0.0374864329425276,0.1572086741597257,0.0300371254806225,-0.0168818563696285,0.0255633772746596,-0.0578359078670066,-1.8376606946939291,0.7215264487889129,1.93445610084492,0.101438609667617,-0.0995081581591693,-0.1036621528643333,1.6431819082653918,-0.3858266022278057,0.0576325851467761,-1.5962027132520922,9.26741295930742,-1.3963641083584823,0.150578973617109,-1.282471378178393
0.06,-1.8384102952720336,0.7229177115977599,1.9319044671511736,0.0528637544747686,0.1642815671894898,0.0313994650781634,-0.0212857993376476,0.0206353674749485,-0.0904742381315448,-1.836646308597253,0.7205313672073212,1.933419479316277,0.1214386099656402,-0.1195081584571925,-0.1236621531623565,1.665037985083738,-0.2201971484009588,-0.2464004899855555,-1.631916513226911,8.776053775527544,-1.3848599928427674,0.1323857816116534,-1.2887936787035128
0.08,-1.838853067655921,0.7232475120161295,1.9297748125637764,0.0676902396514849,0.171994375089613,0.0328481760871254,-0.0224851567841755,0.0122742389933608,-0.1207889685517312,-1.8346175364039008,0.7185412040441378,1.9313462362589904,0.1614386105616867,-0.159508159053239,-0.1636621537584029,1.573475300265892,-0.0599678723263937,-0.4180564240793861,-1.5157365210093212,8.87559562397064,-1.3731446270011003,0.1149174425115089,-1.2941334258105128
0.1,-1.839290108637764,0.7233792855747955,1.9270661529232564,0.0818236588086116,0.1797815654597325,0.0343435207269284,-0.0209370706150116,0.0010254968433823,-0.1486210916101953,-1.8325887642105485,0.7165510408809544,1.9292729932017036,0.2014386111577331,-0.1995081596492854,-0.2036621543544494,1.5029619461960346,0.0774043084581956,-0.5624371074989251,-1.391606152923205,9.017593012716134,-1.362477898286533,0.0991644558313223,-1.298436919086123
0.12,-1.8396539428053031,0.723270324594073,1.9239968775429648,0.0946098039663046,0.1869790351839116,0.0357784347732712,-0.0172688437317273,-0.0121795179982119,-0.1731143248438711,-1.8285599919873936,0.7125608776879687,1.9251997501146143,0.2414386117537796,-0.2395081602453319,-0.2436621549504958,1.403341351625838,0.1834113441642158,-0.6602507420797146,-1.224661661683787,9.159817766474587,-1.3522194160283036,0.0835343215166781,-1.3011734231847265
0.14,-1.8399429976917996,0.7228594046704067,1.9202677158725117,0.1074182543744969,0.1942114112949647,0.0372789216297082,-0.0116473539309242,-0.0284923879651179,-0.1985411812851809,-1.8245312197642392,0.708570714494983,1.9211265070275252,0.2814386123498261,-0.2795081608413784,-0.2836621555465424,1.5364210869946238,0.2810744900401549,-0.8156434983452993,-1.2713428220654923,9.324232391431906,-1.342791323856631,0.0685981149078769,-1.30588368826073
0.16,-1.840101842152238,0.7220970949239499,1.9160345898721,0.1195867190710704,0.2010373549392034,0.0387485263786376,-0.0043475347073461,-0.0471834172914824,-0.2235132990416047,-1.8195024475261836,0.7035805512870961,1.9160532639255352,0.3214386129458725,-0.3195081614374248,-0.3236621561425888,1.6017557579236563,0.3649909611789048,-0.9345514663182272,-1.2486058878211883,9.324232391431906,-1.3331599628022277,0.0543921516868522,-1.3092122061970384
0.18,-1.8400974846629208,0.7209366504463498,1.911308724199093,0.1311426516259139,0.2074394065631398,0.0401697883996289,0.004579725151892,-0.0681761511691459,-0.2478300237127938,-1.8134736752732263,0.6975903880643081,1.909980020808644,0.3614386135419189,-0.3595081620334712,-0.3636621567386352,1.6671037332655585,0.4463629929619099,-1.0496366938831745,-1.2158362335594572,9.373216911966663,-1.323793530778212,0.0415340317272885,-1.3113341882569274
0.2,-1.8399130560544872,0.7194241803768588,1.9063764098530185,0.1415776592830164,0.2131313117072028,0.0414621199667411,0.0145075423677974,-0.090183669051189,-0.2701943782391651,-1.839868498405326,0.7175278428878925,1.8989172230134528,0.1045797266420081,-0.168176152659262,-0.3478300252029099,1.645491379027932,0.4963908607952688,-1.1003758941021555,-1.1182177263185642,9.433042499719704,-1.3146333793449083,0.0287020363013663,-1.3128074515023902
0.22,-1.83947888262394,0.7172117820311518,1.9007970842573123,0.1475905131494727,0.2187326700718732,0.0424306914508928,0.0286083333857219,-0.1279305713392066,-0.2858095447056782,-1.839868498405326,0.7175278428878925,1.8989172230134528,0.1045797266420081,-0.168176152659262,-0.3478300252029099,2.160725782838516,0.7050395508962275,-1.887345114400881,-0.780758323325656,9.495257490360927,-1.3062442978314688,0.0220868135344815,-1.31141421120088
0.24,-1.8387488423091267,0.7143146600291296,1.894928811191184,0.1481567775196927,0.2239517145931051,0.0429391905621932,0.0437829915332078,-0.1594595189680346,-0.3002735590655466,-1.839868498405326,0.7175278428878925,1.8989172230134528,0.1045797266420081,-0.168176152659262,-0.3478300252029099,1.8931141671046388,0.7587329073742933,-1.5764473814413995,-0.7232007179934191,10.121274875923518,-1.2997990107625264,0.021746614014685,-1.3117217384922206
0.26,-1.8377679237416915,0.7109991214786112,1.889076198791127,0.1459132706748696,0.2285946208409363,0.0431466189967029,0.0588085797625905,-0.1876286150483558,-0.3150198346909308,-1.8388227011389056,0.7158460813612999,1.895438922761424,0.1245797269400313,-0.1881761529572852,-0.3678300255009332,1.7583507332448851,0.7512794114691373,-1.4084548040160572,-0.737313781269211,10.074035819723576,-1.2938290118098372,0.0248357571260968,-1.3119116560360733
0.28,-1.8364207354783528,0.7069669869704133,1.882605259240906,0.1418395424975621,0.2331799302321589,0.0431590147857408,0.0752110167386534,-0.2136786127754072,-0.3312988214210148,-1.8367311066060656,0.7124825583081146,1.888482322257366,0.1645797275360778,-0.2281761535533317,-0.4078300260969796,1.7411545948675478,0.8201218488031434,-1.3024998863525732,-0.8139493365041967,9.932717447293726,-1.2875207953461676,0.0300024376073951,-1.3107672200594396
0.3,-1.83473898700947,0.7024444479516594,1.8758012332630143,0.1374912451549391,0.2374710242906204,0.0430683726631076,0.0922340970066356,-0.2371641471538436,-0.3483246505662521,-1.8346395120732253,0.7091190352549294,1.881525721753308,0.2045797281321242,-0.2681761541493782,-0.4478300266930261,1.681691443854739,0.8511540133991093,-1.1742767189218195,-0.8512914572618657,9.932717447293726,-1.280924857212098,0.0352857673160814,-1.3098609425632033
0.32,-1.8327105846051224,0.6974702013765899,1.8686478841215703,0.1334475188626947,0.2414862270932068,0.0429226775545292,0.1098506938115573,-0.2590939347037528,-0.3661651297974497,-1.830547917510583,0.7037555121719418,1.872569121219447,0.2445797287281707,-0.3081761547454246,-0.4878300272890725,1.6654899910913032,0.8808298402460856,-1.096489377495459,-0.8920239615598818,9.87723625289891,-1.2750326560576577,0.0398819193457263,-1.30884009516335
0.34,-1.8304506626816996,0.6923485552978308,1.8615187530239792,0.130063105331253,0.245059361387108,0.0427520696553235,0.1272324339811821,-0.2789802755374787,-0.3833910075580124,-1.8264563229479405,0.6983919890889543,1.8636125206855865,0.2845797293242172,-0.3481761553414711,-0.527830027885119,1.5766438308169897,0.8690870084812403,-0.9943170416862934,-0.8612938880281334,9.828458857007718,-1.269010433208943,0.0440448902851963,-1.3076787147322546
0.36,-1.827708183114298,0.6865490078835063,1.853657248467842,0.1267729985851184,0.248582006600361,0.0425299183250322,0.1461805843303878,-0.2998262873876027,-0.4018587765112852,-1.8213647283703969,0.6920284659910655,1.8536559201368248,0.3245797299202636,-0.3881761559375175,-0.5678300284811654,1.684226158969662,0.9474075174602832,-1.0423005925062012,-0.9233884476636396,9.811208555242956,-1.2634005639521313,0.0478024627227962,-1.3062347067876483
0.38,-1.8245796944740944,0.6803360322843169,1.845424982622859,0.1234837990102893,0.2518753568481173,0.0422494597516023,0.1657965646836969,-0.3202842361803999,-0.4204337141562534,-1.815273133777952,0.6846649428782756,1.842699319573162,0.36457973051631,-0.4281761565335639,-0.6078300290772118,1.6943602498764658,0.980799017665454,-1.0228974396398582,-0.9287468822484102,9.795563821159703,-1.258092352013426,0.0515056009055684,-1.304354199655937
0.4,-1.821052372212756,0.6737196164134862,1.8368201736166685,0.1200707094067908,0.2549529188285785,0.0419062650082622,0.18602575517002,-0.3401431888766273,-0.4390988602137157,-1.8162898662399092,0.664321820475297,1.8244032969150463,0.265796566173813,-0.420284237670516,-0.486744499867065,1.6970458356135716,1.0114595243161577,-0.9929476348113696,-0.9332573028731168,9.791341517411638,-1.253365451302225,0.0551071759408246,-1.302320258476097
0.42,-1.81724792893732,0.6670389483014331,1.8285552780962635,0.1165263873905319,0.2575609056708767,0.0414973014618595,0.2134467153229998,-0.3617878890690117,-0.4299335963188571,-1.8162898662399092,0.664321820475297,1.8244032969150463,0.265796566173813,-0.420284237670516,-0.486744499867065,1.8058267942911304,1.3710480076489908,-1.08223500961922,0.4582631947429333,9.784970473448084,-1.2466480822061383,0.0594279887527066,-1.2936906330929503
0.44,-1.8126786058969415,0.6595873510715072,1.8200420462662288,0.1128733968821059,0.2599397874458425,0.0410072191021073,0.2420099213189915,-0.382197111976645,-0.4221427170192891,-1.8162898662399092,0.664321820475297,1.8244032969150463,0.265796566173813,-0.420284237670516,-0.486744499867065,1.7979786683407537,1.4281602997995844,-1.0204611453816652,0.3895439649783977,11.583319463253249,-1.2452195044502194,0.0631544117001738,-1.2971285520915938
0.46,-1.8075457490130555,0.6517390850468396,1.8116452954271145,0.1095933065297668,0.2620818689768165,0.040497054456636,0.2698507671801591,-0.4015550776321844,-0.418074324941438,-1.8136319005781716,0.6601189780985918,1.819535851916376,0.2857965664718362,-0.4402842379685392,-0.5000066570092273,1.707626530220715,1.3920422930583765,-0.9678982827769717,0.2034196038925573,11.32840448112529,-1.2440495919452452,0.0662667876317747,-1.3000084635355464
0.48,-1.8021549412943667,0.6439347916997036,1.8037109899401031,0.1067800920515406,0.2638245539583416,0.0399857013504405,0.2962101752066371,-0.4189802860513561,-0.4173012981332329,-1.808315969254695,0.6517132933451815,1.8098009619190345,0.3257965670678827,-0.4802842385645857,-0.526530971293552,1.5803906561386425,1.3179704013239035,-0.8712604209585834,0.0386513404102506,10.915733955444011,-1.2426056277181017,0.0691334047038874,-1.30201677991904
0.5,-1.7959377512117125,0.6353719971677099,1.7953512797172306,0.1041680837930475,0.2650947255157249,0.0393970873815071,0.3240734707500697,-0.4363850664867852,-0.4188043217536629,-1.8030000379312188,0.6433076085917712,1.800066071921693,0.3657965676639291,-0.5202842391606322,-0.5530552855778766,1.644345386886327,1.3931647771716291,-0.8702390217714573,-0.0751511810214961,10.915733955444011,-1.2416710944150302,0.0715539452121318,-1.3027304725496809
0.52,-1.789163525441942,0.6264679938971698,1.786940290836544,0.1019129916091628,0.2655509164703698,0.0387361947648404,0.3518677286547421,-0.4531522163055093,-0.4222786322730543,-1.79568410657794,0.6329019238085585,1.7890049662101355,0.4057965682599755,-0.5602842397566786,-0.5795795998622013,1.6322751905700006,1.3897128952336162,-0.8383574909362035,-0.1737155259695727,10.77358779278984,-1.2417493863764488,0.0735311435689202,-1.3019054594928927
0.54,-1.7818333226695533,0.6172333611633195,1.7784523425624992,0.0999694156254189,0.2650456451933252,0.0379893430404886,0.3797068465659004,-0.4694907665961141,-0.4263171944654031,-1.7883681752246616,0.6224962390253458,1.777943860498578,0.4457965688560221,-0.6002842403527251,-0.606103914146526,1.626556713007164,1.391955895557917,-0.8169275145302385,-0.2019281096174413,10.65885478612654,-1.2426705990265945,0.0750175365628159,-1.2995326471372624
0.56,-1.7743472118576302,0.6081532522742931,1.7703090723352335,0.0981121025914543,0.263302419556196,0.0371458640162105,0.4068061362575335,-0.4853458684243112,-0.4306211592746539,-1.780052243856482,0.611090554227232,1.7662196469299123,0.4857965694520685,-0.6402842409487715,-0.6326282284308505,1.5845187509562793,1.3549644845816526,-0.792755091409858,-0.2151982404625357,10.632225376420138,-1.2450298198556569,0.0764848412977185,-1.2955269371564062
0.58,-1.7659098707637215,0.5982734300690948,1.761644063747796,0.0959167100648751,0.2595737879816601,0.036052679980774,0.435386208605418,-0.5016663630250218,-0.4356279899017126,-1.7707363124734008,0.5986848694142171,1.7538323255041386,0.525796570048115,-0.6802842415448179,-0.6591525427151752,1.6645175219490704,1.4290036173942282,-0.816024730035525,-0.250341531352935,10.607995467715227,-1.2499047248672244,0.0781772396556393,-1.2888761945435343
0.6,-1.7569104748205115,0.5880707817994814,1.7528727256639511,0.0934078019969133,0.253559076934889,0.0347237518245111,0.4626049875325747,-0.5175960712048279,-0.4411155801319416,-1.7441405603334506,0.5731901119178437,1.7398626642527102,0.5350173467513417,-0.5862990949991467,-0.4547514379606754,1.6005711289365705,1.360938946357834,-0.7964854089903051,-0.2743795115114494,10.569801881620153,-1.2583835702003687,0.0801874646109284,-1.2789509751980517
0.62,-1.7472824463953465,0.5774461877842734,1.744332038937796,0.0880236981855877,0.2451574709285559,0.0329972509443747,0.4981374082658962,-0.5420623403709935,-0.4123434351278252,-1.7441405603334506,0.5731901119178437,1.7398626642527102,0.5350173467513417,-0.5862990949991467,-0.4547514379606754,2.5927724438421813,1.7766210366660733,-1.223313458308284,1.43860725020582,10.517793545138376,-1.2638268685919576,0.0850750382039681,-1.259043044367914
0.64,-1.737521146213716,0.5669736303491559,1.7367525261358638,0.0808609394541341,0.2352934539969572,0.0311206288457482,0.5270790385294116,-0.5586912687601306,-0.3868980352456568,-1.7441405603334506,0.5731901119178437,1.7398626642527102,0.5350173467513417,-0.5862990949991467,-0.4547514379606754,2.0985754673376253,1.4470815131757713,-0.8314464194568549,1.272269994108416,12.882974114403623,-1.28111077346457,0.0927234538991009,-1.2497519912983908
0.66,-1.726711266288,0.5556549748919701,1.7292533840621012,0.0732919018230021,0.2239922912050003,0.0291745595007487,0.551871013233153,-0.5721412046146349,-0.3645076843423946,-1.7387903868659371,0.5673271209678523,1.7353151498731034,0.5549435743805264,-0.6032256413939716,-0.4585761275724679,1.8006044802874162,1.2395987351870696,-0.6724967927252135,1.1195175451631094,12.483457580985489,-1.2992902497033594,0.1004250735511423,-1.2387670922400056
0.68,-1.7154657312528332,0.5440977475825101,1.7221466233258271,0.0664664381194598,0.2126723473490711,0.0273886769025257,0.5711202239820907,-0.5829482511162174,-0.347203368992187,-1.7280900399309105,0.5556011390678693,1.72622012111389,0.5947960296388959,-0.6370787341836216,-0.4662255067960531,1.402465416938879,0.9624605374468852,-0.5403523250791242,0.8652157675103828,11.717077405070086,-1.3167674345498628,0.1072679022580103,-1.226920418568436
0.7000000000000001,-1.703887566304708,0.5323451198862115,1.7153416169806888,0.0606265581193897,0.2021019402853396,0.0258177496267634,0.5855316085101515,-0.5918902932683995,-0.3341206827803691,-1.7173896929958834,0.5438751571678864,1.7171250923546764,0.6346484848972653,-0.6709318269732716,-0.4738748860196382,1.0709864616136844,0.7205692264030394,-0.4471021076091042,0.6541343105908926,11.717077405070086,-1.3314536956090268,0.1127073179765205,-1.215580927453222
0.72,-1.6926606853238526,0.521028127026366,1.7090846451054087,0.0560505524172773,0.1933092019722234,0.0245406420210017,0.5954550118165713,-0.5990774554803309,-0.3251447585176875,-1.704696723297938,0.530456520628421,1.7076475946342835,0.6745009401556348,-0.7047849197629216,-0.4815242652432233,0.7594347407971869,0.4961701653209915,-0.3593581105965693,0.4487962131340839,11.409376981257084,-1.3432549580969015,0.1172012560283741,-1.204367201056051
0.74,-1.6806692198917197,0.5089775913003919,1.702667146492573,0.0522476083104656,0.1857910351113668,0.0234202737459006,0.6030336524139206,-0.605719393810726,-0.3171367433046153,-1.6920037535999928,0.5170378840889556,1.6981700969138909,0.7143533954140042,-0.7386380125525716,-0.4891736444668085,0.6435826398788245,0.3789320298674625,-0.3320969165197585,0.4004007606536103,11.1561932685172,-1.3528335108149834,0.1205946003372408,-1.1945406632403213
0.76,-1.668548847360918,0.4967935348576816,1.6963948264143898,0.0491874934936499,0.1803529579940959,0.0225007130180496,0.6084984823644419,-0.612358420729118,-0.3105455617361798,-1.678314472520588,0.5027729202297488,1.6885013647129083,0.7542058506723737,-0.7724911053422214,-0.4968230236903936,0.5417211443153451,0.2732414975260666,-0.3319513459195955,0.3295590784217733,11.052109463647868,-1.3594638619797907,0.1230837027951657,-1.1876629672985457
0.78,-1.6569517609961444,0.4850986624430859,1.6905460147414555,0.046671733553344,0.1774001295903488,0.0217900013137426,0.611956375744387,-0.6183429819407634,-0.3054376695674778,-1.6636288800597243,0.4876616290508009,1.6786413980313364,0.7940583059307431,-0.8063441981318714,-0.5044724029139788,0.4297166564437727,0.1728946689972532,-0.2992280605822739,0.2553946084350972,10.95801817599022,-1.3635954728512116,0.1252912636223303,-1.1832939718753577
0.8,-1.644678428535395,0.4726703580352179,1.684484970363977,0.0443298585998919,0.1767414960343157,0.02119717747759,0.6154689544871769,-0.6241484784305618,-0.3010024663645483,-1.626353942208925,0.4541815133460478,1.675274131263082,0.7119563772345031,-0.6830710184636287,-0.3317713797462107,0.4053178578863652,0.1756289371394936,-0.2902748244899167,0.221760160146478,10.884460580547056,-1.363483930527551,0.1271000006907654,-1.183297024380433
0.8200000000000001,-1.6322919509959168,0.460060037307489,1.6786510713996852,0.0401572743890814,0.1778432937159408,0.020568757944073,0.6233057933779321,-0.6354528830322256,-0.2818099010931133,-1.626353942208925,0.4541815133460478,1.675274131263082,0.7119563772345031,-0.6830710184636287,-0.3317713797462107,1.1806356009540628,0.391841944537763,-0.565220230083191,0.959628263571749,10.814984499731509,-1.362263949923472,0.1310090096733632,-1.1824033324525478
0.84,-1.619740725972762,0.4472888813434498,1.673195836060814,0.0344061708304916,0.1800787362456987,0.0198861511747544,0.6316020246953306,-0.6408611550503356,-0.2647806549404225,-1.626353942208925,0.4541815133460478,1.675274131263082,0.7119563772345031,-0.6830710184636287,-0.3317713797462107,0.9849772647409032,0.4148115658699214,-0.2704136009055002,0.8514623076345401,11.861178731345715,-1.359699290275048,0.1363465409362964,-1.1886678563995778
0.86,-1.6076575639639004,0.4350901603852547,1.6682903761267047,0.0292764994750292,0.1828614811624878,0.0192896251754445,0.640028398296901,-0.6430350019313651,-0.2524547392806423,-1.61923437843658,0.4473508031614115,1.6719564174656198,0.7319563775325263,-0.6960166257682018,-0.3370381217819573,0.7544162961976278,0.4213186800785196,-0.1086923440514753,0.6162957829890098,11.58930804485135,-1.3562024549221117,0.1417104095536854,-1.1960630464206927
0.88,-1.59475927721583,0.4222237668167173,1.6633486926038257,0.0248063810429049,0.1861153859936263,0.0187409617677486,0.6494614677559437,-0.6436100215638042,-0.2425164834117134,-1.60499525089189,0.4336893827921389,1.6653209898706955,0.7719563781285728,-0.7219078403773479,-0.3475716058534505,0.6857156420724184,0.4716534729521382,-0.0287509816219555,0.4969127934464454,11.33933791524396,-1.35246051467242,0.1461357301195014,-1.203271060348072
0.9,-1.581665526589162,0.4093585130270667,1.6585752331044992,0.0214831989332957,0.1894376742427444,0.0182805808455754,0.6595440978861039,-0.6431551820947106,-0.2353422643513315,-1.5907561233471998,0.4200279624228663,1.6586855622757717,0.8119563787246192,-0.747799054986494,-0.3581050899249436,0.6191440228464752,0.5041315065080099,0.0227419734546818,0.3587109530190951,11.156981352612092,-1.3485315461065257,0.1493510325841753,-1.2093224891680854
0.92,-1.568362813939383,0.3965079980511221,1.6539243935478705,0.0192311109229113,0.1926053291901807,0.0179007261611316,0.670295298022932,-0.6421888135011906,-0.2301200473513801,-1.5745169957727074,0.4050719813231364,1.6515234604772726,0.8519563793206657,-0.7736902695956401,-0.3686385739964367,0.5995701023134298,0.5375600068414033,0.0483184296759975,0.2611108499975687,10.90634391288222,-1.3448826280473278,0.1513325297352884,-1.2140830150028998
0.94,-1.5555190325828363,0.3843225511780438,1.6495945659116376,0.0180580051432829,0.1953322445296698,0.0176125986998158,0.681183717182573,-0.640708625833598,-0.2259249185409269,-1.558277868198215,0.3901160002234065,1.6443613586787738,0.8919563799167122,-0.7995814842047863,-0.3791720580679299,0.5881065657336805,0.5444209579820503,0.0740093833796307,0.2097564405226626,10.870718909359312,-1.341431601132301,0.1523346750373005,-1.2182920455876618
0.96,-1.5417654837772128,0.3715250186015212,1.6451169364897262,0.0178401974115568,0.1976919309123425,0.0173842469125798,0.6936148579665707,-0.639187133516797,-0.2220867172237469,-1.5410387406088215,0.374512738758448,1.6369359197784874,0.9319563805127584,-0.8254726988139324,-0.389705542139423,0.6549427253830268,0.6215570391998881,0.0760746158400493,0.1919100658589967,10.870718909359312,-1.3384692239389735,0.1521914856413037,-1.2220353706943872
0.98,-1.5277544452311551,0.3587573919871737,1.6407097621730855,0.0186252271187048,0.1992301870730218,0.0172253400002431,0.7067889095612326,-0.6377525093245949,-0.2188190969077671,-1.5227996130045267,0.3582621969282608,1.629247143776414,0.9719563811088048,-0.8513639134230785,-0.4002390262109162,0.6824425333335197,0.6587025797330948,0.0717312096101041,0.1633810157989884,10.84571577324732,-1.3366528081564606,0.1510408013688945,-1.2246545349188234
1.0,-1.514196780904982,0.346650937138459,1.6365786773465123,0.0202374875768082,0.1998010300848338,0.017130157380067,0.71957312229165,-0.6367685034427496,-0.216186206818055,-1.4924149997530936,0.3268697665209439,1.6297688073276972,0.8014517993994513,-0.655664144663855,-0.2449213808772887,0.6544777936198015,0.6392106365208705,0.0492002940922664,0.131644504485609,10.79586612741332,-1.3360523311381918,0.1488345213486822,-1.2262705011792976
1.02,-1.499583967684315,0.3337294632880561,1.6324265714617725,0.0166049415815911,0.1979797626189653,0.0166240514057578,0.7412396054961693,-0.6531838647100263,-0.1982777799748549,-1.4924149997530936,0.3268697665209439,1.6297688073276972,0.8014517993994513,-0.655664144663855,-0.2449213808772887,1.6275843541773585,1.0833241602259625,-0.8207680633638359,0.8954213421600021,10.79586612741332,-1.3363520958685362,0.1524500114127067,-1.2255277678504328
1.04,-1.4845474470081597,0.3206094097140403,1.628639914982824,0.0065183205591548,0.1921299740154023,0.0156653865737227,0.7605869372620391,-0.6568818666999907,-0.1814264562506289,-1.4924149997530936,0.3268697665209439,1.6297688073276972,0.8014517993994513,-0.655664144663855,-0.2449213808772887,1.2961110836219605,0.967366588293489,-0.1849000994982197,0.8425661862113006,11.932214513612053,-1.3451859079377422,0.1634404425604576,-1.215062484336973
1.06,-1.4691865232003642,0.3075091408066915,1.6251383992578898,-0.0044352241209171,0.1838440963120375,0.0147509117082053,0.7740892932530266,-0.652794604438498,-0.1694872737228911,-1.484400481759099,0.3203131250743054,1.6273195935189244,0.820384377367095,-0.659246471731707,-0.250141837671193,0.9240717092469292,0.675117799549374,0.2043631130746348,0.5969591263868881,11.648263771907295,-1.3566370730077382,0.1748481099715494,-1.2036322689318906
1.08,-1.454397437407262,0.295185253265699,1.621989440801852,-0.0137377644146183,0.1752877203712149,0.0140894879590471,0.7817552220471078,-0.6448872111768972,-0.1625401159745662,-1.46837144577111,0.3071998421810283,1.6224211659013783,0.8582495333023825,-0.6664111258674111,-0.2605827512590016,0.6510689925991817,0.3832964397040617,0.3953696630800418,0.3473578874162469,11.296461447884212,-1.3693915584103764,0.1855940508556748,-1.190695543583102
1.1,-1.4387200055000184,0.2823990007597686,1.6187803686006563,-0.0217764054946213,0.16684234338416,0.0136270505058412,0.7853644332749962,-0.6343612190370456,-0.158887511018079,-1.452342409783121,0.2940865592877512,1.6175227382838329,0.89611468923767,-0.6735757800031151,-0.2710236648468102,0.5855861148966234,0.1804605613944188,0.5262996069925807,0.1826302478243613,10.745052598133045,-1.3810613647423613,0.1943415093752495,-1.1785162064550376
1.12,-1.4230110911838347,0.269839310159567,1.6156089369825506,-0.0279214164474019,0.1599451740123644,0.0133566740580224,0.7851913665547172,-0.6224118809875406,-0.1585618179069376,-1.4344201159983676,0.2806150436876888,1.6121022649868966,0.9339798451729576,-0.6807404341388191,-0.2814645784346188,0.5977514280904299,-0.0086533360139473,0.5974669024752466,0.0162846555570667,10.745052598133045,-1.390738664417624,0.2010305273342068,-1.168412750334593
1.14,-1.4073422069444277,0.2575288147105832,1.6124221316119245,-0.0322361597603665,0.1555904716364172,0.0132057192047218,0.7816911930912276,-0.609671193608881,-0.1601099818189573,-1.4164978222136142,0.2671435280876266,1.6066817916899605,0.971845001108245,-0.6879050882745232,-0.2919054920224274,0.6651562610652739,-0.1750086731744815,0.6370343689329816,-0.0774081956009836,10.547770451441464,-1.39734358570503,0.2055423766855794,-1.1615866465500384
1.16,-1.3925374450131571,0.2460707387364424,1.609356714001985,-0.034954076827886,0.1545003909063683,0.0130959268620825,0.7772298664623397,-0.5973960128223248,-0.1625024545759405,-1.3976288995304786,0.2534928961341717,1.6010002955533291,1.0097101570435325,-0.6950697424102272,-0.302346405610236,0.6639040301978317,-0.2230663314443937,0.6137590393278103,-0.1196236378491588,10.456313803223566,-1.3988480071437834,0.208770011826602,-1.160702695720372
1.18,-1.377029388517204,0.2342613091483769,1.6060753012108595,-0.0366550551974333,0.1560477141046669,0.0129901576743944,0.7740990746882704,-0.5843490313663261,-0.1655470495608633,-1.3778133479489607,0.2396631478273241,1.5950577765770024,1.04757531297882,-0.7022343965459313,-0.3127873191980446,0.6879228533563385,-0.1565395887034637,0.6523490727999348,-0.1522297492461383,10.394747075080886,-1.3967589778345306,0.2107611486275834,-1.1642835808435494
1.2,-1.3615629435751568,0.2227194278965113,1.6027307982183676,-0.0370995720083646,0.1593911785781394,0.0129248391358587,0.7729709938736913,-0.570698128084777,-0.1687697763045956,-1.3383244347827905,0.2050438575800606,1.5977979487328164,0.8575275693205145,-0.5760350895970242,-0.1713774157253091,0.7035724809697934,-0.0564040407289578,0.6825451640774527,-0.1611363371866181,10.364938970864388,-1.3928191574871365,0.2114391015723777,-1.1700844921874909
1.22,-1.3467845582738154,0.2119437274114753,1.5996794717109726,-0.0385851268812852,0.1617071519322517,0.0128376494255555,0.782350990358431,-0.5633802741372533,-0.1522853570215408,-1.3383244347827905,0.2050438575800606,1.5977979487328164,0.8575275693205145,-0.5760350895970242,-0.1713774157253091,1.0164538842841928,0.4689998242369875,0.3658926973761855,0.8242209641527428,11.689506911871833,-1.3886553687451173,0.2133567272203623,-1.1770635283097934
1.24,-1.331044320024434,0.2007976947357196,1.5968049410200542,-0.0418525361191865,0.161645668676534,0.0127441163546324,0.7909710252227553,-0.5513298985139486,-0.1362124254607695,-1.3383244347827905,0.2050438575800606,1.5977979487328164,0.8575275693205145,-0.5760350895970242,-0.1713774157253091,1.0929955199841148,0.4310017432162139,0.6025187811652344,0.8036465780385623,11.689506911871833,-1.389676977046196,0.2174350805507691,-1.1805889477095368
1.26,-1.3151508080797738,0.1899241078965141,1.594217793966544,-0.0449873174620073,0.1597947304478323,0.0127631024837379,0.7977806963519738,-0.5367129711624092,-0.1234326482611194,-1.3297491590895854,0.1992835066840904,1.5960841745755634,0.8742132682469633,-0.5743723012431639,-0.1725434889581983,1.0287721946099022,0.3404835564609243,0.7308463675769705,0.6389888599825061,11.529655950499546,-1.3929113689977315,0.2214700369585652,-1.1818682388417474
1.28,-1.299946096480693,0.1798781329878615,1.591965901666118,-0.0471545624093502,0.1569414842478047,0.0129157261017493,0.8022542937471169,-0.5217507418675909,-0.11420970287201,-1.312598607703175,0.1877628048921499,1.592656626261057,0.907584666099861,-0.571046724535443,-0.1748756354239767,0.9068408084871438,0.223679869757154,0.7481114647409193,0.4611472694554697,11.325277431905306,-1.397022108110164,0.2243231946239589,-1.1798086612490033
1.3,-1.2838728662920122,0.169614466858468,1.5897630477272375,-0.0484263400356831,0.1534634413866409,0.0131967554507916,0.8046505224218747,-0.5055330639104548,-0.1066400210981462,-1.2954480563167647,0.1762421031002094,1.589229077946551,0.9409560639527588,-0.5677211478277223,-0.177207781889755,0.9028497554143118,0.119811433737893,0.8108838978568012,0.3784840886931893,11.14688813308021,-1.402055863029759,0.2262388381478542,-1.1764733535236114
1.32,-1.2677778976386032,0.1596814741040176,1.5876908492215258,-0.0483884250830609,0.1503072934978505,0.0135753075547153,0.8045694611632951,-0.4887218851995141,-0.1010225283627953,-1.2766289350377096,0.1648876801436549,1.585684922308756,0.9743274618056562,-0.5643955711200016,-0.1795399283555334,0.8862540905555083,-0.0040530629289825,0.8405589355470339,0.2808746367675481,10.893049928595246,-1.4067601142911017,0.2267547219407654,-1.1734339564634548
1.34,-1.251709220357109,0.1500889258073332,1.5857216874890152,-0.0466615144122284,0.1483855770641835,0.0140256837681591,0.802277184857476,-0.4716407666555525,-0.0961520788213366,-1.2578098137586544,0.1535332571871005,1.5821407666709608,1.007698859658554,-0.5610699944122808,-0.1818720748213117,0.8954613616887458,-0.1146138152909537,0.854055927198083,0.243522477072932,10.859058592151086,-1.4099425753403778,0.2255941295413306,-1.1724254407366463
1.36,-1.2364902800891835,0.1412850156402957,1.5839386587524835,-0.0434200979968182,0.1480974698217806,0.01450145999676,0.8000291180491971,-0.4564920519594278,-0.0917677181283545,-1.2381564075332767,0.1422619736482391,1.5785383073715211,1.0410702575114514,-0.5577444177045601,-0.1842042212870901,0.7964922786901883,-0.1124033404139468,0.7574357348062333,0.219218034649106,10.836632179235494,-1.410451649234938,0.2226400851379963,-1.175576002873565
1.38,-1.2205066595892382,0.1322987061627433,1.5821524790028088,-0.0392927317595842,0.1489769402078034,0.0150097082893676,0.7985846478456515,-0.4431438580932137,-0.0870824352930778,-1.2176687163615767,0.1310738295270707,1.5748775444104373,1.0744416553643492,-0.5544188409968392,-0.1865363677528684,0.7110074699071479,-0.0722235101772772,0.6674096933107054,0.2342641417638361,10.836632179235494,-1.4093639752125884,0.2187799972033396,-1.1797101022962817
1.4,-1.2045408108579934,0.1235610887189993,1.5804607217682602,-0.0351379192158529,0.150596274443113,0.0155023551930678,0.7981870040356575,-0.4313909872340664,-0.0823390974821128,-1.1805774271969556,0.1101415132580826,1.5777983572381549,0.8666926328057307,-0.421428114626002,-0.1068087247292989,0.6340097546969395,-0.0198821904997037,0.587643542957364,0.237166890548246,10.8369465407186,-1.4073269128407693,0.2150432455134762,-1.184516413914468
1.42,-1.189311803937915,0.1154072005007812,1.5789858345216188,-0.0334105314480136,0.1508248386718025,0.0158708678814714,0.8046140877146177,-0.4264051228479175,-0.0731772644594561,-1.1805774271969556,0.1101415132580826,1.5777983572381549,0.8666926328057307,-0.421428114626002,-0.1068087247292989,0.6125876113432059,0.3213541839480138,0.2492932193074448,0.4580916511328393,10.840984533197116,-1.404411899149043,0.2135665269879621,-1.1906361777331644
1.44,-1.1731620313756248,0.1069560952595175,1.5776106160687648,-0.0344808455285932,0.148199445912632,0.0161659883261638,0.8097848713854683,-0.4187421435160288,-0.0649068086216673,-1.1805774271969556,0.1101415132580826,1.5777983572381549,0.8666926328057307,-0.421428114626002,-0.1068087247292989,0.6201989514996415,0.2585391835425277,0.3831489665944348,0.4135227918894368,11.164766614065227,-1.4080171244074895,0.215237672597912,-1.1870842894769649
1.46,-1.1569348818595582,0.0986783059921016,1.5763766674576385,-0.0373854731892625,0.1434629087402848,0.0164307490998832,0.8123264734533668,-0.4090689030259983,-0.0589858550792174,-1.1719105008688984,0.1059272321118226,1.576730269990862,0.8803142297977465,-0.4170849659325596,-0.1107539826165431,0.5811389969305155,0.1270801033949276,0.4836620245015244,0.2960476771224983,11.049870567683683,-1.4142494471862268,0.2188642284541375,-1.179323645204564
1.48,-1.14069764635377,0.090627111465674,1.575233326804787,-0.0407334800059169,0.1377993118437862,0.016735297805596,0.8110734867719339,-0.3965196028686974,-0.0556115005594506,-1.1545766482127835,0.0974986698193025,1.574594095496276,0.9075574237817784,-0.4083986685456749,-0.1186444983910316,0.6527656135377994,-0.062649334071646,0.6274650078650468,0.1687177259883373,10.742529877325069,-1.421074193392809,0.2227671169191573,-1.1705642786800077
1.5,-1.125329332003836,0.0832272239027702,1.574189090270474,-0.0434236210253507,0.1327185652431427,0.0170800389910436,0.8066130676318208,-0.3832112333505796,-0.0544547919049784,-1.137242795556669,0.0890701075267825,1.57245792100169,0.93480061776581,-0.3997123711587902,-0.12653501416552,0.7041768475453898,-0.223020957005654,0.6654184759058906,0.0578354327236081,10.61347394279892,-1.428053176037238,0.2263634961172504,-1.1618696400259911
1.52,-1.1092751810048975,0.0757162205901205,1.5730976634736735,-0.0455113840840207,0.1287865295733323,0.0174607988251192,0.7988600778651274,-0.3687304158820679,-0.0548084441169402,-1.118546783201353,0.0810758601036067,1.5699272207183796,0.9620438117498415,-0.3910260737719055,-0.1344255299400085,0.8214742764777109,-0.3876494883346737,0.7240408734255827,-0.017682610598086,10.61347394279892,-1.4336713448351075,0.2291715471993973,-1.155276201253167
1.54,-1.0934060138972792,0.0685009272794468,1.5719862333189398,-0.0467231167771874,0.1275035886424289,0.0178009227676145,0.7886845972533756,-0.3536907561625461,-0.056313416159312,-1.0998507708460366,0.0730816126804309,1.5673965204350693,0.9892870057338732,-0.3823397763850208,-0.1423160457144969,0.9110388452303558,-0.5087740305875887,0.7519829859760907,-0.0752486021185914,10.462076366254225,-1.4353854255099006,0.2309993891259927,-1.153549476339472
1.56,-1.0785115614729677,0.0619319135850799,1.570896912535514,-0.0468194140019569,0.1288173973187386,0.0180903866872835,0.779975241244326,-0.3387060344550428,-0.0582827863863948,-1.0804736786411195,0.0653045226919272,1.5646685572573966,1.016530199717905,-0.3736534789981362,-0.1502065614889854,0.8721714078021136,-0.435467800452477,0.7492360853751656,-0.098468511354138,10.462076366254225,-1.4330364560231297,0.2318022884359615,-1.157067156659001
1.58,-1.0629922244537755,0.0553269213919176,1.5697085357467615,-0.0455401615204119,0.1320154871664294,0.0184164921871695,0.772672997367543,-0.3227171312484641,-0.060459306122247,-1.060415506586602,0.0577445901380956,1.5617433311853617,1.043773393701937,-0.3649671816112515,-0.1580970772634738,0.8855860059106537,-0.365112193839151,0.7994451603289376,-0.1088259867926117,10.429633629531054,-1.4286975784246063,0.231141954586903,-1.1637042180295647
1.6,-1.0475970327816742,0.0490396780403046,1.5684784794610964,-0.0426955714071099,0.1362836186240491,0.0188167866273602,0.7674324839545712,-0.3071649429314292,-0.0624243207072257,-1.0243585745853985,0.0391910648294944,1.5666855704406493,0.8371902122618378,-0.2896790403339762,-0.069126854309324,0.8264303125479346,-0.2620256706485913,0.7776094158517405,-0.0982507292489366,10.427451555859989,-1.423560204214207,0.2288590000688382,-1.1723273694790604
1.62,-1.0322219795887564,0.0430190359647313,1.5673463147969775,-0.0397997625882564,0.1395460039553857,0.0192781257807214,0.7700378099694091,-0.2953416488391166,-0.0507182277050769,-1.0243585745853985,0.0391910648294944,1.5666855704406493,0.8371902122618378,-0.2896790403339762,-0.069126854309324,0.842037143200736,0.1302663007418936,0.5911647046156321,0.585304650107439,10.444468786951802,-1.4198099839061882,0.2268840578520752,-1.1829840889491947
1.64,-1.0175728892584068,0.0375184548888575,1.566485791102669,-0.0377353005855642,0.1407509791248467,0.019752764179028,0.7716931183551186,-0.2841684093619834,-0.0404885122873468,-1.0243585745853985,0.0391910648294944,1.5666855704406493,0.8371902122618378,-0.2896790403339762,-0.069126854309324,0.761952104454263,0.0827654192854743,0.5586619738566584,0.5114857708865047,11.304660868025168,-1.418475738705825,0.225299851571656,-1.187164075591766
1.66,-1.0021321653337911,0.0319572098177066,1.565771351701532,-0.0359864858780139,0.1408210519941957,0.0202723456437193,0.7721803949379826,-0.2725391482949487,-0.0315777840655949,-1.0159866724627802,0.0362942744261546,1.565994301897556,0.8500936552406967,-0.2830714221510786,-0.0708603639467394,0.7329362674806451,0.0243638291432035,0.5814630533517356,0.4455364110875981,11.203603887011012,-1.418641063172811,0.2242131100963586,-1.1897301215976548
1.68,-0.986695401675089,0.0266252925886907,1.5652132532446112,-0.0345433880103335,0.1402865914607589,0.0207947732100455,0.7714211247726389,-0.2612465574978329,-0.0246716724780798,-0.9992428682175434,0.0305006936194751,1.5646117648113695,0.8759005411984147,-0.2698561857852835,-0.0743273832215703,0.6629356593107212,-0.0379635082671858,0.5646295398557905,0.3453055793757556,11.086723100549534,-1.4194043004492884,0.2235244508430912,-1.1919085173656705
1.7,-0.9720551592128392,0.0217654136232025,1.5647952491306545,-0.0334483272699116,0.1396683413518248,0.0212772790492733,0.7696958399429926,-0.2508940219929881,-0.0196733905481097,-0.9824990639723066,0.0247071128127956,1.5632292277251831,0.9017074271561324,-0.2566409494194884,-0.0777944024964011,0.5812366587155903,-0.0862642414823144,0.5176267752422414,0.2499140964985019,10.973508951672557,-1.4203318976049135,0.2230875312912699,-1.1936377514274663
1.72,-0.9566880336676508,0.0168583646991172,1.5644451400679853,-0.0326397263481824,0.1392460911804361,0.0217554495569667,0.7671130793225852,-0.2403648691241467,-0.015659596057479,-0.964464915429184,0.0195742938244058,1.5616733396752551,0.9275143131138504,-0.2434257130536932,-0.0812614217712319,0.5780230505152336,-0.1291380310203704,0.5264576434420672,0.2006897245315348,10.877187884737396,-1.4208830604560263,0.2230058766717599,-1.195349560915257
1.74,-0.9413772717800374,0.0121600120847894,1.5641679959665038,-0.0322208809548366,0.139281560642762,0.0221940319201734,0.7641370512913551,-0.229996711184012,-0.0122808963195968,-0.9464307668860612,0.014441474836016,1.5601174516253271,0.9533211990715684,-0.2302104766878981,-0.0847284410460627,0.5651792941912587,-0.1488014015615046,0.5184078970067368,0.1689349868941117,10.802055491995816,-1.4207528810042198,0.2233339334348279,-1.1975843371450772
1.76,-0.926124277247446,0.0076721735337285,1.563952854993053,-0.0320695697650319,0.1397757329399873,0.0226020757851926,0.7613770080989795,-0.2193431256656988,-0.0094060843410665,-0.9277514461939956,0.0096390367567711,1.5584748880935284,0.9791280850292862,-0.216995240322103,-0.0881954603208935,0.5687294320054423,-0.138002159618783,0.5326792759156596,0.1437405989265164,10.771221375430288,-1.4198261886483603,0.2238696858826284,-1.1998518494209611
1.78,-0.9116818568535546,0.0036091147731619,1.563797957861316,-0.0319833547749196,0.1405205259782136,0.0229794848791823,0.7590621520749931,-0.208932341024189,-0.0070470013904519,-0.9084269533529872,0.0051669795866711,1.5567456490798588,1.004934970987004,-0.2037800039563078,-0.0916624795957243,0.5461416199841469,-0.11574280119932,0.5205392320754911,0.1179541475307291,10.74652042156049,-1.4185315119620137,0.2245082997794548,-1.202596808568976
1.8,-0.8965233610168739,-0.0004521731378968,1.5636800548534544,-0.0317958721669192,0.1414661045889535,0.0233807498370468,0.756950453492632,-0.1977818065013643,-0.0048850935263905,-0.8737287492498049,-0.0068375022780474,1.5634456077917935,0.7847542108021383,-0.1791412094085502,-0.0225438243958301,0.5776407548384668,-0.1055849291180521,0.5575267261412344,0.1080953932030707,10.72715999293814,-1.4170852324691172,0.2250434799425892,-1.2055593249461265
1.82,-0.8812932017593665,-0.0042601301575177,1.563654233767391,-0.0305901724426865,0.1392330787116047,0.0239535577283578,0.7662840358959745,-0.1838057804998821,0.0025075651987277,-0.8737287492498049,-0.0068375022780474,1.5634456077917935,0.7847542108021383,-0.1791412094085502,-0.0225438243958301,0.9180093494896404,0.4666791201671239,0.6988013000741089,0.3696329362559118,10.711472154423063,-1.4129652857499837,0.2242894499268027,-1.2078901885958824
1.84,-0.8659027422023889,-0.0078023061692241,1.5637734475536094,-0.0279308275180231,0.1309354662683536,0.0247972721787165,0.771341692127468,-0.1714909222952045,0.0091068239234361,-0.8737287492498049,-0.0068375022780474,1.5634456077917935,0.7847542108021383,-0.1791412094085502,-0.0225438243958301,0.7429431924328395,0.2528828115746728,0.6157429102338782,0.3299629362354231,11.116195043993685,-1.4256457171127852,0.2223896211138247,-1.1973663104839465
1.86,-0.8512571489478513,-0.0109638899648633,1.5639878775501448,-0.024978555286144,0.1201234564050693,0.0256759163616369,0.7695638748045766,-0.1620297540349058,0.0131883412223853,-0.8658812071417835,-0.0086289143721329,1.5632201695478352,0.7898926225475673,-0.1731829830854225,-0.0256431889969058,0.5228124012130871,-0.0888908661445697,0.4730584130149345,0.2040758649474595,10.975543118478528,-1.4410775156763709,0.2198697528720176,-1.1815657178925156
1.88,-0.835943381116844,-0.0141151203542919,1.564274719190602,-0.0220719150417462,0.1079954638643374,0.0265610720713019,0.7614825103047663,-0.1536082227388508,0.0151896511820173,-0.8501861229257408,-0.0122117385603039,1.5627692930599186,0.8001694460384253,-0.161266530439167,-0.0318419181990571,0.5921061625750703,-0.4040682249905114,0.4210765648027539,0.1000654979815977,10.633919068486648,-1.4567272145318693,0.217538741208058,-1.1641579856294038
1.9,-0.8208520004813172,-0.0171094263745159,1.5645730363486428,-0.0196203633096494,0.0969566654052193,0.0273497282085232,0.7479783274646389,-0.1461698239627613,0.0145652242319167,-0.834491038709698,-0.0157945627484749,1.562318416572002,0.8104462695292834,-0.1493500777929115,-0.0380406474012084,0.7714963375605447,-0.6752091420063722,0.3719199388044727,-0.0312213475050303,10.633919068486648,-1.4704503133565583,0.2156690685785978,-1.147980069763358
1.92,-0.8060744490123006,-0.0199619735658174,1.564837316392455,-0.017660371192209,0.088235027740527,0.0280282246651832,0.7313926083780105,-0.1397121789203032,0.012039621427577,-0.8182821133191123,-0.0187815643043331,1.561557603623978,0.8207230930201416,-0.137433625146656,-0.0442393766033597,0.8988408182768282,-0.8292859543314213,0.322882252122908,-0.1262801402169825,10.483241425936283,-1.480862447750271,0.2143800183098181,-1.1356041794909466
1.94,-0.7923896500342273,-0.0225516166447935,1.5650271104648674,-0.0162855160822737,0.0829238761697288,0.0285679777437265,0.7108704778819914,-0.1335049379965371,0.008211623917564,-0.8020731879285267,-0.0217685658601914,1.5607967906759537,0.8309999165109996,-0.1255171725004005,-0.050438105805511,1.0889688298087057,-1.0261065248009515,0.3103620461883047,-0.1913998755006497,10.369567846860264,-1.4889666994232542,0.2136139884179539,-1.1271614095950162
1.96,-0.7784093833980849,-0.025159291209392,1.5651450514756546,-0.0153705286135454,0.0813480401872573,0.0290236148399116,0.688537093192287,-0.127554534161374,0.0037562845178879,-0.7856073419506695,-0.0244576560998932,1.5598810094978757,0.8412767400018577,-0.113600719854145,-0.0566368350076623,1.1768999815895105,-1.1166692344852236,0.2975201917581521,-0.2227669699838075,10.315051509352998,-1.4908937629174217,0.2133199698632609,-1.1257847156527692
1.98,-0.764862240047241,-0.0276496702373651,1.5651723033853653,-0.0150061470089256,0.0835899889829801,0.0293771315041178,0.6677933622742479,-0.121736884614077,-0.0008051870429758,-0.768884575385541,-0.0268488350234387,1.558810260089744,0.8515535634927157,-0.1016842672078895,-0.0628355642098136,1.1010840583894388,-1.0371865459019525,0.2908824773648483,-0.2280735780431885,10.280737179616152,-1.4881283808523846,0.2135191694105712,-1.1301752227597923
2.0,-0.7523518799263884,-0.0299068419569776,1.565116621439568,-0.0151634011973922,0.0882109189079285,0.0296367835656222,0.6504899276289892,-0.116115210135022,-0.0048338645687392,-0.7314725719335287,-0.033736514468069,1.5651320440332166,0.6889672417784517,-0.1054263771824507,-0.0090820435473565,0.931721950312686,-0.8651717322629371,0.2810837239527519,-0.2014338762881688,10.268363520030109,-1.4821837472854873,0.2142656933994757,-1.1388062707154354
2.02,-0.739476847074352,-0.0321018760548244,1.565067049467053,-0.0138762814164177,0.0938646594077762,0.0299961402893136,0.6381904097006131,-0.1041401902380419,0.0005632515666222,-0.7314725719335287,-0.033736514468069,1.5651320440332166,0.6889672417784517,-0.1054263771824507,-0.0090820435473565,0.8997334402228435,-0.6149758964188012,0.5987509948490073,0.2698558067680756,10.903317470622824,-1.4750375154134123,0.213706000488062,-1.1536672483322683
2.04,-0.7268269052904124,-0.0340875495178712,1.565138295958581,-0.0102821899249702,0.0989801087778949,0.0305294285648075,0.6275174595363514,-0.0955783210044807,0.0061889759621435,-0.7314725719335287,-0.033736514468069,1.5651320440332166,0.6889672417784517,-0.1054263771824507,-0.0090820435473565,0.7397064366283742,-0.5336475082130865,0.4280934616780592,0.2812862197760617,10.903317470622824,-1.4700002455340813,0.2106618975749957,-1.164399865247392
2.06,-0.7143781604105571,-0.0359381706253225,1.5653091331225069,-0.0062761152437668,0.1035194900271357,0.0311059297928912,0.6179644199136702,-0.0899813412264964,0.0105991054098892,-0.7245828995157442,-0.0347907782398935,1.5650412235977431,0.6932020176792925,-0.1021642756961255,-0.0107374148482326,0.5958942658172578,-0.4776519811340585,0.2798489888992131,0.2205064723872879,10.850770913521046,-1.465065387824762,0.207226037191435,-1.1735376888103397
2.08,-0.7027201792268473,-0.0376096193515442,1.5655429119094646,-0.0028222175677043,0.1072817441051932,0.0316376104732359,0.6097130812601056,-0.0861666209610228,0.0137758076320071,-0.7108035546801751,-0.0368993057835425,1.564859582726796,0.701671569480974,-0.0956400727234749,-0.0140481574499849,0.4814771990645912,-0.4125669326782322,0.1907360132736818,0.1588351111058916,10.788067259793934,-1.4604184357949397,0.2039130578895834,-1.18183710381369
2.1,-0.690611032856042,-0.0393000439829201,1.565845077005767,0.0002051636779598,0.1106902838786538,0.032157545809138,0.6016847935589767,-0.0830077043682533,0.0162252373463696,-0.6970242098446061,-0.0390078333271915,1.5646779418558487,0.7101411212826555,-0.0891158697508244,-0.0173589000517372,0.4484190656567053,-0.4014143850564422,0.1579458296384749,0.1224714857181246,10.734099865159806,-1.456390779171778,0.2012086296572338,-1.1888305958391376
2.12,-0.6786566796731361,-0.04093389301567,1.566186830486566,0.0025533744114304,0.1135850800898818,0.0326275203515265,0.5941819245600053,-0.080395283735489,0.0178194782776153,-0.682821387418953,-0.040790150722208,1.564330763854814,0.718610673084337,-0.0825916667781739,-0.0206696426534895,0.4051524062778076,-0.3751434499485728,0.1306210316382158,0.0797120465622887,10.68799144796776,-1.4531088212869925,0.1992780478652594,-1.194367612406371
2.14,-0.6674347282708469,-0.0424409228164143,1.5665377512800318,0.0042079949042187,0.1159271214433515,0.0330280050630806,0.587473943184463,-0.0782642428777779,0.0190329025666058,-0.6686185649932999,-0.0425724681172245,1.5639835858537794,0.7270802248860185,-0.0760674638055233,-0.0239803852552418,0.3571090441901757,-0.3353990687771147,0.1065520428855548,0.0606712144495235,10.647888565381436,-1.450296945644323,0.1978782499820416,-1.1993414081479246
2.16,-0.655755079809238,-0.0439854912972061,1.56692931278118,0.0053783035861771,0.118001364794156,0.0334013503224164,0.5808696628024215,-0.076284098322385,0.0200428609627351,-0.6542040037726048,-0.0441916804379247,1.5635536392877007,0.7355497766877,-0.0695432608328728,-0.0272911278569941,0.348416086693707,-0.3302140191020764,0.0990072277696443,0.0504979198064643,10.636874279570293,-1.447940208510502,0.1970899717341297,-1.2034566372434017
2.18,-0.6442035628792587,-0.0454942481743594,1.5673375788326456,0.0058809453583297,0.119684958015914,0.0337181503068246,0.5746163021060824,-0.0746289397786022,0.020728129874016,-0.6395777037568676,-0.0456477876843087,1.5630409241565784,0.7440193284893816,-0.0630190578602223,-0.0306018704587463,0.3252447666156351,-0.3126680348169541,0.0827579271891372,0.034263445564046,10.625881724162356,-1.446057213072491,0.1970081821695907,-1.2066961722841427
2.2,-0.6327749042541252,-0.0469709048712041,1.5677559304528614,0.0056545526126036,0.1210256804002905,0.033973888831797,0.5685640408271797,-0.0730548011121131,0.0210689587348102,-0.6154727477739546,-0.0492256951632895,1.5683739853263463,0.5942762739244103,-0.051803423018253,0.0115304477317583,0.3131451079044313,-0.3026130639451341,0.0787069333244565,0.0170414430397088,10.595089477552392,-1.4446393229424663,0.1976529713834269,-1.20905218028804
2.22,-0.6219993567971935,-0.0483559896712263,1.5682075211053277,0.004318471268349,0.1213184406086397,0.0341266260618906,0.565830449954258,-0.0725807919514379,0.0264539717337085,-0.6154727477739546,-0.0492256951632895,1.5683739853263463,0.5942762739244103,-0.051803423018253,0.0115304477317583,0.3028843374261372,-0.1366795436460843,0.0237004580337603,0.2692506499449132,10.930764499067664,-1.444584380600478,0.1996671674944453,-1.2118199385922728
2.24,-0.610722620295745,-0.049794724413538,1.5687871294587272,0.0015392532907922,0.1201771672014595,0.0341831727461338,0.5618387559461827,-0.070939496480711,0.031150277969646,-0.6154727477739546,-0.0492256951632895,1.5683739853263463,0.5942762739244103,-0.051803423018253,0.0115304477317583,0.3189152087077325,-0.1995847004037654,0.082064773536343,0.2348153117968768,10.930764499067664,-1.4459413337553928,0.203152258852629,-1.210479937700378
2.26,-0.5995418330906414,-0.0511736097381876,1.5694449902428549,-0.0017256559728471,0.1181328882177805,0.034208407131333,0.5563076156966856,-0.0669281661784606,0.0343435055246116,-0.6095299850347105,-0.049743729393472,1.568489289803664,0.5982082682880758,-0.0472383196661831,0.0096909113033068,0.3770974193466143,-0.276557012474854,0.2005665151125213,0.1596613777482786,10.753550817058567,-1.4485945447484556,0.207180246815516,-1.2076014961678296
2.28,-0.5890396940217066,-0.0523944404403006,1.5701148682001893,-0.0045875662149769,0.1159244961453066,0.0342556593808374,0.5493820530204316,-0.0618312783524788,0.0360217477437367,-0.5976444595562223,-0.0507797978538371,1.568719898758299,0.606072257015407,-0.0381081129620434,0.0060118384464037,0.4380587313346763,-0.3462781338126997,0.2548443912990923,0.0839121109562576,10.753550817058567,-1.4519095586466326,0.2107902866868828,-1.204794299143536
2.3000000000000003,-0.578144468441203,-0.0535676745557227,1.5708439289045262,-0.0071412003343189,0.1139633806957595,0.0343409959121951,0.5403979929735576,-0.0558026257190741,0.0367518638563997,-0.585758934077734,-0.0518158663142021,1.5689505077129342,0.6139362457427382,-0.0289779062579037,0.0023327655895006,0.5421970514445482,-0.449203002343701,0.3014326316702318,0.0365058056331496,10.674920559089514,-1.455191192514045,0.2141097997175118,-1.2025789115897745
2.32,-0.5674444948885258,-0.0546149041332015,1.571577716787249,-0.0091800209740319,0.1130125613232184,0.0344571839376607,0.5301349778347784,-0.0492823997780516,0.0365505521186801,-0.5734802091628792,-0.0523954244393602,1.568997163024724,0.6218002344700694,-0.019847699553764,-0.0013463072674023,0.6080364965948557,-0.5131507569389626,0.3260112970511243,-0.0100655868859815,10.562041537546976,-1.456761896399527,0.2168310226928184,-1.2021774506575946
2.34,-0.5569518133788302,-0.0555271317740649,1.5723014907766133,-0.0106874346553782,0.1132528896913421,0.0345981242961763,0.5198092206889914,-0.0423450615292213,0.0358345773224101,-0.5612014842480245,-0.0529749825645183,1.5690438183365143,0.6296642231974006,-0.0107174928496242,-0.0050253801243054,0.6230179422002021,-0.5162878572893492,0.3468669124415187,-0.0357987398135008,10.562041537546976,-1.456728463682643,0.2188659582786529,-1.2036717510747594
2.36,-0.5471701256721017,-0.0562591113935328,1.5729730925721015,-0.0115195407552013,0.1143975670992401,0.0347605034558746,0.5104901221219323,-0.0351328828581965,0.0348895984469936,-0.5487261596149865,-0.0533262855220729,1.5689984968268818,0.6375282119247316,-0.0015872861454845,-0.0087044529812085,0.5910882006103854,-0.4659549283529518,0.3606089335512371,-0.0472489437708213,10.53776018552071,-1.4553269545654364,0.2203183839491624,-1.2069985785414177
2.38,-0.5370568571431303,-0.0568777642067707,1.573658675211582,-0.0115724484829073,0.1162889995241984,0.0349760325942469,0.5014455041085795,-0.0271695597641874,0.0337040101951591,-0.5360542352637652,-0.053449333312024,1.5688611984958265,0.6453922006520628,0.0075429205586551,-0.0123835258381116,0.6054445664343161,-0.4522309006676439,0.3981661547004569,-0.0592794125917291,10.524598310115834,-1.4530685988222154,0.2208444428743599,-1.211596180405812
2.4,-0.5271155005305429,-0.0573350576416052,1.5743189612090849,-0.0106274536273165,0.118615400930669,0.0352512073237321,0.4932500823563142,-0.0190448974262765,0.0323720167386016,-0.5119845819377014,-0.0582362421949801,1.5753438757213398,0.5019163211976603,-0.0040046578817773,0.0248702116152874,0.5808383647170753,-0.4097710876132643,0.406233116895544,-0.0665996728278741,10.51346150797417,-1.4502739899407122,0.220261958249136,-1.2170800370028074
2.42,-0.5172647925287185,-0.0576136538321991,1.5750082129456442,-0.0081079159948152,0.1193216093716751,0.0356463941504676,0.4919499449644692,-0.0096744323151149,0.0366266314390653,-0.5119845819377014,-0.0582362421949801,1.5753438757213398,0.5019163211976603,-0.0040046578817773,0.0248702116152874,0.518646603880169,-0.065006869592249,0.4685232555580816,0.212730735023188,10.866701076563912,-1.447157979767363,0.2179572422013757,-1.2223526034862693
2.44,-0.5079352932682002,-0.0577350788929815,1.575737085709234,-0.0047354589602644,0.1170371198582059,0.0360998732795679,0.4899701202258504,-0.003760598895083,0.0398826858599684,-0.5119845819377014,-0.0582362421949801,1.5753438757213398,0.5019163211976603,-0.0040046578817773,0.0248702116152874,0.3517634933709523,-0.0989912369309398,0.2956916710015912,0.1628027210451511,10.866701076563912,-1.450891017303504,0.2145176247512731,-1.2213388829706675
2.46,-0.4981767024758979,-0.0577648753069858,1.576558884291207,-0.001335459567497,0.1121549178718935,0.0365520870219516,0.4855660812670801,0.0004596288572876,0.042087695724836,-0.5069654187257248,-0.0582762887737978,1.5755925778374926,0.5020104846154765,0.0006283224947046,0.0231034518993131,0.3242990515573952,-0.2202019479385142,0.2110113876185375,0.1102504932433832,10.791802748745797,-1.458174629358297,0.2112246814152369,-1.2157012407128736
2.48,-0.4885465596524826,-0.0577244969150697,1.5774095287239729,0.0014783991685902,0.1060301406664279,0.0369338389198629,0.4774221016854779,0.0034879402756647,0.0428902523810791,-0.4969270923017715,-0.0583563819314334,1.5760899820697984,0.5021988114511088,0.0098942832476686,0.0195699324673644,0.4362888110492488,-0.4071989790801117,0.1514155709188518,0.0401278328121527,10.707280749359596,-1.4667297067431433,0.2085445837389114,-1.20775009867852
2.5,-0.4791154023296857,-0.0576312245335809,1.5782631565420069,0.0036253385538906,0.0999598489590318,0.0372406635523854,0.4659977949178058,0.0058350943946992,0.0424462090441513,-0.4868887658778183,-0.0584364750890689,1.5765873863021045,0.5023871382867411,0.0191602440006326,0.0160364130354157,0.5835689592187194,-0.5712153383836016,0.1173577059517263,-0.0222021668463912,10.62212512048336,-1.474539612647207,0.2066521636723145,-1.199967382727554
2.52,-0.4703957768394231,-0.057504360328491,1.5790556958755235,0.0050391240469949,0.0951735532389323,0.0374714402521288,0.4523353052973553,0.0075034569879795,0.0410091310478817,-0.4768410231120835,-0.0580532702090563,1.5769081145628123,0.5025754651223734,0.0284262047535966,0.0125028936034671,0.6919397544926466,-0.6831244810225262,0.0834181296640161,-0.0718538998134794,10.489398199385503,-1.4818701517854471,0.2053960508246877,-1.1930656268813946
2.54,-0.4615243590449627,-0.0573418434822623,1.579854589777881,0.0057660078044159,0.0921842618031456,0.0376570256915771,0.4353947522225401,0.0087086329637884,0.0389321970828102,-0.4667932803463487,-0.0576700653290436,1.5772288428235208,0.5027637919580057,0.0376921655065607,0.0089693741715184,0.8554946556065741,-0.847027653740759,0.0602587987904435,-0.1038466982535731,10.489398199385503,-1.4868378828875308,0.2049956452169352,-1.1892995750910045
2.56,-0.4530063816780061,-0.0571572139486655,1.5806078075924983,0.0056085669438048,0.0920898877743625,0.0377883879896652,0.4176115113286919,0.0097663937764418,0.0364791467360831,-0.456740829409723,-0.0570552114302069,1.5774612330984306,0.5029521187936381,0.0469581262595247,0.0054358547395698,0.8991384357108193,-0.8891620446924126,0.0528880406326688,-0.1226525173363531,10.466722195968032,-1.4866957861944703,0.205400449083048,-1.1902781619525191
2.58,-0.444829720288149,-0.0569496528957569,1.5813104317893882,0.0045545498341717,0.0944764174896996,0.0378634997063718,0.4012844208771647,0.011037625924973,0.0339032708717992,-0.4466836703022066,-0.056208708512546,1.5776052853875413,0.5031404456292704,0.0562240870124887,0.0019023353076211,0.8288924089651329,-0.8163545225763569,0.06356160742656,-0.1287937932141974,10.441570356325428,-1.4834966522893516,0.206646007148609,-1.1944043065250511
2.6,-0.4373456355247779,-0.0567231087532247,1.581930766723778,0.0028116770561142,0.0983038878742516,0.0378810763199717,0.3875813841615662,0.0128197735964328,0.03151561577224,-0.4247654992442907,-0.0563977715995082,1.5830055953329782,0.4201910607660474,0.0247941860866827,0.0086919757588317,0.7011600431185133,-0.6851518357799263,0.0891073835729937,-0.1193827549779601,10.431467387391422,-1.4779773853594165,0.208790200416732,-1.2009593386732071
2.62,-0.4297561566857311,-0.0563879901581032,1.582537635494846,0.0020488654462867,0.1041196754484487,0.0379670153574921,0.372460570247549,0.0202530134628295,0.029296179202342,-0.4247654992442907,-0.0563977715995082,1.5830055953329782,0.4201910607660474,0.0247941860866827,0.0086919757588317,0.8497322622766613,-0.7560406957008603,0.3716619933198317,-0.110971828494899,10.433366733990624,-1.4716005971584245,0.2099416805203129,-1.2112905214136584
2.64,-0.4224402925285661,-0.0559133106778355,1.583093384471656,0.0035544853795294,0.1117919414609615,0.0382113480868693,0.3602823158554708,0.0266662705439604,0.0263327215174415,-0.4247654992442907,-0.0563977715995082,1.5830055953329782,0.4201910607660474,0.0247941860866827,0.0086919757588317,0.7039563691682962,-0.6089127196039101,0.3206628540565475,-0.1481728842450253,10.41714083284296,-1.4613602254176168,0.2084670558293736,-1.2256136379820617
