t,x,y,z,roll,pitch,yaw,v_x,v_y,v_z,ref_x,ref_y,ref_z,ref_v_x,ref_v_y,ref_v_z,a_com,a_x,a_y,a_z,thrust,wind_x,wind_y,wind_z
0.0,-1.8194715224035016,0.5687616781090409,1.9114751567171249,0.0135747967471256,0.1499051370985308,0.0281323482739682,0.002599456534524,-0.0042320548003791,-0.0022123212789677,-1.8193880595089729,0.5685621992071868,1.9114046962237,0.1026697602015884,-0.1058870941866369,-0.1022575871144301,0.2718539476891302,0.1299728267262025,-0.2116027400189595,-0.1106160639483862,10.66134685529596,-1.4134251948396448,0.179121404409517,-1.2776182996422871
0.02,-1.8195285490676232,0.5689490623302268,1.9112131232687848,0.020612953724497,0.152014275738733,0.0286632583424803,-0.0080378079968858,0.0189855091701073,-0.025219717633524,-1.8193880595089729,0.5685621992071868,1.9114046962237,0.1026697602015884,-0.1058870941866369,-0.1022575871144301,1.7186818789776626,-0.5318632265704928,1.160878198524326,-1.150369817727816,10.660466239140078,-1.4077455126372405,0.1705897908265399,-1.2759049919909136
0.04,-1.8197808495924264,0.5693750932040438,1.9103595102692148,0.0353948556224688,0.1575115368744169,0.0298379240137301,-0.0162166249429891,0.0216068711033315,-0.0593061473029376,-1.8193880595089729,0.5685621992071868,1.9114046962237,0.1026697602015884,-0.1058870941866369,-0.1022575871144301,1.75759016314292,-0.4089408473051646,0.1310680966612092,-1.7043214834706797,9.221814529666515,-1.3963251567346735,0.1538290610911014,-1.2813927602854407
0.06,-1.8201355903990948,0.5697506498951139,1.908918112887186,0.0500766352431729,0.1642601870147221,0.0311227932287084,-0.0204255752485186,0.0175014727277782,-0.0907063663270716,-1.8183613619069567,0.5675033282653204,1.9103821203525555,0.1226697604996116,-0.1258870944846601,-0.1222575874124533,1.5972971805991518,-0.2104475152764798,-0.2052699187776622,-1.5700109512067,8.72768228724317,-1.384900429904969,0.1355480149698167,-1.2877698462275158
0.08,-1.820562677026514,0.5700238369453562,1.906776958558396,0.0650311666874581,0.1719804326339484,0.032561761705167,-0.0217722818687578,0.0097082846825409,-0.121692120546699,-1.816307966702925,0.5653855863815876,1.9083369686102667,0.1626697610956581,-0.1658870950807066,-0.1622575880084998,1.5989561932621703,-0.0673353310119563,-0.3896594022618662,-1.549287710981368,8.848413783789056,-1.3731130048122997,0.1179189246280041,-1.2931256020559054
0.1,-1.8209873663358431,0.5701100459284526,1.9040411625654643,0.0792952203811969,0.1797799672979232,0.0340494191095053,-0.0203828777594619,-0.0010033692726472,-0.150269302366186,-1.814254571498893,0.5632678444978549,1.906291816867978,0.2026697616917045,-0.205887095676753,-0.2022575886045462,1.527518653714779,0.0694702054647961,-0.5355826977594083,-1.4288590909743493,9.125086937274318,-1.3618759696449383,0.1012071313265543,-1.2974705924819911
0.12,-1.82135877184358,0.56995307935835,1.9007569822388972,0.0928632766606836,0.1873614856779405,0.0355541678396488,-0.0166110073858498,-0.0144513171406576,-0.1766648745863928,-1.8102011762650592,0.5591501025843199,1.9022466650958871,0.242669762287751,-0.2458870962727994,-0.2422575892005927,1.4931514832797563,0.1885935186806001,-0.672397393400522,-1.3197786110103429,9.125086937274318,-1.3522223627727536,0.086225920414494,-1.3003637882480994
0.14,-1.821623092981169,0.5695306310546935,1.897158433728744,0.1051298550078859,0.1942327080229194,0.036975404529495,-0.0112518953149439,-0.0295801247771698,-0.2008687087824668,-1.806147781031225,0.5550323606707848,1.8982015133237964,0.2826697628837975,-0.2858870968688459,-0.2822575897966392,1.4520902971941534,0.2679556035452977,-0.7564403818256099,-1.2101917098037012,9.318105399455815,-1.3427986976747426,0.0711486790140472,-1.305074402838999
0.16,-1.8217748870149493,0.5687513914245568,1.8928753932474935,0.1174129464047441,0.2010660181635545,0.0384426074225912,-0.0040402529939627,-0.0478114418407159,-0.2261892975593638,-1.8010943857824897,0.5499146187423486,1.8931563615368043,0.3226697634798439,-0.3258870974648923,-0.3222575903926856,1.6011877800917298,0.3605821160490595,-0.9115658531773024,-1.2660294388448483,9.318105399455815,-1.3331206472644377,0.0567936385460997,-1.3085293002254026
0.18,-1.8217653619329783,0.5675830985604011,1.8880921764796557,0.1290781011237725,0.207475023221008,0.0398632608188965,0.0047939790622892,-0.0683581002061474,-0.2508690318711273,-1.7950409905188534,0.5437968767990112,1.887111209734911,0.3626697640758903,-0.3658870980609388,-0.362257590988732,1.6653063619862167,0.4417116028126002,-1.0273329182715791,-1.2339867155881756,9.349241047193573,-1.3232848146177398,0.0431429318750781,-1.3108016052041225
0.2,-1.821562441690947,0.5659800873434672,1.88282444667638,0.1401521550427806,0.2134622728311932,0.0412228248435703,0.0151943081781373,-0.0911497141761976,-0.2747255249896905,-1.821525662979864,0.5641651935500938,1.8755487248860991,0.1047939805524053,-0.1683581016962636,-0.3363339787967674,1.7297086293605872,0.5200164557924051,-1.139580698502507,-1.1928246559281568,9.474992899722563,-1.314539059370927,0.0308466278929023,-1.3121854306499436
0.22,-1.821133464174553,0.5638579553806667,1.877482686507825,0.1455526436581523,0.2187638525941602,0.042112700353807,0.0295119722143736,-0.1282328142769681,-0.2860046387676978,-1.821525662979864,0.5641651935500938,1.8755487248860991,0.1047939805524053,-0.1683581016962636,-0.3363339787967674,2.066016834488248,0.7158832018118135,-1.854155005038527,-0.5639556889003666,9.474992899722563,-1.306016456597107,0.0243526064329782,-1.3102388438472927
0.24,-1.8203769221841213,0.5609534391858354,1.8716465688825124,0.1458789197238526,0.2239481106396384,0.0425938882684193,0.0454827488385884,-0.1598645258241874,-0.2970477109276344,-1.821525662979864,0.5641651935500938,1.8755487248860991,0.1047939805524053,-0.1683581016962636,-0.3363339787967674,1.855788460544884,0.7985388312107428,-1.5815855773609635,-0.5521536079968303,10.323611510843875,-1.29959646236959,0.0243292365119741,-1.3111253788534332
0.26,-1.8192937840394023,0.5574413309977163,1.8655803556633492,0.1432299988269674,0.2287795020003277,0.0427780369532409,0.0621276810008622,-0.1893655769135067,-0.3090193184047728,-1.82047772317434,0.5624816125331311,1.8721853850981316,0.1247939808504285,-0.1883581019942868,-0.3534269681818954,1.7963053524164536,0.8322466081136872,-1.4750525544659665,-0.598580373856919,10.265326385176197,-1.29393022621386,0.0278033195547459,-1.3117465531148944
0.28,-1.8178712466501885,0.553376256291589,1.8592669711403265,0.1388923458104263,0.233295189854551,0.0427556721778308,0.0793987710520535,-0.2152490837250194,-0.3216645861361515,-1.818381843563292,0.5591144504992058,1.865458705522196,0.164793981446475,-0.2283581025903333,-0.3876129469521515,1.679396671736782,0.8635545025595683,-1.294175340575633,-0.6322633865689375,10.19877306451599,-1.2880458725062225,0.032942139713816,-1.3110326797379088
0.3,-1.8161940751268248,0.5490629002516747,1.853028492332648,0.134549370232965,0.2373105111002016,0.0426420401727135,0.0963691461846655,-0.2374131335690757,-0.3343823599288999,-1.816285963952244,0.5557472884652805,1.8587320259462607,0.2047939820425214,-0.2683581031863797,-0.4217989257224075,1.5337702793075836,0.848518756630598,-1.108202492202817,-0.6358886896374177,10.138866769164451,-1.2817929243819026,0.0384580015048614,-1.310633569621933
0.32,-1.8140744417739807,0.5440865518681991,1.846192357664344,0.1303336712415774,0.2412684027023787,0.0424742189756331,0.1147837395409492,-0.2590455029117271,-0.348616088754845,-1.8121900843113932,0.550380126401553,1.8502960474318129,0.2447939826385679,-0.3083581037824262,-0.4559849044926636,1.5887539835864366,0.9207296678141836,-1.0816184671325668,-0.7116864412972546,10.024863166496289,-1.276020359658726,0.0434648878210088,-1.3100601003694574
0.34,-1.811579082235944,0.5386878532367565,1.8390686504529907,0.126664760844512,0.2449676642095704,0.0422771690856015,0.1339180282582568,-0.2797567359024395,-0.363057882289031,-1.8080942046705428,0.5450129643378254,1.8418600689173643,0.2847939832346144,-0.3483581043784727,-0.4901708832629196,1.5840151334480026,0.9567144358653814,-1.0355616495356212,-0.7220896767093005,10.024863166496289,-1.2703762099510374,0.0477073840269178,-1.3094236269339343
0.36,-1.8088469685095765,0.5331740427958298,1.8320327732027348,0.1234172338854892,0.2482562933968815,0.0420496142008162,0.1527862389309791,-0.2994768671358424,-0.3768286438106936,-1.8029983250147912,0.5386458022591967,1.83256944093366,0.3247939838306608,-0.3883581049745191,-0.5243568620331757,1.5285015724062618,0.943410533636116,-0.9860065616701412,-0.6885380760831311,10.020163713371405,-1.2653768117237294,0.0513993492531249,-1.308555781085207
0.38,-1.805577152123681,0.5269714458317551,1.8243427539932016,0.1200136016184264,0.2514951915485397,0.0417558080711513,0.173276468414888,-0.3196147340315902,-0.3914469039333987,-1.7969024453441385,0.5312786401656667,1.8224241634806988,0.3647939844267072,-0.4283581055705655,-0.5585428408034316,1.6117356455302916,1.0245114741954455,-1.0068933447873931,-0.7309130061352559,10.020163713371405,-1.2604340693418037,0.0552121836359816,-1.307356324042539
0.4,-1.8018909051186875,0.5203719835172927,1.816359952322525,0.1165488817233607,0.2545196150545345,0.0414054650539519,0.1943933372877798,-0.3391696116087787,-0.4060903223780736,-1.7969133287029366,0.5109907091301756,1.804770408796532,0.2732764699050042,-0.4101006793755615,-0.4291702477527785,1.614578189342015,1.0558434436445898,-0.9777438788594216,-0.7321709222337408,10.012051846533724,-1.2558255576106896,0.0590451780234295,-1.305882040966341
0.42,-1.797682478442635,0.513318039452918,1.80836613649293,0.1116567541473173,0.2568492190427613,0.0408481207339618,0.2237340194736635,-0.3630249972340525,-0.3931974477391027,-1.7969133287029366,0.5109907091301756,1.804770408796532,0.2732764699050042,-0.4101006793755615,-0.4291702477527785,1.9976118685318789,1.4670341092941823,-1.192769281263692,0.6446437319485437,10.010978404792697,-1.2496136594250709,0.0642743746754577,-1.2987066595346688
0.44,-1.793107986894331,0.5062014169843432,1.801032358336067,0.1061539764305458,0.2580391059534211,0.0401247794887993,0.254570421156837,-0.3835714049849668,-0.3802884274314193,-1.7969133287029366,0.5109907091301756,1.804770408796532,0.2732764699050042,-0.4101006793755615,-0.4291702477527785,1.96193867484246,1.5418200841586724,-1.027320387545713,0.6454510153841714,11.8725353060845,-1.2497654420167883,0.0705120291123833,-1.3013362808295157
0.46,-1.7876953328709442,0.4983372276526246,1.7935322537379732,0.1005249955633526,0.2581239687230487,0.0392403153287281,0.2850288050036594,-0.4017052347342484,-0.3704737329520142,-1.7941805640038866,0.5068897023364201,1.800478706319004,0.2932764702030274,-0.4281978684443557,-0.4367149165166545,1.839073921611344,1.5229191923411212,-0.906691487464084,0.4907347239702542,11.676274829245813,-1.2513042419561595,0.0764933043030141,-1.3028234240204977
0.48,-1.7816779592763805,0.4901306004977479,1.7861974279176571,0.0953564202561045,0.2566951386295817,0.0382345745350904,0.3150527513784597,-0.4180455301930685,-0.3634553964374156,-1.7887150346057863,0.4986876887489088,1.7918953013639485,0.3332764707990738,-0.4643922465819442,-0.4518042540444064,1.7447776785528908,1.5011973187400134,-0.8170147729410049,0.3509168257299272,11.46744229225078,-1.2542376285496504,0.081615704734075,-1.3021277630184096
0.5,-1.775411194996758,0.4820453203421565,1.7793386223417031,0.0909766786932535,0.2536314895648058,0.0371609456276646,0.3429626995910887,-0.432263313721083,-0.3588371595249298,-1.7832495052076864,0.4904856751613975,1.7833118964088928,0.3732764713951203,-0.5005866247195327,-0.4668935915721584,1.5830656097118672,1.3954974106314522,-0.7108891764007252,0.2309118456242903,11.294767476297238,-1.2596060109683218,0.0863175087584426,-1.298573052900041
0.52,-1.768255845757233,0.4732543653542682,1.77219754685433,0.086989647872543,0.2484382573725523,0.0359116799593958,0.3707533657260977,-0.4461264682279611,-0.355528180555097,-1.775783975779784,0.4804739426670069,1.7739740245774496,0.4132764719911667,-0.5367810028571213,-0.4819829290999103,1.5616157649466031,1.3895333067504512,-0.6931577253439014,0.1654489484916421,11.149795714729407,-1.2682848275919116,0.0902981900546077,-1.2913796832962392
0.54,-1.760574654623053,0.4641933907861487,1.765118438221366,0.0836524505876765,0.2417354600754397,0.0345988724054185,0.3956276584497515,-0.4593334772498402,-0.3525044895427233,-1.7683184463518815,0.4704622101726162,1.7646361527460064,0.4532764725872132,-0.5729753809947098,-0.4970722666276622,1.4162434758405067,1.2437146361826883,-0.6603504510939551,0.1511845506186854,10.978093484231067,-1.2783798153454031,0.0933397252534729,-1.2821769140330113
0.56,-1.7524237933126237,0.4548661703522256,1.7580947140154934,0.0806668999041949,0.2342026287485022,0.0332660391952125,0.4178929996039681,-0.4726476308625535,-0.3499369123265738,-1.759852916909078,0.4595456182247859,1.7549210474763697,0.4932764731832597,-0.6091697591322982,-0.5121616041554141,1.3034613111802262,1.1132670577108317,-0.665707680635666,0.1283788608074737,10.9212101520352,-1.2893493372786085,0.0960262867255725,-1.2714708158558847
0.58,-1.7442939347062456,0.4457613943098907,1.751464309877632,0.077894148060269,0.2266971746249252,0.0320012475732925,0.4365273395055422,-0.4849760710092398,-0.3480642588210491,-1.7503873874513731,0.4477241668235158,1.7448287087685388,0.5332764737793061,-0.6453641372698867,-0.5272509416831661,1.1210886351774043,0.931716995078702,-0.6164220073343135,0.0936326752762367,10.852407974673042,-1.3005166160376538,0.0985876417751804,-1.2600187722115088
0.6,-1.7353814792747984,0.4359309965212433,1.7445168015479784,0.0750103214446281,0.2188398321844231,0.0307041792319313,0.4534904577385673,-0.4973197834353304,-0.3467824598562831,-1.7224675677309684,0.4215125907594287,1.7340610969365795,0.5365273409956584,-0.550242039451203,-0.3803408184421447,1.050901547757552,0.8481559116512549,-0.6171856213045307,0.0640899482382967,10.852407974673042,-1.3113523626740895,0.1010840324137276,-1.2484000506622264
0.62,-1.7261242974962283,0.425760723406599,1.7377666667350156,0.0693714353025727,0.2117266086152709,0.0293083191903174,0.4712631270131693,-0.5170034324129196,-0.3281022782698689,-1.7224675677309684,0.4215125907594287,1.7340610969365795,0.5365273409956584,-0.550242039451203,-0.3803408184421447,1.6219301729103066,0.8886334637301041,-0.9841824488794588,0.9340090793207134,11.93544375846068,-1.3187797408584387,0.1066318555635461,-1.2333696335127988
0.64,-1.7165424173606871,0.4152852959538874,1.7313778258882666,0.0616967185502513,0.2059976644665355,0.0279304116076555,0.4857966079418319,-0.5291823082822261,-0.3119324753468679,-1.7224675677309684,0.4215125907594287,1.7340610969365795,0.5365273409956584,-0.550242039451203,-0.3803408184421447,1.2460032222194142,0.7266740464331262,-0.6089437934653275,0.8084901461500482,11.93544375846068,-1.3280225980445026,0.1141520736236434,-1.2278821102623192
0.66,-1.707201959278221,0.4051501484434907,1.7255647980501916,0.0545570559178511,0.2023654086299954,0.0267998192424409,0.4966335160802396,-0.5370373637387669,-0.3007454709110295,-1.717102294321012,0.4160101703649167,1.730257688752158,0.5565273412936815,-0.5632952331395956,-0.3867961303663638,0.8721948498946298,0.5418454069203854,-0.3927527728270374,0.5593502217919211,11.62490177113159,-1.335060589015737,0.1219476950899833,-1.2242546409145056
0.68,-1.6971695820515735,0.3943470612483938,1.7196427122440838,0.0479277592247924,0.2009139129361372,0.0258407726550304,0.5061740302871677,-0.542883380463925,-0.292230135356976,-1.7063717475010989,0.4050053295758927,1.7226508723833152,0.596527341889728,-0.5894016205163809,-0.3997067542148021,0.7030438508399618,0.4770257103464043,-0.2923008362579082,0.4257667777026741,11.336947698597214,-1.3371021985950755,0.128648395134365,-1.2239126111903065
0.7000000000000001,-1.6869452680265729,0.3834466049184749,1.7138552295216398,0.0424692407572283,0.2016457637639197,0.0250902933294066,0.5160418739983635,-0.5470545379209099,-0.2869713946130241,-1.6956412006811856,0.3940004887868686,1.7150440560144722,0.6365273424857745,-0.6155080078931662,-0.4126173780632404,0.5967144380933972,0.4933921855597933,-0.208557872849241,0.2629370371975942,11.110379672461931,-1.3357709712681287,0.1338097755454571,-1.2262959148984909
0.72,-1.677040069405098,0.3730251135556803,1.7084325178981792,0.0383501766525818,0.2036794828355476,0.0245180335664345,0.5262979060091711,-0.5499343495928974,-0.2841324376539135,-1.6829106538314702,0.3816903286290052,1.7067917084532074,0.6765273430818209,-0.6416143952699515,-0.4255280019116786,0.5512240571866146,0.5128016005403802,-0.1439905835993793,0.1419478479555314,10.9241892969967,-1.3327338060486005,0.1380733104264616,-1.2302567088308785
0.74,-1.6663901749454215,0.3620031902905146,1.7027729479519431,0.0350627477206756,0.206652203332235,0.0240257768130348,0.5383084711903606,-0.5522525670155459,-0.2820318377699501,-1.6701801069817548,0.3693801684711419,1.6985393608919426,0.7165273436778674,-0.6677207826467367,-0.4384386257601169,0.620564919776285,0.600528259059474,-0.1159108711324241,0.1050299941981663,10.796250714789494,-1.328719449072204,0.1411825589968316,-1.234767234712851
0.76,-1.6554808546429796,0.3509343971413821,1.6971477577834757,0.0325685122994021,0.2098455990222466,0.0236013173790193,0.5521236175036479,-0.554566220744786,-0.2806300432350643,-1.656449560117138,0.356417348628859,1.6899642477344667,0.7565273442739138,-0.693827170023522,-0.4513492496085551,0.7038755024050732,0.6907573156643643,-0.1156826864620041,0.0700897267442934,10.755327571287124,-1.3241935399502218,0.143420066586711,-1.239519390870016
0.78,-1.6442785036888277,0.3398216286472575,1.6915444032175897,0.0305804286226315,0.2125816593633657,0.0232033129975773,0.5674026958510201,-0.5566556709353989,-0.27978265143926,-1.6417190132376205,0.3428018691021564,1.68106636898078,0.7965273448699602,-0.7199335574003073,-0.4642598734569934,0.772227476362675,0.7639539173686094,-0.1044725095306453,0.0423695897902115,10.73003090608472,-1.3205962471524035,0.1450504064521177,-1.2433330040348285
0.8,-1.63334371464916,0.329228471228048,1.6862321414098205,0.0290414084829846,0.2143870915408253,0.0228328024022285,0.5827919881422512,-0.5583399249086207,-0.279442166250396,-1.6159083688962768,0.3119888451004876,1.6775552706456265,0.6674026973411362,-0.584520130837447,-0.3130779810994373,0.7742463413460441,0.7694646145615547,-0.0842126986610902,0.0170242594432046,10.71214895797857,-1.3180447488063145,0.1463849906106231,-1.2461000703975378
0.8200000000000001,-1.6214496797653313,0.317930319012189,1.680790382432605,0.0241063152547395,0.2143626652296985,0.0221678446313669,0.6059284423832632,-0.5694582279482358,-0.2638835120225536,-1.6159083688962768,0.3119888451004876,1.6775552706456265,0.6674026973411362,-0.584520130837447,-0.3130779810994373,1.5008196916258048,1.156822712050598,-0.5559151519807515,0.7779327113921181,11.78998196617158,-1.3169762238251888,0.1514104789935959,-1.245144154961524
0.84,-1.609097256719678,0.3065064516328035,1.6756658120398111,0.0159960790411986,0.2114132882043538,0.0212465186869415,0.6278870547028761,-0.5718480367061062,-0.2495603523844364,-1.6159083688962768,0.3119888451004876,1.6775552706456265,0.6674026973411362,-0.584520130837447,-0.3130779810994373,1.3162871484987986,1.0979306159806468,-0.1194904378935213,0.7161579819058572,11.78998196617158,-1.3205942035882552,0.1597130545677034,-1.241661499266675
0.86,-1.5969816322854378,0.2956619659017179,1.6710214336440976,0.0082808499104855,0.2063023674390089,0.0203944331846659,0.6459371527451193,-0.5695706239844485,-0.2399595386699743,-1.6092343419228654,0.3061436437921131,1.6744244908346322,0.6874026976391594,-0.5900930228178567,-0.3197370470314727,1.0285527113609272,0.9025049021121612,0.1138706360828856,0.4800406857231085,11.541694058300893,-1.3289715908778696,0.1686112573162456,-1.2339158902959193
0.88,-1.5839029724500169,0.2843223845813874,1.6662974320163664,0.0012029206539079,0.1995582395463355,0.0196370032163685,0.6606223951974505,-0.5645996640396211,-0.2330643713348886,-1.5958862879760427,0.2944532411753641,1.6681629312126434,0.7274026982352059,-0.6012388067786759,-0.3330551788955436,0.8483957231676438,0.734262122616558,0.2485479972413662,0.3447583667542844,11.258740254210352,-1.3392212527841088,0.1763245573408001,-1.22430053109716
0.9,-1.5705749620606448,0.2731017447501913,1.6616740583970997,-0.0044259313643821,0.1926068037299887,0.0190563653070857,0.6712800161442617,-0.5580116392120982,-0.2295734219159212,-1.58253823402922,0.2827628385586152,1.6619013715906543,0.7674026988312523,-0.6123845907394951,-0.3463733107596145,0.6503339204204194,0.532881047340561,0.3294012413761482,0.1745474709483691,10.80719147005584,-1.3488030778489022,0.1821230089677479,-1.2149813934778142
0.92,-1.5570701781934888,0.2620225798041394,1.6570923664990234,-0.0086325794077385,0.1863355083756262,0.0186337387855911,0.6785847234371081,-0.55054872458631,-0.2287467544671653,-1.567190180052595,0.2705151467438253,1.6549739053754622,0.8074026994272988,-0.6235303747003144,-0.3596914426236854,0.5237776780677057,0.365235364642319,0.3731457312894093,0.0413333724377934,10.80719147005584,-1.3576441364587175,0.1866646469575471,-1.205937518461603
0.94,-1.5441331581952884,0.2516403165405261,1.6527409275047225,-0.0114283032649645,0.1817239916738955,0.0183467135784646,0.6827714209882461,-0.5429824619959137,-0.2293236761689436,-1.5518421260759698,0.2582674549290354,1.64804643916027,0.8474027000233453,-0.6346761586611336,-0.3730095744877563,0.4333289876684855,0.2093348775568992,0.3783131295198139,-0.0288460850889155,10.63536224020936,-1.3649750047699492,0.1898021670262329,-1.1987289245873594
0.96,-1.5304493397567664,0.2408649102867064,1.6481388805540782,-0.0133761069409599,0.1789762132277,0.0181206211721096,0.6853006061071718,-0.5350978795911341,-0.2308898549313428,-1.5354940720844437,0.245741118515225,1.640786019648476,0.8874027006193916,-0.6458219426219529,-0.3863277063518272,0.4213559450730052,0.1264592559462873,0.3942291202389814,-0.0783089381199586,10.54624434618745,-1.369263720289695,0.1918058425664043,-1.1947214730062072
0.98,-1.5160345719921728,0.2297245996589404,1.6432621925927284,-0.0144356032914588,0.1787054700160925,0.0179406959495059,0.6877708025956426,-0.5264188292835541,-0.233504126414894,-1.5181460180780164,0.2329361375023941,1.63319264684008,0.927402701215438,-0.6569677265827721,-0.3996458382158981,0.469739822462569,0.1235098244235399,0.4339525153789991,-0.1307135741775572,10.426492282353138,-1.3689696522019827,0.1927638831292901,-1.1946341658682182
1.0,-1.5036245315415908,0.2203250182333047,1.6390334387389998,-0.0144232540759423,0.1799791963927381,0.0178440775292147,0.6911521922405628,-0.5185122244606958,-0.2362450973322316,-1.4816460318623907,0.2034036581947627,1.6315869862719838,0.7877708040857587,-0.5348878884155936,-0.2314849997481842,0.4512790636770964,0.1690694822460092,0.395330241142916,-0.1370485458668829,10.426492282353138,-1.3670888665202945,0.192609462511041,-1.1966203791404422
1.02,-1.4896699846372048,0.2099848633705422,1.6345088564275212,-0.0154433902592832,0.1811908852915562,0.0176825425959242,0.7043144932513971,-0.5154633565005222,-0.2148281024854038,-1.4816460318623907,0.2034036581947627,1.6315869862719838,0.7877708040857587,-0.5348878884155936,-0.2314849997481842,1.2661254203350396,0.6581150505417133,0.1524433980086781,1.0708497423413923,10.39956582988907,-1.3650891242219334,0.1935812725797347,-1.1984282723241175
1.04,-1.4754488830016634,0.1997372645780125,1.630440209900489,-0.018432144565507,0.1810246162100048,0.0174237079350873,0.7169362694402275,-0.5090210536422657,-0.1933817454246783,-1.4816460318623907,0.2034036581947627,1.6315869862719838,0.7877708040857587,-0.5348878884155936,-0.2314849997481842,1.2852613853362258,0.6310888094415212,0.3221151429128266,1.0723178530362754,11.89948048673432,-1.366620942104565,0.1970664870910489,-1.2018069733587269
1.06,-1.4617200347462318,0.190152342814321,1.6269387488507303,-0.0213757654757765,0.1800683439944402,0.0172071235067607,0.7274697666916673,-0.5002745636834653,-0.1764134540079533,-1.473768323821533,0.1980547793106068,1.629272136274502,0.8077708043837819,-0.5365817002420016,-0.2310811744148422,1.0901588927174632,0.5266748625719908,0.437324497940017,0.8484145708362464,11.89948048673432,-1.3686790245893283,0.2005987067997067,-1.2052869370121777
1.08,-1.4470688248739076,0.1802567085918939,1.6235690210290992,-0.0238283749342271,0.1786213698277196,0.0170580966428634,0.7369856479500186,-0.48988380402188,-0.161561724217855,-1.458012907739818,0.1873570215422949,1.6246424362795384,0.8477708049798284,-0.5399693238948173,-0.2302735237481583,1.0235889802869649,0.4757940629175672,0.5195379830792657,0.7425864895049136,11.667282729359613,-1.371350323994931,0.2036154545909437,-1.2075912100741286
1.1,-1.4322432077398266,0.1705768601414082,1.620468814713124,-0.0253735435977146,0.1771386920352626,0.0169964936671112,0.7450176336999381,-0.4787549642286915,-0.1493006498634239,-1.4422574916581028,0.176659263773983,1.6200127362845749,0.8877708055758748,-0.5433569475476332,-0.2294658730814744,0.9201872289842106,0.4015992874959739,0.5564419896594258,0.6130537177215595,11.48485265502859,-1.3738921833326,0.2056334765923929,-1.2094049358462715
1.12,-1.4172700371581772,0.1611273935337469,1.6175898091902163,-0.0257179930889932,0.1759572162881634,0.0170304924304788,0.7519231211635576,-0.4669528568692796,-0.1392021438611413,-1.4245020755465854,0.1657921248230304,1.615423418822945,0.9277708061719212,-0.5467445712004491,-0.2286582224147905,0.8499342896827788,0.345274373180976,0.5901053679705948,0.5049253001141285,11.326871349127032,-1.3754344397496436,0.2062497941087644,-1.2105319403031196
1.14,-1.402922898386368,0.1523726999270622,1.6150363446886276,-0.0246692685911128,0.1752571450061143,0.0171617635115044,0.757999786664051,-0.4553894044351666,-0.1300867214754364,-1.4067466594350675,0.1549249858720777,1.6108341013613157,0.9677708067679678,-0.5501321948532648,-0.2278505717481066,0.7964455742087604,0.3038332750246675,0.5781726217056499,0.455771119285242,11.204213829282708,-1.3765875639846763,0.2053417437844987,-1.2126040904132305
1.16,-1.3876936642886084,0.1433898009278056,1.612533685764285,-0.0220051489610892,0.1748899222833236,0.0174100258836641,0.7646259931796372,-0.4437872916128213,-0.1206629333336974,-1.387991243308649,0.1439731563298046,1.6062649751663531,1.007770807364014,-0.5535198185060807,-0.2270429210814226,0.8175014031639452,0.3313103257793104,0.580105641117265,0.4711894070869519,11.17991841947969,-1.3772359544989083,0.2026963470075135,-1.2160035932885165
1.18,-1.3723286415391438,0.134614723340214,1.610217921493329,-0.0183506367538817,0.1746661631384514,0.0177313102185953,0.7715483423822184,-0.4345701129724689,-0.1113909283014741,-1.3682358271673292,0.1329366361962112,1.601716040238058,1.0477708079600605,-0.5569074421588964,-0.2262352704147388,0.739671173374052,0.3461174601290584,0.4608589320176187,0.463600251611166,11.170854350276386,-1.377735009358119,0.1989370010907877,-1.2195874988635202
1.2,-1.3568227399980148,0.1260030566414646,1.608085316901677,-0.0146098878340675,0.1743874276171908,0.0180646065422617,0.778664699073841,-0.4271416609523015,-0.1023342391798891,-1.333751224420033,0.1128862176915905,1.6046483750782552,0.8601482775562067,-0.4358314471402623,-0.1456652120980229,0.6852883513955416,0.3558178345811291,0.3714226010083726,0.4528344560792506,11.161035722579982,-1.378112637999673,0.1952282225830703,-1.222572541628579
1.22,-1.3419262269149466,0.1179027752792094,1.6062142681670195,-0.0127734255609276,0.1728799019228138,0.0182825069364643,0.7888695150020741,-0.4250466404978605,-0.0950662660547346,-1.333751224420033,0.1128862176915905,1.6046483750782552,0.8601482775562067,-0.4358314471402623,-0.1456652120980229,0.6351196977373929,0.5102407964116595,0.1047510227220466,0.3633986562577219,11.149674645892446,-1.3775116157024732,0.193087415518168,-1.2241924258396837
1.24,-1.3260546344257718,0.1094424799800059,1.6043754925162417,-0.0129757950842787,0.1690884783432856,0.0183995647366966,0.7975158382086064,-0.420950706491816,-0.0892587707640198,-1.333751224420033,0.1128862176915905,1.6046483750782552,0.8601482775562067,-0.4358314471402623,-0.1456652120980229,0.5596038373826728,0.4323161603266123,0.204796700302226,0.2903747645357425,11.074235749912075,-1.3826999565075384,0.1934737711394309,-1.218557025805004
1.26,-1.3100385329638131,0.1010757504100464,1.602629009526713,-0.0145283146342911,0.163870786767569,0.0184586222462903,0.8033471234150358,-0.4158470748632112,-0.0857497955355773,-1.3251497416444709,0.1085279032201879,1.603191722957275,0.8778682645910044,-0.436083713973821,-0.1525200688573327,0.4253347214636982,0.2915642603214696,0.2551815814302416,0.1754487614221228,10.941946903702956,-1.3898919758288764,0.1953709192341087,-1.2101537752724962
1.28,-1.2939446822901126,0.092823071946929,1.6009270657305816,-0.0169297931163339,0.1583161472780176,0.0184899614674906,0.8056173278916939,-0.4095334595339277,-0.0845880055871454,-1.3079467760933468,0.0998112742773827,1.6002784187153145,0.9133082386605996,-0.4365882476409384,-0.1662297823759522,0.340460433737459,0.1135102238329077,0.3156807664641742,0.0580894974215942,10.786533998153573,-1.396881891987878,0.1980313896195727,-1.2013118659193684
1.3,-1.2786452598661344,0.0851186487389893,1.5993124389643651,-0.0192812229698707,0.1537393101966631,0.0185306209954007,0.8046341941936316,-0.4018211103694404,-0.0854125136410876,-1.2907438105422226,0.0910946453345774,1.597365114473354,0.948748212730195,-0.4370927813080557,-0.1799394958945718,0.390917814362075,-0.0491566849031177,0.3856174582243632,-0.0412254026971099,10.639963640486712,-1.4034831780063497,0.2009426359348975,-1.192846492098237
1.32,-1.262591847442865,0.0771768257268062,1.5975802570557684,-0.0212890311933651,0.1507815651480329,0.0185942223688112,0.8006089177906763,-0.3928631141064178,-0.0878261910746896,-1.2717688462876189,0.0823527897084163,1.5937663245554627,0.9841881867997904,-0.437597314975173,-0.1936492094131913,0.5056539971215398,-0.2012638201477623,0.4478998131511341,-0.1206838716800988,10.515079520910149,-1.4080207472079658,0.2033592773975269,-1.1871468725272492
1.34,-1.246638359495147,0.069420688376005,1.5957859326145234,-0.0226170655770442,0.1506794608749858,0.0186614296814639,0.7952930473280229,-0.3832645266567109,-0.0915597101653838,-1.252793882033015,0.0736109340822552,1.5901675346375712,1.0196281608693856,-0.4381018486422904,-0.2073589229318109,0.5795052299288589,-0.2657935231326735,0.4799293724853437,-0.1866759545347089,10.422439770717574,-1.4076948547362098,0.2049565522586253,-1.1870177158188138
1.36,-1.2307750350619509,0.0618635690396894,1.5939071290390667,-0.0230095040989645,0.1529997083813662,0.0187506076176108,0.7916230657841911,-0.3730595539722157,-0.0961488188700491,-1.2329329184266709,0.0648564651144161,1.5862260018817145,1.055068134938981,-0.4386063823094078,-0.2210686364504304,0.588791454435682,-0.1834990771915901,0.5102486342247609,-0.2294554352332646,10.342103452709123,-1.404111866674574,0.2056781869229477,-1.1909400388241154
1.38,-1.215752831666193,0.05487670525308,1.592034446483097,-0.0223222677053261,0.1565670132316413,0.018887760968815,0.790055892852552,-0.3630469030189199,-0.1007620240472759,-1.2121859554685872,0.0560893828048991,1.581941726287892,1.0905081090085762,-0.4391109159765252,-0.2347783499690499,0.5567559432044475,-0.0783586465819552,0.5006325476647894,-0.2306602588613406,10.30008988983991,-1.3989750004803296,0.2052032736909785,-1.1972549156211767
1.4,-1.1999511269645105,0.0477259211252906,1.5899677535529642,-0.0203700580467603,0.1609950938718222,0.0191159187727915,0.7903845820392074,-0.3526797808668431,-0.1056773415278979,-1.1762500370235651,0.036724360102134,1.5869963452807334,0.8694346616542411,-0.3335259536701125,-0.1198442256920541,0.5739024399512787,0.0164344593327703,0.5183561076038373,-0.245765874031098,10.292035473008582,-1.3932421999513342,0.2033789238646147,-1.2048382425031272
1.42,-1.1840332249896766,0.0406754460774273,1.5879714386905188,-0.0205904694320946,0.1636057182461523,0.0192425571721697,0.8015150823711713,-0.3521301048625151,-0.0928273376998991,-1.1762500370235651,0.036724360102134,1.5869963452807334,0.8694346616542411,-0.3335259536701125,-0.1198442256920541,0.8504598458027972,0.5565250165981972,0.027483800216399,0.6425001913999396,10.29781791955702,-1.3902109034894763,0.2043014215579834,-1.215236506550308
1.44,-1.1678907578627964,0.0336696793384707,1.586248257653261,-0.0250264081988913,0.1624196718642207,0.0191690248997935,0.8118804060190474,-0.3474762968163136,-0.0803422346249671,-1.1762500370235651,0.036724360102134,1.5869963452807334,0.8694346616542411,-0.3335259536701125,-0.1198442256920541,0.8440611092328935,0.5182661823938062,0.2326904023100789,0.6242551537465959,11.51631291567992,-1.3907415146276187,0.2091958407706169,-1.2135324759361734
1.46,-1.152386428989536,0.0271569096656361,1.5848073784697565,-0.0304025865175181,0.158512206692825,0.0191201292505784,0.8193193639196101,-0.3381563298937867,-0.071910583959098,-1.167555690407023,0.0333891005654329,1.585797903023813,0.8853104154145789,-0.3276217638003511,-0.1236606660210098,0.7302270383835933,0.3719478950281352,0.4659983461263423,0.4215825332934547,11.342984847678052,-1.3955850431945562,0.2158125623998687,-1.207101958379105
1.48,-1.1359551938946346,0.0205226623896166,1.5834343070543806,-0.0356901844770706,0.1526548740425743,0.0191970300706229,0.8230524833163531,-0.325786198664814,-0.0659460354750858,-1.150166997173938,0.0267185814920306,1.5834010185099718,0.9170619229352546,-0.3158133840608281,-0.1312935466789211,0.7115689806169144,0.1866559698371461,0.6185065614486368,0.2982274242006137,11.117399045547243,-1.4033007815338236,0.2220599794392939,-1.1976481508984735
1.5,-1.119492217474375,0.0141527272101445,1.582149782085969,-0.0400328282361537,0.1464509109337179,0.0194036820074938,0.8228445682348392,-0.3119661174078705,-0.0629067372214077,-1.1327783039408532,0.0200480624186284,1.5810041339961307,0.9488134304559304,-0.3040050043213052,-0.1389264273368324,0.7075931184382218,-0.0103957540756927,0.6910040628471725,0.1519649126839016,10.919686671382806,-1.4112386919386963,0.2272710650939068,-1.187925191042327
1.52,-1.103072340554662,0.0080683087757784,1.5808973344944603,-0.0432545204204972,0.1410992437481664,0.019696109435673,0.8190631126679846,-0.2974322633017733,-0.0624555351611498,-1.1138020353317346,0.0139679623322023,1.578225605449394,0.980564937976606,-0.2921966245817823,-0.1465593079947437,0.7512255065567807,-0.1890727783427304,0.7266927053048627,0.0225601030128946,10.7366742316417,-1.418052572257139,0.2310788697225313,-1.1795789961454692
1.54,-1.0875713569411043,0.0025592785772681,1.5797060656524171,-0.0454024205569493,0.1377965818815175,0.0199874697359275,0.8126663409241559,-0.2833434844556363,-0.0629972705544281,-1.094825766722616,0.0078878622457762,1.5754470769026574,1.0123164454972815,-0.2803882448422593,-0.154192188652655,0.7741218498310415,-0.3198385871914344,0.7044389423068509,-0.027086769663915,10.591825767972296,-1.4231999454205455,0.2340679346179049,-1.1735288147315064
1.56,-1.071403344134608,-0.0029463837165678,1.5784337553016523,-0.0467023625597185,0.137094160472165,0.0202525819581942,0.804772525282376,-0.2680732165308667,-0.0642417568612317,-1.0750557104254803,0.0021029716528381,1.572477726339473,1.0440679530179573,-0.2685798651027364,-0.1618250693105663,0.8617455454606026,-0.3946907820889966,0.7635133962384771,-0.0622243153401771,10.536311915466284,-1.4235439067981766,0.2360342014616483,-1.1735110393238375
1.58,-1.0553801180284152,-0.0081382754714471,1.5771319309331833,-0.0467692082138406,0.1388448418141212,0.0205002313379511,0.7982602462501416,-0.2520803206854825,-0.0658871028231347,-1.054491866440328,-0.0033867094466117,1.5693175537598407,1.075819460538633,-0.2567714853632135,-0.1694579499684776,0.8673085654041178,-0.3256139516117196,0.7996447922692135,-0.0822672980951483,10.476193813823556,-1.420931524908369,0.2367124471272655,-1.177530000375632
1.6,-1.040260436155751,-0.012770691324658,1.5758645724774605,-0.0454240793376441,0.1419775038928368,0.0207743309445487,0.7938293886990249,-0.236545097408594,-0.0674457170358192,-1.015467105715908,-0.0207422915057212,1.5738375757920264,0.8515726186663994,-0.2125753865831856,-0.0726164853790665,0.811487737376613,-0.2215428775558359,0.7767611638444207,-0.0779307106342268,10.476193813823556,-1.4165380862798151,0.2359358885060856,-1.1851721846900092
1.62,-1.0243142330583408,-0.017338036139884,1.5746209020052016,-0.0428333855403561,0.1434531365886546,0.0212358800149612,0.8012067316335185,-0.221117258098641,-0.056181551906529,-1.015467105715908,-0.0207422915057212,1.5738375757920264,0.8515726186663994,-0.2125753865831856,-0.0726164853790665,1.0238711230017796,0.3688671467246829,0.7713919654976489,0.5632082564645077,10.482871033056654,-1.4121412606572437,0.2341184990402852,-1.196123043114364
1.64,-1.008216311592549,-0.0216150142665933,1.57361850979475,-0.0398307542486445,0.1401444934969299,0.0219303403668701,0.8076762294654627,-0.2074965994414736,-0.0447214917303363,-1.015467105715908,-0.0207422915057212,1.5738375757920264,0.8515726186663994,-0.2125753865831856,-0.0726164853790665,0.9469816836858026,0.3234748915972085,0.681032932858372,0.5730030088096361,11.37456174088129,-1.4175153943685057,0.231693740086218,-1.1941679566819488
1.66,-0.9920363406708782,-0.0256344532283349,1.5728229226243242,-0.0369555687953285,0.1336121922137208,0.0227297640991297,0.809498546668329,-0.1951813908418751,-0.0354821259297169,-1.0069513795292442,-0.0228680453715531,1.5731114109382358,0.862235093149651,-0.2046743997627262,-0.0739623618902528,0.7751630203336952,0.0911158601433148,0.6157604299799252,0.4619682900309698,11.270530362166028,-1.4260404182296602,0.2294737957465807,-1.187217080595774
1.68,-0.9766796465649066,-0.0292349322020921,1.572212631481393,-0.0345121351818494,0.126208958478691,0.0234939986395073,0.8066645965956172,-0.1844161491383354,-0.0291862625404397,-0.989919927155916,-0.0271195531032168,1.5716590812306543,0.8835600421161541,-0.1888724261218075,-0.0766541149126256,0.6394521048653592,-0.1416975036355905,0.5382620851769867,0.31479316946386,11.104068779356568,-1.436142196096297,0.2274245783274714,-1.1775073914052616
1.7,-0.9606156026581693,-0.0328119111460646,1.571678211505083,-0.0323089435469387,0.1186113998375335,0.0242462487641682,0.7996796973880337,-0.1738355789487177,-0.0246761271415386,-0.9728884747825882,-0.0313710608348805,1.570206751523073,0.9048849910826572,-0.1730704524808888,-0.0793458679349983,0.672827250848884,-0.3492449603791747,0.5290285094808819,0.2255067699450555,10.795924680217468,-1.445483023323363,0.2257437003895536,-1.1677030301073186
1.72,-0.9447291475056744,-0.0361832020094927,1.571212154617043,-0.0304878688614202,0.1123391959157519,0.0249134648248801,0.7891459457019535,-0.1638036312311592,-0.0222359270788802,-0.9547907749609352,-0.0348324698844983,1.5686198341643731,0.9262099400491604,-0.15726847883997,-0.082037620957371,0.7374863997688738,-0.5266875843040086,0.5015973858779249,0.1220100031329194,10.795924680217468,-1.4533315040474557,0.224474094826423,-1.1595457742698183
1.74,-0.929086955147924,-0.0393594221755184,1.570782353359783,-0.0290494223415136,0.1085086395508082,0.0254701455240806,0.7754616696177431,-0.154328018366061,-0.0209039966654667,-0.936693075139282,-0.0382938789341161,1.5670329168056731,0.9475348890156636,-0.1414665051990513,-0.0847293739797437,0.8348962356848351,-0.6842138042105206,0.4737806432549091,0.0665965206706753,10.626041003517456,-1.4588387872626838,0.2237059584990161,-1.1551813531939004
1.76,-0.9144974687944184,-0.0422035855291913,1.5703922317954997,-0.0280424892325613,0.1079929517081362,0.025879983005274,0.7613920416627765,-0.145528811881884,-0.0202326597858125,-0.9180622515934662,-0.0413602386427109,1.565378705621414,0.9688598379821668,-0.1256645315581326,-0.0874211270021164,0.8304082711960786,-0.703481397748329,0.4399603242088518,0.033566843982709,10.626041003517456,-1.4591002834311726,0.2231964214290866,-1.1561389685321992
1.78,-0.899410752788222,-0.0450181564173963,1.5699937792895284,-0.027324626580961,0.1101941692055778,0.0262111778549524,0.7483330693957256,-0.136395827689255,-0.0196603723305696,-0.8988983043234879,-0.0440315490102827,1.5636572006115954,0.9901847869486698,-0.1098625579172138,-0.0901128800244892,0.797301181903432,-0.6529486133525442,0.4566492096314503,0.0286143727621472,10.575515079371144,-1.4558985184181876,0.2230419275658509,-1.161416135907943
1.8,-0.8845624417109137,-0.0476496575364631,1.5696078090902652,-0.0269216883063899,0.1142787769972614,0.0264708909297033,0.7374346624479128,-0.1272156289168102,-0.018970055067853,-0.8619940993184357,-0.051837947801859,1.569010760673,0.7851842519757198,-0.0976002335632689,-0.0406221747833722,0.7133159563351593,-0.5449203473906428,0.4590099386222401,0.0345158631358302,10.575515079371144,-1.4505527866957786,0.2232207151894946,-1.1694765972591818
1.82,-0.8698527864872205,-0.0500753602492782,1.5692688832608177,-0.0261652789835691,0.1177815472738282,0.0267725426744113,0.7337983967370361,-0.1160877187441018,-0.0149641712977671,-0.8619940993184357,-0.051837947801859,1.569010760673,0.7851842519757198,-0.0976002335632689,-0.0406221747833722,0.6186677579917246,-0.1818132855438359,0.5563955086354204,0.2002941885042961,10.7947934912454,-1.443869428268429,0.2229925817166614,-1.1784815686832577
1.84,-0.8559502628139515,-0.0521857467611647,1.5690148301238782,-0.0249904297305352,0.1193189688421031,0.0271389900948449,0.7296834123025898,-0.1066436480965701,-0.0119911955245556,-0.8619940993184357,-0.051837947801859,1.569010760673,0.7851842519757198,-0.0976002335632689,-0.0406221747833722,0.5361020244305317,-0.2057492217223122,0.4722035323765819,0.1486487886605721,10.7947934912454,-1.4426270724492187,0.2223579593656501,-1.1826539389185735
1.86,-0.841411049145286,-0.0542209693474347,1.5687955563526064,-0.0236564148538949,0.1198136187156211,0.027558859130027,0.7243683206445155,-0.0974045135064818,-0.0101522425804857,-0.8541422567986785,-0.0528139501374917,1.5686045389251662,0.7925544884917187,-0.0898411147380717,-0.0448145352739328,0.5408177956530315,-0.2657545829037155,0.4619567295044181,0.0919476472034934,10.733879010978852,-1.4424260842761252,0.221563625334974,-1.1848674411753104
1.88,-0.8269886076941633,-0.0560779055687676,1.568599197904042,-0.0224169046737269,0.1197401005405091,0.0279832831918948,0.718091359011564,-0.0887670823596247,-0.0096290781109794,-0.8384385717591641,-0.0547659548087571,1.5677920954294988,0.8072949615237164,-0.0743228770876772,-0.0531992562550538,0.5345071683812966,-0.3138480816475775,0.4318715573428548,0.026158223475316,10.656692270096755,-1.4428106570595995,0.2208445135100645,-1.1859921968754936
1.9,-0.8127011169219126,-0.0577683611243208,1.5683998459473163,-0.0214495078489467,0.1195718908186163,0.0283879940084102,0.7109883292500444,-0.0806861975705805,-0.0103290368164986,-0.8227348867196498,-0.0567179594800225,1.5669796519338313,0.822035434555714,-0.0588046394372828,-0.0615839772361749,0.5390817956402125,-0.3551514880759776,0.4040442394522093,-0.0349979352759601,10.5165391149485,-1.4432404870591768,0.2204116192352661,-1.186681855583883
1.92,-0.7992653354743422,-0.0592287214513536,1.5681884029831397,-0.0209173909932964,0.1196249676971349,0.0287385703816785,0.703709243057941,-0.0734024395892473,-0.0118945823910681,-0.8062941780285355,-0.0578940522687681,1.5657479723891077,0.8367759075877117,-0.0432864017868884,-0.069968698217296,0.5207906466824257,-0.3639543096051689,0.3641878990666612,-0.0782772787284749,10.5165391149485,-1.443383496843288,0.2203752748541622,-1.1875536220717469
1.94,-0.7852743599078756,-0.0606191747490719,1.5679274700231385,-0.0208860954662337,0.120091984150482,0.0290603325535025,0.6958230355184849,-0.0659898978840944,-0.0141462553423245,-0.7898534693374212,-0.0590701450575138,1.564516292844384,0.8515163806197095,-0.0277681641364939,-0.078353419198417,0.5527388057786088,-0.3943103769728062,0.3706270852576437,-0.1125836475628202,10.463441863785192,-1.44299971112124,0.2209142675280187,-1.18889534924792
1.96,-0.771439331539491,-0.0618576130573443,1.5676162135551956,-0.0213441749620217,0.1210041219939908,0.0293373621083916,0.6881394976186541,-0.0582067212895532,-0.0168899422493874,-0.7730442488205069,-0.0598582819049996,1.5630749952751326,0.8662568536517071,-0.0122499264860995,-0.0867381401795381,0.563787216962078,-0.3841768949915392,0.3891588297270591,-0.1371843453531447,10.42945172328382,-1.4419314069627145,0.2219890327878626,-1.191207068161618
1.98,-0.7577546897606584,-0.0629350768662518,1.5672455276758792,-0.0220715462153064,0.1222680210402882,0.0295868202548366,0.6807881274308257,-0.0499412754414235,-0.0200465024871434,-0.7558665164777928,-0.0602584628112255,1.5614240796813532,0.8809973266837048,0.0032683111642949,-0.0951228611606592,0.5751610888295532,-0.3675685093914194,0.4132722924064868,-0.1578280118877964,10.385568783792223,-1.4405230868473184,0.2232837584893061,-1.193855545559541
2.0,-0.7448865022928616,-0.0638001188659298,1.5668317751999816,-0.0228069560345276,0.1236940910067465,0.0298143686139835,0.6741886693216619,-0.0415621955840657,-0.0233541552350979,-0.7237152833891172,-0.0654321406383229,1.566243202551522,0.6901569875936203,-0.0184296706555043,-0.0299863947046603,0.5583511289762875,-0.3299729054581923,0.4189539928678876,-0.1653826373977257,10.370938600884074,-1.4387483892643975,0.2247136337154117,-1.1971088053021215
2.02,-0.7313784554062267,-0.0644806977151606,1.5664304609946813,-0.0218786869623692,0.1227626114573502,0.0302251520914431,0.6771780027607007,-0.0273327245187145,-0.0160354251894387,-0.7237152833891172,-0.0654321406383229,1.566243202551522,0.6901569875936203,-0.0184296706555043,-0.0299863947046603,0.8139068906985897,0.1494666719519422,0.711473553267563,0.3659365022829572,10.370938600884074,-1.4356001203522857,0.2242550317701481,-1.203044716634899
2.04,-0.7178186659649782,-0.0648982442918895,1.5661845080799128,-0.0183833239015521,0.1167866871153834,0.0309062079150006,0.6778345684728735,-0.0157631879457588,-0.009011173728059,-0.7237152833891172,-0.0654321406383229,1.566243202551522,0.6901569875936203,-0.0184296706555043,-0.0299863947046603,0.6775421825245521,0.0328282856086381,0.5784768286477816,0.3512125730689837,10.98210482223294,-1.446032910520826,0.2213311870713472,-1.1968604198295805
2.06,-0.7043071551588701,-0.0651275080166571,1.5660535570535927,-0.0141173245411811,0.1079536372050446,0.0316498377995831,0.6728112659525441,-0.0079004033211055,-0.0043881378634601,-0.716813713513181,-0.065616437344878,1.5659433386044754,0.6920307596261792,-0.0121273496983204,-0.0319743731481636,0.5206472195013637,-0.2511651260164671,0.3931392312326662,0.2311517932299499,10.98210482223294,-1.4578887597083126,0.2176261741016887,-1.186339581901554
2.08,-0.6916162399750215,-0.0652230277879534,1.565992351105469,-0.0103575389113332,0.0988201029893908,0.032296574806345,0.6630976748576067,-0.0024864597693536,-0.0022637269219399,-0.7030105737613086,-0.0659850307579881,1.5653436107103822,0.6957783036912971,0.0004772922160471,-0.0359503300351704,0.5660780833720146,-0.4856795547468706,0.2706971775875934,0.1062205470760056,10.665701950500988,-1.4706581101834366,0.2139857608382939,-1.1733324291450784
2.1,-0.6785011007789233,-0.0652260039954467,1.5659513550174828,-0.0070660318093803,0.0898905327780665,0.0328764548181438,0.6487283948156434,0.0019792592188283,-0.0020320028409456,-0.6892074340094362,-0.0663536241710982,1.564743882816289,0.6995258477564149,0.0130819341304148,-0.0399262869221772,0.752450249278132,-0.7184640020981681,0.2232859494091037,0.0115862040497159,10.665701950500988,-1.482026010645523,0.2110468719670495,-1.161109358435713
2.12,-0.6657114473674159,-0.0651483606626265,1.5658953074841857,-0.0045422010999599,0.0827351514849317,0.0333536600796961,0.6308204282191592,0.0056683663828474,-0.0036553435331073,-0.6752169170543079,-0.0660919854884899,1.5639453570778454,0.7032733918215327,0.0256865760447825,-0.0439022438091839,0.9177962931544756,-0.8953983298242096,0.1844553582009531,-0.0811670346080834,10.541627239516856,-1.4913360356343113,0.20892603279024,-1.1511489785821245
2.14,-0.653315121354525,-0.065003311145639,1.565795220428385,-0.0027831333794049,0.0784493555076143,0.0337410171870074,0.6097013954824652,0.0088098811330453,-0.0062644104377795,-0.6612264000991795,-0.0658303468058816,1.563146831339402,0.7070209358866506,0.0382912179591502,-0.0478782006961907,1.075511376941593,-1.055951636834701,0.1570757375098939,-0.1304533452336105,10.40802315088331,-1.4977213843701225,0.2077030727530463,-1.1453329888149593
2.16,-0.6419462863238002,-0.0648091354995586,1.565648002200278,-0.0017445517799197,0.0778447582693562,0.0340430991091049,0.588546046244005,0.0115493004911396,-0.0090944775024528,-0.6471421945424234,-0.0652535920754141,1.5622489066787832,0.7107684799517684,0.0508958598735178,-0.0518541575831974,1.0759443519662957,-1.0577674619230093,0.1369709679047153,-0.141503353233667,10.40802315088331,-1.4984293807925986,0.2069515953633512,-1.1452425130629569
2.18,-0.6303941245948392,-0.0645503497855343,1.5654352004739502,-0.0013465541279877,0.080323473194101,0.0343000528478476,0.5681374248662414,0.014234644592446,-0.0120331639461051,-0.6329643003840392,-0.0643617212970874,1.5612515830959892,0.7145160240168863,0.0635005017878855,-0.0558301144702042,1.0396619372390177,-1.020431068888178,0.1342672050653226,-0.1469343221826131,10.38308028008032,-1.4952484403911737,0.2069176640395054,-1.1501908158110932
2.2,-0.6192258178587359,-0.0642377907907417,1.5651663288810151,-0.001720400318403,0.0850194844411094,0.0344935792380944,0.5500422274909156,0.0169488951742117,-0.0146992689735133,-0.6019872533515271,-0.063838617555912,1.564833542276645,0.5789017154449048,0.0260006331360757,-0.0209442529864441,0.9245423736770876,-0.9047598687662916,0.135712529088284,-0.1333052513704092,10.377583085166409,-1.4896057939367782,0.2076936222974072,-1.1585213863678996
2.22,-0.6083779094786897,-0.0637770780129169,1.5649062948705472,3.722868330403967e-05,0.0906484441869369,0.0348286349751573,0.5358662630047943,0.0277890176066309,-0.0111859373735356,-0.6019872533515271,-0.063838617555912,1.564833542276645,0.5789017154449048,0.0260006331360757,-0.0209442529864441,0.9094087672672428,-0.708798224306062,0.5420061216209611,0.1756665799988819,10.390077835570082,-1.4827218426816469,0.2064224391966508,-1.170681832844514
2.24,-0.5983155018222259,-0.0631886203832185,1.5647237253501298,0.0042704014598713,0.0960067276829685,0.0353326165026601,0.5241947867735377,0.0331153440623552,-0.0082418870551377,-0.6019872533515271,-0.063838617555912,1.564833542276645,0.5789017154449048,0.0260006331360757,-0.0209442529864441,0.6581423539155404,-0.583573811562832,0.2663163227862121,0.147202515919895,10.765788042133863,-1.4771215471923589,0.2022425285288945,-1.1831774255957888
2.26,-0.5879455482097876,-0.062501072817423,1.5645838008701605,0.0090786152111252,0.1013850416386072,0.035899124653268,0.5135523148769914,0.0352860531431689,-0.0059559307299006,-0.5961982361970781,-0.0635786112245512,1.5646240997467806,0.5810545735606374,0.0283538308448016,-0.0227264707945119,0.5549769866922343,-0.5321235948273162,0.1085354540406844,0.1142978162618566,10.722855555589376,-1.470981826307107,0.1974595777449941,-1.1943560622150906
2.28,-0.5777730716046551,-0.061791387813945,1.564481462858901,0.0133413017141919,0.1062788460935988,0.036432933508318,0.5043249467145442,0.0356375196112675,-0.0044331842510468,-0.58462020188818,-0.0630585985618297,1.5642052146870518,0.5853602897921028,0.0330602262622535,-0.0262909064106475,0.4679385876437292,-0.461368408122359,0.0175733234049308,0.0761373239426904,10.682871010337294,-1.4654546932436232,0.1933617554210568,-1.203617653484942
2.3000000000000003,-0.5677723898669076,-0.061086930435231,1.5644021089968825,0.0167392478603995,0.1105464648917757,0.0369018896233892,0.4962490712247641,0.034980221582964,-0.0035890167344805,-0.573042167579282,-0.0625385858991082,1.563786329627323,0.5896660060235681,0.0377666216797053,-0.0298553420267831,0.4073218150936298,-0.403793774489003,-0.0328649014151756,0.0422083758283133,10.649984927099467,-1.460272138535042,0.1898896114475227,-1.211813853573208
2.32,-0.55841285078747,-0.0604350871565989,1.56433711987183,0.0191684747505804,0.1139761517701793,0.0372796352615895,0.4893876330233169,0.0338466229692889,-0.0033008425701824,-0.5612488474588105,-0.0617832534655141,1.5631892227867872,0.5939717222550335,0.0424730170971572,-0.0334197776429187,0.3480209201979595,-0.3430719100723595,-0.0566799306837523,0.0144087082149092,10.600167264186894,-1.455878589261632,0.1873108977786214,-1.2184300217170358
2.34,-0.5486950038046546,-0.0597743807076054,1.564272009253553,0.020973984727438,0.1169467605399111,0.0376068191120869,0.4827866431036542,0.0323817309380343,-0.0032379270591139,-0.5494555273383392,-0.0610279210319199,1.5625921159462517,0.5982774384864988,0.0471794125146091,-0.0369842132590543,0.3380936813379371,-0.3300494959831368,-0.073244601562732,0.0031457755534241,10.600167264186894,-1.4523524085208173,0.1855593726606273,-1.2236309850890632
2.36,-0.53910331478402,-0.0591461122770535,1.5642058349896542,0.0220317134283403,0.1192952311175225,0.037860260614488,0.4767248512013812,0.0305650788640505,-0.003393923458861,-0.5375545643120813,-0.0601549287128895,1.5619058982153124,0.6025831547179641,0.0518858079320609,-0.0405486488751899,0.3165038732034191,-0.3030895951136508,-0.0908326036991898,-0.007799819987356,10.593647282385064,-1.449605486995076,0.184611205680604,-1.2275686778112298
2.38,-0.5296289465602132,-0.0585584846687177,1.5641337999725675,0.0222080968363088,0.1210629519178499,0.0380294774876944,0.4709987594095265,0.0283926439751511,-0.0038029104160978,-0.5255459583800366,-0.0591642765084228,1.56113056959397,0.6068888709494294,0.0565922033495128,-0.0441130844913255,0.306899294909759,-0.2863045895927341,-0.1086217444449715,-0.0204493478618421,10.586750310845671,-1.447662126114412,0.184599153915086,-1.2301528384446667
2.4,-0.5207328442836566,-0.058041021024032,1.5640554040513923,0.0214715235935245,0.1222866444610804,0.0381076737928043,0.4657030689068472,0.0262847169411681,-0.0044277516054794,-0.5060790085897369,-0.0571388524699601,1.5639436544517629,0.479960355935732,0.047228479133976,-0.0109376548479213,0.2866972305094337,-0.2647845251339653,-0.1053963516991468,-0.0312420594690806,10.576885688253242,-1.4461901004545503,0.1856263213062667,-1.231849897458726
2.42,-0.5114489099276939,-0.0575522526541423,1.564005169104858,0.0192135140050996,0.1225120803810332,0.0380561336489801,0.4629480186748181,0.0229679144910866,-0.000309662899718,-0.5060790085897369,-0.0571388524699601,1.5639436544517629,0.479960355935732,0.047228479133976,-0.0109376548479213,0.2981196691866817,-0.1377525116014549,-0.1658401225040757,0.2059044352880741,10.565109598715935,-1.4455773714304276,0.1882884368431508,-1.2318068941573936
2.44,-0.5022258918136124,-0.0571057685059948,1.564038756551076,0.0156079151003592,0.1211714797821972,0.0378792098404472,0.4593393579354137,0.0221936988749638,0.003397519354446,-0.5060790085897369,-0.0571388524699601,1.5639436544517629,0.479960355935732,0.047228479133976,-0.0109376548479213,0.2615580357107949,-0.1804330369702178,-0.03871078080614,0.1853591127082033,10.8788841381338,-1.4473619581555968,0.1924991779513054,-1.2298254658382222
2.46,-0.4930904471337875,-0.0566488768320772,1.5641333214637003,0.0118549232872113,0.11876424407851,0.0376814298786269,0.4542637989050254,0.0235844793401683,0.0058876269977264,-0.5012794050303796,-0.0566665676786203,1.5638342779032837,0.4817526752409731,0.050995646165741,-0.012364603734286,0.2911022408384823,-0.2537779515194155,0.0695390232602255,0.1245053821640203,10.810349972526636,-1.4505711861684416,0.1966827465388773,-1.2266924343878576
2.48,-0.4845223624633746,-0.0561759962809488,1.5642592992877664,0.0086312433413301,0.1159976054559651,0.0375202958566838,0.4477983443197623,0.0260737972359511,0.0072568993907235,-0.4916801979116649,-0.0557219980959408,1.5636155248063253,0.4853373138514554,0.0585299802292709,-0.0152185015070154,0.353106617987358,-0.3232727292631548,0.1244658947891379,0.0684636196498565,10.737309567060947,-1.4547840028238477,0.2007070968373066,-1.2227676006007224
2.5,-0.4756546274201655,-0.0556199420813484,1.5644114981064794,0.0057311823003006,0.1131977567458209,0.0373945150584986,0.4391819884594883,0.0293671730293975,0.0078557176796924,-0.4820809907929502,-0.0547774285132613,1.5633967717093669,0.4889219524619376,0.0660643142928009,-0.0180723992797448,0.4621863687165088,-0.4308177930137019,0.1646687896723201,0.0299409144484418,10.673746626927825,-1.459034968945178,0.2041777014322264,-1.2191333779513231
2.52,-0.466980205714666,-0.0549919034675062,1.564566588638859,0.0033686182078288,0.1112528479485523,0.0373165392624373,0.4286465855229519,0.0331807630352743,0.007627515459688,-0.4723025517437115,-0.0534561422274053,1.563035323723772,0.4925065910724198,0.0735986483563309,-0.0209262970524742,0.560335301451992,-0.5267701468268188,0.1906795002938416,-0.0114101110002206,10.580554622632915,-1.4622604748762973,0.2069318218514787,-1.2170100379832156
2.54,-0.4585278378743933,-0.054284027270778,1.564712721377297,0.0014946434379394,0.1107450975311835,0.0372786060430733,0.4173337150140435,0.0373391786634241,0.006991534375189,-0.4625241126944727,-0.0521348559415493,1.562673875738177,0.496091229682902,0.0811329824198609,-0.0237801948252036,0.6034855665788771,-0.5656435254454223,0.2079207814074893,-0.0317990542249487,10.580554622632915,-1.463099769841944,0.2092359173348108,-1.2172659851510172
2.56,-0.4507032744095294,-0.0535293296552881,1.564837277766228,0.0001901213289397,0.1114787005195156,0.0372753832178721,0.4070248096486374,0.0418289466189674,0.0061440772605229,-0.4526560576799719,-0.050625211304105,1.562241080308264,0.4996758682933842,0.0886673164833908,-0.026634092597933,0.5638034446700361,-0.5154452682703037,0.2244883977771627,-0.042372855733305,10.556848255885598,-1.4619991083893586,0.2109557404187015,-1.21974924934509
2.58,-0.442670000536922,-0.0526382691143807,1.5649492426247855,-0.0005587886878069,0.1132007978004794,0.0373113824355181,0.3969823903406465,0.0470120531530727,0.005082183916557,-0.4426983867002091,-0.0489272083150725,1.5617369374340326,0.5032605069038665,0.0962016505469208,-0.0294879903706624,0.5675438229232898,-0.502120965399544,0.2591553267052692,-0.0530946671982936,10.54310581613936,-1.459656072762509,0.2119658392869502,-1.22390023553835
2.6,-0.4348279831220327,-0.0516386656650221,1.5650385699745817,-0.0004876849057209,0.1155742836366675,0.0373992970537564,0.3878627410874896,0.0525961281448281,0.0038916305549235,-0.4228208810198897,-0.050287666456727,1.5652033518206134,0.4121846090073192,0.0560306633846511,-0.0082286573681352,0.5379760991927284,-0.4559824626578446,0.2792037495877683,-0.059527668081678,10.535572524561758,-1.4565532466524986,0.2120651887031384,-1.2292107893058848
2.62,-0.42715871469073,-0.0504682950613356,1.5651296779814192,0.002392106422153,0.1183656526285576,0.0376791805391896,0.3800676144234488,0.0627099581855877,0.0051928173041536,-0.4228208810198897,-0.050287666456727,1.5652033518206134,0.4121846090073192,0.0560306633846511,-0.0082286573681352,0.6417683475331708,-0.3897563332020404,0.505691502037978,0.0650593374615095,10.532570944086729,-1.4534104501843177,0.209308786431899,-1.2362581079515542
2.64,-0.4200142797033475,-0.04921683281318,1.5652363469196633,0.0074699422180802,0.1212523362387872,0.0381095501747763,0.3728819222373056,0.0677078108563748,0.0058728037050868,-0.4228208810198897,-0.050287666456727,1.5652033518206134,0.4121846090073192,0.0560306633846511,-0.0082286573681352,0.4389620855448309,-0.3592846093071589,0.2498926335393551,0.0339993200466596,10.696560139303983,-1.4501297349517348,0.2035446672508487,-1.2442909259659762
