t,x,y,z,roll,pitch,yaw,v_x,v_y,v_z,ref_x,ref_y,ref_z,ref_v_x,ref_v_y,ref_v_z,a_com,a_x,a_y,a_z,thrust,wind_x,wind_y,wind_z
0.0,-0.0236312646546921,-0.110580248919858,2.6800829091387546,0.0229470294472187,0.1364468468126507,0.026536413488617,0.0007553779029736,-0.0023389286852626,-0.0037158284795794,-0.0236127733844168,-0.1105459397896837,2.6799677515262395,0.0074354962373698,0.1002500376515174,-0.1037160682912079,0.2227586387814088,0.0377688951486814,-0.1169464342631301,-0.1857914239789702,10.545149007173675,-1.28462454871399,0.1524210329560705,-1.1611824680535474
0.02,-0.0236990592858825,-0.1109006405345988,2.679781545164885,0.0137437137254393,0.1382380459482566,0.0259202773902685,-0.0075197085423027,-0.0250173097352215,-0.0274039671924291,-0.0235934957595435,-0.1106971953541211,2.679897117714776,0.0136891359904298,0.0976610728048535,-0.1037158299696955,1.691089839721077,-0.41375432226382,-1.1339190524979474,-1.1844069356424851,10.545149007173675,-1.2966428915170254,0.1630583428973706,-1.150042112429622
0.04,-0.0239327880782612,-0.1114319986145028,2.678984360526444,-0.002785490727339,0.1433333029168622,0.0248067992769925,-0.0149474192367025,-0.0261403919724262,-0.0508890868801852,-0.0235934957595435,-0.1106971953541211,2.679897117714776,0.0136891359904298,0.0976610728048535,-0.1037158299696955,1.2328656117146928,-0.3713855347199901,-0.0561541118602369,-1.174255984387807,9.122975718860744,-1.2863712191009438,0.1786464220659829,-1.1388050232597076
0.06,-0.0242782449082728,-0.1118970447363631,2.677716586072317,-0.0198105391228338,0.1505810942732007,0.0235719282447253,-0.0188552002521279,-0.0199010853030305,-0.0747358360919025,-0.0235934957595435,-0.1106971953541211,2.679897117714776,0.0136891359904298,0.0976610728048535,-0.1037158299696955,1.2478653254115828,-0.1953890507712676,0.3119653334697856,-1.1923374605858628,9.219993393409368,-1.2755794192894292,0.1954705813896715,-1.1305892164908644
0.08,-0.0246501358244911,-0.1121845796701539,2.67606881439854,-0.0354175740595733,0.1583139270447521,0.0223231192943441,-0.0198497880170662,-0.0103619558504046,-0.0975357884275283,-0.0234566043996392,-0.1097205846260726,2.6788599594150786,0.016275887607921,0.1176610731028767,-0.1237158302677187,1.2367518162943307,-0.0497293882469176,0.4769564726312955,-1.1399976167812922,9.172060371121006,-1.266237381684092,0.2115146578008047,-1.123442449617013
0.1,-0.0250379597879608,-0.1122589883853998,2.673863538635911,-0.0510989474035486,0.1666835962923322,0.0209451242993759,-0.0186462318822834,0.0027651011688351,-0.1218233718373375,-0.0231828216798306,-0.1077673631699755,2.676785642815685,0.0214493908429035,0.1576610736989231,-0.1637158308637652,1.3817153118898853,0.0601778067391416,0.6563528509619885,-1.2143791704904607,9.172060371121006,-1.2593489657011974,0.2267539153713893,-1.117848612964501
0.12,-0.0253787541711739,-0.1120397474874003,2.6711729688230914,-0.0660168674828935,0.1748721856558044,0.0195270683147947,-0.0153161051185641,0.0188258713911661,-0.1460498176660986,-0.022909038960022,-0.1058141417138785,2.6747113262162907,0.026622894077886,0.1976610742949696,-0.2037158314598116,1.4628386461695366,0.1665063381859636,0.8030385111165511,-1.2113222914380537,9.164303724627644,-1.2545008127548662,0.2404544937363976,-1.113223497673192
0.14,-0.0256207146335785,-0.111499176986865,2.668159483058795,-0.0792157110682027,0.1820889046248019,0.0182039867461902,-0.0102454517133195,0.0373346343891642,-0.1699664007289593,-0.0223765810784642,-0.1018609202279791,2.6706370095870944,0.0317963973128685,0.2376610748910161,-0.2437158320558581,1.533206426965153,0.2535326702622332,0.9254381498999058,-1.1958291531430367,9.14929082918752,-1.2523033784356543,0.2540650824073779,-1.1101336734291665
0.16,-0.0257568088901518,-0.1105144679864259,2.664485842445738,-0.0915654127979431,0.1887607204217013,0.0169297871123019,-0.0035588012860721,0.0600943847901689,-0.1961732466284101,-0.0218441231969065,-0.0979076987420797,2.666562692957898,0.036969900547851,0.2776610754870626,-0.2837158326519046,1.767424895327805,0.3343325213623677,1.137987520050237,-1.3103422949725372,9.14929082918752,-1.2531760608749525,0.2662470060075954,-1.1074507375302498
0.18,-0.0257453032216971,-0.109038439233215,2.6602825177040423,-0.1016915319450517,0.1942798910169484,0.0158798774082212,0.0044092378105123,0.0860413369185019,-0.2228184938774396,-0.0211823277344742,-0.0929544772412791,2.661488376313801,0.0421434037828335,0.317661076083109,-0.323715833247951,1.9017775716133425,0.398401954829225,1.29734760641665,-1.3322623624514738,9.124952590836074,-1.25444092212652,0.2762366177954942,-1.1052046041398056
0.2,-0.0255641511109476,-0.107022051150507,2.655545480309647,-0.1092462902622694,0.1985106795436125,0.0151315367866482,0.0132560984143272,0.1137031237333896,-0.2494830862166051,-0.0203911946911674,-0.0870012557255774,2.6554140596548024,0.047316907017816,0.3576610766791554,-0.3637158338439974,1.9713205453131608,0.4423430301907466,1.3830893407443838,-1.3332296169582758,9.124952590836074,-1.2579971301536323,0.2834120509468311,-1.1024655451828351
0.22,-0.0252239337683703,-0.1045863466989767,2.650552553346855,-0.1142618359713479,0.2013800661818425,0.0147072601587123,0.0220510050147365,0.1407867093298125,-0.2746847628915221,-0.0249013461902313,-0.1013368949638375,2.643071325998817,0.0321390268304602,0.2110920320004108,-0.3494830877067212,1.901312374450701,0.4397453300204617,1.3541792798211445,-1.2600838337458522,9.14093607383711,-1.263509480134736,0.2888974817016504,-1.0997144286645928
0.24,-0.0246585089280046,-0.1013311568416174,2.644917379387888,-0.1138091402738332,0.2033807583726241,0.0148021279936063,0.0341750929411915,0.1819792021711105,-0.286541704011501,-0.0249013461902313,-0.1013368949638375,2.643071325998817,0.0321390268304602,0.2110920320004108,-0.3494830877067212,2.227331378158313,0.6062043963227537,2.0596246420648985,-0.5928470559989435,9.155576672669667,-1.266787231334298,0.2887079250362904,-1.099128329151933
0.26,-0.0238497110973335,-0.0973386714685263,2.6390665052315745,-0.1071627443541289,0.2046089319583708,0.0154452657914979,0.0460385051543604,0.2139718152324322,-0.2980163651262677,-0.0249013461902313,-0.1013368949638375,2.643071325998817,0.0321390268304602,0.2110920320004108,-0.3494830877067212,1.7999553380082485,0.5931706106584427,1.599630653066085,-0.5737330557383347,9.967551474795073,-1.2768037931161214,0.2837818405516858,-1.1060103880084824
0.28,-0.0228104144101315,-0.0927828338560408,2.632957339858857,-0.098892715378642,0.2052258625964497,0.0162844739436721,0.0572356106945717,0.2396229544541159,-0.3122706027192762,-0.0245799559219267,-0.0992259746438334,2.6395764951217497,0.0359156125136867,0.230569813653815,-0.3694830880047444,1.5704612421250417,0.5598552770105674,1.2825569610841872,-0.7127118796504267,9.967551474795073,-1.2845902394159108,0.2776033617116689,-1.113855410330234
0.3,-0.0216235898657453,-0.0880185484337169,2.6268646665815947,-0.0911433253346856,0.2053377427556885,0.0171289634301202,0.0670754328719405,0.2605382260403593,-0.3283395427569061,-0.0239371753853175,-0.0950041340038252,2.6325868333676152,0.0434687838801399,0.2695253769606235,-0.4094830886007908,1.4075524146026503,0.4919911088684381,1.0457635793121671,-0.8034470018814938,9.7831917492731,-1.291962863992,0.2710285505093002,-1.121408771776122
0.32,-0.020182065472827,-0.0826007157851763,2.620097528736832,-0.0837615693065405,0.205119207291799,0.0179972499419082,0.0764876960562253,0.2801401969552686,-0.3476441201602305,-0.0232943948487083,-0.090782293363817,2.6255971716134807,0.0510219552465931,0.308480940267432,-0.4494830891968373,1.4538695528830428,0.4706131592142379,0.980098545745467,-0.9652288701662182,9.623059203849152,-1.297864753599466,0.2648618687532813,-1.1266627771881932
0.34,-0.0185615771867067,-0.0768093591393246,2.612920369074644,-0.0773995792583517,0.2047280022635746,0.0188094785312802,0.0850602898704778,0.2981299369725819,-0.369102378211862,-0.0222739557437764,-0.0846126745584684,2.616607509829544,0.0585751266130463,0.3474365035742404,-0.4894830897928837,1.4642207391690398,0.4286296907126258,0.8994870008656619,-1.072912902581577,9.479017967511936,-1.3020763050126694,0.2596587534129099,-1.1297449534640824
0.36,-0.0168688576745181,-0.0709856031387834,2.6056948205187527,-0.0722736377849523,0.204324551608106,0.0195198615398637,0.0926802359538245,0.3141227860421201,-0.3904121840032425,-0.0212535166388445,-0.0784430557531197,2.607617848045608,0.0661282979794994,0.386392066881049,-0.5294830903889303,1.3855888843200346,0.3809973041673381,0.7996424534769092,-1.0654902895690266,9.366899470468525,-1.3053951085491222,0.2548721611490521,-1.130936413625283
0.38,-0.0149339756320568,-0.0645284323436757,2.59764268375046,-0.0675448889170702,0.2039275846602723,0.0202200328907896,0.1003873804751826,0.3307019481865555,-0.413711254749706,-0.0200442482497514,-0.0712995478651009,2.5976281862467694,0.0736814693459526,0.4253476301878574,-0.5694830909849766,1.4808066988412865,0.385357226067904,0.8289581072217722,-1.164953537323174,9.3124754898663,-1.3079598994558586,0.2506783070806581,-1.131319161677882
0.4,-0.0128473394892781,-0.0577448043952562,2.5891175375409894,-0.0631768645158736,0.2035500323234134,0.0208947505532809,0.1078769084429067,0.3467408301261039,-0.4376525843578181,-0.0186461505764968,-0.0631821508944118,2.5866385244330306,0.0812346407124058,0.4643031934946658,-0.6094830915810231,1.4887293461660167,0.3744763983862045,0.8019440969774222,-1.1970664804056037,9.262455732716262,-1.3097254211914997,0.2467459424246438,-1.1310426775922593
0.42,-0.0106131303881145,-0.0506476584423579,2.580106608846069,-0.0590225724677928,0.2031770722504851,0.0215546844490784,0.1151602206714557,0.3620668890769353,-0.4622252119412303,-0.0074534940671328,-0.0404077628889509,2.5672349083230985,0.1148557480787557,0.4269395874765487,-0.5376525858479342,1.4931081226220349,0.3641656114274478,0.7663029475415667,-1.228631379170611,9.189668363215787,-1.3110784377778286,0.243162889643227,-1.130350850816885
0.44,-0.0083070698528025,-0.0435784082674771,2.571306926287469,-0.0540539687777692,0.2026654992435884,0.022260812848889,0.1271634302008237,0.3803673734536429,-0.4627803499333024,-0.0074534940671328,-0.0404077628889509,2.5672349083230985,0.1148557480787557,0.4269395874765487,-0.5376525858479342,1.0946380059388052,0.6001604764684025,0.9150242188353808,-0.0277568996036065,9.189668363215787,-1.31121098467098,0.2374980498641297,-1.1213395466037874
0.46,-0.0056408008932862,-0.0358135016410354,2.5620128704649128,-0.0482077510698789,0.2018553150660522,0.0230546590127311,0.1387035699398078,0.395028309303259,-0.46691776100811,-0.0074534940671328,-0.0404077628889509,2.5672349083230985,0.1148557480787557,0.4269395874765487,-0.5376525858479342,0.9555574754871876,0.5770069869492023,0.7330467924808071,-0.2068705537403792,10.592886300504688,-1.3188783760168117,0.2334895102145938,-1.1319758706546574
0.48,-0.0027560790767745,-0.0277787548631383,2.5525807821208977,-0.0427735756499794,0.200757613328662,0.0238229598893332,0.1491098731020398,0.407662015754351,-0.4762897953859356,-0.0063049365863452,-0.0361383670141855,2.561858382464619,0.1162515160059255,0.4429793389466377,-0.5576525861459574,0.9430491935416032,0.5203151581116033,0.6316853225545982,-0.4686017188912761,10.27043309675446,-1.3237971826064578,0.2293014083021211,-1.138882663987208
0.5,0.0003255743516256,-0.019507851369313,2.5429112391224926,-0.0379682259666031,0.199234403015674,0.0245531742779159,0.1584767074988265,0.4188473986312668,-0.4901647963551175,-0.0040078216247701,-0.0275995752646545,2.5511053307476605,0.1190430518602651,0.4750588418868156,-0.5976525867420038,1.006685189886627,0.4683417198393352,0.559269143845792,-0.6937500484590992,9.979366194222166,-1.3275750702051288,0.225559050077813,-1.142150406757639
0.52,0.0034171446482189,-0.0114538533199854,2.5334360944954537,-0.0340334103340562,0.1973336533991214,0.0252075184056685,0.166424670999817,0.4284598402501393,-0.5065055453639246,-0.001710706663195,-0.0190607835151235,2.540352279030702,0.1218345877146047,0.5071383448269935,-0.6376525873380503,1.0278487678862755,0.3973981750495223,0.4806220809436212,-0.8170374504403499,9.74765560007745,-1.3315404318121633,0.2220420942734382,-1.142288525187907
0.54,0.0068231253847306,-0.0027875354208248,2.523099630328724,-0.0305695242702439,0.1948859900590342,0.0258504525788908,0.1736538816996227,0.4377247921809922,-0.5263898346190227,0.000725985091097,-0.0089180166185836,2.527599227283941,0.1246261235689443,0.5392178477671714,-0.6776525879340968,1.1548655558154934,0.3614605349902849,0.4632475965426486,-0.9942144627549054,9.409674718682254,-1.3351746190873004,0.2191369876331325,-1.1411612038872063
0.56,0.0103628752107742,0.0060579228922648,2.512350673752088,-0.027773632646864,0.192101944870614,0.0264436403460299,0.1798650726389188,0.4464250080924949,-0.5475354829959871,0.0031626768453891,0.0012247502779561,2.51484617553718,0.1274176594232839,0.5712973507073493,-0.7176525885301432,1.1847057599604398,0.3105595469648059,0.4350107955751359,-1.057282418848221,9.343450815270444,-1.3384764010688002,0.2167233290410629,-1.137331794033249
0.58,0.0140166907273144,0.0150793371857314,2.501169258927333,-0.0253678007147647,0.1891255501732669,0.0270026040098847,0.1851251017757426,0.455239553250372,-0.5695200106543421,0.0056691569960397,0.0121695047480005,2.501093123775518,0.1302091952776235,0.6033768536475272,-0.7576525891261896,1.213140108583367,0.2630014568411887,0.4407272578938526,-1.0992263829177509,9.343450815270444,-1.3414036405501444,0.2147404983447394,-1.1327411977102608
0.6,0.0175754761986312,0.0238108739477568,2.490132277674004,-0.0232044722507415,0.1862619098023041,0.0275147274380243,0.1891520679093725,0.4633641091374144,-0.5911452149216802,0.0082454255430487,0.0239162467915492,2.4863400719989546,0.1330007311319631,0.6354563565877052,-0.7976525897222361,1.1724699614565537,0.201348306681498,0.4062277943521181,-1.0812602133669025,9.29489341326007,-1.3443260400385884,0.2127531027900092,-1.1274033219529336
0.62,0.0213927753199628,0.0331637135176232,2.4780609623286574,-0.0210127361525487,0.1834191849471862,0.028031978562691,0.1922727206313888,0.4714344133453237,-0.6148777412595077,0.0270330795940998,0.0469790794046275,2.4605750169279195,0.1836875066257841,0.5076732036856397,-0.6911452164117963,1.2630331446515015,0.1560326361008127,0.4035152103954692,-1.186626316891376,9.244199561172536,-1.3467201223341387,0.2108066731158709,-1.1218011322475605
0.64,0.0253065439803473,0.0428073871880721,2.4657931581427914,-0.0147919572199395,0.181159285000086,0.0288007499831505,0.1989111560554501,0.4895691334197562,-0.6106449311290878,0.0270330795940998,0.0469790794046275,2.4605750169279195,0.1836875066257841,0.5076732036856397,-0.6911452164117963,0.9885008581908766,0.3319217712030628,0.9067360037216228,0.2116405065209936,9.179596500144726,-1.348987828189632,0.2045700675300835,-1.104901837173475
0.66,0.0291352125846535,0.0522041111682899,2.4541877070479536,-0.0056740747646726,0.1799363448932652,0.029710111765168,0.2037949545487121,0.4980215625644496,-0.6112652350780432,0.0270330795940998,0.0469790794046275,2.4605750169279195,0.1836875066257841,0.5076732036856397,-0.6911452164117963,0.4890803184496923,0.2441899246631032,0.4226214572346704,-0.0310151974477701,10.40921023598912,-1.3551423397839062,0.1964108068579176,-1.1178991642761829
0.68,0.0332594211388028,0.0622089270983678,2.4418961419013154,0.0042936039993457,0.1794745027405786,0.0306566609069552,0.2083943049833263,0.5017919052032609,-0.6181381691868977,0.0288699546603577,0.0520558114414839,2.4536635647638017,0.1825945943690665,0.5165350225952848,-0.7111452167098194,0.4544412263953378,0.2299675217307104,0.1885171319405632,-0.3436467054427239,10.044375752387168,-1.3570827007734434,0.1870429559359896,-1.125184629632036
0.7000000000000001,0.0374713696435005,0.0722534547894994,2.429403847916608,0.0134849307204186,0.1794180866620012,0.0315236648942355,0.2126002426937163,0.5024992812175052,-0.6307123991883172,0.0325437047928733,0.0622092755151967,2.4398406604355656,0.1804087698556311,0.5342586604145749,-0.7511452173058659,0.6638929751432234,0.2102968855194995,0.0353688007122154,-0.6287115000709775,10.044375752387168,-1.356993199854542,0.1784860013124405,-1.1278859381531754
0.72,0.0417641392325851,0.0822894992806042,2.416615828870829,0.0215232578721008,0.1794863893435153,0.0322880457386789,0.2164735217654669,0.5011941152938952,-0.6474360908272058,0.036217454925389,0.0723627395889095,2.426017756107329,0.1782229453421957,0.5519822982338651,-0.7911452179019124,0.8607955780678185,0.1936639535875278,-0.0652582961804981,-0.8361845819444269,9.756010934223012,-1.3559326008906911,0.1704227124744759,-1.1273674216696152
0.74,0.0459110742620719,0.0917851699350935,2.4041264160807536,0.0280067437776771,0.1795304331521883,0.0329124434335961,0.219847279816953,0.4985812865786507,-0.6663753052808096,0.0397819138322329,0.0834023855535868,2.4101948517492917,0.1760371208287604,0.5697059360531553,-0.8311452184979589,0.9706994403583028,0.1686879025743062,-0.1306414357622243,-0.9469607226801902,9.537091922220498,-1.3542480688262322,0.163526639749899,-1.12418435954095
0.76,0.0503440368329355,0.1017164606856053,2.390575137692917,0.0336511637792679,0.1794946757625465,0.0334637375879759,0.2232571386412859,0.4948005982602973,-0.6877957007655288,0.0433463727390769,0.0944420315182641,2.394371947391253,0.173851296315325,0.5874295738724454,-0.8711452190940053,1.1008565802185513,0.1704929412166461,-0.1890344159176715,-1.0710197742359595,9.367008415011696,-1.3521912042143898,0.1578295094130661,-1.1184856171337332
0.78,0.0548451424697995,0.111565769494773,2.3765846262650814,0.0382300597235409,0.1793211363863315,0.0339147402541746,0.226658993381836,0.4904605266768725,-0.710152179265163,0.0468561860330849,0.1059247684284237,2.377549043018313,0.1716654718018896,0.6051532116917356,-0.9111452196900516,1.1513263741546798,0.1700927370275051,-0.2170035791712377,-1.1178239249817146,9.285273959282677,-1.350400672637164,0.1534492054319784,-1.1126308321008052
0.8,0.0594134862511704,0.1213227808897084,2.3621384626883044,0.0419595194556144,0.1789628811204606,0.0342785412234971,0.2299734772397447,0.4855831115653363,-0.7333162641567681,0.050311353714257,0.1178505962840655,2.359726138630473,0.1694796472884543,0.6228768495110257,-0.9511452202860982,1.1951462361151293,0.1657241928954347,-0.243870755576811,-1.158204244580252,9.235922695976114,-1.348631356419551,0.1496854019694284,-1.1056347832063225
0.8200000000000001,0.0638133836393467,0.1304969290458727,2.347977972069048,0.0448118502398713,0.1784373882923129,0.0345493133403495,0.2329748740599372,0.4804806259297362,-0.7560739543225451,0.0709121601131577,0.1456019364679752,2.325472649480466,0.2091930908365417,0.4857741843095373,-0.8333162656468842,1.1757510410534096,0.1500698410096257,-0.2551242817800059,-1.13788450828885,9.18686263604377,-1.3469416467652529,0.146672692075294,-1.0978159458381582
0.84,0.0685539652423213,0.1401634385304109,2.332871315106524,0.0513155835072623,0.177572494585523,0.0350417938716019,0.2411583294341117,0.4841985120644294,-0.7521108472060771,0.0709121601131577,0.1456019364679752,2.325472649480466,0.2091930908365417,0.4857741843095373,-0.8333162656468842,0.4911665633678857,0.4091727687087237,0.1858943067346574,0.1981553558233983,9.137700617272458,-1.3450647890384717,0.1403617698876791,-1.0783008164902532
0.86,0.0734623368840175,0.1498054154604814,2.3178402143156327,0.0615350523678986,0.1761458650848571,0.0357237046753071,0.2491664904846779,0.4790941488222594,-0.7516871779785973,0.0709121601131577,0.1456019364679752,2.325472649480466,0.2091930908365417,0.4857741843095373,-0.8333162656468842,0.4753016493084517,0.4004080525283074,-0.2552181621084975,0.0211834613739914,10.810618042602982,-1.349420139725125,0.1311488734207478,-1.083208858255257
0.88,0.0782662903359378,0.1588128491452541,2.3034965660321247,0.0715539926771948,0.1739044468755133,0.0362859689115629,0.2560411753560172,0.4692028832682629,-0.7581454342369633,0.0730040910215231,0.1504596783110706,2.317139486823997,0.2050370135559011,0.4858123988583774,-0.8533162659449074,0.6833877015256853,0.3437342435669663,-0.4945632776998249,-0.3229128129183023,10.405332986943904,-1.3527445979869923,0.1208786694769503,-1.08254671852776
0.9,0.0834552579768411,0.1680590447769673,2.28821248028764,0.0811350861567794,0.1702464555018564,0.0366496332876599,0.2623687023654001,0.4559486242440282,-0.7701123130686999,0.0771879528382539,0.1601751619972614,2.3004731615110594,0.1967248589946199,0.4858888279560578,-0.8933162665409539,0.9472581080537662,0.3163763504691469,-0.662712951211733,-0.5983439415868264,9.746567948262054,-1.3562573334242582,0.1115495451714725,-1.0759017712315924
0.92,0.0887578661203112,0.1770185518731749,2.2726438295853497,0.0892878665566417,0.1650226383277766,0.0367083573543933,0.2672665130732488,0.440780298884346,-0.7862521578048353,0.0813718146549848,0.1698906456834521,2.2838068361981216,0.1884127044333387,0.4859652570537382,-0.9333162671370004,1.1341971081492566,0.2448905353924335,-0.7584162679841133,-0.8069922368067695,9.746567948262054,-1.3613714925219085,0.1037451624701482,-1.0642545110273576
0.94,0.0941304593489425,0.1856592044015048,2.2567156181472843,0.0958649563096515,0.1585878569540963,0.0364695032318958,0.269453751270149,0.4243146327572091,-0.805655337525734,0.0851400687436515,0.1796099508245269,2.2651405108553817,0.1801005498720575,0.4860416861514186,-0.9733162677330468,1.2770919653864208,0.1093619098450099,-0.8232833063568451,-0.9701589860449388,9.52403676967333,-1.3665585269904827,0.09784363661244,-1.049272761568716
0.96,0.0992514115280717,0.1935530506651705,2.2412122970401827,0.1007285963591437,0.1519611699178646,0.0360294222442751,0.2692880796525329,0.407717800945398,-0.8252175665049087,0.0889083228323183,0.1893292559656016,2.2464741855126418,0.1717883953107763,0.486118115249099,-1.0133162683290933,1.2827344580115645,-0.0082835808808079,-0.8298415905905521,-0.978111448958735,9.27371101711742,-1.3711077363160191,0.0931243296080842,-1.0299026058025065
0.98,0.1046161376472665,0.201516695644874,2.2244832079355072,0.1045356933311706,0.1449391898101144,0.0354108015320542,0.2670042594571185,0.3897173309275324,-0.846641832449143,0.0924687730569531,0.1990504718341184,2.2268078601550005,0.1634762407494951,0.4861945443467793,-1.0533162689251396,1.403773420818278,-0.1141910097707171,-0.9000235008932822,-1.071213297211715,9.27371101711742,-1.3743070564072566,0.0897048589814077,-1.0093643189318726
1.0,0.109914940886926,0.2091144891603452,2.207317755361254,0.1070877436934615,0.1382411196167876,0.0346914789007096,0.2628474680653243,0.3711986277163433,-0.8688033459220262,0.0958214194175558,0.2087735984300772,2.2061415347824584,0.1551640861882139,0.4862709734444597,-1.093316269521186,1.4588985251789988,-0.20783956958971,-0.9259351605594546,-1.10807567364416,9.150421342923435,-1.3765982401545838,0.0874263276533392,-0.9895829958456112
1.02,0.115112808682247,0.2163353758892902,2.1897001568091445,0.1083297760370889,0.1321396838334226,0.0339117877330906,0.2570725252576044,0.3521011854421555,-0.8917734933739089,0.1230573142901922,0.2276744205461624,2.1638775880651533,0.2203829323819308,0.3207849185824798,-0.9688033474121424,1.521257653891675,-0.2887471403859948,-0.9548721137093902,-1.148507372594132,9.150421342923435,-1.3780330247871115,0.0862936725094198,-0.9725181171670348
1.04,0.1199639493866703,0.2229821333818787,2.1728208481664084,0.1137515068708008,0.127043090634374,0.0335116331506401,0.2537899833632766,0.3450556529780297,-0.8841791223129706,0.1230573142901922,0.2276744205461624,2.1638775880651533,0.2203829323819308,0.3207849185824798,-0.9688033474121424,0.5433439996960595,-0.164127094716393,-0.3522766232062879,0.3797185530469149,9.095181090771348,-1.3774383199592708,0.0818856771400266,-0.9504646628423984
1.06,0.1249899993941736,0.2297013146954174,2.1551620982604023,0.1238547099911468,0.1225546449742302,0.0334249138306446,0.2488434018431286,0.3265271027423914,-0.8825875735642331,0.1230573142901922,0.2276744205461624,2.1638775880651533,0.2203829323819308,0.3207849185824798,-0.9688033474121424,0.9621705539945236,-0.2473290760073951,-0.9264275117819188,0.0795774374368729,10.795901760368906,-1.3813831553506026,0.0729973107957199,-0.9439493617834528
1.08,0.1298998853740972,0.2359886401651832,2.137459551049117,0.1345782285564203,0.1189910188479982,0.0334150817302549,0.2422892532998554,0.3029066108084929,-0.8880068953815796,0.1252611436140115,0.2308822697319872,2.154189554591032,0.2118900252452521,0.3107021767557072,-0.9888033477101656,1.2552425575228692,-0.3277074271636607,-1.181024596694924,-0.270966090867325,9.978781955114757,-1.3823682772361954,0.0637797362368535,-0.9352577589768584
1.1,0.1346642854251037,0.2417634860280061,2.119586174337456,0.1442920214922925,0.1164441500148623,0.0334025594794046,0.234438574289227,0.2759408277087863,-0.8989876244587969,0.1296688022616501,0.2372979681036368,2.134813487642789,0.1949042109718947,0.2905366931021618,-1.028803348306212,1.507782336890498,-0.3925339505314235,-1.3482891549853298,-0.5490364538608627,9.978781955114757,-1.3814809975949067,0.0558361464795822,-0.9277823009186036
1.12,0.1390361615044258,0.2467307474183911,2.1023664965700006,0.1519948911423013,0.1150702872194973,0.0333868581112939,0.2261658113289741,0.2485817159032409,-0.9129903663209368,0.1340764609092887,0.2437136664752864,2.1154374206945463,0.1779183966985373,0.2703712094486164,-1.0688033489022586,1.5914116260749345,-0.4136381480126419,-1.36795559027727,-0.7001370931069895,9.717273776916954,-1.3783182403150775,0.0489272004325216,-0.9197641047270172
1.14,0.1434686732502974,0.2513900828227063,2.0839253573271788,0.1584687455165662,0.1146258566380905,0.0333727220647547,0.2176141304944705,0.2190119343301471,-0.9304533766260452,0.1376348288432594,0.2491210906642587,2.094061353716501,0.16093258242518,0.250205725795071,-1.108803349498305,1.769505549787863,-0.4275840417251791,-1.4784890786546878,-0.8731505152554275,9.379653100148062,-1.3731373458431286,0.0435507770084072,-0.9116355546710636
1.16,0.1477362867983527,0.2554457350772084,2.065121989223013,0.1632389943562851,0.1148272425274698,0.0333149349219205,0.2096479054777247,0.1884448179169781,-0.9489100437579546,0.1411931967772302,0.2545285148532311,2.072685286738456,0.1439467681518225,0.2300402421415256,-1.1488033500943515,1.8292470503268272,-0.3983112508372896,-1.5283558206584515,-0.9228333565954704,9.379653100148062,-1.3674264672635872,0.0400150995278502,-0.9027074100289144
1.18,0.1516473815925287,0.2587219094906735,2.0469128164371413,0.1661186466023508,0.1153872855254122,0.0331850120654574,0.2025024104224506,0.1584473717630616,-0.9668213185055844,0.144326919354367,0.2594318019508648,2.0503092197455097,0.1269609538784652,0.2098747584879803,-1.188803350690398,1.7830582144360474,-0.3572747527637046,-1.4998723076958251,-0.8955637373814884,9.340325603598105,-1.360545186256081,0.0376562962704078,-0.8938397315405835
1.2,0.1556222631506368,0.2615521505480951,2.027371980698655,0.1673590845780865,0.1162193020555605,0.0329459878940363,0.1954130613825237,0.1264171199317605,-0.9862912620893348,0.1470359965746699,0.2638309519571598,2.026933152737662,0.1099751396051078,0.1897092748344349,-1.2288033512864442,1.9074030809853069,-0.3544674519963459,-1.601512591565052,-0.9734971791875158,9.320445762044985,-1.353770619298389,0.0365556681019915,-0.8870650980964452
1.22,0.1594596642089574,0.2637296999887012,2.007435020661734,0.1662480776887934,0.11719031918956,0.0325503698103566,0.1887255583529656,0.0932340985975138,-1.0063843829384234,0.165392916219763,0.2678730065446832,1.9780574175941883,0.1254859873673832,0.0473466412540109,-1.0862912635794508,1.968228332216248,-0.3343751514779072,-1.6591510667123346,-1.0046560424544326,9.28231228455752,-1.347234687317088,0.037245835745331,-0.8809000144274547
1.24,0.1632335401706396,0.2653304363052597,1.987382526416843,0.1664697318691043,0.117124105799685,0.0320629623343641,0.1891752578669264,0.0675227879399212,-0.99658452490494,0.165392916219763,0.2678730065446832,1.9780574175941883,0.1254859873673832,0.0473466412540109,-1.0862912635794508,1.375964155474733,0.0224849756980394,-1.2855655328796305,0.4899929016741633,9.254835865718633,-1.3379897446908249,0.037153365727543,-0.8700011251655545
1.26,0.1668393012862559,0.2663418223244563,1.9685040158357128,0.1701476077033262,0.1146497090557148,0.0314183713565969,0.1901700973870793,0.0394562145988316,-0.9913787749360964,0.165392916219763,0.2678730065446832,1.9780574175941883,0.1254859873673832,0.0473466412540109,-1.0862912635794508,1.4281299639036171,0.0497419760076486,-1.4033286670544811,0.260287498442191,11.00137692716271,-1.339195212831763,0.0334706515074422,-0.8660119045396226
1.28,0.1706429709855032,0.2667772838608813,1.9486719621681856,0.1745028059787297,0.1092049361816569,0.0302464864442499,0.1896287743581461,0.0056418206354002,-0.9922995974383276,0.1666477760934368,0.2683464729572233,1.967194504958394,0.1115005725643551,0.031532545518461,-1.106291263877474,1.6915630226335188,-0.0270661514466613,-1.6907196981715724,-0.0460411251115733,10.228838894883664,-1.3434531850124685,0.0297407130606959,-0.8554159988021204
1.3,0.174399396453408,0.2665158559704193,1.9287681818970743,0.1777482160569713,0.1015291518234382,0.0285562068923891,0.1856023597351042,-0.029779687428851,-0.9981200929514796,0.1691574958407845,0.2692934057823035,1.945468679686805,0.0835297429582989,-9.564595263883424e-05,-1.1462912644735206,1.806082373731248,-0.2013207311520951,-1.7710754032125609,-0.291024775657589,9.966986613462725,-1.3480731493038394,0.0268905985774112,-0.8405544061202561
1.32,0.1780387130974348,0.2655383067504925,1.9087041762715269,0.1792856701129483,0.0925299614120805,0.0264707818079408,0.1781424135453226,-0.0657439923718949,-1.0078415359955166,0.1716672155881321,0.2702403386073838,1.923742854415216,0.0555589133522426,-0.0317238374237386,-1.186291265069567,1.8997292452143988,-0.3729973094890829,-1.7982152471521955,-0.4860721522018552,9.966986613462725,-1.3520505214240175,0.0253320213684382,-0.8242013440217137
1.34,0.1813267891294737,0.2639385867430976,1.8894354456000348,0.1788282115972015,0.0834382762699175,0.0242419308165078,0.1680696969366096,-0.1004802886071132,-1.019852827419612,0.172778393855177,0.269605861858909,1.9000170291138243,0.0275880837461864,-0.0633520288948385,-1.2262912656656133,1.9054796100292093,-0.5036358304356475,-1.7368148117609143,-0.6005645712047647,9.762301590963034,-1.3553243397117296,0.0250010269945602,-0.8063900191491647
1.36,0.1845525495888234,0.261540816643914,1.868893259445968,0.1758532641451996,0.0738376342159996,0.0217300357478191,0.1547663834559555,-0.1370437104461696,-1.0336804117753546,0.1738895721222218,0.2689713851104342,1.8762912038124333,-0.0003827458598697,-0.0949802203659384,-1.26629126626166,2.064621064057833,-0.6651656740327041,-1.82817109195282,-0.6913792177871358,9.601464143997871,-1.3569761195638776,0.0264093182916571,-0.7880373039275197
1.38,0.187481418659911,0.2584250637299605,1.848066892903769,0.1703272758649865,0.0647275280858965,0.0191764477046828,0.1386245387954506,-0.1717266811312127,-1.0480636690527934,0.1743014796491153,0.267546203575182,1.8515653784961408,-0.0283535754659259,-0.1266084118370382,-1.3062912668577062,2.0434931456285965,-0.8070922330252445,-1.7341485342521543,-0.7191628638719361,9.473064955417613,-1.357269251332652,0.0290271747429147,-0.7730042870011823
1.4,0.1900614435007365,0.2546423420749855,1.8269462381965624,0.1631363796428907,0.0565743858923395,0.0167450843269236,0.1201056797685494,-0.2040317677637597,-1.0631300849269905,0.1740141164358573,0.2653303172531522,1.825839553164947,-0.0563244050719821,-0.1582366033081381,-1.3462912674537526,2.008459390483702,-0.9259429513450608,-1.6152543316273498,-0.7533207937098552,9.473064955417613,-1.3564797995332027,0.0326365526871981,-0.7597250036849283
1.42,0.1921504027244701,0.2504716516952902,1.8065938658578584,0.1551609160007672,0.0500051107822754,0.0146267042754429,0.1007062637999225,-0.2327191294404873,-1.078348239053856,0.1960667274891639,0.2444407536867975,1.7737897339502129,0.0410762165369858,-0.3011257596990128,-1.1607594457816162,1.891358159448012,-0.9699707984313451,-1.4343680838363806,-0.7609077063432723,9.408725988505466,-1.354512507282989,0.0369905718729874,-0.7484017648132222
1.44,0.1939207396543836,0.2455965396840909,1.7851748038714108,0.1499306555831682,0.0454607115683241,0.0130565706420789,0.0771658738500153,-0.2551138891727421,-1.0614785326060243,0.1960667274891639,0.2444407536867975,1.7737897339502129,0.0410762165369858,-0.3011257596990128,-1.1607594457816162,1.830479594324339,-1.1770194974953616,-1.1197379866127413,0.8434853223915684,9.335948682994967,-1.3466882579537758,0.0399828408090006,-0.7329876282922734
1.46,0.1952064628189615,0.2402157269565731,1.7640786342280537,0.1485485949107627,0.0447780037012678,0.0123637685570204,0.0530460353428057,-0.2820161375208302,-1.049553856305708,0.1960667274891639,0.2444407536867975,1.7737897339502129,0.0410762165369858,-0.3011257596990128,-1.1607594457816162,1.902429683761934,-1.2059919253604772,-1.3451124174044065,0.5962338150158342,11.35740333578542,-1.3417239408458808,0.0393438366544685,-0.7356822670404387
1.48,0.1959972480986966,0.2345830665178475,1.7441804002295105,0.1482097931765268,0.0469186034348717,0.0121987051461193,0.0317529325404094,-0.3094298129176324,-1.045523151283982,0.1964774896545338,0.2414294960898074,1.7621821394923969,0.0252703238906731,-0.3205445580860634,-1.1802853179525412,1.7472495590833743,-1.064655140119817,-1.3706837698401058,0.2015352510862933,10.82512454075004,-1.334042211059637,0.0382080205075497,-0.7409613636454728
1.5,0.1964144998992767,0.2280867540873508,1.723265268028488,0.1476580908669538,0.0511134317271597,0.0123068377696435,0.0113922088800028,-0.3386112586733156,-1.0463947397705615,0.1972990139852735,0.2354069808958271,1.7389669505767644,-0.0063414614019522,-0.3593821548601647,-1.2193370622943915,1.7796597363381448,-1.0180361830203315,-1.4590722877841604,-0.0435794243289766,10.118725779969282,-1.324722529015664,0.0373394028053178,-0.7479159585918136
1.52,0.1964451500714893,0.2210038922999697,1.7022858812945405,0.1462228996339848,0.0565514174245592,0.0125408704238959,-0.0070422324743227,-0.3680099842773998,-1.0516340145756289,0.1981205383160132,0.2293844657018469,1.715751761661132,-0.0379532466945776,-0.398219751634266,-1.258388806636242,1.7546820906316003,-0.9217220677162762,-1.4699362802042093,-0.261963740253357,9.885745244895588,-1.314606411496896,0.0371947701591135,-0.7556038752250185
1.54,0.1961266575992504,0.2133388275283606,1.6811609886298775,0.1434612940548719,0.0627016196678528,0.0127831120406994,-0.0236242151331465,-0.3964551498651158,-1.0604913572536796,0.1973614733821217,0.2214200706691615,1.690583985528407,-0.0695650319872031,-0.4370573484083672,-1.2974405509780922,1.7048035909794277,-0.8290991329411898,-1.4222582793858018,-0.4428671339025469,9.885745244895588,-1.3045755937956458,0.0379569180171639,-0.7633924844388645
1.56,0.1955355277567139,0.2055471615966384,1.6609136476891158,0.1400031938093152,0.0687975549557435,0.0129815626051995,-0.0375843522869659,-0.4219533987244455,-1.0703121913837077,0.1966024084482301,0.2134556756364762,1.6654162093956824,-0.1011768172798285,-0.4758949451824685,-1.3364922953199423,1.5341894498849191,-0.6980068576909718,-1.274912442966483,-0.4910417065013939,9.696964944721003,-1.2938373399381922,0.0394857668933317,-0.7710833180250152
1.58,0.1946423507142012,0.196831488368597,1.639384458376624,0.1356197189029161,0.0752302196548753,0.0131257329174713,-0.0508070841423689,-0.4478845858843234,-1.0821108395884358,0.195053048882023,0.2045203406844384,1.6392721396544112,-0.1327886025724539,-0.5147325419565698,-1.3755440396617926,1.570410141252475,-0.6611365927701489,-1.2965593579938983,-0.5899324102364156,9.611459442369778,-1.2832210712399226,0.0416626983402253,-0.7780794074607644
1.6,0.1934993447059951,0.1876081874171704,1.6176030644327506,0.1303964839245796,0.0815856251247904,0.0131812116114932,-0.0626546080050197,-0.4727180574861143,-1.0954529329357092,0.1927133946835001,0.194614065813048,1.6121517763045938,-0.1644003878650793,-0.5535701387306711,-1.414595784003643,1.528951101540195,-0.5923761931325409,-1.2416735800895418,-0.6671046673636716,9.525730078833476,-1.2729883737013414,0.0445118183414989,-0.78463059825089
1.62,0.1921331638334432,0.1779025243969814,1.5955364757553372,0.1243242966533477,0.0877930587240392,0.0131348323000397,-0.0731972523617101,-0.4960793018966854,-1.110468605805736,0.1903666143057441,0.1639722845428646,1.562830417785965,-0.1333295265969959,-0.5334538158801172,-1.112024151083583,1.4852319029210184,-0.5271322178345195,-1.168062220528557,-0.7507836435013404,9.43913225162578,-1.2638993498196789,0.0478596836774778,-0.7904889387390878
1.64,0.1907217864028531,0.168104105812141,1.57478879371981,0.114726958007265,0.0929139093131916,0.0127009709127708,-0.074858869491671,-0.5314107541676376,-1.0723980361300842,0.1903666143057441,0.1639722845428646,1.562830417785965,-0.1333295265969959,-0.5334538158801172,-1.112024151083583,2.5982882665756177,-0.0830808564980474,-1.7665726135476094,1.9035284837825903,9.348138412940898,-1.237532277054374,0.0541364754744218,-0.7817372003352246
1.66,0.1892133739587747,0.1571741888967487,1.5537351020897203,0.1010556129159797,0.0968999330930711,0.0118023206672294,-0.0759502661852961,-0.5586564068475088,-1.0353969453346503,0.1903666143057441,0.1639722845428646,1.562830417785965,-0.1333295265969959,-0.5334538158801172,-1.112024151083583,2.2981500477269607,-0.0545698346812527,-1.3622826339935612,1.850054539771695,12.93715659976715,-1.2353766094364886,0.0629769149791475,-0.7888885822836028
1.68,0.1876838777267187,0.1457703724964978,1.5333283145331986,0.0860743844421902,0.0993908630080154,0.0106460152809641,-0.0770585991315172,-0.5794690256914805,-1.0070196256895716,0.1890333190397741,0.1586377463840635,1.5517101762751293,-0.1474645103153911,-0.5456009675589177,-1.115338394713158,1.7604443865847443,-0.0554166473110531,-1.0406309421985838,1.4188659822539362,12.368712550417513,-1.2345593864784186,0.0722899759566546,-0.7955012207550993
1.7,0.1862065594059945,0.1346052247345613,1.5144000820962404,0.0715556566794229,0.1003618834736784,0.0094163342525566,-0.0785330981816422,-0.5942066854687388,-0.9867859070364248,0.1863667285078342,0.1479686700664611,1.5294696932534575,-0.1757344777521816,-0.5698952709165189,-1.1219668819723074,1.2537704471849438,-0.0737249525062537,-0.7368829888629136,1.0116859326573358,11.792483089081545,-1.2346337924523825,0.0825390490217667,-0.7993118714055713
1.72,0.1846147156325,0.1226009435864718,1.4948358392390966,0.0566133881532581,0.0999749710116074,0.0080802941779566,-0.0806829140389386,-0.6050124550878513,-0.9709294285819678,0.1837001379758943,0.1372995937488588,1.507229210231786,-0.2040044451889721,-0.5941895742741201,-1.128595369231457,0.9654199529974996,-0.1074907928648172,-0.5402884809556252,0.7928239227228517,11.331425008875158,-1.2353988752244134,0.0926843378056817,-0.8005089440216098
1.74,0.1829733979281827,0.110424936799105,1.475535134911362,0.0424480231280767,0.098084567622785,0.006773338504234,-0.0834471509218685,-0.611746423337524,-0.9601244070106516,0.1796200490721148,0.1254158022633764,1.4846573028471568,-0.2322744126257625,-0.6184838776317213,-1.1352238564906063,0.6514135113143577,-0.1382118441464963,-0.3366984124836381,0.5402510785658121,10.975774616378658,-1.237182283541506,0.1023732927334345,-0.7992989342219338
1.76,0.1812725072693049,0.0981552218879689,1.456424677290702,0.0294405918633266,0.094492493804711,0.0055573785619359,-0.0866639917271206,-0.6148136291262004,-0.9514312691330492,0.1755399601683354,0.1135320107778939,1.4620853954625277,-0.260544380062553,-0.6427781809893225,-1.141852343749756,0.4881763571585284,-0.1608420402626056,-0.1533602894338182,0.4346568938801143,10.673692509626562,-1.2391592221030654,0.1108193550654715,-0.795251262256179
1.78,0.1795851034933816,0.0864672014660433,1.4384178200764324,0.0182342457553893,0.0894810404207106,0.0045281012383851,-0.0910662948505405,-0.6152928550435751,-0.9444487749908408,0.1707531220786362,0.1010408617084715,1.4393477758964195,-0.2888143474993435,-0.6670724843469236,-1.1484808310089056,0.4134161182039618,-0.2201151561709961,-0.0239612958687351,0.3491247071104264,10.568427179852732,-1.243009066059913,0.118897239122843,-0.7882013402229469
1.8,0.1776918944251869,0.0741794670198003,1.41959480985713,0.0076357590679333,0.0830751340177368,0.0036155319653488,-0.0983227494766623,-0.6133817964924141,-0.93826889930588,0.1652595348030172,0.0879423550551091,1.416444444148833,-0.3170843149361339,-0.6913667877045248,-1.1551093182680552,0.4860533458595292,-0.3628227313060853,0.0955529275580513,0.308993784248035,10.487424612860195,-1.2474516233309514,0.1260875314633588,-0.7797754093751821
1.82,0.1756244195162426,0.0619550704151258,1.4008798894306684,-0.0016528452929549,0.0762985798721531,0.0029008035267036,-0.1082648175428395,-0.6092329644297868,-0.933523044235174,0.1727757569513537,0.0435103771951796,1.372681364891836,-0.1591030660679251,-0.6624346906078621,-0.8513688513479829,0.5886014467968372,-0.4971034033088635,0.2074416031313641,0.2372927535353008,10.414324072357886,-1.2514637378959546,0.1323337043124446,-0.7713270748550543
1.84,0.1733318804705311,0.0498702240596021,1.3826762855006711,-0.0085196478842972,0.0708993839036805,0.0024417116559812,-0.1206542766955492,-0.6000790295219927,-0.8849025878217336,0.1727757569513537,0.0435103771951796,1.372681364891836,-0.1591030660679251,-0.6624346906078621,-0.8513688513479829,2.5501186267721248,-0.619472957635482,0.4576967453897074,2.431022820672024,10.336220431176116,-1.238109139952066,0.1354098511961632,-0.7530727788878142
1.86,0.1709061458650682,0.0385456330718357,1.3663322609745248,-0.0129678489748679,0.0688129019073455,0.002175391144759,-0.1338230931577248,-0.5926362516021669,-0.8382134440618109,0.1727757569513537,0.0435103771951796,1.372681364891836,-0.1591030660679251,-0.6624346906078621,-0.8513688513479829,2.453919729337659,-0.6584408231087815,0.3721388959912863,2.334457187996136,13.554587007005466,-1.237763326944837,0.1388077370160924,-0.7589233268972182
1.88,0.168096926602697,0.0267870573261878,1.3500460309168736,-0.0162578309492271,0.0691539506275974,0.0019899989997333,-0.1461650563473025,-0.5838664311253492,-0.7930528058383262,0.1711847262906745,0.0368860302891009,1.3641676763783563,-0.1712591293861776,-0.6722452694309516,-0.8339888417564034,2.3815525667728656,-0.6170981594788849,0.4384910238408868,2.258031911174235,13.21416501643671,-1.2352832247085954,0.1413352352006649,-0.7681564802558357
1.9,0.1650579818043707,0.0152140761695318,1.3346190520953691,-0.0179902526317869,0.0709600528056683,0.0019105978361761,-0.1569262505579994,-0.5742655032919166,-0.7519023209226996,0.168002664969316,0.0236373364769437,1.3471402993513966,-0.1955712560226828,-0.6918664270771309,-0.7992288225732446,2.180219899972435,-0.5380597105348439,0.4800463916716291,2.057524245781328,12.909157263252382,-1.232715037435573,0.1429161595738027,-0.7787650272485128
1.92,0.1618199821277524,0.0038415676364475,1.3199835677832,-0.0179356656477438,0.0734116452200754,0.0019624888004998,-0.1662149409760226,-0.5638119001113682,-0.7137151693694882,0.1648206036479575,0.0103886426647865,1.330112922324437,-0.2198833826591879,-0.7114875847233101,-0.7644688033900857,2.0333569121567074,-0.4644345209011594,0.5226801590274222,1.9093575776605696,12.648050066037284,-1.2299345371527952,0.1433129263096999,-0.7894893698230085
1.94,0.1585844868330519,-0.0067623506477254,1.306765890079573,-0.0157435935691643,0.0758033804920881,0.0021773178202576,-0.1738472368533127,-0.5532906742875504,-0.6795354066088048,0.1604229359947737,-0.0038411090296796,1.3148235462566351,-0.244195509295693,-0.7311087423694893,-0.7297087842069269,1.8283902179040352,-0.381614793864507,0.526061291190888,1.7089881380341676,12.458295851035473,-1.227025292986191,0.1421495374916891,-0.8005483100649081
1.96,0.1550352568750345,-0.0177280076631132,1.2935576204180093,-0.0112795067682853,0.0779716784617815,0.0025781852048767,-0.1806316297695425,-0.5445422184934869,-0.6430607812435264,0.15602526834159,-0.0180708607241459,1.2995341701888337,-0.2685076359321982,-0.7507299000156685,-0.6949487650237679,1.9058867762539609,-0.3392196458114879,0.4374227897031735,1.8237312682639228,12.322872281251875,-1.2232720671425563,0.1392815055168441,-0.8110964634786285
1.98,0.1513576476283691,-0.02855508921082,1.2810830254680667,-0.0059323922248486,0.0795731117400782,0.0030644320241087,-0.1868072767525796,-0.5389398872850902,-0.6062540037082564,0.1510197975224936,-0.0327911413597665,1.2851137946006108,-0.2928197625687033,-0.7703510576618476,-0.660188745840609,1.886970855073366,-0.3087823491518579,0.2801165604198352,1.8403388767634976,12.37391324901182,-1.2201322822091878,0.1359357311241925,-0.8220204860690079
2.0,0.1477531859093023,-0.0387595293740658,1.269914869063128,-0.0007782841056915,0.0805764073510004,0.0035470151737567,-0.1923294478797503,-0.5356483765308685,-0.571207292223702,0.1454065235374846,-0.0480019509365417,1.271562419491967,-0.3171318892052084,-0.7899722153080269,-0.6254287266574502,1.7815726219302093,-0.2761085563585314,0.1645755377110869,1.7523355742277202,12.4041120029151,-1.217165278459988,0.1322528205658279,-0.8330013933853201
2.02,0.1438479463929032,-0.0494514309774532,1.2588797993146803,0.004393420812341,0.081111272722679,0.0040465856415577,-0.1979295120337986,-0.5338320108959599,-0.5341534548347404,0.1381367135153148,-0.0655419482006092,1.241354504451943,-0.2179686130725927,-0.5276022384305424,-0.4712072907335859,1.875930947487636,-0.2800032077024159,0.0908182817454306,1.852691869448081,12.42497401548826,-1.2145205164692885,0.1286491477819013,-0.8430199196433933
2.04,0.139762503924773,-0.0603824039959931,1.2485564346597997,0.0007972259560127,0.0832835354737779,0.0039525135017554,-0.2100492508762434,-0.5555397769263398,-0.5001547787882238,0.1381367135153148,-0.0655419482006092,1.241354504451943,-0.2179686130725927,-0.5276022384305424,-0.4712072907335859,2.105958895939548,-0.6059869421222427,-1.085388301518997,1.6999338023258317,12.45381045933118,-1.2121932579486132,0.1316034922114727,-0.848085821007799
2.06,0.1354635184479976,-0.0715434587417841,1.238912297727683,-0.0118391457743645,0.0884484184745017,0.0032194262813103,-0.2187805272917729,-0.557936174321979,-0.4659614550527825,0.1381367135153148,-0.0655419482006092,1.241354504451943,-0.2179686130725927,-0.5276022384305424,-0.4712072907335859,1.76858792289138,-0.4365638207764755,-0.1198198697819563,1.709666186772063,12.29340521031554,-1.202662352290324,0.140927064795011,-0.8612730013811473
2.08,0.1312526281491563,-0.0820789668031189,1.2303769113131169,-0.0250292930147941,0.0946107730948624,0.002381391862291,-0.2237707644365613,-0.5507042063717464,-0.4342595787895039,0.1359570273845889,-0.0708179705849146,1.2366424315446072,-0.2230964461111612,-0.5259930108104772,-0.4512072904355627,1.644850134363798,-0.2495118572394178,0.3615983975116255,1.5850938131639292,12.29340521031554,-1.194051551715331,0.1522405811800711,-0.8760117691555117
2.1,0.1267512247816272,-0.0929574037389486,1.222036558287553,-0.0377478268446333,0.1013262822400577,0.0015183420549297,-0.2258732358063882,-0.5375135246978924,-0.4015046324707704,0.131597655123137,-0.0813700153535255,1.2272182857299354,-0.2333521121882982,-0.5227745555703468,-0.4112072898395162,1.7686866435472732,-0.105123568491347,0.6595340836927033,1.637747315936677,12.23990433477502,-1.1862188803584903,0.1630416831751247,-0.8908829291499658
2.12,0.12223827014515,-0.103526498245605,1.2143425812807305,-0.0482592576817332,0.1074229411837204,0.0007876006196264,-0.2252434593243071,-0.5204774141808822,-0.3695684019513745,0.1272382828616851,-0.0919220601221363,1.2177941399152636,-0.2436077782654352,-0.5195561003302164,-0.3712072892434698,1.81007492921782,0.0314888241040547,0.8518055258505075,1.5968115259697937,12.21418758011714,-1.1803342254374856,0.1719924277822678,-0.9042888688280888
2.14,0.1179837090977398,-0.1132263770124798,1.2076209215434923,-0.0559584526982636,0.1121213686057746,0.0002845600246488,-0.2226609190173285,-0.5019189278746102,-0.3395864464650473,0.1223661272963764,-0.1023131821287406,1.2103699941303945,-0.2538634443425722,-0.516337645090086,-0.3312072886474234,1.7677701937761594,0.1291270153489301,0.9279243153135996,1.4990977743163605,12.227857400647736,-1.175927196706717,0.1797452124373305,-0.917179563645799
2.16,0.1135731474341903,-0.1230430305142045,1.2011623212573797,-0.0617576833726736,0.1156059925413786,-3.2315490082076004e-06,-0.2185563265162976,-0.481087723763583,-0.3078404779182548,0.1174939717310677,-0.112704304135345,1.2029458483455249,-0.2641191104197092,-0.5131191898499555,-0.2912072880513768,1.9095766960826248,0.205229625051545,1.0415602055513618,1.587298427339623,12.227857400647736,-1.1727925600320972,0.185858332738337,-0.9302706130713028
2.18,0.1092521828463847,-0.1324324282039427,1.195338856310243,-0.065350232845369,0.1175101647440043,-2.54223124621922e-05,-0.2138321521988284,-0.459315609587579,-0.2760867991203454,0.1123654245138306,-0.123014964760946,1.1965217025755566,-0.2743747764968462,-0.5099007346098251,-0.2512072874553304,1.9394837559745075,0.2362087158734621,1.088605708800197,1.5876839398954734,12.276338993916395,-1.171306572850456,0.1903861529412505,-0.943025238928806
2.2,0.1050280773494641,-0.1413765961362491,1.1901528718264704,-0.0667461355459499,0.1179121260441632,0.0002251052676476,-0.2089951012972216,-0.4367075307020428,-0.2440917476937193,0.106980485644665,-0.1332451640055438,1.1910975568204896,-0.2846304425739832,-0.5066822793696947,-0.211207286859284,1.973705656950784,0.2418525450803371,1.1304039442768117,1.5997525713313032,12.304252204658042,-1.1712460451225484,0.1930493326288906,-0.9539438696296696
2.22,0.1011025860401066,-0.149447386438977,1.185822802984421,-0.0658316381855151,0.1170534998821764,0.0007209950163359,-0.2045825205851968,-0.414394932551192,-0.2132945134506628,0.0945783222846031,-0.1632119726713513,1.1779482844417846,-0.2162653317432325,-0.3929566746303322,-0.1440917462036032,1.9142835094384376,0.2206290356012399,1.1156299075425395,1.5398617121528262,12.345510839389137,-1.172441052542961,0.1938952733757677,-0.9645085827353588
2.24,0.0970006338364515,-0.1576024598906355,1.181777353180015,-0.0656140481034906,0.1161635875592009,0.0012064484807074,-0.2059702830180164,-0.4017616784005506,-0.1935930028109824,0.0945783222846031,-0.1632119726713513,1.1779482844417846,-0.2162653317432325,-0.3929566746303322,-0.1440917462036032,1.1722569220205974,-0.06938812164098,0.6316627075320713,0.9850755319840172,12.39619557946844,-1.1820419426178157,0.1954542632872639,-0.9712334721101354
2.26,0.0928734338923157,-0.1654730070556478,1.178121679055785,-0.0679324341734218,0.1163724356921643,0.0014644384752801,-0.2065365692539436,-0.3856641797520702,-0.1727757197614752,0.0945783222846031,-0.1632119726713513,1.1779482844417846,-0.2162653317432325,-0.3929566746303322,-0.1440917462036032,1.3160636538577175,-0.0283143117963582,0.8048749324240212,1.0408641524753612,11.64636122500906,-1.1797956247946817,0.1987042177758319,-0.9788737678297862
2.28,0.0889546488289351,-0.1726160342223137,1.1750622411395837,-0.0706672549446177,0.117029978416854,0.0016621023172514,-0.2059052193973361,-0.3670479264961749,-0.1503527207877824,0.0924156689671707,-0.1671415394176546,1.1765073669797486,-0.2177193778324346,-0.3842065034159901,-0.12409174590558,1.4575273332799752,0.0315674928303769,0.930812662794761,1.121149948684638,11.64636122500906,-1.1783438062871032,0.202533108516526,-0.9879913659218535
2.3000000000000003,0.0848532463714075,-0.17973109328984,1.1723244186211117,-0.0729725933157713,0.117811922657571,0.001924647928511,-0.2042319529738931,-0.3455796516205976,-0.1245157260767825,0.0880903623323061,-0.1750006729102612,1.1736255320556763,-0.220627470010839,-0.3667061609873059,-0.0840917453095335,1.6816933001839265,0.0836633211721504,1.0734137437788642,1.2918497355499956,11.83784008321254,-1.1773697448903124,0.2062533316174015,-0.9986889054467118
2.32,0.0807938920277394,-0.1864019914051013,1.170122486862326,-0.0741968496176458,0.118391284206925,0.0022976671582526,-0.2017899942481667,-0.3227350349846246,-0.0969133361519271,0.0837650556974414,-0.1828598064028679,1.1707436971316043,-0.2235355621892433,-0.3492058185586216,-0.044091744713487,1.7956416688933845,0.1220979362863167,1.1422308317986518,1.3801194962427716,12.01274591891888,-1.1769313004345698,0.2093693383736307,-1.012174779764055
2.34,0.0767889751705287,-0.1926041841870837,1.1684882870597697,-0.0738448933427189,0.1185768083083246,0.0028283231500718,-0.1988581245892248,-0.2988039566161602,-0.0678321590947451,0.0792943444536566,-0.1898439227740403,1.1698618622373345,-0.2264436543676476,-0.3317054761299374,-0.0040917441174406,1.8887874619751277,0.1465934829470966,1.196553918423218,1.4540588528591012,12.149674578678969,-1.1772504480349606,0.2111044780508353,-1.025402169768529
2.36,0.073040832204771,-0.1980461176207388,1.167483738848048,-0.0715673739430615,0.1182889172317035,0.003515595062529,-0.1959129342363368,-0.2755529287004859,-0.0393712034332204,0.0748236332098717,-0.1968280391452128,1.1689800273430648,-0.229351746546052,-0.3142051337012531,0.0359082564786058,1.8434413758765729,0.1472595176443991,1.1625513957837177,1.4230477830762325,12.272677874277178,-1.1785487873819736,0.2110912104562469,-1.039570969582157
2.38,0.0691539096614022,-0.203315595930986,1.167019995780714,-0.0673086245330757,0.1175203138219565,0.0044094474099105,-0.1930016949691562,-0.2532324824805367,-0.0084374371154342,0.0702802196616267,-0.2033746469556681,1.1690981924636965,-0.2322598387244563,-0.2967047912725689,0.0759082570746522,1.9128352857288995,0.145561963359031,1.116022310997458,1.546688315889312,12.34465183710654,-1.1802945583623197,0.2091763543047349,-1.0535525080197978
2.4,0.0653219719918695,-0.2081675718915911,1.1671842981741751,-0.0622528123047081,0.116357803245836,0.0053861053697721,-0.1904278608654806,-0.2334296380466399,0.0233116932647288,0.0656641038089217,-0.2094837462054063,1.1702163575992288,-0.2351679309028606,-0.2792044488438847,0.1159082576706986,1.8753563325158735,0.128691705183781,0.9901422216948396,1.5874565190081544,12.41825088607493,-1.1815704271197989,0.2064753703049233,-1.0664900110230982
2.42,0.061724911030703,-0.2124296632591659,1.1679345457669643,-0.0572952889607267,0.1149977199523222,0.0063370237562019,-0.1884111040298514,-0.2163929128027051,0.0540577457365076,0.0558005789485954,-0.2198390537939231,1.1683498828374117,-0.178925353722758,-0.155161087710279,0.1233116947548449,1.7604239956390866,0.1008378417814606,0.8518362621967396,1.5373026235889378,12.474448933727215,-1.1828917509277632,0.2033608632625154,-1.080300897495491
2.44,0.0579239824008628,-0.216704801135866,1.1692073061469566,-0.0558275363981573,0.1144151661183799,0.0070277673890134,-0.1921005048053284,-0.2115347436949022,0.0698241531614235,0.0558005789485954,-0.2198390537939231,1.1683498828374117,-0.178925353722758,-0.155161087710279,0.1233116947548449,0.8452707972161128,-0.1844700387738512,0.242908455390145,0.7883203712457966,12.525525920712424,-1.193796609320131,0.2038989823420252,-1.0873029494183968
2.46,0.0540492218005013,-0.220839865226372,1.170764429663251,-0.0600729458461007,0.1156669556839089,0.007229323951415,-0.1949365067512671,-0.20100903526263,0.0853239493891114,0.0558005789485954,-0.2198390537939231,1.1683498828374117,-0.178925353722758,-0.155161087710279,0.1233116947548449,0.9474665272958466,-0.1418000972969346,0.5262854216136106,0.7749898113843918,11.244268428629766,-1.1891131416312604,0.2094408305638747,-1.0965619690368442
2.48,0.0501379625230687,-0.2246850837659167,1.172667799681227,-0.0659947705535981,0.1180050397268143,0.0072590080216874,-0.1958855951444053,-0.1837965193732922,0.1041688769509109,0.0540113254113679,-0.2213906646710259,1.1695829997849598,-0.1766248522942134,-0.1395073776430068,0.1433116950528682,1.2770109306777375,-0.0474544196569115,0.8606257944668918,0.9422463780899768,11.446290712170594,-1.1845849060367852,0.2165590292066728,-1.1071575755859997
2.5,0.0464227428763139,-0.2279791360962843,1.1748507615261974,-0.0712233390093676,0.1206758689058579,0.0072908024919901,-0.1950497196577047,-0.1639546688092964,0.1246401295977664,0.0504328183369127,-0.2244938864252315,1.1720492336800568,-0.1720238494371244,-0.1081999575084624,0.1833116956489146,1.4260696919896614,0.0417937743350291,0.9920925281997894,1.023562632342775,11.67936862843635,-1.1809837286390987,0.224008036701532,-1.119942188463109
2.52,0.042546321282325,-0.231018929239617,1.1775927675202085,-0.0756604601658098,0.1234852939182233,0.0074046036197026,-0.1925434241233837,-0.1412075622793528,0.1485705444173623,0.0468543112624575,-0.227597108179437,1.1745154675751537,-0.1674228465800354,-0.0768925373739181,0.2233116962449611,1.6555792990883098,0.1253147767160498,1.1373553264971816,1.1965207409797938,11.88337570233125,-1.1785589612210718,0.2308806502544516,-1.1360305122163452
2.54,0.0387349084898905,-0.2335886234546399,1.1808339762091715,-0.0788078119812401,0.1259256393263782,0.007644965605216,-0.1886845765763508,-0.1171219691800457,0.1744084247930181,0.0435058543308568,-0.2291349589269154,1.178981701500053,-0.1628218437229463,-0.0455851172393737,0.2633116968410075,1.776655961098922,0.1929423773516458,1.2042796549653538,1.2918940187827936,12.077380032801557,-1.178253332615473,0.2368866629474836,-1.155683220005275
2.56,0.0350108665676572,-0.2356667040954727,1.18460286635361,-0.0805834150295328,0.1277375756007342,0.008042327715296,-0.1839676620974893,-0.0922269233173457,0.2011440369258975,0.0401573973992561,-0.2306728096743938,1.183447935424952,-0.1582208408658573,-0.0142776971048293,0.303311697437054,1.8417420739795465,0.2358457239430761,1.2447522931349992,1.3367806066439656,12.235119965687772,-1.1805841567414417,0.2424514309975687,-1.1796120385397917
2.58,0.031564291990171,-0.2371670479018964,1.1886826303196003,-0.0807387323968552,0.1287860544430707,0.0085932824066344,-0.179143821777873,-0.0672650219290839,0.2269385133844955,0.0369239655390826,-0.2314279749185085,1.1889141693647525,-0.1536198380087682,0.017029723029715,0.3433116980331004,1.810884433170453,0.2411920159808164,1.2480950694130877,1.2897238229299028,12.322356784115073,-1.1860216846917009,0.2467210529429184,-1.205258916344038
2.6,0.0280355533986156,-0.2382285898923619,1.1935141275373842,-0.0787875589936973,0.1291986311596677,0.0093882407541535,-0.1740510521006917,-0.0404482647925627,0.2548814946014218,0.0338055587503364,-0.2314004546592596,1.1953804033194542,-0.1490188351516792,0.0483371431642593,0.3833116986291469,1.953128877975972,0.2546384838590654,1.340837856826061,1.3971490608463115,12.394016579313757,-1.192169835679439,0.2484085082317273,-1.2291369875669136
2.62,0.0246067752589728,-0.2387642827529505,1.1989127374191846,-0.0746166970939437,0.1289869796053973,0.0103938208212149,-0.1691521596798969,-0.015210532132442,0.2836344622125943,0.0193330007935811,-0.24025100313199,1.2062582022674553,-0.1546407958042954,0.0472476243823754,0.3548814960915379,1.9285197971652897,0.244944621039736,1.2618866330060363,1.437648380558626,12.56372210086829,-1.198345642541577,0.2475128888205975,-1.2514706570900545
2.64,0.0214093897786779,-0.2388504261410909,1.2043882352132942,-0.069692719175586,0.12831268191974,0.0114513554629,-0.1678816327954771,0.0045257934807218,0.2902100126644514,0.0193330007935811,-0.24025100313199,1.2062582022674553,-0.1546407958042954,0.0472476243823754,0.3548814960915379,1.042082831421983,0.0635263442209918,0.9868162806581964,0.3287775225928574,11.008587634990365,-1.2212230161105824,0.247053529445194,-1.282876976178167
