t,x,y,z,roll,pitch,yaw,v_x,v_y,v_z,ref_x,ref_y,ref_z,ref_v_x,ref_v_y,ref_v_z,a_com,a_x,a_y,a_z,thrust,wind_x,wind_y,wind_z
0.0,-2.379717250458941,1.1493806192149545,2.8097801973746,0.0147866841623049,0.1498800441283301,0.0282631765383544,0.0015263964311314,0.0061820707383185,-0.0034476184862286,-2.3796650761187346,1.1494834405239849,2.8096741636710134,0.079756322177373,-0.0959621661682392,-0.1034266059164033,0.3620564800729701,0.0763198215565703,0.3091035369159299,-0.1723809243114348,10.658303980492748,-1.4134943320489923,0.1778224280639174,-1.2796384660291698
0.02,-2.3797925978336254,1.149730413475018,2.809502016232526,0.0238103241993288,0.1520307568947585,0.0289395046969588,-0.0087852411028261,0.0248154403271198,-0.0255437568790951,-2.379640930637384,1.1496897227518703,2.809607816450289,0.0752539669052792,-0.0938179307517975,-0.1034476199763448,1.5344149233024398,-0.5155818766978768,0.9316684794400628,-1.1048069196433232,10.65823925249424,-1.4076566999941966,0.1669584250974853,-1.2776693428694736
0.04,-2.380046191452713,1.1502495944504711,2.808717766728392,0.038799585558481,0.1575050518509807,0.0301446518940531,-0.0155718439525421,0.025477557410779,-0.0517613210779645,-2.379640930637384,1.1496897227518703,2.809607816450289,0.0752539669052792,-0.0938179307517975,-0.1034476199763448,1.3544898022817355,-0.3393301424858012,0.0331058541829571,-1.3108782099434706,9.272624932755662,-1.3974672418250391,0.1491659372641078,-1.284902382398574
0.06,-2.380396567208225,1.1507080351301198,2.807406218521648,0.0541350113658455,0.1645513898319179,0.0315099156235291,-0.0187963428113108,0.019984478268669,-0.078100096471902,-2.379640930637384,1.1496897227518703,2.809607816450289,0.0752539669052792,-0.0938179307517975,-0.1034476199763448,1.354900734928552,-0.1612249429384353,-0.2746539571054975,-1.3169387696968755,9.179680572153757,-1.38662693392305,0.1318804850354512,-1.2915073960452808
0.08,-2.3807607825182995,1.151008323400036,2.8056800439442418,0.0681794910917295,0.1718073731131299,0.0328836318764676,-0.0191510670398458,0.0116251108941495,-0.1023292895391832,-2.378888390968331,1.1487515434443525,2.808573340250525,0.0899994810001087,-0.1138179310498207,-0.123447620274368,1.2816577632816766,-0.0177362114267509,-0.4179683687259762,-1.2114596533640574,9.199671847751231,-1.3749786510861943,0.1143687326433093,-1.2979155511890124
0.1,-2.3811266805021067,1.1511240360666328,2.803371509936423,0.0822871294385351,0.1795243313112659,0.0343741277587283,-0.0171814502249139,7.986076387455027e-05,-0.1272559672657507,-2.3773833116302256,1.1468751848293164,2.8065043878509983,0.1194905091897678,-0.1538179316458671,-0.1634476208704144,1.3770543321274884,0.0984808407465988,-0.5772625065137488,-1.2463338863283748,9.26339125650702,-1.363522019205415,0.0977110722224882,-1.3035284038700603
0.12,-2.3814300960865324,1.1509807309099676,2.800573816497321,0.0957047560615024,0.1870440132140293,0.035880231652875,-0.0130601789138434,-0.0141182723566074,-0.1513175790061597,-2.37587823229212,1.1449988262142805,2.804435435451472,0.148981537379427,-0.1938179322419136,-0.2034476214664609,1.4120313566565796,0.2060635655535231,-0.7099066560240979,-1.203080587020451,9.316477128083534,-1.3535069179276895,0.0827917656035679,-1.3066429807478503
0.14,-2.3816254044092537,1.1505583584610726,2.797469165341566,0.1078350491240718,0.193878398355143,0.0373021332088949,-0.0075501762923426,-0.0298669858152931,-0.1743304646066751,-2.3728986015445312,1.1411224675694422,2.800366483022142,0.178472565569086,-0.23381793283796,-0.2434476220625074,1.4212450599343731,0.2755001310750404,-0.7874356729342888,-1.1506442800257686,9.382064191769132,-1.343789673952393,0.0678901820504463,-1.3098467659880249
0.16,-2.3817025225723576,1.14976718315244,2.79372471981562,0.1199816096527356,0.2006926108857356,0.0387696777772701,-0.0002875648180439,-0.0486807430844139,-0.1989545166514172,-2.3699189707969426,1.137246108924604,2.7962975305928133,0.2079635937587452,-0.2738179334340065,-0.2834476226585539,1.591419906176696,0.3631305737149355,-0.94068786345604,-1.231202602237104,9.391164963738447,-1.334893751814293,0.0537027823966043,-1.313507639692283
0.18,-2.3816184946279715,1.1485760584178546,2.78948898060475,0.1315170737891078,0.2070984588145616,0.0401904303480021,0.0084869042746068,-0.0697381809600453,-0.2234084362644728,-2.3662020643446127,1.1323697502648646,2.7912285781485826,0.2374546219484043,-0.313817934030053,-0.3234476232546003,1.6721252810314051,0.4387234546325387,-1.0528718937815658,-1.2226959806527813,9.392027936775776,-1.3254702520066743,0.0402001749401207,-1.3157730513950874
0.2,-2.381343210917538,1.1469324733182906,2.784767104474321,0.1421949519885762,0.213098067676018,0.0415306217352211,0.0187499517648224,-0.0936572483155603,-0.2475532637092465,-2.361747882187541,1.126493391590224,2.785159625689451,0.2669456501380634,-0.3538179346260994,-0.3634476238506467,1.7751229670659303,0.5131523745107781,-1.1959533677757503,-1.2072413722386848,9.474916319475597,-1.3167676400919506,0.0283276385996178,-1.3169883302916288
0.22,-2.380877956070569,1.1448897693860904,2.7798362150858837,0.1507723667132212,0.2184414268461007,0.0426608821989566,0.0298183142296254,-0.1197628341190807,-0.2702445527083364,-2.3804057133292966,1.1422496109025126,2.772389441288859,0.1010794410555366,-0.1936572498056764,-0.3475532651993626,1.8158364837158725,0.5534181232401538,-1.3052792901760215,-1.1345644499544976,9.474916319475597,-1.3082595521809863,0.0178122173143475,-1.317351234783022
0.24,-2.3801217688928102,1.1420591889104357,2.774268899388836,0.1540863291665689,0.223706401169405,0.0433901557182904,0.0454567715445478,-0.1602186613999042,-0.2844721646855715,-2.3804057133292966,1.1422496109025126,2.772389441288859,0.1010794410555366,-0.1936572498056764,-0.3475532651993626,2.282356375952951,0.7819228657461189,-2.022791364041176,-0.7113805988617522,9.52360793409116,-1.3006797164897654,0.0145165826217965,-1.31487248108314
0.26,-2.3790399068259225,1.1384862423220496,2.768439756605848,0.1510706413987107,0.2286132203585638,0.0435821437638311,0.0620354735090756,-0.1940222633160656,-0.2976391199964674,-2.3804057133292966,1.1422496109025126,2.772389441288859,0.1010794410555366,-0.1936572498056764,-0.3475532651993626,1.99430788338591,0.8289350982263871,-1.6901800958080693,-0.658347765544795,10.254430111046531,-1.2947831725432728,0.0183044739072258,-1.3140793314321455
0.28,-2.3777006320258387,1.1345263190360255,2.76265101722266,0.1458122785475591,0.2329707356640332,0.0435052598968874,0.078203599416184,-0.220639293705867,-0.310973262886376,-2.379394918918741,1.140313038404456,2.7689139086368653,0.1175453389136795,-0.2136572501036996,-0.3675532654973859,1.6938668548090077,0.8084062953554227,-1.33085151949007,-0.666707144495432,10.176417446302366,-1.2884445569358418,0.0252299475858509,-1.312694077829721
0.3,-2.375954730926848,1.1298552578935257,2.756271978852784,0.139894447158655,0.2372618348200235,0.0433076477060683,0.0956160290811006,-0.2449224196191325,-0.3263001197547395,-2.3773733300976305,1.1364398934083424,2.761962843332878,0.1504771346299652,-0.2536572506997461,-0.4075532660934323,1.6791184088819295,0.8706214832458287,-1.214156295663274,-0.7663428434181746,9.973785089060584,-1.2821833783856649,0.0324251538907225,-1.3119712824773897
0.32,-2.373856496281887,1.1247231060820964,2.749570718286871,0.1344112120404327,0.2412762982990187,0.0430587119055774,0.1134336073705621,-0.2670900047923769,-0.3430633933333256,-2.37535174127652,1.1325667484122288,2.7550117780288907,0.1834089303462509,-0.2936572512957925,-0.4475532666894787,1.6506629498361094,0.8908789144730762,-1.1083792586622203,-0.8381636789293045,9.973785089060584,-1.2765381015448722,0.0386781776963668,-1.3111125607998646
0.34,-2.3713970690125312,1.11916342870486,2.7425221638868984,0.1295952918904535,0.2450357941564477,0.042784395014762,0.1317084583426628,-0.2878339443976923,-0.3609702825917692,-2.371683562669595,1.1266936033863129,2.746060712695101,0.2163407260625366,-0.333657251891839,-0.4875532672855252,1.6469197698397608,0.9137425486050322,-1.037196980265767,-0.8953444629221791,9.821656689905469,-1.2706859894892155,0.0443524383613471,-1.310294745685159
0.36,-2.3687164975866577,1.113507526941309,2.7354892448990067,0.1256887267054835,0.2483850196446755,0.042511037645119,0.1496165542081549,-0.306576397531855,-0.3784586665715442,-2.36801538406267,1.1208204583603971,2.7371096473613115,0.2492725217788223,-0.3736572524878855,-0.5275532678815718,1.5635080917906974,0.8954047932746068,-0.9371226567081392,-0.874419198988749,9.821656689905469,-1.2650897948901425,0.0491074444006963,-1.3089774450887492
0.38,-2.3655213565334448,1.1071692351969613,2.727721967074729,0.1220118916906443,0.2516902823601084,0.0421972034091076,0.1690280644746417,-0.3261889011352928,-0.3973649769165936,-2.363523910562838,1.11394731331958,2.7271585820126205,0.282204317495108,-0.4136572530839319,-0.5675532684776181,1.6725023163542283,0.9705755133243372,-0.9806251801718902,-0.9453155172524708,9.793396165487138,-1.2598517505197524,0.0532565222534389,-1.30737210636415
0.4,-2.361931863906079,1.1004419485599632,2.7195734046570337,0.1184520129989204,0.2547834737278847,0.041838460884923,0.1890230363493808,-0.3454130123778178,-0.4165307036205347,-2.3582091421700984,1.1060741682638615,2.7162075166490287,0.3151361132113937,-0.4536572536799783,-0.6075532690736646,1.6857419979246118,0.9997485937369572,-0.9612055621262466,-0.958286335197056,9.768050975282677,-1.255113656866468,0.0570195722218341,-1.3054347144032623
0.42,-2.3581462208535724,1.0937008169256488,2.7114754860717976,0.115061881092251,0.257536053189044,0.0414517802095066,0.2085242576956259,-0.3630781579097817,-0.4349096136160126,-2.3524807120886098,1.0831712979410724,2.698746869476007,0.2735272160058864,-0.4454130138679339,-0.5165307051106509,1.6047891865308874,0.9750610673122536,-0.8832572765981983,-0.9189454997738932,9.756043960048371,-1.2504138968385667,0.0609319649141117,-1.303125027948895
0.44,-2.3536988932904674,1.0862423980653566,2.702772195772584,0.1119066058706835,0.2601458203942011,0.0410188267605886,0.2355122884731928,-0.3820353735499885,-0.4334422305437984,-2.3524807120886098,1.0831712979410724,2.698746869476007,0.2735272160058864,-0.4454130138679339,-0.5165307051106509,1.6506688365332554,1.349401538878345,-0.9478607820103402,0.0733691536107111,11.094368703468716,-1.2443590074614062,0.0644248131097561,-1.2961007655746164
0.46,-2.3487083212980244,1.0784167801164424,2.6940994255814448,0.1096353525042709,0.2624365352314067,0.040593131163014,0.2622091288627513,-0.3998226570182704,-0.4340619440145493,-2.3524807120886098,1.0831712979410724,2.698746869476007,0.2735272160058864,-0.4454130138679339,-0.5165307051106509,1.6042854988688915,1.3348420194779234,-0.8893641734140922,-0.0309856735375452,10.810509364991958,-1.2428444948801454,0.0664226181719044,-1.298799443102318
0.48,-2.343473413710308,1.0706528999564384,2.685808242132408,0.1080692032528261,0.2642090164420608,0.0401702817808143,0.2874752851143061,-0.4165757337082154,-0.4386495348349257,-2.349745439928551,1.078717167802393,2.6935815624249004,0.2904280519371875,-0.4654130141659571,-0.5365307054086741,1.5330445360803813,1.2633078125777435,-0.8376538344972484,-0.2293795410188204,10.810509364991958,-1.2410174611754228,0.0677336410957315,-1.3003209617556108
0.5,-2.337446459853717,1.0621429625205192,2.6769544663461016,0.106886889633498,0.2653853882905317,0.039668115075199,0.3138202621581016,-0.4335333154839536,-0.4466100848093675,-2.344274895608433,1.0698089075250343,2.683250948322688,0.3242297237997897,-0.5054130147620036,-0.5765307060047206,1.6163135146178684,1.3172488521897756,-0.8478790887869098,-0.3980274987220922,10.571202367869772,-1.239886643140104,0.0684724393004905,-1.299962278038456
0.52,-2.330896099151381,1.053298996658455,2.667913576605629,0.1062292525945888,0.2657000969063309,0.0390962190984181,0.3397992472632161,-0.4500208908870893,-0.4571585716229845,-2.3388043512883154,1.0609006472476756,2.6729203342204744,0.358031395662392,-0.5454130153580501,-0.616530706600767,1.626359726369674,1.2989492552557214,-0.824378770156789,-0.5274243406808488,10.383005047413462,-1.2396865666279542,0.0685736735532459,-1.2979979865680558
0.54,-2.3238311405840557,1.044129489791168,2.658637776783185,0.1061378955277167,0.265045702014596,0.0384471448313031,0.3653169519763955,-0.4661515275202405,-0.4698580695262255,-2.3316437233750675,1.0499923869405146,2.660589720088459,0.3918330675249942,-0.5854130159540966,-0.6565307071968135,1.6375499526840411,1.2758852356589716,-0.8065318316575587,-0.6349748951620521,10.235907868220238,-1.240407797315983,0.0679844710986216,-1.294218623026948
0.56,-2.316649012232895,1.035120302771429,2.649582449634876,0.1066039200664437,0.2634126310744037,0.0377482385000838,0.3893421569730882,-0.4814292336089082,-0.4826705764103926,-2.32448309546182,1.0390841266333537,2.6482591059564435,0.4256347393875965,-0.625413016550143,-0.69653070779286,1.5610726369404249,1.2012602498346374,-0.7638853044333843,-0.6406253442083537,10.116528264363296,-1.2423444225843776,0.0666585554413731,-1.288493255885231
0.58,-2.3085961627065203,1.0253127267405635,2.639779318953717,0.1073706234171078,0.2603665470861858,0.0368735035108538,0.4145925745191586,-0.4985043536597979,-0.4969671653741416,-2.316477425752007,1.027175866311291,2.6349284918095277,0.4594364112501987,-0.6654130171461894,-0.7365307083889063,1.683401145747491,1.262520877303519,-0.8537560025444868,-0.7148294481874512,10.068608721609962,-1.2458466193096824,0.0649237043277699,-1.2809767785641233
0.6,-2.3000411953160373,1.0151522337860566,2.6296825515868623,0.1078315070189213,0.2555485094282521,0.0357684263504996,0.4393876980637051,-0.516623733242434,-0.5119478035091185,-2.3076267142456293,1.014267605974328,2.6205978776477097,0.4932380831128009,-0.7054130177422359,-0.7765307089849528,1.708456603911915,1.2397561772273218,-0.9059689791318049,-0.7490319067488427,10.01910146532191,-1.251694557907599,0.0636187099386606,-1.271084114777571
0.62,-2.2914736141594503,1.0051545339245809,2.619806801469771,0.1074564545661728,0.2494251446129768,0.0344823679047451,0.4608926355456398,-0.5346844245373429,-0.5267477515669804,-2.278071810412852,0.9893210471239348,2.6040851614114064,0.5187650587056614,-0.6166237347325502,-0.6119478049992346,1.587206168608324,1.0752468740967358,-0.903034564745442,-0.7399974028930945,9.915665034049198,-1.259442177696159,0.0631841118906243,-1.257587079678164
0.64,-2.2819781650802264,0.994202933144115,2.609382930442284,0.1050551161530038,0.2423018893009867,0.0329170379699595,0.4876011352814334,-0.5593019879878061,-0.5133275026025322,-2.278071810412852,0.9893210471239348,2.6040851614114064,0.5187650587056614,-0.6166237347325502,-0.6119478049992346,1.9361504788124304,1.335424986789682,-1.2308781725231588,0.6710124482224078,9.915665034049198,-1.2650684162515844,0.0651753830619644,-1.2370655479908297
0.66,-2.2719782270028017,0.9827936375380296,2.599227460400047,0.1006977910483749,0.2353339380905505,0.0312599489393761,0.5108350829973566,-0.5799044638593652,-0.502956177829207,-2.278071810412852,0.9893210471239348,2.6040851614114064,0.5187650587056614,-0.6166237347325502,-0.6119478049992346,1.6369504543954725,1.1616973857961566,-1.0301237935779584,0.5185662386662626,11.85197370192236,-1.274870591493704,0.0687432661293446,-1.2300360767129883
0.68,-2.26154824338368,0.971006776225664,2.5892174169946585,0.095999275295931,0.2287307454633015,0.0296574335924758,0.5307577948595346,-0.5975664950822923,-0.4988146346981869,-2.272884159825796,0.9831548097766094,2.597965683361414,0.5346405308340526,-0.6366237350305733,-0.6319478052972578,1.3472325099710123,0.9961355931088988,-0.8831015611463544,0.2070771565510026,11.363479034151167,-1.2842051768790808,0.0729053515677665,-1.222254743819542
0.7000000000000001,-2.251302058404057,0.9595033942033048,2.5797241407729525,0.0917014702604958,0.2228664289588677,0.0282252173258848,0.5466883790733408,-0.6123877602201346,-0.5006136235847305,-2.262508858651682,0.9708223350819584,2.585726727261429,0.5663914750908352,-0.6766237356266198,-0.6719478058933043,1.0916613196102756,0.796529210690311,-0.741063256892116,-0.0899494443271781,10.917213873794935,-1.2924208884351938,0.0769264145014267,-1.213528396740125
0.72,-2.240218153037828,0.9471075568113833,2.569649519786245,0.0876265353214901,0.2173078234037072,0.0268431089979635,0.5606753545200152,-0.6263990962746718,-0.5069313261035898,-2.252133557477569,0.9584898603873072,2.573487771161445,0.5981424193476177,-0.7166237362226663,-0.7119478064893507,1.03906975860123,0.6993487723337188,-0.7005668027268597,-0.3158851259429662,10.550380533542013,-1.299442220601103,0.0804812448685412,-1.2042913800952737
0.74,-2.228884303232728,0.9344442363283788,2.559402417905169,0.0841268202496005,0.2127278066281411,0.0256195275000103,0.5719235909878492,-0.6392904346105889,-0.5174154455093765,-2.240170709090617,0.944157385662854,2.559248815031657,0.6298933636044002,-0.7566237368187128,-0.7519478070853972,1.003277363746172,0.5624118233917008,-0.6445669167958523,-0.524205970289332,10.257572641651675,-1.304632299082244,0.0832946689532512,-1.1957863404955271
0.76,-2.217929295704052,0.9221832647652743,2.5494542819040507,0.0813424936010471,0.2097001563844015,0.0246298389404591,0.5806269294720444,-0.6507736061032495,-0.5292115805031515,-2.2282078607036646,0.9298249109384008,2.5450098589018704,0.6616443078611828,-0.7966237374147592,-0.7919478076814437,0.931074821230406,0.4351669242097622,-0.5741585746330324,-0.5898067496887538,10.016527916103769,-1.307886685214997,0.0856675228019395,-1.187587508081526
0.78,-2.2062310049909613,0.9090396659423604,2.5387243848380323,0.0787295763909232,0.2082469433243663,0.0237692207116118,0.5887529811202482,-0.6629025422662393,-0.5432189665372725,-2.2154512387102927,0.9144924361990462,2.5297709027571824,0.6933952521179653,-0.8366237380108056,-0.83194780827749,1.0116208174805985,0.4063025824101895,-0.6064468081494911,-0.7003693017060497,9.89678844545233,-1.3081872590656012,0.0876339379548335,-1.181941497413588
0.8,-2.194366848079843,0.8956563175193967,2.5276981281210955,0.0761525760189043,0.2083492140938522,0.0230469984185258,0.5974070846335663,-0.6747040157071155,-0.55876557074233,-2.201900843110501,0.8981599614447906,2.513531946597593,0.7251461963747478,-0.876623738606852,-0.8719478088735365,1.067549981621048,0.4327051756659039,-0.590073672043806,-0.7773302102528745,9.79425152744625,-1.3060272940989197,0.0895379832307683,-1.1784838898151098
0.8200000000000001,-2.182319848376201,0.8820427355685263,2.516346465283537,0.0735066637887063,0.2093083029489271,0.0223953089604002,0.6069443530462693,-0.6859386155174465,-0.5756680155988259,-2.1644964938481643,0.8619211167340409,2.4997598495839792,0.655970700760342,-0.7747040171972316,-0.6587655722324461,1.121236330798635,0.4768634206351485,-0.5617299905165518,-0.8451222428247918,9.70667882770158,-1.303673920046263,0.0914888621629424,-1.1760017310202948
0.84,-2.1705802841969,0.86887737006318,2.505567047513572,0.0706538410572032,0.2093055873304005,0.0216949283402395,0.6280923469617413,-0.6990238181759105,-0.5581152032364359,-2.1644964938481643,0.8619211167340409,2.4997598495839792,0.655970700760342,-0.7747040171972316,-0.6587655722324461,1.5219735519147384,1.0573996957736032,-0.6542601329232012,0.8776406181194962,9.632680356099629,-1.296246346362884,0.0936114274469297,-1.167642675605734
0.86,-2.1577980787360023,0.8547781022196779,2.494550960906778,0.0677235677231394,0.2069543630496267,0.0208123320095052,0.6487621541385339,-0.7102329557159551,-0.5448685356666051,-2.1644964938481643,0.8619211167340409,2.4997598495839792,0.655970700760342,-0.7747040171972316,-0.6587655722324461,1.3494071798599474,1.0334903588396285,-0.56045687700223,0.662333378491542,11.361033133863202,-1.3008775000307482,0.0959072155150956,-1.1684416032683205
0.88,-2.144626821633834,0.8404666092489397,2.483717743558272,0.0652616528449041,0.2022104312537224,0.0198232144181548,0.666977438516818,-0.7203787998181066,-0.539381423942506,-2.157936786840561,0.8541740765620686,2.4931721938616547,0.6676834239856971,-0.7947040174952548,-0.6787655725304693,1.0780110535143752,0.9107642189142062,-0.5072922051075734,0.2743555862049551,10.876058596242729,-1.3088254675724436,0.097715763704848,-1.165327991212724
0.9,-2.131134210157742,0.8259620804783389,2.4729194689452045,0.0632699493586066,0.1954920311551759,0.0187648595491599,0.6809747654317245,-0.7296672037607471,-0.5406163047692786,-2.144817372825354,0.838679996218124,2.479996882417006,0.6911088704364075,-0.8347040180913012,-0.7187655731265158,0.84220623843088,0.6998663457453258,-0.4644201971320261,-0.0617440413386294,10.876058596242729,-1.319063397349379,0.0991712957846294,-1.1568375305824614
0.92,-2.1180985646209307,0.8120182267898686,2.4625878269793646,0.0618562801497294,0.1882244009024579,0.0177621206349086,0.6902569648804782,-0.7377048198698815,-0.5468026873796449,-2.1316979588101472,0.8231859158741793,2.466821570972357,0.7145343168871178,-0.8747040186873477,-0.7587655737225623,0.6874478691619109,0.4641099724376818,-0.4018808054567169,-0.3093191305183151,10.47916172886471,-1.3293840876298637,0.1000579393121537,-1.145544514215158
0.94,-2.1042258866130554,0.7971848498901231,2.4515422816692443,0.0611067684722671,0.1804982802288212,0.0167760666696228,0.6962673276594129,-0.7452560864464343,-0.5575955838802796,-2.117407272472405,0.8056918355004324,2.4516462594979056,0.7379597633378281,-0.9147040192833942,-0.7987655743186087,0.7239349116425826,0.300518138946737,-0.3775633288276403,-0.5396448250317376,10.150596063323064,-1.3388806822707149,0.1001455560302114,-1.1329827461545434
0.96,-2.090266732467516,0.7822069856186801,2.440250461101312,0.0614032423310222,0.1733931690547006,0.0159155892376917,0.6992692789789707,-0.7522887170908013,-0.5710017557738981,-2.1031165861346626,0.7881977551266854,2.4364709480234543,0.7613852097885384,-0.9547040198794406,-0.8387655749146552,0.7716784471953502,0.1500975659778913,-0.3516315322183494,-0.670308594680924,9.874976787376,-1.346218252836137,0.0992250269802671,-1.1207910069843372
0.98,-2.076968903762788,0.7678390233315422,2.429257597361017,0.0624709469939579,0.1675352096819544,0.0152128013158136,0.700299382832427,-0.7597804262205209,-0.5854427684263503,-2.0882402636356527,0.7697036747380374,2.420295636534102,0.7848106562392486,-0.994704020475487,-0.8787655755107016,0.8150608352471543,0.0515051926728127,-0.3745854564859818,-0.7220506326226117,9.729709408851704,-1.3521583672055617,0.0974132594160625,-1.108862580043095
1.0,-2.0629681864193263,0.7525545042237831,2.417373818748439,0.0640639097818071,0.1625059342941462,0.0145779515649331,0.6995862862861946,-0.7682970655429402,-0.6022304417128479,-2.0727783049753747,0.7502095943344881,2.4031203250298483,0.8082361026899589,-1.0347040210715337,-0.918765576106748,0.9418965261728738,-0.0356548273116208,-0.4258319661209653,-0.8393836643248775,9.620845198935967,-1.3562500599775975,0.0951356494616535,-1.0983869242012505
1.02,-2.0490005080702685,0.7370904029878617,2.4051391276135394,0.0658097424436689,0.1590167537005924,0.014053518224127,0.6971211000513212,-0.7776854962762105,-0.6204402205657832,-2.0279888721050168,0.7141396509466361,2.3872622966627963,0.7631719848907783,-0.8682970670330563,-0.702230443202964,1.0317652599778124,-0.1232593117436675,-0.4694215366635168,-0.9104889426467644,9.52028755252013,-1.3581846759297531,0.0927371759239475,-1.0898277932799867
1.04,-2.0350617811763825,0.7213600719222616,2.3929140987504183,0.0659231814105412,0.1584196307279067,0.01361180097159,0.6972898716579544,-0.7942267222165672,-0.6011397375547038,-2.0279888721050168,0.7141396509466361,2.3872622966627963,0.7631719848907783,-0.8682970670330563,-0.702230443202964,1.2709733316695675,0.00843858033166,-0.8270612970178337,0.965024150553967,11.77319238358723,-1.3522397069847538,0.0919456623217158,-1.07648622747711
1.06,-2.0218098963658777,0.7061299723982706,2.381617931544901,0.0639075162391199,0.1609078935336796,0.0132561704373795,0.6980142247966065,-0.807932038922096,-0.5890145270703316,-2.0279888721050168,0.7141396509466361,2.3872622966627963,0.7631719848907783,-0.8682970670330563,-0.702230443202964,0.9156706869265976,0.0362176569326022,-0.6852658352764385,0.6062605242186103,11.77319238358723,-1.3503406876732786,0.0933001941153231,-1.0842008831997436
1.08,-2.007829942861778,0.6898428655969477,2.3699022681606454,0.0603879485892284,0.165627438433395,0.0129238607779029,0.7002150435190085,-0.819586118303811,-0.5835039202306984,-2.020357152256109,0.7054566802763056,2.380239992230767,0.775889124611695,-0.8882970673310795,-0.7222304435009872,0.6538882875254829,0.1100409361201038,-0.5827039690857516,0.2755303419816612,11.19243383115372,-1.3455682648621976,0.0961715569034608,-1.0930394636477248
1.1,-1.9937897121059915,0.6733560707855984,2.3582295504310267,0.0566641662404734,0.17149931525819,0.0126450597227465,0.7039218175428256,-0.8284330488657655,-0.5843068377163675,-2.0050937125582933,0.6880907389356444,2.3661953833667075,0.8013234040535285,-0.928297067927126,-0.7622304440970337,0.4812822210524782,0.1853387011908513,-0.4423465280977257,-0.0401458742834537,10.73324818339006,-1.3393452951502078,0.0993470407977738,-1.1020897455673817
1.12,-1.9796604623700091,0.6567117945100445,2.3464820040909853,0.053349956592974,0.1777711744567587,0.0124135163859232,0.7090240517717856,-0.8356276128550049,-0.5904100470806453,-1.9898302728604775,0.6707247975949833,2.352150774502648,0.826757683495362,-0.9682970685231724,-0.8022304446930801,0.5362921537432723,0.2551117114480028,-0.3597281994619672,-0.3051604682138886,10.37720826045097,-1.3328136515765503,0.1020624417629427,-1.11002791323203
1.14,-1.966130411034457,0.6407771883874522,2.3351713060649777,0.0507741298663178,0.183628176489915,0.012226355274259,0.7150645004097335,-0.8414653858543568,-0.5998996876277554,-1.9732951191905703,0.6513588562245198,2.3361061656087867,0.8521919629371956,-1.0082970691192188,-0.8422304452891266,0.6336795149225765,0.3020224318973918,-0.2918886499675976,-0.474482027355505,10.10750572365123,-1.3258122377128283,0.1043784606159159,-1.1171840811824785
1.16,-1.951750694942952,0.6238911804318868,2.323052640597396,0.048748979772464,0.1893826066085503,0.0120584380605458,0.722705230469783,-0.8469492814648946,-0.6115490321240797,-1.9567599655206636,0.6319929148540564,2.3200615567149248,0.8776262423790291,-1.0482970697152654,-0.8822304458851731,0.7486005178195216,0.3820365030024752,-0.2741947805268874,-0.5824672248162188,9.90517655147778,-1.318979611802556,0.1060133205682796,-1.1228337991706314
1.18,-1.9372011129122333,0.606890399141742,2.310687435541562,0.0471445870632299,0.1943931880899293,0.0118896504779009,0.7319339074112803,-0.8528289304540482,-0.6244355441712828,-1.9395889548647105,0.6116269734686918,2.303016947806162,0.9030605218208624,-1.0882970703113115,-0.9222304464812194,0.8452824129675364,0.4614338470748658,-0.2939824494576804,-0.6443256023601518,9.77607545030969,-1.313032900430612,0.10717559665165,-1.127102012462067
1.2,-1.922453906323864,0.5897726034305331,2.2980512352978866,0.0456377297764497,0.1983035111144357,0.0116841058059758,0.7422832839458209,-0.8585974623648615,-0.6385307760602436,-1.9217820872227116,0.5902610320684261,2.2849723388824983,0.928494801262696,-1.128297070907358,-0.962230447077266,0.9206806138169572,0.51746882672703,-0.2884265955406639,-0.704761594448039,9.77607545030969,-1.3079853854945882,0.1083187517927662,-1.1297783047463166
1.22,-1.9082463608928064,0.5734063866810636,2.2857739060579507,0.0442173470643814,0.2008723832328877,0.0114467639692574,0.7526550145099506,-0.8638172499600391,-0.6531018615090103,-1.8853397421265727,0.54684273031229,2.2661246964948742,0.8285758786170703,-0.9018729341415852,-0.7385307775503597,0.9315786448133824,0.5185865282064883,-0.2609893797588802,-0.7285542724383365,9.722160687275393,-1.3043221195663193,0.1094561508244007,-1.1310459482233213
1.24,-1.893034634329388,0.5558785717138223,2.272878730567265,0.0368285705976583,0.2033521245431011,0.0107825423819162,0.7684094296406236,-0.8854833263024753,-0.633739167510806,-1.8853397421265727,0.54684273031229,2.2661246964948742,0.8285758786170703,-0.9018729341415852,-0.7385307775503597,1.652675390884392,0.7877207565336497,-1.0833038171218112,0.968134699910217,9.659159355343036,-1.2952796754187097,0.1163219145509337,-1.121682859669594
1.26,-1.8774999162409995,0.5380624196611611,2.2603672857970643,0.0234361975876418,0.2063382533456673,0.0097167970937422,0.7843627380022125,-0.8937095068749417,-0.6185411887116773,-1.8853397421265727,0.54684273031229,2.2661246964948742,0.8285758786170703,-0.9018729341415852,-0.7385307775503597,1.1759641300540664,0.7976654180794407,-0.411309028623319,0.7598989399564327,11.999377942597675,-1.2951802622642925,0.1291703517331864,-1.129324386352114
1.28,-1.862449182442028,0.521074773888479,2.2486770938082,0.009808534187478,0.209074633803068,0.0086355064870564,0.7991498388643165,-0.8937300574494195,-0.6127564757447641,-1.877053983340402,0.5378240009708741,2.2587393887193707,0.8458343975513202,-0.91052802849693,-0.7585307778483829,0.7939169955696277,0.7393550431051998,-0.0010275287238903,0.2892356483456593,11.403149563741865,-1.2943997822057791,0.1438645750451073,-1.1356222667043252
1.3,-1.846310653547821,0.5032478180162339,2.2364164542836638,-0.0036509350994616,0.2115050558918039,0.0075578412333123,0.8138797203602334,-0.8888511493938198,-0.6139416817549671,-1.8604824657680603,0.5197865422880424,2.2439687731683637,0.8803514354198199,-0.9278382172076196,-0.7985307784444293,0.7781032482668546,0.7364940747958459,0.2439454027799825,-0.0592603005101499,10.84109712339432,-1.2942747561266,0.1577835843993664,-1.1396278679958207
1.32,-1.829887349523492,0.485557492849356,2.224058087693332,-0.0154346079552903,0.2133770623488591,0.0066131949304111,0.8276980194567808,-0.8806112719796604,-0.6218112570769028,-1.8439109481957192,0.5017490836052108,2.2291981576173563,0.9148684732883196,-0.9451484059183092,-0.8385307790404758,0.8955043068986835,0.6909149548273708,0.4119938707079718,-0.3934787660967831,10.066185029450024,-1.2946862045225906,0.1694808842737494,-1.1420814588023678
1.34,-1.814037270402755,0.468927563301056,2.21212515742818,-0.0248887517662625,0.2146461901662323,0.0058668747490535,0.8400183269874846,-0.8705865688388409,-0.6338800993526104,-1.8256135787299528,0.4828461154868446,2.2124275420365467,0.9493855111568196,-0.9624585946289989,-0.8785307796365223,0.9974236870414944,0.6160153765351895,0.5012351570409745,-0.6034421137853796,9.81101938406755,-1.2954954611891567,0.1799462933465304,-1.1432299065993017
1.36,-1.7971059521990778,0.4516442985001828,2.1992925857180654,-0.0330238294760494,0.2155606937176516,0.0052478191874594,0.8524349003792234,-0.8584612878144247,-0.6488260574621882,-1.8073162092641863,0.4639431473684783,2.195656926455737,0.9839025490253192,-0.9797687833396884,-0.9185307802325688,1.1451805518418947,0.6208286695869425,0.6062640512208117,-0.7472979054788942,9.81101938406755,-1.2955180498543442,0.1884203145542685,-1.1432520516132465
1.38,-1.7799252405326902,0.4346135255943881,2.18614293322938,-0.039485310152379,0.2160103124210977,0.0047947465795005,0.8649697218765592,-0.8453953568756272,-0.6654408483810438,-1.7881559138517074,0.444607424532345,2.1778863108600266,1.0184195868938188,-0.997078972050378,-0.9585307808286152,1.2287102776334018,0.6267410748667879,0.6532965469398744,-0.8307395459427769,9.69644067284753,-1.2955556477607992,0.1951883994535468,-1.1428842724045587
1.4,-1.7624939737047305,0.4178537445571993,2.172644400265124,-0.0444646267477029,0.2157921953926517,0.0045078853627845,0.8774428955101853,-0.8315198011977103,-0.6835524875992629,-1.768132692492516,0.4248389469784443,2.159115695249415,1.0529366247623186,-1.014389160761067,-0.9985307814246616,1.300137089922145,0.623658681681305,0.6937777838958437,-0.905581960910956,9.616380775829384,-1.2961076394336573,0.2002338870554115,-1.142009479548104
1.42,-1.7457048134414104,0.4021945300599913,2.1594727012023776,-0.047992772207347,0.2148476949600317,0.0043871360172531,0.8891526929642181,-0.81777292700649,-0.7020114237233248,-1.718621828929221,0.3762777544973138,2.1384667758851608,0.9630630752825624,-0.8365960680229094,-0.7694796014899108,1.2911508715830908,0.5854898727016389,0.6873437095610169,-0.9229468062030954,9.4749384216384,-1.2974136115885224,0.20430091877606,-1.140426410374451
1.44,-1.7277096453648288,0.3859258811036934,2.1455934718441934,-0.0534696744718496,0.2128495705989736,0.0042252290215197,0.91002328943104,-0.808319521790918,-0.6830828905395597,-1.718621828929221,0.3762777544973138,2.1384667758851608,0.9630630752825624,-0.8365960680229094,-0.7694796014899108,1.485966045658191,1.043529823341094,0.472670260778596,0.9464266591882542,9.4749384216384,-1.296409605716926,0.2089922919270567,-1.1255133581650545
1.46,-1.7093018274551524,0.3699178444652945,2.132100046586856,-0.0608890941233625,0.2096818673733752,0.004048866892435,0.929453241725743,-0.7926101991498338,-0.6678068551927564,-1.718621828929221,0.3762777544973138,2.1384667758851608,0.9630630752825624,-0.8365960680229094,-0.7694796014899108,1.4642943009628413,0.9714976147351506,0.7854661320542133,0.7638017673401665,11.978769589059084,-1.3055701664730055,0.2175840447838541,-1.1290801994899244
1.48,-1.690530943990745,0.3542693019135425,2.1188225099502715,-0.0678469951024393,0.2052135900138638,0.0040567150584508,0.946456955515823,-0.773121462911045,-0.661019993166085,-1.7089911981763954,0.3679117938170847,2.1307719798702616,0.9801871112370376,-0.8376113213879492,-0.7866650242680404,1.336972904558196,0.8501856895040016,0.9744368119394388,0.3393431013335724,11.430189055353368,-1.3127988256567091,0.2259144985105928,-1.1285717322829438
1.5,-1.67241128428327,0.3397845328620499,2.106260860485914,-0.0730760116106129,0.1997056426440604,0.0043164111702657,0.9597115328844464,-0.7529207207861905,-0.6614911987330236,-1.689729936670744,0.3511798724566265,2.115382387840464,1.0144351831459886,-0.8396418281180289,-0.8210358698242995,1.2082796016465014,0.6627288684311783,1.0100371062427227,-0.0235602783469346,10.92019161600183,-1.321584073814996,0.2326108615334912,-1.12398196024416
1.52,-1.6531044121098242,0.3249571917212667,2.092977074438896,-0.077008897788044,0.1931836498431031,0.0048196407238349,0.9699802370459958,-0.7311662848670668,-0.6670373851697845,-1.6704686751650928,0.3344479510961683,2.099992795810665,1.0486832550549394,-0.8416723348481085,-0.8554067153805587,1.234364159504793,0.5134352080774618,1.087721795956187,-0.2773093218380429,10.51581303787134,-1.3309283020327882,0.2375710869448875,-1.1173478933682024
1.54,-1.6336289593889557,0.3105690823163377,2.079530541883788,-0.0793287887405575,0.1866121022902434,0.0054947172248167,0.9768965009535588,-0.7091915358223461,-0.6772492686465995,-1.649495010063994,0.3176145043992061,2.082884661503054,1.0829313269638905,-0.8437028415781882,-0.8897775609368178,1.2599671286997534,0.3458131953781473,1.0987374522360371,-0.5105941738407505,10.20125408396052,-1.339467979270043,0.2406782719258796,-1.1103056634030444
1.56,-1.6150236803264937,0.2973106215154842,2.066548368916415,-0.0800689642176204,0.180799699264244,0.0062408778417234,0.9811338347072296,-0.6878270692438488,-0.6887343984491419,-1.6285213449628952,0.3007810577022439,2.065776527195443,1.1171793988728411,-0.8457333483082679,-0.9241484064930772,1.231161683233531,0.2118666876835373,1.068223328924861,-0.5742564901271174,9.943692417156852,-1.3475162412319244,0.2422820463995206,-1.1024901329089365
1.58,-1.5953687605896174,0.2837956869222405,2.052634056784025,-0.079023296941212,0.1753756209041732,0.0071209326841141,0.9839957574538452,-0.6649980334003961,-0.7021170362923352,-1.6066914780640726,0.2838968483370298,2.047809121748925,1.1514274707817918,-0.8477638550383475,-0.9585192520493362,1.3308366494345936,0.1430961373307837,1.1414517921726377,-0.669131892159669,9.835996900324972,-1.3545476656387234,0.2420090956161743,-1.0957964581723432
1.6,-1.575673390565402,0.270739060223254,2.0384406901310648,-0.0757257211961886,0.1708065152943599,0.0080974753279942,0.9852752245334508,-0.6423427154509767,-0.7165364432020603,-1.5840054093675264,0.2669618763035636,2.028982445163501,1.1856755426907426,-0.8497943617684272,-0.9928900976055952,1.3442653783993963,0.0639733539802789,1.132765897470972,-0.7209703454862548,9.754094059702766,-1.360791570828219,0.2395597126570104,-1.0908979288652136
1.62,-1.5559680573000243,0.2581088103530509,2.023951452190745,-0.0707327207377245,0.1673398798626542,0.0091024667394985,0.9851245278845386,-0.6223844853735209,-0.7316050977014436,-1.5264096293387297,0.2386219244507051,2.002613867970962,1.0575449175504563,-0.6409584288917898,-0.7382349273993193,1.2504179358582834,-0.0075348324456048,0.9979115038727892,-0.7534327249691608,9.687613717645943,-1.365410702360618,0.2356359689457118,-1.087675382284493
1.64,-1.5371360607471984,0.2464492795398346,2.010347696077965,-0.0666371908602702,0.1637136917584555,0.0100244262575553,0.9969664455368884,-0.6053653618218078,-0.6996500954561186,-1.5264096293387297,0.2386219244507051,2.002613867970962,1.0575449175504563,-0.6409584288917898,-0.7382349273993193,1.904602155735044,0.5920958826174827,0.8509561775856544,1.5977501122662496,9.636405347416256,-1.3690562511644042,0.231387071453624,-1.0772251547828635
1.66,-1.5170812912828222,0.2345418930971205,1.9966783865308968,-0.0632469662929859,0.1579258760291524,0.0110524213193389,1.0073876305785003,-0.5863721669067391,-0.6693620440948085,-1.5264096293387297,0.2386219244507051,2.002613867970962,1.0575449175504563,-0.6409584288917898,-0.7382349273993193,1.861926828596297,0.5210592520806023,0.949659745753434,1.5144025680655038,12.771040493871624,-1.3783640436589284,0.2298202322717868,-1.0785003798739297
1.68,-1.4968628211633015,0.2230165480971905,1.9835426274729104,-0.059771462115275,0.1508132241813536,0.012155096571483,1.0135462631642072,-0.5674048475471569,-0.6459708077192202,-1.515834180163225,0.2322123401617873,1.995231518696969,1.0719988561538578,-0.6406815715799524,-0.7425746242387711,1.5369107799354802,0.3079316292853407,0.948365967979109,1.1695618187794132,11.837490384866214,-1.3897147652238462,0.2280312598843266,-1.076035285134294
1.7,-1.4765660107825744,0.2118612978493909,1.9708048112813463,-0.0557794058748398,0.1432595686678601,0.0132963607674123,1.0155810790128017,-0.5494594237718363,-0.6289008446639431,-1.4946832818122158,0.2193931715839515,1.9804668201489823,1.10090673336066,-0.6401278569562776,-0.7512540179176747,1.2425400886108835,0.1017407924297164,0.8972711887660301,0.8534981527638541,11.837490384866214,-1.400439025397082,0.2257627410408227,-1.072403569154557
1.72,-1.4572812618219493,0.2015826823680925,1.958973421221033,-0.05153649081235,0.1363495776797273,0.0143685173715481,1.014163967709202,-0.5337193289791108,-0.6173180072760702,-1.4735323834612066,0.2065740030061157,1.965702121600996,1.1298146105674625,-0.6395741423326029,-0.7599334115965782,0.9796949914191168,-0.0708555651799724,0.7870047396362767,0.5791418693936456,11.135387651223027,-1.4108077609674754,0.222761083935518,-1.0676626049790752
1.74,-1.4370413210339728,0.1910693054005072,1.9467202292147163,-0.0467559176556877,0.1299226746411392,0.0154427417233641,1.0097297758198691,-0.5187099158647624,-0.6087539274453042,-1.4509360912498577,0.1937825201594636,1.9505034533690644,1.1587224877742648,-0.6390204277089282,-0.7686128052754818,0.8920313939211036,-0.2217095944666458,0.7504706557174168,0.4282039915383007,11.135387651223027,-1.4197356046500704,0.2193058069142439,-1.0629713108490326
1.76,-1.416917685647198,0.1808406957742538,1.9346211380965348,-0.0418149375772584,0.124957413064409,0.0164289132352857,1.0026946410672075,-0.5051241351400249,-0.6016083571532209,-1.4283397990385085,0.1809910373128115,1.9353047851371328,1.187630364981067,-0.6384667130852534,-0.7772921989543854,0.8442833257974804,-0.3517567376330799,0.6792890362368798,0.3572785146041646,10.899898443504751,-1.4267688550308708,0.2155715290101034,-1.0591001658587993
1.78,-1.3969566435338368,0.170868696023977,1.922655461610833,-0.036864081550385,0.1221190323066497,0.0173036251614947,0.9937267199470092,-0.4929470307747872,-0.5953045200895072,-1.405020809896989,0.1682133973317514,1.9198891320632288,1.2165382421878697,-0.6379129984615787,-0.785971592633289,0.8192127954106894,-0.4483960560099143,0.6088552182618806,0.3151918531856867,10.828239463190585,-1.4310046288436784,0.2119540407911614,-1.0579132184870326
1.8,-1.3781664253909525,0.1616082188862914,1.9113990049496588,-0.0322809467948335,0.1216724323331978,0.0180318143955846,0.984934521722434,-0.4825688347991092,-0.5899078648502732,-1.3809791238252995,0.155449600216283,1.904256494147352,1.245446119394672,-0.6373592838379039,-0.7946509863121926,0.7316652053722252,-0.4396099112287555,0.5189097987839009,0.2698327619616969,10.783292140872618,-1.4320603990122027,0.2081984284754885,-1.0603775533270678
1.82,-1.3585544975863453,0.1520612400536842,1.8996564927812052,-0.0276745339248594,0.1230023344719017,0.0187233579146596,0.9769171304662532,-0.4727797828694977,-0.5846535169321,-1.328919699304831,0.137479777146336,1.881903611707145,1.041926661389707,-0.4690727869819386,-0.6192944876814986,0.6850406416420305,-0.4008695628090475,0.4894525964805774,0.2627173959086626,10.737626000104685,-1.4311067747105806,0.204602780374686,-1.0653002117536017
1.84,-1.3390316810364606,0.1426253482990648,1.8881688378199455,-0.0258846095160235,0.1243749440191018,0.0192195718303227,0.9758460316308604,-0.4703533613730022,-0.5636184184884303,-1.328919699304831,0.137479777146336,1.881903611707145,1.041926661389707,-0.4690727869819386,-0.6192944876814986,1.0600827096607954,-0.0535549417696401,0.1213210748247706,1.0517549221834843,10.709973148720564,-1.4287377570870052,0.2035280369280482,-1.0696453932065983
1.86,-1.3205078477405536,0.1337330283861525,1.877640343002607,-0.0277244097233142,0.1246112965870176,0.0194763648414764,0.9739717182005824,-0.4654328058572475,-0.5457929445352774,-1.328919699304831,0.137479777146336,1.881903611707145,1.041926661389707,-0.4690727869819386,-0.6192944876814986,0.9293444451239244,-0.0937156715138998,0.2460277757877355,0.8912736976576463,11.522914098315596,-1.4301595486744934,0.2062984815464549,-1.0733857990965945
1.88,-1.3010621687300328,0.1245088096215059,1.8668820181946677,-0.0316409612520351,0.1243250667500173,0.0196326502901446,0.9706073476096044,-0.4567222673933276,-0.5311743108155808,-1.3185004326909335,0.1327890492765166,1.87571066683033,1.0533250893231612,-0.4663735774185045,-0.6251718122477438,0.8673190324723592,-0.1682185295488913,0.4355269231959946,0.7309316859848314,11.522914098315596,-1.4316456948456164,0.2109974413327662,-1.074990076770548
1.9,-1.2816974413541993,0.1154952366848587,1.856373196559692,-0.0357840483369987,0.1239054405945706,0.0197900683427285,0.9659921506327688,-0.4450350811230828,-0.5206012415772374,-1.2976618994631397,0.1234075935368778,1.8633247770767,1.0761219451900703,-0.4609751582916362,-0.6369264613802339,0.8210970697323104,-0.2307598488417828,0.5843593135122421,0.5286534619171668,11.258161068220945,-1.433208213122467,0.2159725363159338,-1.0767242647512991
1.92,-1.2624365250088443,0.1067334737272298,1.8460371964783493,-0.0393428337506465,0.1236772645615791,0.0199936928018212,0.9603728998405886,-0.4318630103229603,-0.5135123585355984,-1.2768233662353454,0.1140261377972391,1.85093888732307,1.0989188010569793,-0.455576739164768,-0.648681110512724,0.7989550854192241,-0.2809625396090143,0.6586035400061252,0.3544441520819508,10.837043813679884,-1.4344821951011086,0.2201829889332859,-1.0783570007075567
1.94,-1.2442492683108135,0.0986621457930946,1.836325023204129,-0.0419684463796982,0.1238331302749664,0.0202344219832102,0.954423724455668,-0.4185899007310922,-0.5091702379228992,-1.2548449902142058,0.1049146030139437,1.8379652651128155,1.1217156569238882,-0.4501783200378997,-0.6604357596452142,0.7589830983189155,-0.2974587692460284,0.663655479593403,0.2171060306349614,10.696587986986742,-1.4353002151012215,0.2238469111028502,-1.080391601044312
1.96,-1.225229226758473,0.0904416764739959,1.826178394301524,-0.0439467674770357,0.1245042735531924,0.0205285144593385,0.9479577615208346,-0.4042864060721279,-0.5057682460753675,-1.2328666141930662,0.0958030682306483,1.8249916429025608,1.1445125127907974,-0.4447799009110315,-0.6721904087777043,0.8030756263645604,-0.323298146741674,0.715174732948215,0.1700995923765824,10.696587986986742,-1.4354456762589118,0.2267120871208196,-1.0829947423356765
1.98,-1.2063352201815454,0.0825137450284129,1.8160898839165256,-0.0450579232267043,0.1256396190113093,0.0208681181374857,0.941836367102706,-0.3893070945509516,-0.5032902298381204,-1.210318316775254,0.0868264939255247,1.8117241544639944,1.1673093686577063,-0.4393814817841632,-0.6839450579101946,0.8185227665477601,-0.3060697209064211,0.748965576058816,0.1239008118623541,10.634111726348236,-1.4347626334208257,0.2286381908420051,-1.08619596070262
2.0,-1.187559393837283,0.074894035823038,1.8060421465219585,-0.0449415452586763,0.127061150937163,0.0212845073156793,0.9361245584318076,-0.373612653643244,-0.5016058451864951,-1.1872000979607689,0.0779848800985727,1.7981627997971157,1.1901062245246157,-0.4339830626572949,-0.6956997070426847,0.8393113030233601,-0.2855904335449244,0.7847220453853804,0.0842192325812674,10.58786203996442,-1.43368742514324,0.2295199645636209,-1.0902652811757296
2.02,-1.1698240102043993,0.0679496743882702,1.7965220050592827,-0.0433915075747787,0.1285437583132686,0.0217775195468851,0.9310967941032584,-0.3583747482433627,-0.5005959023905219,-1.1592434018264102,0.0630483903008653,1.7909253724246197,0.9714573218695756,-0.3575165139504515,-0.4922312296813006,0.8038845681599823,-0.2513882164274672,0.7618952699940673,0.0504971397986608,10.551127318245562,-1.4324932495246614,0.2288949080013789,-1.0949021793665574
2.04,-1.1511179038527062,0.0609186124261192,1.7867856560335469,-0.0414921412742674,0.1269660518069455,0.0224493025037602,0.9400465399428558,-0.3452992879167635,-0.4717032815646184,-1.1592434018264102,0.0630483903008653,1.7909253724246197,0.9714573218695756,-0.3575165139504515,-0.4922312296813006,1.6476112644790415,0.4474872919798756,0.6537730163299588,1.4446310412951715,10.520984836113712,-1.4306936919056727,0.2279276256392677,-1.0987135257836578
2.06,-1.1322504738368209,0.0541549805070473,1.7776534373906074,-0.0401743981964453,0.1192849878777078,0.0233263706477032,0.9452612570367795,-0.3317469777956142,-0.4432443231771843,-1.1592434018264102,0.0630483903008653,1.7909253724246197,0.9714573218695756,-0.3575165139504515,-0.4922312296813006,1.59747511442837,0.2607358546961924,0.6776155060574635,1.4229479193717058,12.494721584830586,-1.4422474514472663,0.2280881824442659,-1.093840997090113
2.08,-1.1142979440960843,0.0479798914139814,1.7694544951808586,-0.0390153090990136,0.1087158347611216,0.0242720994196292,0.9436549222554952,-0.3190151792549109,-0.4211607738417232,-1.1495288286077143,0.0594732251613608,1.7860030601278067,0.9773815128229496,-0.3511583978303515,-0.4900194296499366,1.2770690630916983,-0.0803167390642234,0.6365899270351666,1.1041774667730542,12.19247992410601,-1.456800158689588,0.2281970961099713,-1.0824842388480709
2.1,-1.0955014867395385,0.0417360164601822,1.7612342898335205,-0.0377507692078792,0.0963016325461499,0.0253037786026464,0.9355585405903252,-0.3061195016657642,-0.4021937541232162,-1.1300996821703229,0.0523228948823518,1.7761584355341806,0.9892298947296974,-0.3384421655901514,-0.4855958295872087,1.2161391095939176,-0.4048190832584952,0.6447838794573335,0.948350985925353,11.831317151524672,-1.4718291138664246,0.2281132736815201,-1.0676969615769765
2.12,-1.0769295975141362,0.0357445011556051,1.7533476376436916,-0.0363954511557181,0.0842749249262469,0.0263071665037449,0.9217028050870822,-0.2937540115784259,-0.387585709106409,-1.1106705357329314,0.0451725646033427,1.7663138109405547,1.0010782766364452,-0.3257259333499514,-0.4811722295244808,1.181399308710816,-0.6927867751621519,0.6182745043669169,0.730402250840359,11.53185292631042,-1.4859792196488752,0.2278637518846635,-1.0524634158512287
2.14,-1.0586874160869888,0.0299940454812613,1.745710967285585,-0.0349297120890181,0.0739602290200023,0.0272351497420732,0.9031815516489428,-0.2819801190887969,-0.3767811649968132,-1.0906489702002025,0.0386580459363437,1.756690366350065,1.012926658543193,-0.3130097011097514,-0.4767486294617529,1.223110324841277,-0.9260626719069688,0.5886946244814506,0.5402272054797902,11.259280512662372,-1.4969337022321003,0.2273815406181444,-1.0387912510137045
2.16,-1.041734403845683,0.0247434935844645,1.738641221669318,-0.0334752362804583,0.0665528844436204,0.0280194861682565,0.8823003108291922,-0.2713465172719717,-0.3679332183307085,-1.0706274046674735,0.0321435272693447,1.7470669217595756,1.024775040449941,-0.3002934688695513,-0.4723250293990249,1.2523835933704983,-1.0440620409875312,0.5316800908412606,0.4423973333052333,11.046510031375874,-1.505852332271004,0.2267704507211069,-1.0272661912717354
2.18,-1.0243435330388135,0.0194305418481717,1.7313736407153786,-0.0318993645330729,0.0620575777655621,0.0287224826568865,0.8577865961556831,-0.2605724008858945,-0.3593208822801944,-1.050309629587076,0.0259469144083506,1.7375540671706542,1.0366234223566886,-0.2875772366293513,-0.467901429336297,1.40639265786794,-1.225685733675458,0.5387058193038585,0.4306168025257045,10.973506281375194,-1.5112431241454052,0.226120168407339,-1.0209090647782104
2.2,-1.007457853526658,0.0143288694753144,1.7242729865067503,-0.0302649537627626,0.0616188745383045,0.0292896964584947,0.8325756594967679,-0.2501973344604685,-0.3511604845439233,-1.0296956449590096,0.0200682073533616,1.728151802583301,1.0484718042634364,-0.2748610043891513,-0.463477829273569,1.4228715874649174,-1.260546832945758,0.5187533212713008,0.408019886813557,10.91582236263548,-1.5111758883993398,0.2254454845259566,-1.0225988908013894
2.22,-0.9910571747486208,0.0094300954157474,1.71733687721267,-0.0286208159262944,0.0645356221706723,0.0297512852726966,0.8092020416493235,-0.2402469193001941,-0.3428520332096432,-0.9658290705518195,0.001819002752291,1.7067149622795543,0.8619813576769666,-0.2260112783531858,-0.3387171106328405,1.3363823710995744,-1.1686808923722205,0.4975207580137156,0.4154225667140021,10.91582236263548,-1.5077868218210804,0.2247077520119414,-1.029441805049862
2.24,-0.9758735036157804,0.0049851879717534,1.7109770139370273,-0.0262811773699356,0.0692275014613904,0.0301893845205998,0.7905261979056174,-0.2287539758725816,-0.3270174120440403,-0.9658290705518195,0.001819002752291,1.7067149622795543,0.8619813576769666,-0.2260112783531858,-0.3387171106328405,1.3524146143359566,-0.933792187185306,0.574647171380628,0.7917310582801457,10.914773772595254,-1.5017727377036472,0.2232613998127916,-1.0410646826746142
2.26,-0.9602526054943812,0.0005122919047778,1.704609400692518,-0.0232358164069528,0.075228026826484,0.0306702001965176,0.7728303266717093,-0.2192465737212667,-0.3106512405078785,-0.9658290705518195,0.001819002752291,1.7067149622795543,0.8619813576769666,-0.2260112783531858,-0.3387171106328405,1.2955559860007568,-0.8847935616954072,0.4753701075657424,0.8183085768080911,11.441037845619576,-1.4950348064334895,0.2212160784685705,-1.054400842649648
2.28,-0.9449632505584274,-0.0037848298764123,1.6985596302596278,-0.0203126004942922,0.0819009525342139,0.0311369208679991,0.757259161831536,-0.210966465951307,-0.2951956730012092,-0.95720925697505,-0.0004411100312408,1.703327791173226,0.8678624973130064,-0.2211740671317293,-0.336228435850624,1.1724929915730915,-0.7785582420086645,0.4140053884979858,0.7727783753334633,11.387979643688595,-1.4872736805842433,0.2191879133663611,-1.068390203617566
2.3000000000000003,-0.9299623473247056,-0.0079253736593013,1.6928102952732809,-0.017730126137072,0.088844027068659,0.031584094843481,0.7444737348634557,-0.2038371762224434,-0.2812595921457837,-0.9399696298215108,-0.0049613355983045,1.6965534489605691,0.8796247765850858,-0.2114996446888162,-0.3312510862861909,1.0105793689799336,-0.6392713484040136,0.3564644864431809,0.6968040427712763,11.300062126274495,-1.4797755043378429,0.2175368763675757,-1.0821258738445103
2.32,-0.915938836542943,-0.0117255854523889,1.6876151771548895,-0.0156594435971467,0.0953426934786834,0.0319908080224338,0.7331399041886447,-0.1968682732554923,-0.2670782100857357,-0.9227300026679712,-0.0094815611653682,1.6897791067479122,0.8913870558571653,-0.2018252222459032,-0.3262737367217578,0.9722820108655674,-0.5666915337405487,0.3484451483475537,0.7090691030023993,11.300062126274495,-1.4719652824569704,0.2161409284308835,-1.0963353825993474
2.34,-0.9013784219977377,-0.0155931953161636,1.6824164378679418,-0.0138618419005487,0.1018162693053857,0.0324021298806079,0.7236333201722456,-0.1902076737335648,-0.2535507675095108,-0.904902261550828,-0.0135180656102863,1.683253632013477,0.9031493351292448,-0.1921507998029901,-0.3212963871573247,0.8912497241309818,-0.4753292008199572,0.3330299760963759,0.6763721288112479,11.281456357196475,-1.4644875702799804,0.2150773156342937,-1.1095920047812748
2.36,-0.8869895579952145,-0.0193314339512204,1.677484909725179,-0.0124488696189487,0.1077275825984058,0.0327954660093012,0.7158615377824771,-0.183946080941654,-0.2403019753952481,-0.8870745204336847,-0.0175545700552043,1.676728157279042,0.9149116144013242,-0.1824763773600771,-0.3163190375928916,0.8293651763435894,-0.388589119488425,0.3130796395955385,0.6624396057131332,11.253930015889637,-1.457676630539393,0.2143568792219423,-1.121566170640737
2.38,-0.8727380694840967,-0.0229472588107348,1.672815216315413,-0.0114781544938476,0.1128560211967949,0.0331655313319644,0.7097288820499231,-0.177935647314382,-0.2273520280620827,-0.8689527223347395,-0.0213492139390496,1.6703271162837177,0.9266738936734036,-0.172801954917164,-0.3113416880284585,0.776910410944574,-0.3066327866276974,0.3005216813636038,0.6474973666582686,11.25319251657129,-1.4518230532417469,0.2140346754413806,-1.131446935134154
2.4,-0.8593006069169727,-0.0262725989581471,1.6686151417247914,-0.0109859570499509,0.1168603639246258,0.033492520904997,0.7050546762717576,-0.1723861354716786,-0.2154242011148999,-0.8505368672539922,-0.024901997261822,1.6640505090275042,0.9384361729454832,-0.163127532474251,-0.3063643384640254,0.6980657867115413,-0.2337102889082787,0.2774755921351693,0.5963913473591389,11.234959391012126,-1.446699439763526,0.2141314362736275,-1.1401928811319102
2.42,-0.8452435166836628,-0.0296595944776059,1.6644347954851513,-0.010940805998363,0.1201272088077254,0.0338074785232087,0.700913724451509,-0.1665894051482183,-0.2032639316259257,-0.8240478731033849,-0.0348919057317311,1.6578439316690463,0.7400225048137516,-0.1265865560003289,-0.2066420406465004,0.7046660884153249,-0.2070475910124269,0.2898365161730143,0.6080134744487126,11.234959391012126,-1.4427192236821036,0.2147094331859433,-1.1471764139259508
2.44,-0.831233347211502,-0.0329824728074883,1.660536463231482,-0.0131211866110253,0.1217151075113164,0.0339788071017044,0.7002367763896704,-0.1654458710697324,-0.186968319981634,-0.8240478731033849,-0.0348919057317311,1.6578439316690463,0.7400225048137516,-0.1265865560003289,-0.2066420406465004,0.817485302205273,-0.03384740309193,0.0571767039242929,0.8147805822145817,11.220191647484173,-1.4411352398748154,0.2174741785071379,-1.1527123659983574
2.46,-0.817943500129466,-0.036083776218631,1.657128001643247,-0.0177183051165351,0.1212708945476458,0.0339899677692972,0.6985575453670286,-0.160436782679294,-0.1726588250966753,-0.8240478731033849,-0.0348919057317311,1.6578439316690463,0.7400225048137516,-0.1265865560003289,-0.2066420406465004,0.7626801872234664,-0.083961551132089,0.2504544195219199,0.7154747442479389,11.405435143289653,-1.4407432095018895,0.2229982552725871,-1.152434231028185
2.48,-0.8040051536603938,-0.0392036109774622,1.6538172018249633,-0.023082756054073,0.1194312052480508,0.0339992565047611,0.6952111097239968,-0.1516515569754555,-0.1592482195157197,-0.8166476480552474,-0.0361577712917343,1.6557775112625812,0.7470160705221505,-0.1174266401060589,-0.2048856085528205,0.8188760043930584,-0.1673217821515915,0.4392612851919289,0.6705302790477776,11.405435143289653,-1.4431336198635505,0.2292954788656855,-1.1511054224506638
2.5,-0.79015305428289,-0.0421237263876532,1.6507563025824863,-0.0280641740269396,0.11680801443554,0.0340700980687058,0.6900127121082128,-0.1407930419370294,-0.147580928005655,-0.8018471979589724,-0.0386895024117409,1.6516446704496512,0.7610032019389481,-0.099106808317519,-0.2013727443654607,0.8382368069232317,-0.2599198807892,0.542925751921304,0.5833645755032354,11.301270957766974,-1.4469459230580215,0.2352910212391386,-1.1492816685802585
2.52,-0.7764273010886633,-0.0448114925732552,1.6479110693239447,-0.0322816036734051,0.1141185372296196,0.0342131870638854,0.6827286753437661,-0.1286528972639696,-0.1375152777450584,-0.7870467478626973,-0.0412212335317475,1.6475118296367213,0.7749903333557457,-0.0807869765289791,-0.1978598801781009,0.8685586040062017,-0.3642018382223333,0.6070072336529897,0.5032825130298291,11.19890345249587,-1.4509022783840562,0.2402751022834932,-1.1474029156850785
2.54,-0.7635422844961935,-0.0471321487748928,1.64538302022586,-0.0355230434529354,0.1122114564385331,0.0343934389286707,0.6739072232707725,-0.1163755636611742,-0.1290943954529619,-0.7715469411955824,-0.0428369730623271,1.643554632033159,0.7889774647725434,-0.0624671447404392,-0.1943470159907411,0.8652488018596111,-0.4410726036496837,0.6138666801397671,0.4210441146048266,11.113364349188489,-1.4544648553890935,0.2447173926089241,-1.1465360732164789
2.56,-0.7501722604481152,-0.0493191557133884,1.6428883933554357,-0.0382131436568724,0.1114902696792276,0.0345942038238348,0.6637037645273487,-0.1030437602943788,-0.1208417011666847,-0.7560471345284675,-0.0444527125929067,1.6395974344295974,0.802964596189341,-0.0441473129518993,-0.1908341518033812,0.9353535619251154,-0.5101729371711883,0.6665901683397715,0.4126347143138573,11.015590235717356,-1.455733852605778,0.2483630364968624,-1.148281884124172
2.58,-0.737003290169767,-0.0512310756844622,1.6405529380006338,-0.0401261311466274,0.1120195304281271,0.0348026816157529,0.6538319889597669,-0.0889577393674088,-0.1131406218003816,-0.7401976495759327,-0.0456104563287727,1.6357280584307192,0.8169517276061387,-0.0258274811633595,-0.1873212876160215,0.942303775087738,-0.4935887783790893,0.7043010463485002,0.3850539683151549,11.015590235717356,-1.4553479696999418,0.2512242467064626,-1.15245863714895
2.6,-0.7240252475530905,-0.0528543134796293,1.638367263577284,-0.0411100211284259,0.1135025721161333,0.0350356298110522,0.6445956373812819,-0.0741540618036586,-0.1058331014479147,-0.7239984863379779,-0.0463102042699253,1.6319465040365253,0.8309388590229363,-0.0075076493748196,-0.1838084234286616,0.9458579618454648,-0.4618175789242507,0.74018387818751,0.3653760176233485,10.9734459830961,-1.4534687033279616,0.2530537972003901,-1.1584979244614306
2.62,-0.7118596699569169,-0.054114627467864,1.6364235819995734,-0.0408680859519591,0.1155306248895247,0.0353105519556788,0.6365774034186783,-0.0594301170913533,-0.099137202791408,-0.6917954656840264,-0.0565620165698123,1.6330756085048883,0.66126994362494,-0.0404556520078975,-0.1244001978898988,0.902665057743294,-0.4009116981301797,0.7361972356152657,0.334794932825335,10.9734459830961,-1.4506906400559525,0.2537028407264135,-1.1662767782279695
2.64,-0.699170076916388,-0.0550688218908412,1.6344959160611157,-0.0369453193328398,0.1167113804550615,0.0358893780781503,0.6328306916071507,-0.0380806837732688,-0.0939973803827412,-0.6917954656840264,-0.0565620165698123,1.6330756085048883,0.66126994362494,-0.0404556520078975,-0.1244001978898988,1.1138378773351745,-0.1873355905763818,1.0674716659042252,0.2569911204333391,10.967852925894476,-1.4455235321703306,0.2501245637565378,-1.173983539951154
