t,x,y,z,roll,pitch,yaw,v_x,v_y,v_z,ref_x,ref_y,ref_z,ref_v_x,ref_v_y,ref_v_z,a_com,a_x,a_y,a_z,thrust,wind_x,wind_y,wind_z
0.0,-2.357577358268514,-0.7017947743061048,2.918492119186194,0.0161538806953823,0.1499685712767185,0.0283047416503259,0.0018640841294256,-0.0065442565121772,-0.0034675504864335,-2.3575210736547088,-0.7020246742158124,2.918385507124063,0.1018737822133134,0.092626765025959,-0.1035311018407593,0.3818573336820844,0.0932042064712816,-0.3272128256088628,-0.1733775243216761,10.662036344201624,-1.413148857834439,0.175949142890008,-1.2773637205138555
0.02,-2.357635838115259,-0.7021507556088084,2.91821244109948,0.0065015180405899,0.1520801420950698,0.0276620580909829,-0.0074608676356374,-0.0254522399283752,-0.0258440876740139,-2.3575210736547088,-0.7020246742158124,2.918385507124063,0.1018737822133134,0.092626765025959,-0.1035311018407593,1.5371857229976649,-0.4662475882531554,-0.9453991708099012,-1.1188268593790196,10.661122952706137,-1.408327113554238,0.1868549192746579,-1.267304580507313
0.04,-2.357871617748121,-0.7026669156829798,2.9173677152898487,-0.0098285889865968,0.1575760166267525,0.0265409250511097,-0.0152473071162997,-0.0244431659888733,-0.0577809638200884,-2.3575210736547088,-0.7020246742158124,2.918385507124063,0.1018737822133134,0.092626765025959,-0.1035311018407593,1.6443926903047696,-0.3893219740331157,0.0504536969750942,-1.5968438073037263,9.285151469508037,-1.3972286799094484,0.2052508884915468,-1.26665556846298
0.06,-2.358228527100984,-0.7030806031606122,2.915879590481341,-0.026541675641495,0.1646948499477872,0.0252963248090167,-0.0197307167503814,-0.0165878441551818,-0.0893636822604889,-2.3565023358325754,-0.7010984065655528,2.917350196105655,0.1218737825113366,0.1126267653239822,-0.1235311021387825,1.642616165712076,-0.2241704817040841,0.3927660916845751,-1.5791359220200225,8.832916372472937,-1.3864126584468768,0.2242154514605962,-1.2678466615677308
0.08,-2.358643747319749,-0.7032958352606989,2.913779949485825,-0.0426324104184514,0.1724235817174956,0.023981232480938,-0.0213054351156845,-0.0049724274902993,-0.118965900563948,-2.354464860188309,-0.6992458712650337,2.91527957406884,0.1618737831073831,0.1526267659200287,-0.163531102734829,1.591924127207785,-0.0787359182651548,0.5807708332441291,-1.480110915172958,8.907508176037936,-1.3760604273366404,0.2416259627542808,-1.2702073078244902
0.1,-2.3590635080669977,-0.703244890120974,2.9111117749555477,-0.0579653536980899,0.1802126866649148,0.0226198973054354,-0.020390061209907,0.0098198906103561,-0.1464340292874563,-2.352427384544043,-0.6973933359645145,2.913208952032025,0.2018737837034295,0.1926267665160752,-0.2035311033308754,1.5605677490496697,0.0457686952888758,0.7396159050327731,-1.3734064361754166,9.030661406700348,-1.36543484882973,0.2591738644577119,-1.273332788227772
0.12,-2.359425266519873,-0.7028825677059927,2.908083874728012,-0.0714611602892946,0.1874088296040027,0.021332999445268,-0.0175752957658528,0.02759455238987,-0.1709627906807374,-2.3483899088699745,-0.693540800634193,2.9091383299654074,0.241873784299476,0.2326267671121216,-0.2435311039269219,1.5211193587040337,0.1407382722027124,0.8887330889756956,-1.2264380696640511,9.156215180534671,-1.3555214086150282,0.2755581192277316,-1.2771129053612662
0.14,-2.359731767451934,-0.7021013859934756,2.9043952739106214,-0.0840563867579564,0.1946451810766495,0.0200470234440521,-0.0130475656927538,0.0495390692947132,-0.1966224533164663,-2.3443524331959056,-0.6896882653038715,2.9050677078987897,0.2818737848955225,0.2726267677081681,-0.2835311045229684,1.7032912613387767,0.2263865036549489,1.09722584524216,-1.2829831317864455,9.30522461673354,-1.3462297325174988,0.2902031181515314,-1.2816941559062422
0.16,-2.359932236100589,-0.7008445490137051,2.9001950542659567,-0.0944540548578804,0.2014890036077356,0.0188977595196896,-0.0070560784621148,0.0747461781725097,-0.2221021030799507,-2.339314957506936,-0.6848357299586488,2.899997085817271,0.3218737854915689,0.3126267683042145,-0.3235311051190148,1.8169402915903885,0.2995743615319492,1.260355443889823,-1.2739824881742203,9.30522461673354,-1.337258612389295,0.3023793964209951,-1.28653129384792
0.18,-2.359997750948981,-0.6990603436204632,2.8954896572742927,-0.1023256792872689,0.2079302192023583,0.0179351721127603,0.0003633295215519,0.1018419046691338,-0.2471529592837133,-2.3332774818030653,-0.678983194598525,2.8939264637208515,0.3618737860876153,0.3526267689002609,-0.3635311057150612,1.8820011993550547,0.3709703991833383,1.3547863248312044,-1.25254281018813,9.34897844059833,-1.329635885931699,0.3113163701635072,-1.2914396394350525
0.2,-2.3599096477920005,-0.6968536202956619,2.8905604465699475,-0.1076634507659305,0.2136811014318185,0.0171994969686166,0.0086693350669159,0.1285842840139845,-0.2704395226948418,-2.3599795844729035,-0.6939682483870065,2.883132009310107,0.100363331011668,0.2018419061592499,-0.3471529607738294,1.8209946572162312,0.4153002772682029,1.3371189672425343,-1.164328170556425,9.397695202313116,-1.322422293665914,0.318198556424361,-1.2967945998275296
0.22,-2.359615291852714,-0.6938600629450352,2.884983715164898,-0.1078278726217709,0.2193386196766582,0.0168621803086139,0.0206146752289191,0.1680600848710428,-0.2853645399284492,-2.3599795844729035,-0.6939682483870065,2.883132009310107,0.100363331011668,0.2018419061592499,-0.3471529607738294,2.193049329310432,0.5972670081001598,1.9737900428529187,-0.746250861680367,9.44834450664439,-1.3163432068654646,0.3190275363019905,-1.3059121640370408
0.24,-2.359066105916843,-0.6901537486073709,2.879126313555142,-0.1020478479528749,0.224592370556058,0.0170287202088069,0.0338357721537518,0.1993555898378848,-0.2996459536586652,-2.3599795844729035,-0.6939682483870065,2.883132009310107,0.100363331011668,0.2018419061592499,-0.3471529607738294,1.8426643842267172,0.6610548462416337,1.5647752483420971,-0.714070686510801,10.13342042180011,-1.310984108903202,0.3131592125714763,-1.3188821180821917
0.26,-2.358244341080663,-0.6858936555348049,2.872970036587753,-0.0946288441577075,0.2294797259321621,0.0174002730209646,0.0477998483663505,0.224719103508283,-0.3152550475997813,-2.358975951162787,-0.691949829325414,2.879660479702369,0.1203633313096912,0.2218419064572731,-0.3671529610718527,1.6446481871834555,0.6982038106299361,1.268175683519912,-0.7804546970558046,9.955078710667294,-1.3053737020311575,0.3053241337848049,-1.329152541606297
0.28,-2.357198839813204,-0.6814122608821629,2.8668190810684213,-0.0876336955017188,0.2338167792034867,0.017824426692789,0.0616441740320966,0.2456809199928846,-0.3314490090394537,-2.356968684542553,-0.687912991202229,2.872717420486892,0.1603633319057377,0.2618419070533195,-0.4071529616678991,1.4944125021082246,0.6922162832873058,1.0480908242300773,-0.8096980719836194,9.955078710667294,-1.2996459131580345,0.2968968551780554,-1.3382125746341966
0.3,-2.355808329426184,-0.6762885591706588,2.8599976772338294,-0.0809638474637347,0.2380903848853624,0.0182899781349402,0.0767577937956944,0.2655859775116643,-0.349925565606618,-2.35496141792232,-0.683876153079044,2.8657743612714155,0.2003633325017841,0.301841907649366,-0.4471529622639456,1.554039864163856,0.755680988179887,0.9952528759389871,-0.9238278283582174,9.87153989680246,-1.2941137567614276,0.2891406393659226,-1.3453712088388707
0.32,-2.3541097174402257,-0.6707826666304736,2.852793689186085,-0.0752093779783514,0.2420897761978289,0.0187501449269165,0.0924342080957247,0.2841061476951781,-0.3695715165824905,-2.350954151272284,-0.6778393149260568,2.8568313020261367,0.2403633330978306,0.3418419082454124,-0.487152962859992,1.5610173434966153,0.7838207150015132,0.926008509175688,-0.982297548793626,9.790952779537292,-1.288948606610106,0.2824454527434006,-1.3513416377127982
0.34,-2.3520903004817724,-0.6649170685002749,2.8451920235131083,-0.0703262051047307,0.2458315252511464,0.0191992994118037,0.1088022958785947,0.3016349217659819,-0.3896370568836176,-2.3469468846222488,-0.6718024767730695,2.847888242780858,0.2803633336938771,0.3818419088414589,-0.5271529634560386,1.563488188050344,0.8184043891435032,0.8764387035401916,-1.003277015056353,9.721788350604584,-1.2844568268517549,0.277061963948643,-1.3561063168769856
0.36,-2.349862223662656,-0.6590195243804875,2.8375966915773736,-0.0661760903878418,0.2491598817384311,0.019631903156607,0.1249827014168269,0.318208186865286,-0.4088764496186128,-2.341939617957312,-0.664765638605181,2.8379451835206777,0.3203633342899235,0.4218419094375054,-0.5671529640520849,1.505517246866384,0.8090202769116116,0.8286632549652034,-0.9619696367497628,9.721788350604584,-1.2799606585422194,0.272014357362205,-1.3603239222788477
0.38,-2.3471785881893,-0.6524776413114938,2.829203430461878,-0.0620573068987609,0.2524387325725188,0.0201070170116297,0.1426024721666947,0.335013858641139,-0.4294585493473163,-2.335932351277474,-0.6567288004223913,2.8270021242455963,0.3603633348859699,0.4618419100335518,-0.6071529646481314,1.594137505328423,0.8809885374933851,0.840283588792648,-1.0291049864351751,9.72024858694931,-1.275291196572307,0.2672699782049989,-1.3641663609401675
0.4,-2.3441361494240227,-0.6456058357170306,2.8203964439413536,-0.0580829832630935,0.2555008277094189,0.0206056851064968,0.16083303307493,0.3511995807484179,-0.4502169532521857,-2.340048464580965,-0.6357269483794368,2.807730502994512,0.2426024736568108,0.4350138601312551,-0.5294585508374325,1.6009702400736792,0.9115280454117664,0.8092861053639461,-1.0379201952434662,9.70552399297958,-1.270557504212939,0.2627185417612283,-1.3679363613570412
0.42,-2.340670186721529,-0.6384120876491752,2.811363003442132,-0.054409536180521,0.2582638930108311,0.0211179995356048,0.1848845432524334,0.3673764648790473,-0.4521118388273543,-2.340048464580965,-0.6357269483794368,2.807730502994512,0.2426024736568108,0.4350138601312551,-0.5294585508374325,1.4523750491327507,1.2025755088751713,0.8088442065314727,-0.0947442787584323,9.70240364253732,-1.2677484764826448,0.259421628529226,-1.377103991422844
0.44,-2.33693231763127,-0.631295665170435,2.8027304244854894,-0.0516086424472613,0.2606044307523985,0.0215849679707462,0.2073931943729958,0.3811365622595494,-0.4565633475441366,-2.340048464580965,-0.6357269483794368,2.807730502994512,0.2426024736568108,0.4350138601312551,-0.5294585508374325,1.3377178187529697,1.1254325560281178,0.6880048690251023,-0.2225754358391146,10.865932730926032,-1.265359497312908,0.2564364440815079,-1.3819654071624832
0.46,-2.332541001086029,-0.6235240259498185,2.7935176238333668,-0.0494023490534677,0.2628703399830122,0.022045690883989,0.2305615823415929,0.3953800182190116,-0.4646439938913775,-2.337622439844397,-0.6313768097781243,2.8024359174861377,0.262602473954834,0.4550138604292783,-0.5494585511354557,1.4185794691536973,1.1584193984298563,0.7121727979731124,-0.4040323173620436,10.62935074516554,-1.262663496620046,0.2543115195172072,-1.385526858373205
0.48,-2.3276907490128336,-0.6154707109317532,2.7841104413209607,-0.047756100424692,0.2649903724463118,0.0224838662129625,0.2533574219511305,0.4092999280549013,-0.4756721076914438,-2.332770390371261,-0.6226765325754992,2.791846746469389,0.3026024745508804,0.4950138610253247,-0.5894585517315022,1.44484729931079,1.1397919804768772,0.6959954917944849,-0.5514056900033176,10.27419951718457,-1.259895869871527,0.2529574343909361,-1.3888537120517097
0.5,-2.322662446721797,-0.6075664794151607,2.7749482881908363,-0.0466795977350639,0.2668943034454122,0.022878791000479,0.2748391024780564,0.4220682514944827,-0.488223103360298,-2.3279183408981248,-0.613976255372874,2.7812575754526403,0.3426024751469269,0.5350138616213712,-0.6294585523275487,1.3982311808122705,1.0740840263462974,0.6384161719790699,-0.6275497834427102,10.27419951718457,-1.2573652196309988,0.2523174056192697,-1.393351460177781
0.52,-2.316929395607885,-0.5989899307996931,2.765027992541488,-0.0462097284524876,0.2687955682226491,0.0232596378452337,0.2973558813595489,0.4349533590810322,-0.5032357952738192,-2.3210662913951863,-0.6032759781404466,2.7686684044060894,0.3826024757429733,0.5750138622174177,-0.6694585529235951,1.4986762886004463,1.1258389440746224,0.6442553793274741,-0.7506345956760585,10.156311128145717,-1.255470694310325,0.2525644429402967,-1.3972677877683608
0.54,-2.3107443245946544,-0.590157620744574,2.7547989458205904,-0.0465668844393694,0.2705946266597275,0.0235933493709568,0.3200583540162376,0.447692838798191,-0.5189443763258369,-2.314214241892248,-0.5925757009080191,2.7560792333595385,0.4226024763390199,0.6150138628134642,-0.7094585535196416,1.520243505872833,1.1351236328344363,0.6369739858579415,-0.7854290526008834,10.055443003433538,-1.2541751679848574,0.2538755569668045,-1.4003576593315634
0.56,-2.304102763218334,-0.5810590439762786,2.7442516760774294,-0.0474631468544714,0.2722901443773401,0.0239000071429339,0.3430024216414006,0.4614848813914745,-0.5350077582326271,-2.306362192374408,-0.5808754236606906,2.7424900622980863,0.4626024769350663,0.6550138634095105,-0.749458554115688,1.5609956088714618,1.1472033812581497,0.6896021296641741,-0.8031690953395121,10.020484581638812,-1.251752097126186,0.2557735147119331,-1.403954947978458
0.58,-2.2973660221532275,-0.5721505114717125,2.733930987632585,-0.0483396626060136,0.2738068777974908,0.0241998150423062,0.3650140243487373,0.475482698188629,-0.5505857764750149,-2.297510142841667,-0.5681751463984609,2.727900891221733,0.5026024775311128,0.695013864005557,-0.7894585547117344,1.5191479365029754,1.1005801353668354,0.6998908398577225,-0.7789009121193902,10.020484581638812,-1.249179990354093,0.2578582205805155,-1.407909213574943
0.6,-2.2898212876605424,-0.5624793114076092,2.722741914129376,-0.048926626148448,0.2753099001989943,0.0245497975162993,0.3883302608977256,0.4908493857516297,-0.5675326048191571,-2.279115320935791,-0.548376376562281,2.706401698808834,0.4650140258388534,0.5754826996787451,-0.6505857779651311,1.6332306668020602,1.1658118274494171,0.7683343781500346,-0.8473414172071092,10.010934701245787,-1.2466015513861977,0.2595127310429699,-1.4118633459165189
0.62,-2.28173927937048,-0.5524323753976161,2.711445591706425,-0.0472776202045114,0.2766081630808353,0.025074426859838,0.4190828995350329,0.5126648122797804,-0.5600091926852325,-2.279115320935791,-0.548376376562281,2.706401698808834,0.4650140258388534,0.5754826996787451,-0.6505857779651311,1.922393916383187,1.5376319318653655,1.0907713264075385,0.37617060669623,9.986678639935237,-1.2453654195492994,0.2587946551147719,-1.4189525367233924
0.64,-2.273488964363019,-0.5425156306222346,2.7008585407850103,-0.0431204656753069,0.2776121578315796,0.0257709087772083,0.447825489282692,0.5294669621284128,-0.5549099316416215,-2.279115320935791,-0.548376376562281,2.706401698808834,0.4650140258388534,0.5754826996787451,-0.6505857779651311,1.684080734502523,1.4371294873829543,0.8401074924316188,0.2549630521805512,11.68372958622058,-1.244603327681225,0.2543526221872899,-1.42611187674542
0.66,-2.264226766836098,-0.5317759988449807,2.689771011187104,-0.0382074010002517,0.2785498253102991,0.0265476561471034,0.4768403966485233,0.5434635907323963,-0.5543317971472573,-2.274465180677402,-0.5426215495654936,2.6998958410291825,0.4850140261368766,0.5954826999767683,-0.6705857782631542,1.6109816116417874,1.4507453682915616,0.6998314301991715,0.0289067247182084,11.338996107656383,-1.2440038193464698,0.2488676689325653,-1.4306190909566825
0.68,-2.254396051102161,-0.5207794718460851,2.6786483218436508,-0.0335960182564598,0.2794342332598385,0.0273033165609152,0.5047532989893527,0.5554541895995853,-0.5581423070512694,-2.265164900160625,-0.5311118955719186,2.68688412546988,0.5250140267329231,0.6354827005728148,-0.7105857788592007,1.530869494773387,1.395645117041472,0.5995299433594503,-0.1905254952006052,11.01819596054338,-1.2432789306425922,0.2436532340149722,-1.433999659860098
0.7000000000000001,-2.2440172122738407,-0.5095587098896821,2.667407680541772,-0.0295926478032951,0.2802995240665682,0.0280134722978154,0.5317633329399354,0.5661023390786613,-0.565719694176123,-2.255864619643848,-0.5196022415783438,2.6738724099105773,0.5650140273289695,0.6754827011688612,-0.7505857794552472,1.500284820442664,1.3505016975291328,0.5324074739537998,-0.3788693562426781,10.754315324576057,-1.2425278128519657,0.2393428322538541,-1.4360942424169405
0.72,-2.233659421021989,-0.498710862417454,2.6565612102816574,-0.026422252108827,0.281002030913514,0.028643082746425,0.5571652013493014,0.5753500890868166,-0.5756284851318323,-2.244564339097269,-0.5060925875549666,2.6588606943214725,0.605014027925016,0.7154827017649077,-0.7905857800512937,1.439583218421246,1.270093420468299,0.4623875004077682,-0.4954395477854645,10.544733674512829,-1.241921337731701,0.235641788121111,-1.4376903895238564
0.74,-2.2222348616667085,-0.4871092299880386,2.644926375654278,-0.0237776882370265,0.2814284255612895,0.0292600880517848,0.5839148199853147,0.5844213958153854,-0.5873808310521604,-2.2332640585506893,-0.4925829335315893,2.643848978732368,0.6450140285210625,0.7554827023609542,-0.8305857806473401,1.5296636375090629,1.3374809318006664,0.4535653364284409,-0.5876172960164072,10.382222643914249,-1.241899433232891,0.2328645676281135,-1.438438982751841
0.76,-2.210268482927632,-0.4753219418708566,2.633044932887021,-0.0215530343704762,0.2811606851769829,0.0298574417577483,0.6113360081758269,0.5938120779317047,-0.6001940402266368,-2.220963777989209,-0.4780732794933109,2.6278372631283613,0.6850140291171088,0.7954827029570005,-0.8705857812433865,1.5845226424211558,1.37105940952561,0.4695341058159608,-0.6406604587238185,10.308973653321118,-1.242587105365624,0.2305989040774727,-1.437950777510128
0.78,-2.197747054303135,-0.4633478064582067,2.6208957912296182,-0.0194213804277112,0.2795539302622594,0.0304679616823903,0.6393264013875424,0.6030451965055587,-0.614040983297991,-2.207663497412827,-0.4625636254401314,2.610825547509454,0.7250140297131553,0.835482703553047,-0.910585781839433,1.6282278888154895,1.399519660585774,0.4616559286927002,-0.6923471535677073,10.2055258752589,-1.2449872205285464,0.228559290844143,-1.4358820521319382
0.8,-2.1853305714120936,-0.4518045393090079,2.609087459798607,-0.0174005695353486,0.2762014770824594,0.0310705707072735,0.6661382236979865,0.6114886368272082,-0.6282014725677866,-2.165780734233758,-0.4331955466329288,2.5901937420647188,0.7393264028776585,0.7030451979956748,-0.7140409847881071,1.573757411763391,1.340591115522205,0.4221720160824782,-0.7080244634897814,10.2055258752589,-1.2502639428119766,0.2264034093245685,-1.4308924051480194
0.8200000000000001,-2.1716541709919337,-0.4394492381097855,2.5966724530945946,-0.0143385141970801,0.2710239439939372,0.0317789816488714,0.7001749858486528,0.6230319310239233,-0.610879314708921,-2.165780734233758,-0.4331955466329288,2.5901937420647188,0.7393264028776585,0.7030451979956748,-0.7140409847881071,1.9948721584981368,1.7018381075333155,0.5771647098357535,0.8661078929432797,10.143060511495603,-1.2601579765684674,0.2231367369946994,-1.4228716496635163
0.84,-2.157322703654555,-0.4269044268462225,2.5846009324637094,-0.0107653263237237,0.265212992530196,0.032498583129116,0.7309797280859791,0.6308690618323354,-0.5972560201615442,-2.165780734233758,-0.4331955466329288,2.5901937420647188,0.7393264028776585,0.7030451979956748,-0.7140409847881071,1.7291232734690027,1.540237111866316,0.3918565404206042,0.6811647273688382,11.808871105699836,-1.2690407671287227,0.2194210919488533,-1.4168400789610374
0.86,-2.1424115826216164,-0.414222711680243,2.5727257591411363,-0.0077197162401198,0.2589862866177652,0.0331492614033716,0.7583314884740926,0.6370386323728084,-0.5908630610138842,-2.158387470204981,-0.426165094652972,2.5830533322168376,0.7593264031756817,0.723045198293698,-0.7340409850861302,1.4379258705217537,1.3675880194056744,0.3084785270236534,0.3196479573830013,11.808871105699836,-1.2777204770952284,0.2160591565145013,-1.4098956882331743
0.88,-2.1277715823798804,-0.4020706802857831,2.561505362635125,-0.0055365174269345,0.2527881179832973,0.0336896315594087,0.7811439515303426,0.6419905548303141,-0.590482463107892,-2.143600942147428,-0.4121041906930585,2.5687725125210754,0.7993264037717281,0.7630451988897444,-0.7740409856821767,1.167341918081377,1.1406231528124977,0.2475961228752821,0.0190298952996104,11.315287561441435,-1.286693252649764,0.2136139224550237,-1.4014088273160714
0.9,-2.1119261675407164,-0.3891851231350294,2.549655065651536,-0.0041008954486762,0.2462336283422272,0.0341726123656802,0.801942236975721,0.6463859657835002,-0.5947395551644601,-2.128814414089875,-0.398043286733145,2.554491692825313,0.8393264043677746,0.8030451994857909,-0.8140409862782232,1.0839870244759893,1.0399142722689214,0.2197705476593037,-0.212854602828405,10.919485078362412,-1.2957462977557788,0.2122383378311669,-1.3911552925419115
0.92,-2.0956958709785893,-0.3762198899924529,2.537675128779543,-0.0038182677602601,0.2399458341089668,0.0345564360552246,0.8198453719139214,0.6500165138217662,-0.6031758293777986,-2.11202788600252,-0.3819823827434292,2.538210873099749,0.8793264049638211,0.8430452000818374,-0.8540409868742697,1.0060738569759784,0.8951567469100197,0.1815274019133006,-0.4218137106669239,10.600152988449736,-1.3043315106153217,0.2122728789226899,-1.379860719485991
0.94,-2.079132829368621,-0.3631888594997792,2.525499928161778,-0.0050371682519346,0.2341807868185963,0.0348274563432516,0.8354553459731476,0.6531278797455038,-0.6138647077233779,-2.0952413579151643,-0.3659214787537134,2.5219300533741844,0.9193264055598676,0.8830452006778838,-0.8940409874703161,0.9586501034367368,0.7804987029613131,0.1555682961868809,-0.534443917278965,10.20000955631076,-1.3119893656253108,0.2140490421370442,-1.3689986072643296
0.96,-2.063121996884288,-0.3507419365754002,2.5137208022976862,-0.0074857324048313,0.2292256734218534,0.0349979931064564,0.8489991415777881,0.6571349898506047,-0.6254723599332764,-2.077454829812908,-0.3488605747490964,2.5046492336337187,0.959326406155914,0.9230452012739304,-0.9340409880663624,0.9140964399348728,0.6771897802320237,0.2003555052550454,-0.5803826104949283,10.09644977755852,-1.3189816813950273,0.2176465786370663,-1.3592508157196024
0.98,-2.046005827032813,-0.3375353442670411,2.5010697328155405,-0.0106336670230273,0.2245051108405229,0.0351474221260769,0.8617582132358188,0.663453651615479,-0.6390644934628842,-2.0586683016957497,-0.3307996707295783,2.486368413878352,0.9993264067519604,0.9630452018699768,-0.974040988662409,0.984207155481423,0.6379535829015348,0.3159330882437139,-0.6796066764803876,9.999443798071296,-1.3252601812166822,0.2219696224701149,-1.35006626555966
1.0,-2.028649477116467,-0.3241857125781147,2.488131433262668,-0.0135859434782422,0.2203358557587053,0.0353187481602409,0.8731298168285944,0.6711512848767521,-0.6540462681688065,-2.0029179163710222,-0.3043626616862672,2.469116508142396,0.9617582147259348,0.7501921113813901,-0.7390644949530003,1.0161452891138385,0.5685801796387779,0.3848816630636575,-0.7490887352961162,9.999443798071296,-1.3307949966932675,0.2260131753027243,-1.3414310768106354
1.02,-2.0110283013634622,-0.3105367265075132,2.475280492963883,-0.0118788565362778,0.2178368754858109,0.0357969901708975,0.8883867489393446,0.6913658406955759,-0.6302587694137257,-2.0029179163710222,-0.3043626616862672,2.469116508142396,0.9617582147259348,0.7501921113813901,-0.7390644949530003,1.7372732524040038,0.7628466055375094,1.0107277909411905,1.1893749377540397,9.913592063873692,-1.3351773020068785,0.2246284405018838,-1.3347951331405905
1.04,-1.9940184837575472,-0.2972797858508299,2.463470231411643,-0.0054649579496041,0.218092701371971,0.0365392731615949,0.9017246319327156,0.7021067110616276,-0.6142466838709403,-2.0029179163710222,-0.3043626616862672,2.469116508142396,0.9617582147259348,0.7501921113813901,-0.7390644949530003,1.1722332344660105,0.6668941496685454,0.5370435183025823,0.8006042771392718,12.46993467091761,-1.3350480715984083,0.2172079860969052,-1.3410231666858352
1.06,-1.9758306488675468,-0.2831781807515391,2.4512838106459727,0.0022185003036287,0.2201470086484569,0.0373639697147083,0.91649779965187,0.7072966204698793,-0.6056205327020452,-1.993300334223763,-0.2968607405724532,2.4617258631928665,0.981758215023958,0.7675398033345723,-0.7590644952510235,0.8938569909565484,0.7386583859577245,0.2594954704125851,0.4313075584447545,11.785972834860331,-1.331863325652339,0.208279815787639,-1.3477615032788497
1.08,-1.9573392915944532,-0.2690091073604093,2.4391930148273504,0.0092688007494905,0.2229137932490898,0.0381415564643213,0.931969697884978,0.7093815683925838,-0.6041767557421607,-1.974065169929244,-0.2818568983448254,2.4469445732938064,1.021758215620005,0.8022351872409368,-0.79906449584707,0.7839182589497626,0.7735949116553953,0.1042473961352263,0.0721888479942256,11.243731365250824,-1.3276327987785534,0.2003136405544568,-1.3523660535234976
1.1,-1.9385366041671304,-0.2548201593617218,2.4270662342436853,0.0151140832362393,0.2256804514265061,0.038830941627493,0.9475773584560064,0.7096443686125659,-0.608552196147373,-1.9548300056347252,-0.2668530561171977,2.4321632833947464,1.061758216216051,0.8369305711473012,-0.8390644964431164,0.8105748133201893,0.7803830285514235,0.013140010999102,-0.2187720202606158,10.828361754732214,-1.3233768621542314,0.1933003616949875,-1.3558119838310505
1.12,-1.9203845186854471,-0.2413468084496363,2.4154244045568194,0.0194580582947437,0.2280329311554502,0.0393901932170918,0.9624020569622064,0.7088515524013063,-0.6166737615229462,-1.9335948413104045,-0.2501144446942516,2.415381993465884,1.1017582168120974,0.8716259550536656,-0.8790644970391629,0.8461088397692629,0.7412349253100026,-0.0396408105629797,-0.406078268778659,10.520799157625332,-1.3196531383064185,0.1878485645859077,-1.3576168341917834
1.14,-1.9009714141044116,-0.2271869866625717,2.402984122559477,0.0227952480832836,0.2301247374154041,0.039873887399806,0.9781340324868976,0.7073804051062716,-0.6269898923979899,-1.912359676986084,-0.2333758332713056,2.3986007035370216,1.141758217408144,0.90632133896003,-0.9190644976352094,0.9435066037185476,0.786598776234565,-0.0735573647517306,-0.5158065437521842,10.290892534337218,-1.3164958807135634,0.1839437446930446,-1.3580507962653317
1.16,-1.8812358430711664,-0.21305356449737,2.390322661658982,0.0251662753263267,0.2316066270912234,0.0402616449219149,0.994605252998959,0.7061379675025492,-0.6386780088714122,-1.890124512646861,-0.2157698372507004,2.380819413593258,1.1817582180041903,0.9410167228663944,-0.9590644982312556,1.01175197436474,0.8235610256030645,-0.0621218801861223,-0.5844058236711192,10.127527658692998,-1.3140027748383214,0.1811952746944893,-1.357201973279907
1.18,-1.8611664031340915,-0.1989461404609923,2.377412459749206,0.0268599599480597,0.2321242660774886,0.0405609973726282,1.0113849771532215,0.7047611824281559,-0.6517235957435205,-1.866889348292738,-0.1972964566324362,2.3620381236345938,1.2217582186002367,0.9757121067727588,-0.9990644988273022,1.064943680050668,0.8389862077131383,-0.0688392537196658,-0.6522793436054108,10.127527658692998,-1.3130186069503753,0.1793523526534249,-1.3547105977307956
1.2,-1.8417893778816825,-0.1855726749675477,2.364893003624671,0.0278744721715058,0.2315586981904445,0.0407585711809877,1.0273824242762617,0.7031014366094405,-0.6654343238441671,-1.8105971542764303,-0.1637080813395845,2.34482627996203,1.111384978643338,0.7503079599745617,-0.7517235972336366,1.0567132246819204,0.7998723561519983,-0.0829872909357709,-0.6855364050323332,10.055910711962497,-1.3134912796732383,0.1781488849735069,-1.3501092502464775
1.22,-1.8209810772075623,-0.1713782373954904,2.351790878140251,0.0334380964867533,0.2294991440129934,0.0412166315225798,1.0530078937998295,0.7137471233360536,-0.6422163766791391,-1.8105971542764303,-0.1637080813395845,2.34482627996203,1.111384978643338,0.7503079599745617,-0.7517235972336366,1.80905251771648,1.2812734761784017,0.5322843363306573,1.1608973582514004,9.975457996216392,-1.3168496657356643,0.171459106504787,-1.3429608882085284
1.24,-1.7996638265388991,-0.1570948746138459,2.3391425771820806,0.0436704648414819,0.2256869488585925,0.041882158952352,1.0772348815391923,0.7131416867373007,-0.6239684777065037,-1.8105971542764303,-0.1637080813395845,2.34482627996203,1.111384978643338,0.7503079599745617,-0.7517235972336366,1.516821763848546,1.2113493869681302,-0.0302718299376447,0.9123949486317728,12.56954304671308,-1.3215227051802918,0.1596509100360932,-1.3413087912165422
1.26,-1.7789899597735563,-0.1436080316057496,2.3273724184877325,0.0536425690227681,0.2203802823501618,0.0423714071687358,1.0974267629813892,0.7065041796938435,-0.6158278908101367,-1.799483304489997,-0.1562050017398389,2.337309043989693,1.131384978941361,0.7594173154838428,-0.7717235975316598,1.138022111983089,1.0095940721098429,-0.3318753521728612,0.4070293448183493,11.91029011387218,-1.3280381205005796,0.1467045368682568,-1.3343532143211951
1.28,-1.7568576277215564,-0.1295854418593772,2.3150732572148165,0.0628957204445311,0.2134835808373064,0.0426235418450869,1.1143399994718228,0.6961949964357074,-0.6147951581736366,-1.7772556049171302,-0.1411988425403477,2.322274572045021,1.1713849795374076,0.7776360265024052,-0.8117235981277062,0.9917199261001848,0.8456618245216818,-0.5154591629068062,0.0516366318250027,11.283458101385804,-1.336498871950368,0.1353275377024084,-1.3238768113088792
1.3,-1.73443212541288,-0.1157918979904633,2.3027213840109453,0.0703796057226867,0.2060566380264691,0.0426146407557901,1.1270460217074278,0.683900154159614,-0.6206625325049759,-1.7550279053442637,-0.1261926833408564,2.307240100100348,1.211384980133454,0.7958547375209675,-0.8517235987237527,0.9314400533444984,0.635301111780251,-0.6147421138046671,-0.2933687165669663,10.786539805813844,-1.3452150789040784,0.1265679796403286,-1.3119240115145054
1.32,-1.711794161050503,-0.1022584242419765,2.2901862264501105,0.0759553777365756,0.1987757155038879,0.0423953453349329,1.1359547877329137,0.6704870820437138,-0.6324570482204993,-1.7308002057415943,-0.1102755885904371,2.290205628125873,1.2513849807295003,0.8140734485395298,-0.8917235993197992,0.9979819846156038,0.4454383012742924,-0.670653605795013,-0.5897257857761684,10.034732160229396,-1.3543930132471766,0.1196627147369081,-1.2984308388970784
1.34,-1.6901505922398934,-0.0896566357035963,2.278031465179817,0.0796178393950707,0.1924836854939884,0.0420584555025109,1.141799224765955,0.6570938808406481,-0.6463336866320641,-1.7065725061389252,-0.0943584938400177,2.273171156151398,1.291384981325547,0.8322921595580921,-0.9317235999158456,1.007591653776841,0.2922218516520636,-0.669660060153282,-0.6938319205782417,10.034732160229396,-1.3627898550511683,0.114895319983828,-1.2857551756377472
1.36,-1.6672654388273975,-0.0766635767308507,2.264932050844129,0.0820713366694027,0.1867256503129107,0.0416280961220774,1.1462729924299075,0.6431590400547166,-0.6629250780793136,-1.681344806521355,-0.0779859313141343,2.255136684162022,1.3313849819215933,0.8505108705766544,-0.971723600511892,1.106196925276135,0.2236883831976288,-0.6967420392965773,-0.8295695723624708,9.8680738660114,-1.3699076167794415,0.1118523225411475,-1.2740706500077024
1.38,-1.644307861788613,-0.0639517864379218,2.251481620680644,0.0832694824300819,0.1819131421383625,0.0411537479846533,1.1491298621460335,0.6288691021697098,-0.6813255545668889,-1.6551171068888837,-0.0611579010127869,2.2361022121577445,1.3713849825176396,0.8687295815952167,-1.0117236011079385,1.173607221669674,0.1428434858063099,-0.7144968942503382,-0.9200238243787684,9.73846367299575,-1.375915179402206,0.1103026684320462,-1.2632703823474836
1.4,-1.6213099645591589,-0.0515333253286455,2.23764507938553,0.0829265205173608,0.1782405652887421,0.0406448259297964,1.1504389655886105,0.6139529831544571,-0.7013513793712854,-1.5868513686813115,-0.0325083313294363,2.2174153429523,1.24912986363615,0.6482868127719933,-0.781325556057005,1.250237994740333,0.0654551721288254,-0.7458059507626347,-1.001291240219826,9.536951153223526,-1.380373581357084,0.1104919523669318,-1.2541110060839502
1.42,-1.5994144456538133,-0.0399126604204554,2.2244960876018625,0.0851271435425362,0.1768975741667866,0.0405017382856111,1.1544818712640097,0.6081605223927287,-0.681906965759031,-1.5868513686813115,-0.0325083313294363,2.2174153429523,1.24912986363615,0.6482868127719933,-0.781325556057005,1.034387389594399,0.2021452837699611,-0.2896230380864228,0.9722206806127232,9.536951153223526,-1.3844791829607346,0.1082857233900099,-1.244235753622885
1.44,-1.5762800410502558,-0.027884631305843,2.2110101615322257,0.0907766797170768,0.1784451917195757,0.040816683190819,1.1590188665901724,0.5944853922197689,-0.6683052134650875,-1.5868513686813115,-0.0325083313294363,2.2174153429523,1.24912986363615,0.6482868127719933,-0.781325556057005,0.9907083038195624,0.2268497663081459,-0.6837565086479869,0.6800876146971724,12.027638294112876,-1.381663530812888,0.1014749421796012,-1.2470750179070176
1.46,-1.5530401846171835,-0.0161811244703359,2.197704864062508,0.0964349981887562,0.1818641995793854,0.0412909069242375,1.1649385651275164,0.5766795925951669,-0.663226508550582,-1.57436007004495,-0.0260254632017164,2.2096020873917293,1.269129863934173,0.65217035489245,-0.8013255563550282,0.971960100329656,0.2959849268671988,-0.8902899812301024,0.2539352457252786,11.40581180091158,-1.3764029536455982,0.0949492747902218,-1.251517158273678
1.48,-1.5296687023900026,-0.0048543112850903,2.184427373894072,0.100747057731757,0.1860400555421663,0.0417378685778968,1.1720726182513066,0.5573179506703989,-0.6647200990123645,-1.549377472772227,-0.0130597269462765,2.193975576270589,1.3091298645302196,0.6599374391333633,-0.8413255569510747,1.0344064777246922,0.3567026561895114,-0.9680820962383984,-0.0746795230891272,10.919762633790016,-1.3700906413655418,0.0895972512228864,-1.25592039808436
1.5,-1.507323027542556,0.0055426777056698,2.1717430800055118,0.1033481047034065,0.190059234841361,0.0420548560742915,1.1798227293720702,0.5385097415788825,-0.6703487738432325,-1.524394875499504,-9.39906908366886e-05,2.1783490651494493,1.349129865126266,0.6677045233742768,-0.8813255575471212,1.0553375431183505,0.3875055560381812,-0.9404104545758184,-0.281433741543402,10.580857349114012,-1.3638830914625295,0.0861236203840304,-1.2591978354373263
1.52,-1.4836369119425092,0.0161009657306799,2.158242330665815,0.1045032468050109,0.1940327045278443,0.0422373285563748,1.1884423279857583,0.518522892757624,-0.6795531074872081,-1.4974122781969788,0.0132600997766488,2.160722553998507,1.3891298657223123,0.6754716076151902,-0.9213255581431676,1.1816210939791136,0.4309799306844053,-0.999342441062928,-0.4602166821987774,10.343126797677542,-1.35839097970572,0.0845494725835083,-1.2614917147194904
1.54,-1.4597696779046136,0.0262494942798317,2.1445415381322297,0.1035600647967846,0.197615486368553,0.0422125710581416,1.197896502345397,0.4977107294294981,-0.6900128510170689,-1.4704296808944537,0.0266141902441343,2.1430960428475645,1.429129866318359,0.6832386918561035,-0.961325558739214,1.2569146648932643,0.4727087179819289,-1.0406081664062927,-0.5229871764930394,10.117031593707908,-1.353930061247133,0.0853620891461634,-1.2616620156801606
1.56,-1.4381158965078051,0.0350264746117304,2.132026893347537,0.1005465420617572,0.2002584572645011,0.0419584267354404,1.207562660408817,0.4791420839631426,-0.6999102584818934,-1.442447083577027,0.0401624578176427,2.124469531681721,1.4691298669144053,0.691005776097017,-1.0013255593352606,1.1577865527451392,0.4833079031710041,-0.9284322733177752,-0.494870373241224,10.117031593707908,-1.3499316650130555,0.088702500139854,-1.2608425985513705
1.58,-1.413847426860935,0.044419736013133,2.117906887085469,0.0955301782313576,0.2022790362266532,0.041445910962181,1.2186964634405049,0.4616859303747558,-0.7115309218594494,-1.4134644862446992,0.0539049024971739,2.104843020500976,1.5091298675104516,0.6987728603379303,-1.041325559931307,1.1871380347123126,0.5566901515843936,-0.8728076794193407,-0.5810331688778037,10.090115215642982,-1.347187986048613,0.0940848275765393,-1.2602300295802615
1.6,-1.3893529371463278,0.0534880661334066,2.1035473354323138,0.0897618714328906,0.2032253905522891,0.040762365587311,1.230107425697322,0.4463497052466483,-0.7238323096068442,-1.3529126036889094,0.0675040325318708,2.0823303409924967,1.318696464930621,0.4598517154769295,-0.8115309233495656,1.136589197245707,0.5705481128408629,-0.7668112564053725,-0.6150693873697377,10.034550798323837,-1.3460279598121676,0.0999729418804406,-1.2581546146748324
1.62,-1.364534775494512,0.0623847379807097,2.0893328036467467,0.0884146439466161,0.2024182525561357,0.0402225934012122,1.250988747761291,0.4417298145225097,-0.6971863703472704,-1.3529126036889094,0.0675040325318708,2.0823303409924967,1.318696464930621,0.4598517154769295,-0.8115309233495656,1.7083464815919855,1.04406610319846,-0.2309945362069326,1.3322969629786907,9.986417178150989,-1.3481093782783649,0.1017592046410911,-1.2507676435055215
1.64,-1.340581119414049,0.0706848031648479,2.076272956091432,0.0920954920198193,0.1994935293400225,0.0398449643849374,1.2692408973752891,0.4312480456368743,-0.6790091240480847,-1.3529126036889094,0.0675040325318708,2.0823303409924967,1.318696464930621,0.4598517154769295,-0.8115309233495656,1.390522138914823,0.9126074806999008,-0.5240884442817673,0.9088623149592856,11.824655944586084,-1.351399763700189,0.0968037094193361,-1.245939716310255
1.66,-1.3150180794406965,0.0791375636315492,2.0628095320905766,0.0972714452034827,0.1941850789943059,0.0392869064709247,1.2856728763005167,0.4144657976724599,-0.6686156562183215,-1.3397256390396033,0.0721025496866401,2.074215031759001,1.3386964652286442,0.4594848724973642,-0.8315309236475887,1.2842098267675444,0.8215989462613704,-0.8391123982207205,0.5196733914881568,11.824655944586084,-1.3574024512121867,0.0902176283578633,-1.2375220627211243
1.68,-1.2891731939493651,0.0872236263557977,2.0494622744540667,0.101675956737082,0.1871999166756379,0.0384544216819885,1.2976223678487546,0.395255809649193,-0.6664967574122412,-1.3133517097409908,0.0812995839961787,2.0579844132920098,1.3786964658246907,0.4587511865382337,-0.8715309242436352,1.1361158834664211,0.5974745774118939,-0.960499401163345,0.1059449403040146,10.772969548852416,-1.365031782890149,0.084758967352855,-1.2269464511499504
1.7,-1.2644411572443743,0.0945401037776047,2.0367593655505405,0.1045863791653083,0.1799048387268526,0.0374596746783684,1.3049199527328306,0.3762288896259241,-0.670658203502689,-1.2869777804423783,0.0904966183057173,2.0417537948250186,1.418696466420737,0.4580175005791032,-0.9115309248396816,1.0399471912985168,0.3648792442037973,-0.9513460011634473,-0.2080723045223886,10.37697599277999,-1.3740274680920943,0.0805217979530695,-1.2143671087045471
1.72,-1.2382973026625324,0.1018516414210313,2.023250874026858,0.1062681092626573,0.1723255320753677,0.036290254406441,1.3088312046845536,0.3561824118216992,-0.68014761419451,-1.2586038511139634,0.0996569683172993,2.023523176328225,1.4586964670167837,0.4572838146199726,-0.951530925435728,1.1260640295551418,0.1955625975861519,-1.0023238902112457,-0.4744705345910482,10.37697599277999,-1.3830332974629858,0.0778679210586766,-1.2020514241956537
1.74,-1.2121077152087316,0.1087576412736429,2.0095172566784067,0.1063754054886763,0.1654766099289064,0.0350681871966944,1.309788185019698,0.3356104123511845,-0.6928082291501484,-1.2302299217855488,0.1088173183288814,2.005292557831431,1.49869646761283,0.4565501286608421,-0.9915309260317746,1.2087329570997525,0.0478490167572176,-1.0285999735257343,-0.6330307477819208,9.880434669376882,-1.3915156588143769,0.0769841600303388,-1.1905571580426728
1.76,-1.1859187042897317,0.1152458771730491,1.9955049808147411,0.1044067886281121,0.1596204304773072,0.033804951556019,1.308939198040158,0.3144952044936036,-0.7078336778707994,-1.2008559924422328,0.1179593261914852,1.9860619393197363,1.5386964682088764,0.4558164427017116,-1.031530926627821,1.2964729953003158,-0.0424493489769917,-1.055760392879046,-0.7512724360325518,9.880434669376882,-1.398604355046097,0.078106125761223,-1.1826326658960495
1.78,-1.1610721624165068,0.1210250148231104,1.981895629705536,0.1003622934990608,0.1550763239327711,0.032574967827172,1.3064425815564211,0.29570331666683,-0.7238645008410748,-1.1704820630840158,0.1270829919051107,1.9658313207931408,1.5786964688049228,0.4550827567425811,-1.0715309272238671,1.2413253270851443,-0.124830824186839,-0.93959439133868,-0.801541148513768,9.746434952109666,-1.4042702235841242,0.0816856634950887,-1.1757276644943029
1.8,-1.1349865969467388,0.126756568827942,1.9672281780166028,0.0949440333240589,0.1516206154208245,0.0313582195473258,1.302129922487706,0.2788173969568687,-0.7420661725053271,-1.0957500333386858,0.1358101806564519,1.9457024046634823,1.4064425830465377,0.2687656102708463,-0.8238645023311909,1.259994210371101,-0.2156329534357626,-0.8442959854980642,-0.9100835832126176,9.635361214362092,-1.408898595472052,0.0865970798629178,-1.1711064851666069
1.82,-1.1089696975477152,0.1322630711806709,1.952575173643896,0.0931045800310006,0.1505973400106525,0.0306412189876387,1.3001997673006431,0.2711521180662251,-0.7205301517659498,-1.0957500333386858,0.1358101806564519,1.9457024046634823,1.4064425830465377,0.2687656102708463,-0.8238645023311909,1.1470420532879138,-0.0965077593531371,-0.3832639445321778,1.0768010369688663,9.537132967258003,-1.4136273735913694,0.0885604784164915,-1.1606349336132054
1.84,-1.0829846399153031,0.1375662211863491,1.9383411805720607,0.0964905306461013,0.1526045279928037,0.030572987254099,1.2988066424520772,0.2586377533558847,-0.7042662719749826,-1.0957500333386858,0.1358101806564519,1.9457024046634823,1.4064425830465377,0.2687656102708463,-0.8238645023311909,1.028425868502608,-0.0696562424283064,-0.6257182355170199,0.8131939895483609,12.119168624059968,-1.4106681892729898,0.0844119770126535,-1.1643940970241
1.86,-1.0583084802823115,0.1423141481579054,1.9250380229393,0.101207096611677,0.1562660303234206,0.0307865485401516,1.2989937140241294,0.2416708416578886,-0.6968917178975502,-1.0816856075082204,0.1384978367591604,1.9374637596401705,1.4264425833445606,0.2633780689916495,-0.8438645026292141,0.9250609928291752,0.0093535786026111,-0.8483455848998025,0.3687277038716186,11.47815061747042,-1.4052354930002349,0.0781919643094097,-1.1727487538562842
1.88,-1.0323151156739874,0.1469371019979505,1.911124871330495,0.1057465355213842,0.1609958123491172,0.0310808983151912,1.3005096679468129,0.2216364772037077,-0.6950617561201445,-1.0535567558472898,0.1438731489645773,1.9209864695935464,1.4664425839406072,0.252602986433256,-0.8838645032252606,1.008740099685513,0.0757976961341611,-1.0017182227090498,0.0914980888702843,10.99131428367491,-1.398758801704581,0.0724250141437358,-1.1815180033711232
1.9,-1.0062780251722416,0.1511465475651847,1.8971931281358272,0.1091624208965158,0.1659823944052495,0.0313336155281957,1.3032718083209387,0.2006374153601429,-0.6981654729070904,-1.025427904186359,0.1492484611699943,1.904509179546923,1.5064425845366536,0.2418279038748625,-0.923864503821307,1.0703072872425492,0.1381070187063016,-1.0499530921782352,-0.1551858393472938,10.655373818336557,-1.3924748675711558,0.0680927094671794,-1.189321867372576
1.92,-0.981482562060502,0.154753516358889,1.8838670342828407,0.1112445436198794,0.1705988386793682,0.0314836676912996,1.3067379209775185,0.1804176599783103,-0.7043984633219534,-0.995299052495626,0.1540850192474915,1.8860318894704968,1.5464425851327,0.2310528213164691,-0.9638645044173534,1.0720338312770543,0.1733056328289794,-1.01098776909163,-0.3116495207431513,10.410697669519324,-1.386327791562587,0.0648752639257237,-1.196674907240988
1.94,-0.9553017881926156,0.1581342616301813,1.8696980175772624,0.1122190914074869,0.1751951785081343,0.0315265949641397,1.3112584001601553,0.1588479656765963,-0.7122169525129504,-0.9651702008048928,0.1589215773249888,1.8675545993940703,1.5864425857287463,0.2202777387580756,-1.0038645050134,1.1692040214819095,0.2260239591318491,-1.0784847150857049,-0.3909244595498462,10.231426047494097,-1.381144750307996,0.0630555346138493,-1.2034757661368465
1.96,-0.9290150006513964,0.1610726876688437,1.855361762921505,0.1114789951656074,0.179279610634133,0.0313860199983683,1.3172517693625854,0.1362806002643636,-0.7210318843531458,-0.9340413490992586,0.1634887583385262,1.8480773093027432,1.6264425863247929,0.2095026561996821,-1.0438645056094462,1.2479077283529063,0.2996684601215049,-1.1283682706116336,-0.4407465920097719,10.1427234280427,-1.376589850866457,0.0631139223189689,-1.2091399747508211
1.98,-0.9025961450793168,0.1635535959765421,1.840837660805234,0.1083450526357877,0.1824754079935446,0.0309679515627952,1.3242869183129684,0.1135872052277693,-0.7308608781608947,-0.9019124973787233,0.1677865622881038,1.8276000191965147,1.6664425869208392,0.1987275736412886,-1.0838645062054926,1.2855860709359033,0.351757447519152,-1.134669751829715,-0.4914496903874465,10.1427234280427,-1.3728591737697358,0.0656039697178524,-1.2126704437429106
2.0,-0.8773625995441013,0.1655152139198977,1.8268496670634984,0.1036267105879237,0.1845273731975593,0.0303323919745,1.3314440561984011,0.0945874350631461,-0.7410000026451175,-0.8363817991636684,0.1692329562379305,1.8042946168971887,1.4242869198030843,0.0641004302765497,-0.8308608796510109,1.134700108317357,0.3578568942716464,-0.949988508231158,-0.5069562242111358,10.096299432048909,-1.3700657772432336,0.070247136940281,-1.2145994314063626
2.02,-0.8505628088170312,0.1672811840420283,1.8122800667191332,0.1010570889639784,0.1848652475649922,0.0296392703358633,1.3484523050502315,0.0817349128417816,-0.7136770112790753,-0.8363817991636684,0.1692329562379305,1.8042946168971887,1.4242869198030843,0.0641004302765497,-0.8308608796510109,1.7327822379379278,0.8504124425915194,-0.6426261110682251,1.3661495683021052,10.03618428563641,-1.3718192399916458,0.0732160085941011,-1.202010346510967
2.04,-0.8234231526494661,0.1687524408914509,1.7982525613501152,0.102176405189029,0.1825886389102646,0.028935064750801,1.3643892009832437,0.065795385688192,-0.6910742483985723,-0.8363817991636684,0.1692329562379305,1.8042946168971887,1.4242869198030843,0.0641004302765497,-0.8308608796510109,1.596040466037686,0.7968447966505976,-0.7969763576794804,1.13013814402515,11.963214967127897,-1.3731248659668382,0.0708914361855473,-1.2000396960129032
2.06,-0.7959914273817768,0.1698803282143718,1.7845784101020077,0.1050290070817955,0.1778112047091721,0.0280787920715986,1.3776188487174357,0.0474947119396895,-0.677823006347334,-0.8221389299656375,0.169873960540696,1.795986008100679,1.4442869201011077,0.0542030752863058,-0.850860879949034,1.3091348810573809,0.6614823867095998,-0.9150336874251253,0.6625621025619199,11.368038734618494,-1.3779978012986138,0.0668827181313538,-1.1956408868093495
2.08,-0.7697273958518536,0.1705876399366338,1.7717482010908026,0.107758753984776,0.1714974910966347,0.0270539894978243,1.386016137923763,0.0279944213186402,-0.6732801016650974,-0.7936531915695759,0.171155969146227,1.7793687905076587,1.4842869206971545,0.034408365305818,-0.8908608805450805,1.0856032692378588,0.4198644603163659,-0.9750145310524648,0.2271452341118252,11.368038734618494,-1.385744224746813,0.0626312770061228,-1.1878189198112894
2.1,-0.7419545627042694,0.1709253467194102,1.7582722578317296,0.1099095847144288,0.1640791800576048,0.0258148669533704,1.3904922549415235,0.006978790705738,-0.6747835656091832,-0.7651674531735142,0.172437977751758,1.7627515729146386,1.5242869212932006,0.0146136553253301,-0.930860881141127,1.076978130518215,0.2238058508880258,-1.0507815306451105,-0.0751731972042868,10.4771729312788,-1.3944924764433153,0.0591831610332042,-1.1785852606430318
2.12,-0.7141342704203814,0.1708397580196727,1.7447041114289306,0.1110713860746788,0.1567789740804895,0.0245012266776041,1.3910828743648302,-0.0143257669625119,-0.6821501447204854,-0.7346817147476502,0.1727302508582646,1.744134355291816,1.564286921889247,-0.0051810546551576,-0.9708608817371734,1.127496670223518,0.0295309711653368,-1.0652278834124964,-0.3683289555651114,10.4771729312788,-1.4033643286750137,0.0568160481539318,-1.1695266105223805
2.14,-0.6863363989197829,0.1703232999391247,1.730947051829515,0.1108806896150756,0.1503015933536716,0.0231794454379588,1.388624695170258,-0.0360214355100722,-0.6931153762041611,-0.7041959763217861,0.1730225239647712,1.7255171376689935,1.6042869224852936,-0.0249757646356454,-1.01086088233322,1.2216597113853125,-0.122908959728607,-1.084783427378016,-0.5482615741837837,9.95180522928058,-1.4112832059156764,0.0559734250860596,-1.161497560097077
2.16,-0.6599924418318124,0.1694237649820544,1.717650389956379,0.1089654290685289,0.1452186658819588,0.0219304403068301,1.3844664472065362,-0.0572674532679436,-0.7059264006654823,-0.672710237881021,0.1728199293217656,1.7058999200312697,1.64428692308134,-0.0447704746161332,-1.0508608829292665,1.2577824180319874,-0.2079123981860942,-1.0623008878935734,-0.6405512230660604,9.812399769254624,-1.4184616865662067,0.0570211262691926,-1.1544155335888802
2.18,-0.6323665258775436,0.1680523083299293,1.7033713163732862,0.1049373936700245,0.141263723753085,0.020650677780522,1.378220432874503,-0.0780533543165467,-0.7213101671498741,-0.6402244994253546,0.1721224669292478,1.685282702378645,1.6842869236773863,-0.064565184596621,-1.0908608835253126,1.3301566154823443,-0.3123007166016656,-1.0392950524301523,-0.7691883242195885,9.686974788145562,-1.4229598132280523,0.0602891156499582,-1.1477584705315915
2.2,-0.6048846797151964,0.1662937222667263,1.6887658147936668,0.0997799501110999,0.1391784051127415,0.0195173085998881,1.3702572971428155,-0.0963158073453773,-0.7384042221762864,-0.5634555042338185,0.1641496406141019,1.6673058080157923,1.478220434364619,-0.1379481545027039,-0.7882956476372207,1.3125694634547294,-0.3981567865843693,-0.9131226514415302,-0.8547027513206185,9.582836136182776,-1.425539947254762,0.0645170725088559,-1.144214890278891
2.22,-0.5788614663801538,0.1642984023263082,1.6750367733483071,0.0957076529982619,0.1390566359230495,0.0187054053342488,1.369660013692357,-0.1133778792090779,-0.7059829197411494,-0.5634555042338185,0.1641496406141019,1.6673058080157923,1.478220434364619,-0.1379481545027039,-0.7882956476372207,1.832083442008647,-0.029864172522942,-0.853103593185029,1.621065121756854,9.582836136182776,-1.4295163333914918,0.0692238292120778,-1.13089556266228
2.24,-0.551471957718626,0.1618351477452492,1.6612222279446938,0.0924953526193791,0.1402896647589175,0.0180684031609794,1.3694018847723357,-0.1319780542177178,-0.6777575411973561,-0.5634555042338185,0.1641496406141019,1.6673058080157923,1.478220434364619,-0.1379481545027039,-0.7882956476372207,1.6901960942682128,-0.0129064460010486,-0.9300087504319952,1.4112689271896628,12.87437341119039,-1.427002987692016,0.0713898059358375,-1.1359462983794146
2.26,-0.5240837868768349,0.1590029097635648,1.6478820528423288,0.0894560642218116,0.1422595688814696,0.0175200353203654,1.36950130090079,-0.1501178162373174,-0.6579896066852612,-0.5486732998901723,0.1627701590690749,1.6594228515394205,1.4982204346626422,-0.1499271145399354,-0.80169274373469,1.3414843314112712,0.0049708064227105,-0.9069881009799802,0.9883967256047456,12.214356928324378,-1.4235126881739442,0.0734998511848235,-1.1408316281534092
2.28,-0.496693921076712,0.1558192377785265,1.6348596104210222,0.0862377352524789,0.1444661412502743,0.0169873018509229,1.3695673435965303,-0.1671186498955711,-0.6451938848174388,-0.51910889120288,0.1600111959790208,1.643656938586676,1.5382204352586888,-0.1738850346143983,-0.8284869359296287,1.0639116561443691,0.003302134787031,-0.8500416829126861,0.6397860933911204,11.673186801968768,-1.420118759820287,0.0757884786846233,-1.1447764292803406
2.3000000000000003,-0.4706743200299813,0.1524923277892743,1.6226754967022998,0.083028658371504,0.1466570445464322,0.0164850054520407,1.3694146012145736,-0.1820617814488327,-0.6379635180810015,-0.4895444825155876,0.1572522328889667,1.6278910256339314,1.5782204358547351,-0.1978429546888612,-0.8552811281245674,0.8300583021642323,-0.0076371190978474,-0.7471565776630801,0.3615183368218644,11.268272339784744,-1.4167459136718736,0.0784510108955504,-1.1485198920334003
2.32,-0.4432900537374887,0.1486980056652935,1.6099578651913802,0.0796254994405354,0.1490833002923746,0.0159710639956635,1.3690807414852193,-0.1964531999677154,-0.6343554320023687,-0.4579800737984928,0.1532953737951895,1.61078540307144,1.6182204364507815,-0.221800874763324,-0.882075320319506,0.7420287636866709,-0.0166929864677145,-0.7195709259441337,0.1804043039316416,10.956361572910282,-1.4134319744594537,0.0812158121668253,-1.1520887737126475
2.34,-0.4159095441418985,0.1446266077313112,1.5972922782609609,0.0763049010747078,0.151649134458504,0.0154808546329254,1.369071266300295,-0.2098670467929466,-0.6324295035080598,-0.4264156650813981,0.1493385147014123,1.5936797805089489,1.658220437046828,-0.245758794837787,-0.9088695125144448,0.6775702491164414,-0.0004737592462111,-0.6706923412615625,0.0962964247154418,10.70965804212392,-1.410422352554132,0.0838350213454034,-1.1553255947850292
2.36,-0.3885190074922127,0.1402914784857891,1.5846510879245568,0.0729606406192874,0.1541392049552866,0.0149905510202486,1.370023533634342,-0.2227851710551369,-0.6317729235026671,-0.3938512563494022,0.1447827076057735,1.5759043031415838,1.6982204376428744,-0.2697167149122499,-0.9356637047093832,0.648490255964503,0.0476133667023481,-0.6459062131095122,0.0328290002696352,10.628388082228412,-1.4073284355060405,0.0866437231510666,-1.158627385264354
2.38,-0.3624733395815813,0.1359412371876082,1.572642180199172,0.0696821099710703,0.1561500789419059,0.0144996447864906,1.3715745635538132,-0.2343217448419199,-0.6323444362376893,-0.3602868476025052,0.1396279525082731,1.5574589709693456,1.7382204382389208,-0.2936746349867127,-0.962457896904322,0.5827196052890173,0.0775514959735601,-0.5768286893391483,-0.0285756367511103,10.563135740369944,-1.4046899004030398,0.0896047545548983,-1.1612055945747024
2.4,-0.3350217981596494,0.1311356410558689,1.55997578332389,0.0661783967908066,0.1577511363902868,0.0139536591957743,1.3734858801454772,-0.2454923091618872,-0.6343209961993251,-0.2938946114038906,0.1242251499455122,1.5410249583872877,1.4661025755314858,-0.2931739890104399,-0.6596218499933446,0.5751987213607969,0.0955658295831995,-0.5585282159983648,-0.0988279980817907,10.491904590909144,-1.402710350615879,0.0926612647525199,-1.1628869981215273
2.42,-0.307404913447397,0.1260854873283344,1.547664013124323,0.062500774461368,0.1568603940245786,0.0132486058562794,1.38848610886408,-0.258865765168918,-0.5946290618912731,-0.2938946114038906,0.1242251499455122,1.5410249583872877,1.4661025755314858,-0.2931739890104399,-0.6596218499933446,2.224469507712518,0.7500114359301424,-0.6686728003515441,1.9845967154026036,10.408293554153715,-1.4046294410294045,0.0959239326975151,-1.157621543834857
2.44,-0.2808870559812984,0.1210534197943271,1.5367203995335756,0.0589313951272058,0.1516249398471683,0.0123287541160333,1.4013631667314237,-0.2700470335945101,-0.5594761021209319,-0.2938946114038906,0.1242251499455122,1.5410249583872877,1.4661025755314858,-0.2931739890104399,-0.6596218499933446,1.9535672266006596,0.6438528933671694,-0.5590634212796042,1.7576479885170582,13.477682373097196,-1.4099965353059507,0.0990816415468293,-1.1522193142003754
2.46,-0.2527732918760166,0.1155435820323493,1.525845519610094,0.0553653395669072,0.1429485652972469,0.0112348835353226,1.4087149238462793,-0.2802656031305819,-0.5301694527778965,-0.2792335856485757,0.1212934100554078,1.534428739887354,1.4850081779270203,-0.3049444378441439,-0.6650773327444757,1.594794024125847,0.3675878557427903,-0.5109284768035904,1.4653324671517698,12.882668424027544,-1.4195100273246404,0.1020636184954402,-1.1419595409576973
2.48,-0.2245802215168028,0.1098442775018526,1.515463811943865,0.0521228428988846,0.1328645240293525,0.0101416776480201,1.4098325012846082,-0.289142003311219,-0.5093802162002551,-0.249911534137946,0.115429930275199,1.5212363028874871,1.5228193827180894,-0.3284853355115519,-0.6759882982467378,1.1316269449100926,0.0558788719164482,-0.4438200090318533,1.0394618288820712,12.27912942248986,-1.4305393381623488,0.1047284447744136,-1.1291431245489003
2.5,-0.1978294933254351,0.1042763986124437,1.5059190901473722,0.0493971048197795,0.1233273308956523,0.0091811659162149,1.40578932675799,-0.2965276636892308,-0.4963263557229046,-0.2205894826273163,0.1095664504949902,1.5080438658876203,1.5606305875091584,-0.3520262331789598,-0.6868992637489999,0.7766893085947563,-0.2021587263309143,-0.3692830189005874,0.6526930238675233,11.71912978164528,-1.4407800507525423,0.1069222542105666,-1.1162097765737231
2.52,-0.1697989000692731,0.0982737641116236,1.4960851513964868,0.0469645171988869,0.1143830111738681,0.0083022276434746,1.3972911881857766,-0.3033686722312182,-0.4879873009899771,-0.1893768708771331,0.102525925831411,1.4943058806126404,1.5984417923002274,-0.3755671308463678,-0.697810229251262,0.6865813697276648,-0.4249069286106688,-0.3420504270993718,0.4169527366463754,11.26090448504874,-1.4504533309472871,0.1088285676864736,-1.1040498979692717
2.54,-0.141975356783062,0.0921411515034319,1.4863821713468472,0.0450114536928634,0.1073659970534938,0.0075871643657925,1.385341107233517,-0.3095959885458272,-0.4828331954656187,-0.1581642591269499,0.0954854011678318,1.4805678953376604,1.6362529970912965,-0.3991080285137758,-0.7087211947535241,0.7213679834244996,-0.5975040476129734,-0.3113658157304494,0.2577052762179205,10.911599307849428,-1.4583222051791414,0.1103165671592665,-1.0944135815327267
2.56,-0.1144197048653695,0.0858841547942782,1.4767568079696682,0.0433737269236593,0.1030289660035894,0.0070458879546354,1.3708048299365354,-0.3157733104853708,-0.4799450814066215,-0.12600636725699,0.0878563540625674,1.4665571359251235,1.6740642018823657,-0.4226489261811838,-0.7196321602557862,0.8028135942067892,-0.7268138648490852,-0.3088660969771784,0.1444057029498596,10.623070538838874,-1.4631697584057777,0.1114795846486271,-1.0888854854407808
2.58,-0.088526412435918,0.0798281248459679,1.4676531035778777,0.041968603956422,0.1018874742496,0.0066941865803119,1.3558765641026242,-0.3213589450518067,-0.4784830200356365,-0.0929031952672534,0.0796387845156178,1.452273602375031,1.7118754066734343,-0.4461898238485918,-0.7305431257580484,0.8002969101686721,-0.7464132916955579,-0.2792817283217952,0.0731030685492517,10.623070538838874,-1.4644776244965156,0.1125598128458066,-1.0881027170591706
2.6,-0.0615630148760318,0.0733432781813009,1.4580933526629771,0.040668515062098,0.1033788052610207,0.0064683080343477,1.3415354502841783,-0.3267990139163796,-0.4776000137822403,-0.0207325842307868,0.0637601775933776,1.4437289525760957,1.4019076927177652,-0.363448519090789,-0.4257182690185428,0.7681822616548328,-0.7170556909222969,-0.2720034432286466,0.0441503126698078,10.540429399011373,-1.4626434219915987,0.1135008414299133,-1.0913888655799624
2.62,-0.0346803103512741,0.0666576960983046,1.4489656989822608,0.0370344248693994,0.1022229306450135,0.005996918852715,1.347776058084391,-0.3401870914127106,-0.4329252513863923,-0.0207325842307868,0.0637601775933776,1.4437289525760957,1.4019076927177652,-0.363448519090789,-0.4257182690185428,2.352668803661765,0.3120303900106314,-0.6694038748165487,2.2337381197924,10.4964293340754,-1.4626438869665292,0.1166732541818941,-1.0935069222214866
2.64,-0.0076923172713961,0.0597728012821416,1.4407907211855964,0.0311714806994682,0.093994253506491,0.0051649002554357,1.3496083064020148,-0.3472312949556261,-0.3872074418669879,-0.0207325842307868,0.0637601775933776,1.4437289525760957,1.4019076927177652,-0.363448519090789,-0.4257182690185428,2.314679267578987,0.0916124158811926,-0.3522101771457758,2.2858904759702177,13.768491508826628,-1.4707205510506218,0.1218381736024375,-1.084034021647503
2.66,0.0179017008580634,0.0531408891946496,1.4338005529853357,0.0255689378594667,0.0825679583329244,0.00434784498642,1.3437919214546346,-0.3504721551994122,-0.3508322197993104,-0.0067135073036092,0.0601256924024697,1.4394717698859103,1.4111139184407933,-0.3718664338985855,-0.4151653188151241,1.848979643917638,-0.2908192473690119,-0.1620430121893057,1.818761103383876,12.79590979776549,-1.4839145893862404,0.1273634884827446,-1.0694613551940482
