t,x,y,z,roll,pitch,yaw,v_x,v_y,v_z,ref_x,ref_y,ref_z,ref_v_x,ref_v_y,ref_v_z,a_com,a_x,a_y,a_z,thrust,wind_x,wind_y,wind_z
0.0,-1.0776773691177368,0.8147465586662292,2.434613943099976,0.0130959531320694,0.1223701217844993,0.003506918461358,-0.0280049443244934,0.0113444030284881,0.0420945882797241,-1.0775148421525955,0.8146219626069069,2.4344073832035065,-0.0077037522569298,-0.0924080088734626,-0.0667137876152992,2.59081394021755,-1.4002472162246704,0.567220151424408,2.104729413986206,12.443389917149034,-1.6878707980759315,0.1960332412470253,-2.5
0.02,-1.0785690546035769,0.8149212598800659,2.4353318214416504,0.0111921633820636,0.1276993765309683,0.0026127375578158,-0.0335517525672912,0.0105169415473937,0.0427222251892089,-1.0775148421525955,0.8146219626069069,2.4344073832035065,-0.0077037522569298,-0.0924080088734626,-0.0667137876152992,0.2821599824355536,-0.2773404121398926,-0.041373074054718,0.0313818454742431,12.371499823977956,-1.6473528953706131,0.2039860017416505,-2.5
0.04,-1.0790098905563354,0.8150222301483154,2.435681104660034,0.0106598814200724,0.1305267389135204,0.0026867003751673,-0.0357082486152648,0.0110118091106414,0.0382590293884277,-1.0775148421525955,0.8146219626069069,2.4344073832035065,-0.0077037522569298,-0.0924080088734626,-0.0667137876152992,0.2490757207466836,-0.1078248023986816,0.024743378162384,-0.2231597900390625,11.78517166382153,-1.6826204631466997,0.1901711979386631,-2.5
0.06,-1.0800100564956665,0.8152396082878113,2.4365220069885254,0.0105046719042926,0.1342333078341117,0.002595124794178,-0.0421401858329772,0.0095526874065399,0.0347882509231567,-1.077591879675165,0.8136978825181722,2.4337402453273533,-0.0049159538000822,-0.1124080091714858,-0.0867137879133224,0.3726431123573971,-0.3215968608856201,-0.0729560852050781,-0.1735389232635498,12.011828271855848,-1.679007735556563,0.1851026500380438,-2.5
0.08,-1.08098042011261,0.8153380155563354,2.437117576599121,0.0089364588398206,0.1376753295564688,0.0010475159992905,-0.0443369150161743,0.0071051716804504,0.0323206186294555,-1.0777459547203034,0.811849722340703,2.4324059695750475,0.0006596431136131,-0.1524080097675323,-0.1267137885093689,0.2055794339828382,-0.109836459159851,-0.1223757863044738,-0.1233816146850586,11.916163537798184,-1.7101147404432402,0.1678010157004899,-2.5
0.1,-1.0819474458694458,0.815788209438324,2.437332391738892,0.0138079186226838,0.142218212988072,0.0009584255117597,-0.0435912609100341,0.0123435258865356,0.0182336568832397,-1.077900029765442,0.8100015621632337,2.4310716938227417,0.0062352400273084,-0.1924080103635788,-0.1667137891054153,0.7523942551511177,0.0372827053070068,0.2619177103042602,-0.704348087310791,11.227539463346147,-1.7266817746079024,0.1439603519910881,-2.5
0.12,-1.0829418897628784,0.8161101937294006,2.4372992515563965,0.0210974701400715,0.1449433709854347,0.0017659285974863,-0.0441330671310424,0.0173740088939666,0.0040876865386962,-1.0777753249648958,0.8061534019559622,2.4277374180406333,0.0118108369410037,-0.2324080109596252,-0.2067137897014618,0.7511787241693527,-0.027090311050415,0.2515241503715515,-0.7072985172271729,11.40586748441592,-1.7200757297007088,0.1798139947585913,-2.5
0.14,-1.083527684211731,0.816161036491394,2.437288522720337,0.0299907765693845,0.1360518330200197,-0.0008464810375758,-0.0482770800590515,0.0142492353916168,-1.609325408935547e-05,-1.0776506201643496,0.8023052417486906,2.424403142258525,0.0173864338546991,-0.2724080115556717,-0.2467137902975082,0.3308249581582742,-0.2072006464004516,-0.1562386751174926,-0.2051889896392822,11.417070311115369,-1.7152110968201166,0.2199851467175969,-2.5
0.16,-1.0846024751663208,0.8162356615066528,2.4367611408233643,0.0446426993154001,0.151901817185104,0.0013612525536276,-0.0501197576522827,0.0078025460243225,-0.0140011310577392,-1.077386525440961,0.7974570815265178,2.4200688664615155,0.0229620307683944,-0.3124080121517181,-0.2867137908935547,0.7754620346614313,-0.09213387966156,-0.3223344683647156,-0.6992518901824951,10.707573652700376,-1.7468040982242536,0.2017618165680063,-2.5
0.18,-1.085628867149353,0.8163523077964783,2.4358277320861816,0.0656486859950711,0.1565942439335492,0.0025146488250314,-0.0472766160964965,0.0043036043643951,-0.0328677892684936,-1.07698304079473,0.7916089212894439,2.414734590649605,0.0285376276820898,-0.3524080127477645,-0.3267137914896011,0.969892827439248,0.1421570777893066,-0.1749470829963684,-0.9433329105377196,12.09822519328145,-1.7668960882705602,0.2126579339815857,-2.5
0.2,-1.0866883993148804,0.8161189556121826,2.434523820877075,0.0907690390402343,0.1635038468255739,0.0037582302073361,-0.0469332933425903,-0.0026258826255798,-0.0503396987915039,-1.087992697954178,0.816567488014698,2.434184342622757,-0.0225746650248765,-0.0956963971257209,-0.1328677907586097,0.9399511727183474,0.0171661376953125,-0.3464743494987488,-0.8735954761505127,10.850601047922282,-1.7507945547990391,0.2534810042988115,-2.5
0.22,-1.0875234603881836,0.8155970573425293,2.432619333267212,0.1180554430446082,0.1720807438626075,0.0061562322078801,-0.0426283478736877,-0.0169931352138519,-0.0721889734268188,-1.087992697954178,0.816567488014698,2.434184342622757,-0.0225746650248765,-0.0956963971257209,-0.1328677907586097,1.3250861335351496,0.2152472734451294,-0.7183626294136047,-1.092463731765747,10.841117259626571,-1.7484269360603923,0.3443145197820175,-2.5
0.24,-1.0879579782485962,0.8151450157165527,2.4316678047180176,0.1322667183537372,0.1742319688954117,0.0068098985004417,-0.0413489341735839,-0.0246374309062957,-0.0818127393722534,-1.087992697954178,0.816567488014698,2.434184342622757,-0.0225746650248765,-0.0956963971257209,-0.1328677907586097,0.6178370072722151,0.0639706850051879,-0.3822147846221924,-0.4811882972717285,13.94193370090352,-1.7484269360603923,0.3443145197820175,-2.5
0.26,-1.0886911153793335,0.8139268159866333,2.429151773452759,0.1564919284902296,0.1812903884764691,0.0082999465645103,-0.0343859195709228,-0.0438125431537628,-0.1010602712631225,-1.0882184446044263,0.8156105240434408,2.432855664715171,-0.0176342748105526,-0.1156963974237441,-0.1528677910566329,1.4023515839027827,0.3481507301330566,-0.958755612373352,-0.962376594543457,12.199889633978271,-1.7664357431532174,0.4228489930334804,-2.385893072631377
0.28,-1.089250564575195,0.812050998210907,2.4267263412475586,0.1647377672668661,0.1848840453961724,0.0079026863569802,-0.0290831923484802,-0.0696153938770294,-0.1111829280853271,-1.088669937904924,0.8136965961009264,2.4301983088999988,-0.0077534943819046,-0.1556963980197906,-0.1928677916526794,1.4110051404787112,0.2651363611221313,-1.29014253616333,-0.5061328411102295,12.421103444428354,-1.7608883712108394,0.4841915131556408,-2.4432669698293825
0.3,-1.0898207426071167,0.809586226940155,2.4241161346435547,0.1596204104024911,0.1880302584127589,0.0052485031940402,-0.025416612625122,-0.0976632535457611,-0.1133018732070922,-1.0891214312054216,0.8117826681584119,2.427540953084826,0.0021272860467433,-0.1956963986158371,-0.2328677922487259,1.4182878474534526,0.1833289861679077,-1.4023929834365845,-0.1059472560882568,12.416738855789845,-1.7505917292692472,0.4837762724960948,-2.298451379596312
0.32,-1.089971661567688,0.8064045310020447,2.421565532684326,0.1408431309652495,0.1871270897252125,0.0016651212571166,-0.0162246823310852,-0.1270455121994018,-0.1161181926727294,-1.0890788854844868,0.8078687401860952,2.422883597239852,0.0120080664753913,-0.2356963992118835,-0.2728677928447723,1.5457525363495337,0.4595965147018432,-1.4691129326820374,-0.1408159732818603,13.010476737773844,-1.7572693349367658,0.4625966873185983,-2.11692682148686
0.34,-1.08997642993927,0.8046109080314636,2.420215845108032,0.1188412785903544,0.1742284292825264,-0.0045604842231157,-0.0086769461631774,-0.143519639968872,-0.1149326562881469,-1.089036339763552,0.8039548122137785,2.4182262413948776,0.0218888469040393,-0.27569639980793,-0.3128677934408188,0.9079794925332026,0.3773868083953857,-0.8237063884735107,0.0592768192291259,12.279926255229384,-1.801605864541172,0.4651184029342201,-2.3407595514898856
0.36,-1.0898997783660889,0.8006011843681335,2.4171271324157715,0.1057263048207243,0.1838275407438687,-0.0030871085655756,-0.0003379583358764,-0.1670224964618683,-0.1297813653945922,-1.0887467745319008,0.7990408842265606,2.412568885535002,0.0317696273326873,-0.3156964004039764,-0.3528677940368652,1.4512125477011293,0.4169493913650512,-1.1751428246498108,-0.7424354553222656,12.1555060216092,-1.7385615216431476,0.3890584049150339,-2.2828346958155965
0.38,-1.0894920825958252,0.7962791323661804,2.414151906967163,0.0786784595359611,0.1796533919684521,-0.0054299137549775,0.0108978152275085,-0.187464952468872,-0.1364386081695556,-1.0882101897895335,0.7931269562244415,2.405911529660225,0.0416504077613353,-0.3556964010000228,-0.3928677946329116,1.2129050833955934,0.5617886781692505,-1.0221228003501892,-0.3328621387481689,12.337423469392888,-1.7636002787149432,0.4064568080994901,-2.3488294001190693
0.4,-1.0892150402069092,0.7916391491889954,2.410773754119873,0.0615913882275374,0.1782435412431907,-0.0067994389402781,0.0154066085815429,-0.2016457915306091,-0.1429510116577148,-1.0889471918344498,0.7869058847427368,2.4073299765586853,0.0584448464214801,-0.2874649539589882,-0.2364386096596717,0.8121527153141527,0.2254396677017212,-0.709041953086853,-0.325620174407959,11.552950675723878,-1.751519771062268,0.3525913695667994,-2.403972522182092
0.42,-1.0888192653656006,0.7891415953636169,2.4089412689208984,0.0438800299312065,0.1648747144619511,-0.0099560799017254,0.0219297409057617,-0.2132302522659301,-0.1508527994155883,-1.0889471918344498,0.7869058847427368,2.4073299765586853,0.0584448464214801,-0.2874649539589882,-0.2364386096596717,0.7732871970004782,0.3261566162109375,-0.5792230367660522,-0.3950893878936767,13.199506314639166,-1.7913851019695808,0.3235949101435115,-2.5
0.44,-1.0882726907730105,0.784323513507843,2.404998540878296,0.0413995507244102,0.1651417906773459,-0.0090406345792583,0.0247916579246521,-0.2186107635498047,-0.168313980102539,-1.0889471918344498,0.7869058847427368,2.4073299765586853,0.0584448464214801,-0.2874649539589882,-0.2364386096596717,0.9247071180666544,0.143095850944519,-0.2690255641937256,-0.8730590343475342,12.203394969155852,-1.7378974831895189,0.2099277434939092,-2.5
0.46,-1.0874946117401123,0.7793514728546143,2.4009811878204346,0.0442977128353515,0.1793135321012101,-0.0053601430598568,0.0298047065734863,-0.2202777564525604,-0.179101824760437,-1.088362743370235,0.7840312352031469,2.404965590462089,0.0679542526602745,-0.3074649542570114,-0.256438609957695,0.6005978572563218,0.2506524324417114,-0.0833496451377868,-0.5393922328948975,12.87274289881634,-1.7480356444098832,0.2151010686373515,-2.5
0.48,-1.0865614414215088,0.7739107012748718,2.3962881565093994,0.0427338321903087,0.1785139918349192,-0.0050735015253607,0.0385031104087829,-0.2342882752418518,-0.1959836483001709,-1.0871938464418054,0.7782819361239671,2.400236818268896,0.0869730651378631,-0.3474649548530578,-0.2964386105537414,1.1799924068121193,0.4349201917648315,-0.7005259394645691,-0.8440911769866943,12.712333406396285,-1.7791333775163656,0.2502522460481509,-2.5
0.5,-1.085654616355896,0.7685628533363342,2.3919239044189453,0.0354140068007972,0.1786511415981905,-0.0041206782387498,0.0413998961448669,-0.2427439391613006,-0.2037888765335083,-1.0860249495133758,0.7725326370447874,2.395508046075702,0.1059918776154518,-0.3874649554491043,-0.3364386111497879,0.5933194917031128,0.1448392868041992,-0.4227831959724426,-0.3902614116668701,13.453454554199652,-1.7557124089886351,0.1959553654541484,-2.5
0.52,-1.0845139026641846,0.7631129622459412,2.3872487545013428,0.0299587217207679,0.1786196406013964,-0.0039885798151069,0.0460696220397949,-0.2429491281509399,-0.2033865451812744,-1.0839051119610668,0.7647833379358053,2.3887792738527063,0.1250106900930404,-0.4274649560451507,-0.3764386117458343,0.234575749877414,0.2334862947463989,-0.0102594494819641,0.0201165676116943,13.199208540322616,-1.8099901601849095,0.1793143627240644,-2.5
0.54,-1.083847165107727,0.7604302763938904,2.3853085041046143,0.0206888996495997,0.163035631442963,-0.0057551908082644,0.0516271591186523,-0.2456246316432953,-0.199674367904663,-1.0817852744087575,0.7570340388268232,2.38205050162971,0.1440295025706291,-0.4674649566411972,-0.4164386123418808,0.3599472095094996,0.2778768539428711,-0.1337751746177673,0.1856088638305664,12.238317496276068,-1.821318165349073,0.2016119812374836,-2.5
0.56,-1.0824381113052368,0.7547934055328369,2.38050389289856,0.025897968871572,0.178415268081701,-0.0028480207080808,0.0619831681251525,-0.2487078309059143,-0.2050548791885376,-1.079189966544509,0.74828473970294,2.3743217293918133,0.1630483150482178,-0.5074649572372436,-0.4564386129379272,0.6035373681712458,0.5178004503250122,-0.1541599631309509,-0.2690255641937256,11.942920361814686,-1.787598210370951,0.1787013472711572,-2.5
0.58,-1.0810229778289795,0.7492671608924866,2.3756444454193115,0.0258883650973143,0.1792249409023255,-0.0023351641822184,0.06354421377182,-0.2511700987815857,-0.2174413204193115,-1.0761191883683203,0.7385354405641555,2.3655929571390155,0.1820671275258064,-0.5474649578332901,-0.4964386135339736,0.6362459291931837,0.078052282333374,-0.1231133937835693,-0.6193220615386963,12.098696989738071,-1.7947886982873198,0.1855994824550148,-2.5
0.6,-1.0792264938354492,0.743705153465271,2.370581150054932,0.0310778085953608,0.1815721129299226,-0.0010176253372112,0.0722613930702209,-0.2494856715202331,-0.2232617139816284,-1.0778457671403885,0.7367086559534073,2.364772379398346,0.1069347225129604,-0.3511701002717018,-0.3174413219094276,0.5308095028810157,0.4358589649200439,0.0842213630676269,-0.2910196781158447,11.915124762186224,-1.8565844937109823,0.1909684834045157,-2.5
0.62,-1.0774128437042236,0.7379094958305359,2.365432024002075,0.040008489468468,0.1864748096138708,0.0005309926441788,0.0812280178070068,-0.2555474638938904,-0.2297794818878173,-1.0778457671403885,0.7367086559534073,2.364772379398346,0.1069347225129604,-0.3511701002717018,-0.3174413219094276,0.6317178650921161,0.4483312368392944,-0.3030896186828613,-0.3258883953094482,13.900864016613014,-1.8722401309822472,0.2268138326752201,-2.5
0.64,-1.076513171195984,0.7349981069564819,2.3628947734832764,0.04967350315583,0.1814413977934834,-0.001515633426637,0.0805306434631347,-0.2585944533348083,-0.2292805910110473,-1.0778457671403885,0.7367086559534073,2.364772379398346,0.1069347225129604,-0.3511701002717018,-0.3174413219094276,0.1582669243357638,-0.0348687171936035,-0.1523494720458984,0.0249445438385009,13.566754786956608,-1.8634397983713051,0.2215647284858255,-2.5
0.66,-1.0743458271026611,0.7292435169219971,2.3573367595672607,0.059887083311323,0.1966711942622212,0.0019873728096617,0.0919997692108154,-0.2605162560939789,-0.2424877882003784,-1.076776419915259,0.7331969549506903,2.361597966179252,0.1156128242611885,-0.371170100569725,-0.3374413222074509,0.879863950930968,0.5734562873840332,-0.0960901379585266,-0.6603598594665527,12.791589880678655,-1.9060464566535644,0.2302185250247187,-2.5
0.68,-1.0720927715301514,0.7230671644210815,2.351773738861084,0.065479413101507,0.2004039527911734,0.0013549840251378,0.0994589924812316,-0.2684462070465088,-0.2502232789993286,-1.0746377254649997,0.7261735529452562,2.3552491397410638,0.1329690277576446,-0.4111701011657714,-0.3774413228034973,0.6677610946440586,0.372961163520813,-0.3964975476264953,-0.3867745399475097,13.485089401593086,-1.9071458235789205,0.2823926273698752,-2.5
0.7000000000000001,-1.069449543952942,0.7167086601257324,2.346673488616944,0.0604689512120165,0.198021131485112,0.0004276102855185,0.1101663708686828,-0.2820342779159546,-0.2399235963821411,-1.0724990310147404,0.7191501509398222,2.3489003133028747,0.1503252312541008,-0.4511701017618179,-0.4174413233995437,1.0066865002322376,0.5353689193725586,-0.67940354347229,0.514984130859375,13.492215521620892,-1.9167587089301648,0.2939202573090567,-2.5
0.72,-1.06663715839386,0.7101190686225891,2.341465473175049,0.049681224204469,0.1932204785436546,-0.0014351630062213,0.1227512955665588,-0.2913321554660797,-0.231935977935791,-1.0694925263896584,0.7101267489045858,2.340551486834884,0.1676814347505569,-0.4911701023578643,-0.4574413239955902,0.878397553834256,0.6292462348937988,-0.4648938775062561,0.3993809223175049,12.375420127788855,-1.9490358616239256,0.2770297674352157,-2.5
0.74,-1.0650008916854858,0.7068475484848022,2.3387646675109863,0.036946423911334,0.1743755245338205,-0.0057174789160805,0.1326647400856018,-0.294145792722702,-0.2334916591644287,-1.0664860217645764,0.7011033468693495,2.332202660366893,0.1850376382470131,-0.5311701029539109,-0.4974413245916367,0.5210879986363434,0.4956722259521484,-0.1406818628311157,-0.0777840614318847,12.572736844376776,-1.947632823756752,0.2696866641339492,-2.5
0.76,-1.061764121055603,0.7000560164451599,2.3336009979248047,0.0346423059968801,0.1832414208495313,-0.0035458498064764,0.1398423314094543,-0.3017646074295044,-0.2367693185806274,-1.0630456120520828,0.691079944819212,2.322853833884001,0.2023938417434692,-0.5711701035499572,-0.5374413251876831,0.5484232079275719,0.3588795661926269,-0.3809407353401184,-0.1638829708099365,12.654744136513727,-1.8561109576574817,0.2624003683881117,-2.5
0.78,-1.058241605758667,0.6930882334709167,2.328452587127685,0.0299932119821288,0.1748669108567906,-0.0045971076478521,0.152083933353424,-0.3095845878124237,-0.2320218086242675,-1.059171297252178,0.6800565427541733,2.312505007386208,0.2197500452399253,-0.6111701041460037,-0.5774413257837295,0.7641134767323213,0.6120800971984863,-0.3909990191459656,0.2373754978179931,12.360475743163532,-1.8982020521105216,0.2568593780083091,-2.5
0.8,-1.054585099220276,0.686191737651825,2.3232929706573486,0.0305996569217012,0.1694780700866481,-0.0039773526232491,0.1615279912948608,-0.3119462728500366,-0.2319306135177612,-1.0506374090909958,0.6776090040802956,2.316851496696472,0.2088264189660549,-0.4095845893025398,-0.3320218101143837,0.4867650952090502,0.4722028970718384,-0.1180842518806457,0.0045597553253173,12.183722818599565,-1.8797247856801889,0.227930194291826,-2.5
0.8200000000000001,-1.05077064037323,0.6790395975112915,2.3179049491882324,0.0367723342717048,0.1648560125051327,-0.0036714594912308,0.1680967211723327,-0.316094309091568,-0.2373218536376953,-1.0506374090909958,0.6776090040802956,2.316851496696472,0.2088264189660549,-0.4095845893025398,-0.3320218101143837,0.4728104453558447,0.3284364938735962,-0.2074018120765686,-0.2695620059967041,13.4729074675829,-1.8477972406314924,0.2328828818593365,-2.5
0.84,-1.0487972497940063,0.6755883693695068,2.314982891082764,0.0430555613978152,0.1651409781789635,-0.0028071955894756,0.1711893081665039,-0.3146620094776153,-0.246666669845581,-1.0506374090909958,0.6776090040802956,2.316851496696472,0.2088264189660549,-0.4095845893025398,-0.3320218101143837,0.4973458717527708,0.1546293497085571,0.0716149806976318,-0.4672408103942871,13.128239189465605,-1.8358891499459944,0.2354732534409248,-2.5
0.86,-1.0449117422103882,0.6683309078216553,2.309242010116577,0.0531617914972349,0.1652117479379406,-0.0025756107094088,0.174407958984375,-0.32178595662117,-0.253983736038208,-1.048549144901335,0.6735131581872702,2.3135312785953284,0.220174916088581,-0.429584589600563,-0.3520218104124069,0.5353732194899824,0.1609325408935547,-0.3561973571777344,-0.3658533096313476,12.989660417368214,-1.8425534905266483,0.2821841770986878,-2.5
0.88,-1.040760159492493,0.6610366106033325,2.303796768188477,0.0529992032575431,0.1605051082845681,-0.0025814722967433,0.1808345317840576,-0.3274145722389221,-0.2516877651214599,-1.0443726165220142,0.6653214664012194,2.3068908423930408,0.2428719103336334,-0.4695845901966095,-0.3920218110084533,0.4423054209835549,0.3213286399841308,-0.2814307808876037,0.1147985458374023,13.10862916849146,-1.841214739956528,0.2851028741063494,-2.5
0.9,-1.0365033149719238,0.653583288192749,2.298470258712769,0.0449129544020812,0.1568336560819539,-0.0040974095663389,0.189189612865448,-0.3318214416503906,-0.2423644065856933,-1.040196088142693,0.6571297746151685,2.300250406190753,0.2655689045786857,-0.509584590792656,-0.4320218116044998,0.6636130127431126,0.417754054069519,-0.2203434705734253,0.4661679267883301,13.37818218215898,-1.808198949857168,0.295411499022365,-2.5
0.92,-1.0322564840316772,0.6460724472999573,2.293488025665283,0.0361063940746589,0.1518119127805258,-0.0049102965391205,0.1913326978683471,-0.336693674325943,-0.2319467067718505,-1.0348847100511194,0.6469380827993154,2.291609969958663,0.2882658988237381,-0.5495845913887024,-0.4720218122005462,0.5849357528517796,0.1071542501449585,-0.2436116337776184,0.5208849906921387,12.769035247636111,-1.790433183117384,0.3068900664209469,-2.5
0.94,-1.030189037322998,0.6423335671424866,2.290916681289673,0.0218582384844096,0.1334621627767412,-0.0068775925697754,0.1899272203445434,-0.33720463514328,-0.2310991287231445,-1.0295733319595457,0.6367463909834623,2.282969533726573,0.3109628930687904,-0.5895845919847489,-0.5120218127965928,0.0859481904320781,-0.0702738761901855,-0.0255480408668518,0.0423789024353027,12.859791548294652,-1.8030794347339676,0.2978626009868016,-2.5
0.96,-1.0257960557937622,0.6345502734184265,2.2861168384552,0.0215418199836836,0.1462047019010044,-0.0061957551005057,0.1928427815437317,-0.3445243835449219,-0.2247315645217895,-1.0236945290118455,0.625554699152708,2.273329097479582,0.3336598873138428,-0.6295845925807952,-0.5520218133926391,0.5065202059837489,0.1457780599594116,-0.3659874200820923,0.318378210067749,12.533702596488183,-1.8067026792072285,0.2914021519708025,-2.5
0.98,-1.0214464664459229,0.6270583868026733,2.281280755996704,0.014252813040783,0.1445103999293313,-0.0053718494834324,0.1967078447341919,-0.3436915576457977,-0.2168083190917968,-1.0172483012080191,0.6133630073070526,2.2626886612176897,0.3563568815588951,-0.6695845931768417,-0.5920218139886856,0.4427474748330084,0.1932531595230102,0.0416412949562072,0.3961622714996338,11.869806352945034,-1.808687055915729,0.2614333496518415,-2.5
1.0,-1.0170425176620483,0.6195509433746338,2.2762258052825928,0.0114244960847554,0.1466653437506867,-0.00626635827355,0.196954607963562,-0.3374849259853363,-0.222548246383667,-1.0116110742092133,0.6098738089203835,2.2704403400421143,0.2466604374349117,-0.4359688684344291,-0.316808320581913,0.4228768555264249,0.0123381614685058,0.3103315830230713,-0.2869963645935058,11.883888032806226,-1.789952545147191,0.2596084687688649,-2.5
1.02,-1.0126206874847412,0.6119636297225952,2.2714028358459477,0.0159770553994236,0.1512580490692631,-0.0047548275048514,0.1985800266265869,-0.3396320343017578,-0.2222532033920288,-1.0116110742092133,0.6098738089203835,2.2704403400421143,0.2466604374349117,-0.4359688684344291,-0.316808320581913,0.1354539619157638,0.0812709331512451,-0.1073554158210754,0.0147521495819091,13.334381558131554,-1.802553212161017,0.2833139338023246,-2.5
1.04,-1.0102747678756714,0.6082121729850769,2.2689380645751958,0.0195809374573452,0.1433338740296792,-0.0057856100923007,0.1998621225357055,-0.3396736085414886,-0.2229988574981689,-1.0116110742092133,0.6098738089203835,2.2704403400421143,0.2466604374349117,-0.4359688684344291,-0.316808320581913,0.0741872358224719,0.0641047954559326,-0.0020787119865417,-0.0372827053070068,13.017822047143454,-1.8090015464862093,0.2619496360706471,-2.5
1.06,-1.005879282951355,0.60059654712677,2.263858795166016,0.0322958511013343,0.1621361039859839,-0.0043237179394327,0.2011415362358093,-0.3410401940345764,-0.225793719291687,-1.0091444698348642,0.6055141202360391,2.267272256836295,0.2566509559750557,-0.4544243305921554,-0.3368083208799362,0.1681941420709871,0.0639706850051879,-0.0683292746543884,-0.1397430896759033,13.343301258201336,-1.7853113269200875,0.2610313226919532,-2.5
1.08,-1.0014010667800903,0.5931515097618103,2.2589173316955566,0.0341431864369273,0.1660451856576957,-0.0031830060332162,0.1996582746505737,-0.3388649225234985,-0.2254664897918701,-1.004211261086166,0.5967947428673506,2.260936090424657,0.2766319930553436,-0.491335254907608,-0.3768083214759826,0.1326551000027239,-0.0741630792617797,0.108763575553894,0.0163614749908447,12.97410697305395,-1.7995118761307494,0.2702797918532154,-2.5
1.1,-0.9966166615486144,0.5856090188026428,2.253908157348633,0.0305401094699781,0.1666874687971025,-0.0039318293033442,0.2084089815616607,-0.3372193872928619,-0.2238893508911132,-0.9992780523374676,0.588075365498662,2.254599924013019,0.2966130301356315,-0.5282461792230606,-0.4168083220720291,0.4521338981742387,0.4375353455543518,0.0822767615318298,0.0788569450378418,12.565428050092123,-1.8195397754960907,0.3012070301231578,-2.5
1.12,-0.9918081164360046,0.5781078338623047,2.2491257190704346,0.0212081377034968,0.1637068466116825,-0.0047470794141727,0.2158413827419281,-0.3384827077388763,-0.2203112840652465,-0.9933457917347552,0.5775104419142009,2.2462637575715783,0.3165940672159195,-0.5651571035385132,-0.4568083226680755,0.4172503087599968,0.3716200590133667,-0.0631660223007202,0.1789033412933349,12.53270465624064,-1.811986605224565,0.3246911733675443,-2.5
1.14,-0.9894529581069946,0.5743836164474487,2.24683141708374,0.0168602110440925,0.1617564559164258,-0.0051601673859531,0.2158373594284057,-0.3374648094177246,-0.2147537469863891,-0.9874135311320424,0.5669455183297396,2.2379275911301377,0.3365751042962074,-0.6020680278539658,-0.496808323264122,0.2824993431945033,-0.0002011656761169,0.0508949160575866,0.2778768539428711,12.22485660745224,-1.805482840591935,0.3114718958369568,-2.5
1.16,-0.9846025705337524,0.5667163729667664,2.2420125007629395,0.0092745416889616,0.1592828960486992,-0.006329663879504,0.2169317007064819,-0.3396293520927429,-0.2155959606170654,-0.9809817446023228,0.5554578216373921,2.228591424673796,0.3565561413764954,-0.6389789521694184,-0.5368083238601684,0.1283759286682448,0.0547170639038085,-0.1082271337509155,-0.0421106815338134,12.12781555524998,-1.8441964200471117,0.308245370265718,-2.5
1.18,-0.9796305298805236,0.5593769550323486,2.237368583679199,0.005591594153299,0.1544361658471132,-0.0051755236176278,0.2210046350955963,-0.3376498818397522,-0.2129137516021728,-0.9740504321455956,0.5430473518371582,2.2182552582025528,0.3765371784567833,-0.6758898764848709,-0.5768083244562149,0.263160322902583,0.203646719455719,0.0989735126495361,0.1341104507446289,12.17543952093365,-1.8645737048363749,0.2732057026239582,-2.5
1.2,-0.9744778871536256,0.551966667175293,2.232283592224121,0.0100329886156786,0.1562030914491804,-0.0045847536574361,0.2278053760528564,-0.3318683803081512,-0.218900442123413,-0.968580298125744,0.542494460940361,2.2267228960990906,0.2754972986876964,-0.4066132605075836,-0.3129137530922889,0.5373925495500642,0.3400370478630066,0.2890750765800476,-0.2993345260620117,11.49761563624952,-1.8446927658587733,0.2618290322801427,-2.5
1.22,-0.9692428112030028,0.5446676015853882,2.227262496948242,0.0187648228099328,0.1572533119602351,-0.0032959105155687,0.2337236702442169,-0.3309604525566101,-0.2273869514465332,-0.968580298125744,0.542494460940361,2.2267228960990906,0.2754972986876964,-0.4066132605075836,-0.3129137530922889,0.5193057370877833,0.2959147095680237,0.0453963875770568,-0.4243254661560058,13.63680186665806,-1.8132080321284896,0.281224347390517,-2.5
1.24,-0.9667811393737792,0.5408995151519775,2.2246809005737305,0.029574031365964,0.1483277919294607,-0.0051623931127677,0.231010615825653,-0.3318724036216736,-0.2296614646911621,-0.968580298125744,0.542494460940361,2.2267228960990906,0.2754972986876964,-0.4066132605075836,-0.3129137530922889,0.1827958528191457,-0.1356527209281921,-0.0455975532531738,-0.1137256622314453,13.059627954750797,-1.7953911358089774,0.2800313575713715,-2.5
1.26,-0.9615615606307985,0.5335006713867188,2.2193026542663574,0.0440028449731067,0.166216238348017,-0.0025595750069503,0.2336150407791137,-0.3307606279850006,-0.2398645877838134,-0.9658253251388668,0.5384283283352852,2.2235937585681675,0.2863958314061164,-0.4204059362411499,-0.3329137533903122,0.529440259255716,0.1302212476730346,0.0555887818336486,-0.5101561546325684,13.097622938269524,-1.8195945856382416,0.2807657106353852,-2.5
1.28,-0.9561386704444884,0.5261595845222473,2.2143869400024414,0.0508224966340607,0.1665731828795008,-0.0014168475225708,0.2394555509090423,-0.33164843916893,-0.2316141128540039,-0.960315379165113,0.5302960631251334,2.217335483506322,0.3081928968429565,-0.4479912877082824,-0.3729137539863586,0.5073709290142787,0.2920255064964294,-0.0443905591964721,0.4125237464904785,13.241222286406355,-1.8316238431912648,0.3161191213802958,-2.5
1.3,-0.950769066810608,0.518612802028656,2.209658145904541,0.0468553138603247,0.1639733277587841,-0.0030831869449606,0.2428311109542846,-0.3349770605564117,-0.2170014381408691,-0.954805433191359,0.5221637979149818,2.2110772084444763,0.3299899622797966,-0.475576639175415,-0.4129137545824051,0.7681217159931832,0.1687780022621154,-0.1664310693740844,0.7306337356567383,13.064964193370542,-1.7972228568681965,0.3442347765361242,-2.4852712588662773
1.32,-0.9452629685401917,0.5110706090927124,2.204921007156372,0.0320498496074056,0.1570641405986484,-0.0054005142828832,0.2447032928466797,-0.3395019471645355,-0.21298348903656,-0.9482056339457632,0.5126522651314736,2.202818933352828,0.3517870277166366,-0.5031619906425476,-0.4529137551784515,0.3167158776388069,0.0936090946197509,-0.2262443304061889,0.2008974552154541,12.67305916558098,-1.828133543557937,0.3597177127277851,-2.5
1.34,-0.9424198865890504,0.5072377324104309,2.202559232711792,0.0241319403510793,0.1548653670961848,-0.0061169889706312,0.248640775680542,-0.3389132022857666,-0.211459994316101,-0.9416058347001672,0.5031407323479652,2.19456065826118,0.3735840931534767,-0.5307473421096802,-0.492913755774498,0.2131397884165657,0.1968741416931152,0.029437243938446,0.0761747360229492,13.235637506058085,-1.8400044856353812,0.3404301565024561,-2.5
1.36,-0.9367202520370485,0.4996207654476166,2.1980671882629395,0.0075100047336444,0.1478670294789494,-0.0082504741914299,0.2541285753250122,-0.3419675827026367,-0.2044111490249633,-0.9344611088186502,0.4929395657777786,2.1853023831546308,0.3953811585903167,-0.5583326935768127,-0.5329137563705444,0.4720471496768123,0.2743899822235107,-0.1527190208435058,0.3524422645568847,11.996234965533404,-1.8360152708079125,0.3420058931350755,-2.5
1.38,-0.9311280846595764,0.4921392798423767,2.193420171737671,-0.0051781174273901,0.1423951807010858,-0.0082631790262784,0.2540655434131622,-0.3397151827812195,-0.2056288719177246,-0.9267714563012124,0.4820487654209137,2.1750441080331804,0.4171782240271568,-0.5859180450439453,-0.5729137569665909,0.1280637289737673,-0.0031515955924987,0.1126199960708618,-0.0608861446380615,13.169294457980412,-1.8187552911468527,0.2949301382625171,-2.5
1.4,-0.9255040884017944,0.484751284122467,2.1887848377227783,-0.0110685553960604,0.1407659239567648,-0.0078485557792109,0.2523636817932129,-0.3345633149147033,-0.2088528871536255,-0.9184248074889184,0.4751535207033157,2.1831387281417847,0.312259167432785,-0.4107216075062752,-0.3056288734078407,0.3155643742915971,-0.085093080997467,0.2575933933258056,-0.1612007617950439,11.561461490377496,-1.8231770691665172,0.24980097194062,-2.5
1.42,-0.919891119003296,0.4775285124778747,2.184332609176636,-0.0108128908419039,0.1396405675300247,-0.0067223819258278,0.2528317272663116,-0.3287422657012939,-0.204470157623291,-0.9184248074889184,0.4751535207033157,2.1831387281417847,0.312259167432785,-0.4107216075062752,-0.3056288734078407,0.3650753300549372,0.0234022736549377,0.2910524606704712,0.2191364765167236,11.384720574640596,-1.8231770691665172,0.24980097194062,-2.5
1.44,-0.916970431804657,0.473867803812027,2.182023048400879,-0.0082168534196168,0.1285276246136003,-0.006845193002616,0.2556480467319488,-0.3273113071918487,-0.206642746925354,-0.9184248074889184,0.4751535207033157,2.1831387281417847,0.312259167432785,-0.4107216075062752,-0.3056288734078407,0.1916992557609391,0.1408159732818603,0.0715479254722595,-0.1086294651031494,13.259233470157142,-1.818991946853601,0.2394851535695622,-2.5
1.46,-0.9114465713500975,0.4667125344276428,2.1770663261413574,-0.0012867432135551,0.145320319986918,-0.0056829162186186,0.2497847378253936,-0.3223304450511932,-0.2174681425094604,-0.9153022158145904,0.471046304628253,2.1800824394077063,0.3238978922367096,-0.4249228924512863,-0.3256288737058639,0.6640342019623237,-0.2931654453277588,0.2490431070327758,-0.5412697792053223,13.19105064069572,-1.7525839083029673,0.2165736913232053,-2.5
1.48,-0.90572589635849,0.4598562121391296,2.172011613845825,0.0065858991569022,0.1486471795449579,-0.0032828606242595,0.2530020475387573,-0.3152608275413513,-0.2252572774887085,-0.9090570324659348,0.4628318724781275,2.1739698619395496,0.3471753418445587,-0.4533254623413086,-0.3656288743019104,0.5500027210207987,0.1608654856681823,0.3534808754920959,-0.3894567489624023,12.721042426600889,-1.7929353200957543,0.2100104103092577,-2.5
1.5,-0.9000998139381409,0.4529819786548614,2.1671078205108643,0.008571778125338,0.1494148958235697,-0.0029501583014108,0.2553020417690277,-0.3089374899864197,-0.2240663766860962,-0.9028118491172792,0.454617440328002,2.167857284471393,0.3704527914524078,-0.4817280322313308,-0.4056288748979568,0.3416607089443727,0.1149997115135192,0.316166877746582,0.0595450401306152,12.933793792350116,-1.7629365803331247,0.2369327148680169,-2.5
1.52,-0.8943814635276794,0.4462641775608063,2.162503719329834,0.0067128188758274,0.1485301753424308,-0.0034186794938359,0.2552497386932373,-0.3058207631111145,-0.2139276266098022,-0.8954027932882309,0.4449828796833753,2.159744706973433,0.3937302410602569,-0.5101306021213532,-0.4456288754940032,0.5303559539039256,-0.0026151537895202,0.1558363437652588,0.5069375038146973,12.689132058184896,-1.7398758321945826,0.2583511801882591,-2.5
1.54,-0.8916255831718445,0.4429550468921661,2.1599225997924805,0.000843273309008,0.1345050466298182,-0.0047871364709999,0.255032479763031,-0.3046915531158447,-0.2166634798049926,-0.8879937374591828,0.4353483190387487,2.1516321294754746,0.4170076906681061,-0.5385331720113754,-0.4856288760900498,0.1483847141875236,-0.0108629465103149,0.0564604997634887,-0.1367926597595214,12.397179107226748,-1.7644434172563048,0.2573014178660514,-2.5
1.56,-0.886026918888092,0.4362599849700928,2.15519642829895,0.0062081103170459,0.1499098687585922,-0.0026815559206665,0.2549560368061065,-0.3024069964885711,-0.2124363183975219,-0.8800027453899384,0.4250036941468715,2.1425195519626143,0.4402851402759552,-0.5669357419013977,-0.5256288766860961,0.2402807528376575,-0.0038221478462219,0.1142278313636779,0.2113580703735351,11.80128240389331,-1.7708008118318417,0.2402443657295793,-2.5
1.58,-0.8802257776260376,0.4297938048839569,2.1500444412231445,0.009614048655639,0.1533270599857595,-0.0027064264600447,0.2564956247806549,-0.2961279451847076,-0.2222585678100586,-0.8714298170804978,0.4139490050077438,2.132406974434853,0.4635625898838043,-0.5953383117914199,-0.5656288772821426,0.5879485520221989,0.0769793987274169,0.3139525651931762,-0.491112470626831,11.412908097015134,-1.7826916592824824,0.2310558851959085,-2.5
1.6,-0.8743584156036377,0.4233611226081848,2.14522123336792,0.0150353830246411,0.1558745529542685,-0.0026499496102586,0.2625413239002228,-0.2902244031429291,-0.2244418859481811,-0.8674009963870049,0.4149874076247215,2.1389315128326416,0.312207717448473,-0.3359456621110439,-0.3222585693001747,0.4363747373979322,0.3022849559783935,0.2951771020889282,-0.1091659069061279,11.677779479088713,-1.7895489775929248,0.2580281313625685,-2.5
1.62,-0.868476152420044,0.4169647693634033,2.139885902404785,0.0265346767770164,0.1606095477379987,-0.0006110033241381,0.2643665671348572,-0.2886533141136169,-0.2285671234130859,-0.8674009963870049,0.4149874076247215,2.1389315128326416,0.312207717448473,-0.3359456621110439,-0.3222585693001747,0.2388379039508681,0.0912621617317199,0.0785544514656066,-0.2062618732452392,12.995924181007467,-1.772734167387393,0.2854825571794601,-2.5
1.64,-0.865548849105835,0.4137507677078247,2.137136936187744,0.0331833102357701,0.1567771237604198,-0.0030176488599585,0.2626727521419525,-0.2892373502254486,-0.2365976572036743,-0.8674009963870049,0.4149874076247215,2.1389315128326416,0.312207717448473,-0.3359456621110439,-0.3222585693001747,0.4113987736123366,-0.0846907496452331,-0.0292018055915832,-0.4015266895294189,13.22193312964555,-1.79142076057527,0.2989948109907984,-2.5
1.66,-0.8596963286399841,0.4070706665515899,2.131772994995117,0.0457404705892324,0.1749943981992773,0.0001228326183224,0.2641372382640838,-0.2917264401912689,-0.243072509765625,-0.8642789192125201,0.4116279510036111,2.13570892713964,0.3233501359820366,-0.3439092054963112,-0.3422585695981979,0.3544855573886685,0.0732243061065673,-0.1244544982910156,-0.3237426280975342,13.196997716515853,-1.818491799039956,0.3029421203748184,-2.5
1.68,-0.8536204099655151,0.4003979861736297,2.126634359359741,0.0511546101322278,0.1761773163886261,-0.0005480097876816,0.268389880657196,-0.3004375696182251,-0.2363079786300659,-0.8580347648635507,0.4049090377613902,2.1292637557536365,0.3456349730491638,-0.3598362922668457,-0.3822585701942443,0.5910322002666711,0.2126321196556091,-0.4355564713478088,0.3382265567779541,12.772235066697249,-1.825600967714566,0.3206481253086138,-2.5
1.7,-0.84739089012146,0.3936820030212402,2.1217544078826904,0.0485313680241586,0.1741467584883634,-0.0010254030562528,0.2768723666667938,-0.3012449145317077,-0.225418210029602,-0.8517906105145812,0.3981901245191693,2.122818584367633,0.367919810116291,-0.3757633790373802,-0.4222585707902908,0.691359954878783,0.4241243004798889,-0.0403672456741333,0.5444884300231934,13.780462806003015,-1.824010520535748,0.3013850462947547,-2.453923909346233
1.72,-0.8410735130310059,0.3867870569229126,2.1168363094329834,0.0395189930169481,0.1662116807307828,-0.0028161059383232,0.2823051810264587,-0.3062459230422973,-0.2204561233520507,-0.8444322143122553,0.3906748569384217,2.114373412951827,0.3902046471834183,-0.3916904658079147,-0.4622585713863372,0.4448254213315116,0.2716407179832458,-0.25005042552948,0.2481043338775634,12.636599486449086,-1.821060508582646,0.3363615272640553,-2.4421537092270755
1.74,-0.8378956317901611,0.3832118213176727,2.1145293712615967,0.0269086011182566,0.1466782651927082,-0.0061405150150649,0.2845716476440429,-0.3124806880950928,-0.2155691385269165,-0.8370738181099295,0.3831595893576741,2.105928241536021,0.4124894842505455,-0.4076175525784493,-0.5022585719823838,0.4119823627088766,0.1133233308792114,-0.3117382526397705,0.2443492412567138,12.71057025730579,-1.8261739799838488,0.3299184204477565,-2.49612294886436
1.76,-0.8313736915588379,0.3761457204818725,2.1099672317504883,0.0204871609186238,0.1528861455120007,-0.0045742491253688,0.2901560068130493,-0.3164061307907104,-0.211336612701416,-0.8291583009809256,0.3752461446076631,2.0964830701053145,0.4347743213176727,-0.4235446393489838,-0.5422585725784301,0.4015857397510898,0.2792179584503174,-0.1962721347808838,0.2116262912750244,11.929559180312935,-1.8104527362542384,0.2596659655045608,-2.5
1.78,-0.8248453140258789,0.3691972494125366,2.105257987976074,0.0091782062343881,0.1422171867425915,-0.0053188607538989,0.2936321496963501,-0.3153278827667236,-0.2086061239242553,-0.8206856629252434,0.3669345226883888,2.0860378986597063,0.4570591583847999,-0.4394717261195183,-0.5822585731744766,0.2274959181422513,0.173807144165039,0.0539124011993408,0.1365244388580322,12.125409902379031,-1.8007554266187102,0.2372573991550602,-2.5
1.8,-0.8184022903442383,0.3622682690620422,2.100782871246338,-0.0031807391347113,0.135043757998557,-0.0051479865823966,0.2918565273284912,-0.3122426569461822,-0.2066481113433838,-0.8101637065410614,0.3534308552742004,2.094827681779861,0.3503745310008526,-0.3406080845743418,-0.3086061254143715,0.2031333701280235,-0.0887811183929443,0.1542612910270691,0.0979006290435791,11.83172864483504,-1.8007554266187102,0.2372573991550602,-2.5
1.82,-0.8121497631072998,0.3554517328739166,2.096030712127685,-0.0129185255229855,0.1327758034969076,-0.0056782907927193,0.2856498956680298,-0.3092741370201111,-0.2076137065887451,-0.8101637065410614,0.3534308552742004,2.094827681779861,0.3503745310008526,-0.3406080845743418,-0.3086061254143715,0.3473714197296178,-0.3103315830230713,0.1484259963035583,-0.0482797622680664,12.884590649092388,-1.801138817766884,0.2221758203708186,-2.5
1.84,-0.8088381886482239,0.3520134389400482,2.093656063079834,-0.0217248109702249,0.116855474040045,-0.0058713568981825,0.2895323932170868,-0.3093680143356323,-0.2089548110961914,-0.8101637065410614,0.3534308552742004,2.094827681779861,0.3503745310008526,-0.3406080845743418,-0.3086061254143715,0.2054334531466083,0.1941248774528503,-0.004693865776062,-0.0670552253723144,13.41639226238658,-1.8236120669135996,0.1953666666547252,-2.5
1.86,-0.8024444580078125,0.3453549444675445,2.088984966278076,-0.0209005936176938,0.1316427950973939,-0.004295139359319,0.2902820706367492,-0.303586483001709,-0.2127045392990112,-0.8066599612310529,0.350024774428457,2.0917416205257178,0.3617230072617531,-0.3456641249358654,-0.3286061257123947,0.346585423790844,0.0374838709831237,0.289076566696167,-0.1874864101409912,13.589722744082335,-1.7260672767569458,0.1391267703745586,-2.5
1.88,-0.796135663986206,0.3389225900173187,2.084144592285156,-0.0254129896175994,0.1308869244424386,-0.0034677314660638,0.285806804895401,-0.2945441007614136,-0.214008092880249,-0.7996524706110358,0.3432126127369702,2.0855694980174304,0.3844199597835541,-0.3557762056589126,-0.3686061263084411,0.5086549222568606,-0.2237632870674133,0.4521191120147705,-0.0651776790618896,12.85260634784845,-1.7019933514939505,0.1168991214269021,-2.5
1.9,-0.7900648713111877,0.3328722417354584,2.07920241355896,-0.0268847441817486,0.1321623063012429,-0.0031417371370638,0.278540700674057,-0.2808608114719391,-0.2201074361801147,-0.7926449799910188,0.3364004510454833,2.079397375509143,0.407116912305355,-0.3658882863819599,-0.4086061269044876,0.8325122597062717,-0.3633052110671997,0.6841644644737244,-0.3049671649932861,12.691524442142509,-1.7078709545566522,0.1219732450716932,-2.5
1.92,-0.7838946580886841,0.3267674744129181,2.0747530460357666,-0.0323641490917929,0.1286016710615078,-0.0033017136871726,0.2754226326942444,-0.2734901010990143,-0.2113097906112671,-0.7845026417449117,0.3290826853178441,2.071225252971053,0.429813864827156,-0.3760003671050071,-0.448606127500534,0.5946601695156211,-0.1559033989906311,0.3685355186462402,0.4398822784423828,13.48326688548741,-1.7468866840794215,0.1486475824544837,-2.5
1.94,-0.7809060215950012,0.3238826692104339,2.0725600719451904,-0.0385551924427171,0.1123814536257657,-0.0026769172796767,0.2758544683456421,-0.2689390778541565,-0.2042555809020996,-0.7763603034988046,0.3217649195902049,2.063053130432964,0.4525108173489571,-0.3861124478280544,-0.4886061280965805,0.4202980169652444,0.0215917825698852,0.2275511622428894,0.352710485458374,12.271491322779184,-1.761070430858002,0.1232700298010164,-2.5
1.96,-0.7750024795532227,0.3184087872505188,2.0677623748779297,-0.0365694887215607,0.127748003571361,-0.0017864232546157,0.2672499418258667,-0.2566833794116974,-0.2063101530075073,-0.7676505414396525,0.3141943518444895,2.0538810078799727,0.4752077698707581,-0.3962245285511017,-0.5286061286926269,0.7557467953592858,-0.4302263259887695,0.6127849221229553,-0.1027286052703857,12.066088520893118,-1.7190097942371487,0.1006202928463283,-2.5
1.98,-0.7690536975860596,0.3130978643894195,2.0628771781921387,-0.0358897190727616,0.1319377129503565,-0.0007855654676569,0.2666772902011871,-0.2426581084728241,-0.2178651094436645,-0.7583733555674553,0.3063709820806979,2.0437088853120806,0.497904722392559,-0.4063366092741489,-0.5686061292886734,0.9090560667988844,-0.0286325812339782,0.7012635469436646,-0.5777478218078613,11.224509838621998,-1.75088404963816,0.079977374600647,-2.5
2.0,-0.7632200717926025,0.3080317676067352,2.058047294616699,-0.0273919751105359,0.1403444740941639,0.0005254536114221,0.2651041746139526,-0.2334829419851303,-0.2185893058776855,-0.7557198330760002,0.3009649589657783,2.0519839227199554,0.3141154497861862,-0.2626583371311426,-0.3178651109337806,0.46685873988485,-0.0786557793617248,0.4587583243846893,-0.0362098217010498,11.669826358801856,-1.740791722553772,0.1006070646357073,-2.5
2.02,-0.7574928998947144,0.303168922662735,2.052932024002075,-0.0182525291258451,0.1513380985005017,0.0013949742671745,0.2601179480552673,-0.2234011888504028,-0.2237659692764282,-0.7557198330760002,0.3009649589657783,2.0519839227199554,0.3141154497861862,-0.2626583371311426,-0.3178651109337806,0.6190760161482758,-0.2493113279342651,0.5040876567363739,-0.2588331699371338,14.44581806143742,-1.7652862501816278,0.0984568939273655,-2.5
2.04,-0.7545381188392639,0.3007143437862396,2.050370454788208,-0.0110472010956774,0.150289994214534,0.0010210052435126,0.2626888453960418,-0.2210669964551925,-0.2268934249877929,-0.7557198330760002,0.3009649589657783,2.0519839227199554,0.3141154497861862,-0.2626583371311426,-0.3178651109337806,0.2336607931447153,0.1285448670387268,0.1167096197605133,-0.1563727855682373,12.53963659371584,-1.809463869460869,0.1201392240964023,-2.5
2.06,-0.7488009929656982,0.2960495352745056,2.0448389053344727,-0.0013033199956709,0.1694896091808426,0.0036919341185834,0.2590101957321167,-0.214470773935318,-0.2418011426925659,-0.7525786785781383,0.2983383755944669,2.0488052716106178,0.323603081703186,-0.2666583828628063,-0.3378651112318039,0.8355876106770583,-0.1839324831962585,0.3298111259937286,-0.7453858852386475,13.23554336172674,-1.774895357306968,0.1174493161127551,-2.5
2.08,-0.7428924441337585,0.2915142178535461,2.0392730236053467,0.0059747115726143,0.1760453732174048,0.0040616436244779,0.2620276808738708,-0.2070028334856033,-0.2496922016143798,-0.7462963695824146,0.2930852088518441,2.042447969391942,0.3425783455371857,-0.2746584743261337,-0.3778651118278503,0.5637911006053822,0.1508742570877075,0.373397022485733,-0.3945529460906982,13.502874297985272,-1.7992883496228482,0.1281864285899977,-2.5
2.1,-0.7369837760925293,0.2870269119739532,2.0339250564575195,0.0076888016262076,0.1782691920136268,0.0032183179597642,0.2658873796463012,-0.2030090242624282,-0.2455615997314453,-0.740014060586691,0.2878320421092212,2.0360906671732666,0.3615536093711853,-0.2826585657894611,-0.4178651124238968,0.3460840166791931,0.192984938621521,0.1996904611587524,0.2065300941467285,13.082193223311153,-1.8122979382572049,0.1645599085992718,-2.5
2.12,-0.7308897376060486,0.2825598120689392,2.028531074523926,0.009360705069036,0.1744936957653205,0.0035166086519208,0.2700608968734741,-0.201474130153656,-0.2416938543319702,-0.7327829883992673,0.2821788707934319,2.0277333649247886,0.3805288732051849,-0.2906586572527885,-0.4578651130199432,0.2946760952546592,0.2086758613586425,0.0767447054386138,0.1933872699737548,13.29837057473378,-1.8735390095148805,0.1819204188549646,-2.5
2.14,-0.7278977632522583,0.2803336977958679,2.02583122253418,0.0028752834834676,0.1550426821166373,8.772905330905475e-05,0.2700448036193847,-0.2018328756093979,-0.2424556016921997,-0.7255519162118436,0.2765256994776428,2.01937606267631,0.3995041370391846,-0.298658748716116,-0.4978651136159897,0.0421074914848663,-0.0008046627044677,-0.0179372727870941,-0.0380873680114746,12.519521380701915,-1.8838507338897907,0.1819569053155574,-2.5
2.16,-0.7215855121612549,0.2758598327636719,2.020350456237793,0.0065418251558029,0.1648263744160343,0.0005968739865657,0.2779465913772583,-0.1995174586772918,-0.2443009614944458,-0.7178464624285699,0.2706725258752703,2.010018760412932,0.4184794008731842,-0.3066588401794433,-0.5378651142120361,0.4219145592999519,0.3950893878936767,0.1157708466053009,-0.0922679901123046,12.04756671589439,-1.9033109907226289,0.1597442403846507,-2.5
2.18,-0.7152187824249268,0.2716843783855438,2.014910697937012,0.0066848579696375,0.1570069249553738,0.0005824321899627,0.2852770686149597,-0.1946096867322921,-0.2457118034362793,-0.7096666270494462,0.2646193499863147,1.9996614581346512,0.4374546647071838,-0.3146589316427707,-0.5778651148080826,0.4466894810195925,0.3665238618850708,0.2453885972499847,-0.0705420970916748,12.581106098154578,-1.9038713665785325,0.1608044493771016,-2.5
2.2,-0.7089722156524658,0.2671455144882202,2.009199857711792,0.0077793804965196,0.1505257884081536,-0.0008542567156369,0.2837991714477539,-0.1960721611976623,-0.250888466835022,-0.7009549289941788,0.2619538940489292,2.0026251077651978,0.3441250622272491,-0.2229678481817245,-0.3457118049263954,0.2789303476792047,-0.0738948583602905,-0.0731237232685089,-0.2588331699371338,11.884514789894183,-1.8765425597437568,0.1806630084627588,-2.5
2.22,-0.7026039361953735,0.2628631591796875,2.0034210681915283,0.0111609220490758,0.1462535569664859,-0.0001266314509413,0.2838340401649475,-0.1984774321317672,-0.2585166692733764,-0.7009549289941788,0.2619538940489292,2.0026251077651978,0.3441250622272491,-0.2229678481817245,-0.3457118049263954,0.3999250446471379,0.0017434358596801,-0.1202635467052459,-0.3814101219177246,13.935550559868716,-1.9002952259466,0.1620992442443262,-2.5
2.24,-0.6995688080787659,0.260773628950119,2.0007259845733643,0.0122614858525675,0.1300801440719897,-0.0019196615973691,0.2798590064048767,-0.1940792798995971,-0.2571702003479004,-0.7009549289941788,0.2619538940489292,2.0026251077651978,0.3441250622272491,-0.2229678481817245,-0.3457118049263954,0.3039638753960665,-0.19875168800354,0.2199076116085052,0.0673234462738037,12.912892759601164,-1.88882523042644,0.1455697876494307,-2.5
2.26,-0.693185567855835,0.2564461231231689,1.994845151901245,0.0175624800049321,0.1431297109668522,-0.0010552313320305,0.2833753824234009,-0.1953325420618057,-0.2629369497299194,-0.6975136783719063,0.2597242155671119,1.9991679897159336,0.355894660949707,-0.228639480471611,-0.3657118052244186,0.3434784010163251,0.1758188009262085,-0.0626631081104278,-0.2883374691009521,13.902388830828386,-1.896566911040629,0.19834031778241,-2.5
2.28,-0.6869431734085083,0.2521327435970306,1.9888180494308472,0.0182347665118685,0.1404041476989743,-0.0011184029895642,0.2840767800807953,-0.1944199204444885,-0.2679285407066345,-0.6906311771273613,0.2552648586034775,1.9922537536174056,0.3794338583946228,-0.2399827450513839,-0.405711805820465,0.256128958578567,0.0350698828697204,0.0456310808658599,-0.2495795488357544,13.554887503182272,-1.8672034802521775,0.1962247780045141,-2.5
2.3000000000000003,-0.680811882019043,0.2479488402605056,1.9829216003417969,0.0142919437898365,0.1356782638467042,-0.0013286307090232,0.2784079313278198,-0.1911888718605041,-0.2682799100875854,-0.6837486758828163,0.250805501639843,1.985339517518878,0.4029730558395386,-0.2513260096311569,-0.4457118064165115,0.3267222887179903,-0.2834424376487732,0.1615524291992187,-0.0175684690475463,13.35159588759052,-1.8349175440649124,0.204720531164977,-2.5
2.32,-0.6747531294822693,0.2436278760433197,1.9772576093673704,0.0064453229830953,0.1318548872499844,-0.0020638074812459,0.2742759883403778,-0.1913595199584961,-0.2601099014282226,-0.6756892147660255,0.2457789814472198,1.976425281390548,0.4265122532844543,-0.2626692742109299,-0.4857118070125579,0.457851272573536,-0.2065971493721008,-0.0085324048995971,0.4085004329681396,12.58886124622677,-1.8732439264204468,0.2237642570776083,-2.5
2.34,-0.6718043088912964,0.2415149360895156,1.9746712446212769,-0.0047548077306121,0.1140768167933468,-0.00313135740783,0.2706147730350494,-0.1911345422267913,-0.250038206577301,-0.6676297536492347,0.2407524612545967,1.967511045262217,0.4500514507293701,-0.2740125387907028,-0.5257118076086045,0.5359434430558297,-0.1830607652664184,0.0112488865852355,0.5035847425460815,14.002649533338172,-1.8721499567425808,0.2062032723837048,-2.5
2.36,-0.6660102009773254,0.237346202135086,1.9690330028533936,-0.004066518287381,0.1287682400564252,-0.0029447717028208,0.2637013792991638,-0.1886846870183944,-0.2491423487663269,-0.658981812596321,0.2354423594474792,1.957596809118986,0.4735906481742858,-0.2853558033704758,-0.5657118082046508,0.3694569146293494,-0.345669686794281,0.1224927604198455,0.044792890548706,14.446354825237904,-1.8804299299327216,0.1757066444116783,-2.5
2.38,-0.6600902080535889,0.233484536409378,1.9636638164520264,-0.0094855165011209,0.1265234689927073,-0.0024391402608972,0.2635672688484192,-0.1806840002536773,-0.247667133808136,-0.6497453916072845,0.2298486760258674,1.9466825729608532,0.4971298456192016,-0.2966990679502487,-0.6057118088006973,0.4068329924335924,-0.0067055225372314,0.4000343382358551,0.0737607479095459,14.571322192324716,-1.892772282741859,0.1571972282938616,-2.5
2.4,-0.6544559001922607,0.2296760529279709,1.9586784839630127,-0.011505247698928,0.1292977747591576,-0.0016442006249821,0.2599717676639557,-0.172578364610672,-0.2329766750335693,-0.6469118446111679,0.2244503363966941,1.95128045976162,0.3120706900954246,-0.2002992704510688,-0.3476671352982521,0.857960571576398,-0.179775059223175,0.4052817821502685,0.7345229387283325,11.470569599362534,-1.8654817283416465,0.1712268336741151,-2.5
2.42,-0.6488146781921387,0.2260238230228424,1.9537107944488523,-0.0100702163177876,0.140367873985711,-0.0003991900876404,0.2536994218826294,-0.167866051197052,-0.2239429950714111,-0.6469118446111679,0.2244503363966941,1.95128045976162,0.3120706900954246,-0.2002992704510688,-0.3476671352982521,0.59823823216049,-0.3136172890663147,0.2356156706809997,0.4516839981079101,11.48094396054148,-1.858705606586186,0.1816733182133725,-2.5
2.44,-0.6459502577781677,0.2242908328771591,1.9512755870819087,-0.009347826378013,0.1397819214760851,-0.0011715447335704,0.254482626914978,-0.1613938808441162,-0.2234682440757751,-0.6469118446111679,0.2244503363966941,1.95128045976162,0.3120706900954246,-0.2002992704510688,-0.3476671352982521,0.3268324789092058,0.0391602516174316,0.3236085176467895,0.0237375497817993,12.568551203914469,-1.905333489641944,0.1720217476157828,-2.5
2.46,-0.6404933333396912,0.2209264636039734,1.9463967084884644,-0.003163734324101,0.1591914488411682,0.0009408997318161,0.2517333626747131,-0.1541924774646759,-0.2207055687904358,-0.6437911377102137,0.2224473436921835,1.947803788408637,0.3217713743448257,-0.2042223244905471,-0.3676671355962753,0.4094234947717292,-0.1374632120132446,0.3600701689720154,0.1381337642669677,12.58570065621916,-1.90837423532792,0.212630689234537,-2.5
2.48,-0.634855329990387,0.2175860852003097,1.941679835319519,-0.000921013090128,0.1674042311119014,0.0002874117644558,0.2496358752250671,-0.1508568227291107,-0.215904414653778,-0.6375497239083051,0.2184413582831621,1.940850445702672,0.3411727428436279,-0.2120684325695037,-0.4076671361923217,0.3105524398562439,-0.1048743724822998,0.1667827367782592,0.2400577068328857,12.965206351469533,-1.96588660837938,0.2100225858282427,-2.5
2.5,-0.629246175289154,0.2145606577396392,1.9367467164993288,0.0008657509081016,0.1734976702071707,0.0002818279008642,0.2530610561370849,-0.1432306319475174,-0.2171248197555542,-0.6313083101063967,0.2144353728741407,1.933897102996707,0.3605741113424301,-0.2199145406484604,-0.4476671367883682,0.4224335413107942,0.1712590456008911,0.3813095390796661,-0.0610202550888061,12.645693907021723,-1.9695386156184684,0.2032738006946605,-2.5
2.52,-0.6235342025756836,0.2115528434514999,1.931806683540344,0.0016576093850584,0.1732052729812359,0.0002706750268188,0.2547253668308258,-0.1357479393482208,-0.2221459150314331,-0.624096827879548,0.2100370820611715,1.92494376026094,0.3799754798412323,-0.227760648727417,-0.4876671373844146,0.4581812315839695,0.0832155346870422,0.3741346299648285,-0.2510547637939453,12.726829358917255,-1.947338578791184,0.2257001967863905,-2.5
2.54,-0.6206330060958862,0.2101594060659408,1.929526805877685,-0.0019202732271022,0.1560458756572758,-0.0013898163790176,0.2565278112888336,-0.1326633989810943,-0.2179080247879028,-0.6168853456526994,0.2056387912482023,1.915990417525172,0.3993768483400345,-0.2356067568063736,-0.5276671379804612,0.2771412501633635,0.0901222229003906,0.1542270183563232,0.2118945121765136,12.582944209656487,-1.9623424039767363,0.2456789496758486,-2.5
2.56,-0.6148298382759094,0.20728400349617,1.924665689468384,0.0017492830601172,0.1687966205511303,-0.000302846413041,0.2609534561634063,-0.1291637867689132,-0.2146491408348083,-0.6091888292133808,0.2010443477332592,1.906037074774504,0.4187782168388366,-0.2434528648853302,-0.5676671385765075,0.3257834511267256,0.2212822437286377,0.1749806106090545,0.1629441976547241,11.984550306468918,-1.936001582944708,0.2500826805266032,-2.5
2.58,-0.6089233160018921,0.204781636595726,1.9197649955749512,0.001275185621895,0.1628525653059725,0.0003369389719807,0.2634680271148681,-0.1209998130798339,-0.2196407318115234,-0.6010072785615921,0.1962537515163421,1.895083732008934,0.4381795853376388,-0.2512989729642868,-0.607667139172554,0.4946956487193357,0.1257285475730896,0.4081986844539642,-0.2495795488357544,11.395016543749534,-1.944074360625025,0.2363531144027171,-2.5
2.6,-0.6028892993927002,0.2021470665931701,1.9146790504455569,0.0022627639538103,0.159507920418655,-0.0009281400900529,0.2686621248722076,-0.1155810803174972,-0.2246993780136108,-0.5957499146461487,0.1987316459417343,1.908782958984375,0.3179062008857727,-0.1518660765141248,-0.3022092506289482,0.4525793236006086,0.2597048878669739,0.2709366381168365,-0.2529323101043701,11.668955715287211,-1.9429977157479488,0.2589545347495247,-2.5
2.62,-0.5967044830322266,0.1996490955352783,1.9094966650009155,0.0025232547903832,0.1597224575378975,-0.0006597724757125,0.2749237418174743,-0.115482173860073,-0.231037437915802,-0.5957499146461487,0.1987316459417343,1.908782958984375,0.3179062008857727,-0.1518660765141248,-0.3022092506289482,0.4455014943306448,0.3130808472633362,0.0049453228712081,-0.3169029951095581,12.867222391640098,-1.918527411873573,0.263517833264548,-2.5
2.64,-0.5936054587364197,0.1984135657548904,1.906987190246582,0.0020984241519625,0.1580979941883726,-0.0013723641173302,0.2740493416786194,-0.1125042513012886,-0.2307263016700744,-0.5957499146461487,0.1987316459417343,1.908782958984375,0.3179062008857727,-0.1518660765141248,-0.3022092506289482,0.1559599638717623,-0.043720006942749,0.1488961279392242,0.0155568122863769,15.052565537886494,-1.8874017053855003,0.2365608736629345,-2.5
2.66,-0.587466835975647,0.1962145268917083,1.9014685153961184,0.0068097196324323,0.1636622526211133,-0.001001606760633,0.2773471176624298,-0.1062138006091117,-0.2400335669517517,-0.5925708526372909,0.197212985176593,1.9057608664780856,0.3287938356399536,-0.158039329200983,-0.3187229543924331,0.5853850941338088,0.1648887991905212,0.3145225346088409,-0.4653632640838623,12.725965668128993,-1.8937922501534108,0.228890609528019,-2.5
2.68,-0.5811415314674377,0.193949744105339,1.8963268995285036,0.0072648878988737,0.1638626883545381,0.0004481401871896,0.2804383635520935,-0.1004359871149063,-0.2398565411567688,-0.5862127286195755,0.1941756636463105,1.8997166814655069,0.3505691051483154,-0.1703858345746994,-0.351750361919403,0.3277585546415032,0.1545622944831848,0.2888906747102737,0.0088512897491455,12.762559534694446,-1.8633657780771848,0.2492192462524557,-2.5
2.7,-0.5746195316314697,0.1917421966791153,1.8911051750183103,0.0094697654205685,0.1611253499774858,0.0021790665568921,0.289064347743988,-0.1006274297833442,-0.2331751585006714,-0.57985460460186,0.191138342116028,1.893672496452928,0.3723443746566772,-0.1827323399484157,-0.384777769446373,0.545630662104212,0.4312992095947265,-0.0095721334218978,0.3340691328048706,13.185290736749266,-1.849135692651198,0.2639166594057165,-2.5
2.72,-0.5680484771728516,0.1895161867141723,1.886245846748352,0.0097656864162602,0.1582497161049717,0.0024492498124613,0.2945937216281891,-0.0997550413012504,-0.2268236875534057,-0.5724077171087265,0.1874836953170597,1.885976941064,0.3941196441650391,-0.1950788453221321,-0.4178051769733429,0.423309049067386,0.2764686942100525,0.0436194241046905,0.3175735473632812,13.218088443324175,-1.825959073056608,0.2443147598763854,-2.5
