t,x,y,z,roll,pitch,yaw,v_x,v_y,v_z,ref_x,ref_y,ref_z,ref_v_x,ref_v_y,ref_v_z,a_com,a_x,a_y,a_z,thrust,wind_x,wind_y,wind_z
0.0,1.207444429397583,0.4841180443763733,2.126344680786133,0.0055064571597879,0.1344536202948945,0.0012803654262488,0.0007456541061401,-0.0024139881134033,0.0007671117782592,1.207473799586296,0.4839193113148212,2.126374661922455,-0.0990049019455909,-0.1002938821911811,-0.098079539835453,0.1320208235279597,0.0372827053070068,-0.120699405670166,0.0383555889129638,12.39973083006953,-1.7228429896904236,0.1544095684127565,-2.5
0.02,1.2074309587478638,0.484146386384964,2.126792907714844,-0.000965582837905,0.1351285316458003,0.0015407323089519,0.0001555681228637,-0.0004211068153381,0.0115710496902465,1.207473799586296,0.4839193113148212,2.126374661922455,-0.0990049019455909,-0.1049158200621604,-0.098079539835453,0.5501019263325521,-0.0295042991638183,0.0996440649032592,0.5401968955993652,12.31481809526622,-1.7205375680776405,0.1585198468015186,-2.5
0.04,1.2073791027069092,0.4841209948062897,2.1269569396972656,-0.0004337728422199,0.1424394835605056,-0.0006324729580644,-0.0014430284500122,-0.0011151283979415,0.0138026475906372,1.207473799586296,0.4839193113148212,2.126374661922455,-0.0990049019455909,-0.1049158200621604,-0.098079539835453,0.1415733568592451,-0.0799298286437988,-0.0347010791301727,0.1115798950195312,12.851310225619727,-1.732371046469045,0.1480248628868778,-2.5
0.06,1.2073103189468384,0.4841877818107605,2.127120018005371,-0.0039157434170869,0.1376275809802337,0.0012553800239686,-0.0030121207237243,0.0018594413995742,0.0122362375259399,1.207473799586296,0.4839193113148212,2.126374661922455,-0.0990049019455909,-0.1049158200621604,-0.098079539835453,0.1854976855280254,-0.0784546136856079,0.1487284898757934,-0.0783205032348632,11.879854562523178,-1.749621077019547,0.1220063825748679,-2.5
0.08,1.207304835319519,0.4843904376029968,2.127100944519043,0.0017796455503617,0.1431188710654329,-6.443845117797026e-05,-0.001671016216278,0.0060624629259109,0.0032401084899902,1.2064837505668402,0.4828701531141996,2.1253938665241003,-0.1190049022436141,-0.1249158203601837,-0.1180795401334762,0.5009847524680756,0.0670552253723144,0.2101510763168335,-0.4498064517974853,11.41418484263977,-1.755271003628103,0.1124046723044485,-2.5
0.1,1.2073620557785034,0.484679639339447,2.1271393299102783,0.0041414361978749,0.1379290751913095,0.0019934626113365,0.0011640787124633,0.0110667943954467,0.0004345178604125,1.2045036525279282,0.4807718367129564,2.123432275727392,-0.1590049028396606,-0.1649158209562301,-0.1580795407295227,0.3199704497791006,0.1417547464370727,0.2502165734767914,-0.1402795314788818,11.636336403670612,-1.7399763617969712,0.1272718029512877,-2.5
0.12,1.2073237895965576,0.484992116689682,2.1270766258239746,0.0140074734258677,0.1352852803937445,0.0037197717897063,0.0004264712333679,0.0135377794504165,-0.000547170639038,1.2025235544890165,0.4786735203117132,2.1214706849306824,-0.1990049034357071,-0.2049158215522766,-0.1980795413255691,0.1379632581981099,-0.0368803739547729,0.1235492527484893,-0.0490844249725341,10.878739133627278,-1.724344426527527,0.1470558961025382,-2.5
0.14,1.2071826457977295,0.485218197107315,2.126694679260254,0.0255075247273998,0.1296800316142235,0.0042184195650793,-0.0040367245674133,0.0121175497770309,-0.0100046396255493,1.1985434564203024,0.4745752038806677,2.1175090941041708,-0.2390049040317535,-0.244915822148323,-0.2380795419216156,0.5276857225472804,-0.2231597900390625,-0.071011483669281,-0.4728734493255615,10.69234837847216,-1.7215168547137556,0.1634405860498957,-2.5
0.16,1.2070562839508057,0.4852871298789978,2.126497983932495,0.0318064637638752,0.1262083247545036,0.0038891716187938,-0.0064212083816528,0.0110500305891036,-0.016677975654602,1.1945633583515882,0.4704768874496222,2.11354750327766,-0.2790049046278,-0.2849158227443695,-0.2780795425176621,0.3583251806446775,-0.1192241907119751,-0.0533759593963623,-0.3336668014526367,10.551741905275776,-1.7291356157580466,0.1709257704484351,-2.5
0.18,1.2068642377853394,0.4854865074157715,2.125840663909912,0.0633315589712681,0.1152852479542164,0.0029645955550483,-0.0082075595855712,0.0088050216436386,-0.0234746932983398,1.1895832602679728,0.4653785710036754,2.108585912436247,-0.3190049052238464,-0.3249158233404159,-0.3180795431137085,0.3688715444353759,-0.0893175601959228,-0.1122504472732544,-0.3398358821868896,10.447920093432913,-1.699229400407262,0.1888642744268904,-2.5
0.2,1.2064663171768188,0.4855300784111023,2.124648332595825,0.0717279688958068,0.0988198908432415,0.005172352321272,-0.0132742524147033,0.005466341972351,-0.0416171550750732,1.1836031621694565,0.4592802545428276,2.1026243215799334,-0.3590049058198928,-0.3649158239364624,-0.3580795437097549,0.956513300342028,-0.253334641456604,-0.1669339835643768,-0.90712308883667,10.82649095450779,-1.6648593712353823,0.2414674887095171,-2.473664903187406
0.22,1.2059253454208374,0.4853852987289428,2.1231110095977783,0.0982241677114969,0.0790370728016581,0.0067450081717031,-0.0211250782012939,-0.0022771954536437,-0.0614172220230102,1.2064538598060608,0.4859267584979534,2.124666929244995,-0.1082075610756874,-0.0911949798464775,-0.1234746947884559,1.1331819012651572,-0.3925412893295288,-0.3871768712997436,-0.9900033473968506,11.568523559496953,-1.6431939152139614,0.2833899642848719,-2.482491009071307
0.24,1.2050126791000366,0.4845858216285705,2.1214160919189453,0.122210744304609,0.0569243258011429,0.0055887177478172,-0.0327068567276001,-0.0212457776069641,-0.0727254152297973,1.2064538598060608,0.4859267584979534,2.124666929244995,-0.1082075610756874,-0.0911949798464775,-0.1234746947884559,1.246815880895907,-0.5790889263153076,-0.9484291076660156,-0.5654096603393555,13.399006851301692,-1.5840964156739912,0.3320158696567033,-2.3575464698757385
0.26,1.2045648097991943,0.4841918051242828,2.1205103397369385,0.1344901236193013,0.0435294246092436,0.0061423375717715,-0.035955011844635,-0.0269541889429092,-0.078325867652893,1.2064538598060608,0.4859267584979534,2.124666929244995,-0.1082075610756874,-0.0911949798464775,-0.1234746947884559,0.4315713700769129,-0.1624077558517456,-0.2854205667972564,-0.2800226211547851,13.260596500979318,-1.5543655916178916,0.32765187252026,-2.300003019887943
0.28,1.2031036615371704,0.4828135371208191,2.118536949157715,0.1656527893559294,0.0300874510855428,0.0053111678558289,-0.0541377067565918,-0.0516010075807571,-0.0854498147964477,1.205371784195304,0.4850148086994886,2.1234321822971105,-0.1282075613737106,-0.1111949801445007,-0.1434746950864791,1.572280736805952,-0.9091347455978394,-1.232340931892395,-0.3561973571777344,11.965927619474767,-1.432882265646524,0.4271197851535684,-2.0900952715612755
0.3,1.2012269496917725,0.4806367456912994,2.1166720390319824,0.1610117772122339,0.0167596799561823,0.0085816718057373,-0.0751018524169921,-0.0799888372421264,-0.0863617658615112,1.2032076329737902,0.4831909091025591,2.1209626884013417,-0.168207561969757,-0.1511949807405471,-0.1834746956825256,1.765075020288426,-1.0482072830200195,-1.4193914830684662,-0.0455975532531738,11.923689692805056,-1.4023848997407828,0.4428519527862682,-1.9538188875463296
0.32,1.1987276077270508,0.4778598546981811,2.1151883602142334,0.1557624383886474,0.0199364126403413,0.0102007671476928,-0.0984612107276916,-0.1114578545093536,-0.0753432512283325,1.2010434817522764,0.4813670095056295,2.1184931945055725,-0.2082075625658035,-0.1911949813365936,-0.223474696278572,2.03553821701673,-1.1679679155349731,-1.5734508633613586,0.5509257316589355,12.702321021236004,-1.3883672772570694,0.4407547113545069,-1.938107892383342
0.34,1.197304368019104,0.4763244986534118,2.1145410537719727,0.1422518069465611,0.0418208802670461,0.0089141450301436,-0.1115450263023376,-0.1258854568004608,-0.0656497478485107,1.1968793305009602,0.4775431098788977,2.114023700580001,-0.2482075631618499,-0.23119498193264,-0.2634746968746185,1.087779786579442,-0.6541907787322998,-0.7213801145553589,0.4846751689910888,11.844909534704584,-1.399360744796308,0.4476703123410503,-2.071526811320393
0.36,1.1940829753875732,0.4726146757602691,2.1130635738372803,0.1290794747979636,0.0355662516710719,0.0107576965703568,-0.1351994276046753,-0.1504337042570114,-0.0649416446685791,1.1927151792496442,0.4737192102521658,2.1095542066544297,-0.2882075637578964,-0.2711949825286865,-0.303474697470665,1.704881641253657,-1.1827200651168823,-1.22741237282753,0.035405158996582,10.825887807801337,-1.455619563321927,0.4468238500629944,-2.1119081717510637
0.38,1.190296649932861,0.468260258436203,2.11159348487854,0.0973294470519776,0.0682334157764945,0.0087439210540503,-0.1576736569404602,-0.1814454048871994,-0.0663203001022338,1.187551027983427,0.4688953106105328,2.104084712713957,-0.3282075643539429,-0.311194983124733,-0.3434746980667114,1.916192351395472,-1.1237114667892456,-1.5505850315093994,-0.0689327716827392,10.788408488907862,-1.4225096448314285,0.4792640373248552,-2.0793129023892063
0.4,1.1863188743591309,0.4637501835823059,2.109992027282715,0.0817349985525937,0.0677953988668758,0.0112125902251935,-0.1746922731399536,-0.1994510740041732,-0.0691097974777221,1.1813868767023086,0.4630714109539985,2.097615218758583,-0.3682075649499893,-0.3511949837207794,-0.3834746986627578,1.2466141276508365,-0.8509308099746704,-0.9002834558486938,-0.139474868774414,10.8522734744638,-1.4838499133916336,0.3734878712155492,-2.075915315981389
0.42,1.1818857192993164,0.4587405025959015,2.108227491378784,0.0625211119794,0.0818313231494596,0.0109414026386865,-0.1892459392547607,-0.214194506406784,-0.0757348537445068,1.1775842607021332,0.4537776298820972,2.1065365374088287,-0.2746922746300697,-0.262036882340908,-0.1691097989678383,1.087507892994002,-0.7276833057403564,-0.7371716201305389,-0.3312528133392334,10.614813199645596,-1.5080364649878777,0.3504235441072189,-2.1903051398293845
0.44,1.1771855354309082,0.4537045657634735,2.1058895587921143,0.0510624611956912,0.0940563036920946,0.0110371188016797,-0.2055001258850097,-0.2260264009237289,-0.0923055410385131,1.1775842607021332,0.4537776298820972,2.1065365374088287,-0.2746922746300697,-0.262036882340908,-0.1691097989678383,1.3026703230929344,-0.8127093315124512,-0.5915947258472443,-0.8285343647003174,12.81277939727306,-1.541670875725897,0.2999242092624662,-2.232702450152229
0.46,1.1748067140579224,0.4512036740779876,2.104340076446533,0.0469677676774854,0.0997164121700887,0.0110606887421585,-0.2090218663215637,-0.2258031070232391,-0.1082700490951538,1.1775842607021332,0.4537776298820972,2.1065365374088287,-0.2746922746300697,-0.262036882340908,-0.1691097989678383,0.8174931702451688,-0.1760870218276977,0.0111646950244903,-0.7982254028320312,11.491817230343258,-1.576602533475902,0.2597914540987276,-2.174790070923068
0.48,1.170111060142517,0.4459384977817535,2.1012368202209477,0.0460955055651699,0.1210305124437619,0.010421100096726,-0.2127608656883239,-0.2339248359203338,-0.1306021213531494,1.1748373379558326,0.4511572610586881,2.1048454394191505,-0.2946922749280929,-0.274554044008255,-0.1891097992658615,1.2027718485636356,-0.1869499683380127,-0.4060864448547363,-1.1166036128997805,11.900909798672274,-1.5406680874441552,0.2865528113808014,-2.1381511372465862
0.5,1.1651116609573364,0.4406364858150482,2.097946882247925,0.0410864760731654,0.1192909629496428,0.0143135135759682,-0.2181386947631836,-0.2377617359161377,-0.1438468694686889,1.169343492463231,0.44591652341187,2.101463243439793,-0.3346922755241394,-0.2995883673429489,-0.2291097998619079,0.7400442550623129,-0.2688914537429809,-0.1918449997901916,-0.6622374057769775,11.479228050421623,-1.5340069236221556,0.2633536265098669,-2.1239991896890063
0.52,1.1600544452667236,0.43526291847229,2.094578742980957,0.0364190729400827,0.1349932677697176,0.0138319674630876,-0.2262738347053527,-0.2402005344629287,-0.1498067378997802,1.1638496469706296,0.4406757857650518,2.098081047460437,-0.3746922761201858,-0.3246226906776428,-0.2691098004579544,0.5187684260496815,-0.4067569971084595,-0.1219399273395538,-0.2979934215545654,11.519501845996729,-1.530535674630104,0.2601043830511232,-2.0208504163962657
0.54,1.154994249343872,0.4298067390918731,2.09101939201355,0.0289366250402107,0.1466257280107904,0.0141507241969618,-0.227641761302948,-0.2436693012714386,-0.1558685302734375,1.1563558014482258,0.434183331951499,2.092698851451278,-0.4146922767162322,-0.3496570140123367,-0.3091098010540008,0.3558401787655407,-0.0683963298797607,-0.1734383404254913,-0.3030896186828613,11.365250953677789,-1.6078376824925589,0.2650637062762051,-2.1814511857659333
0.56,1.1525739431381226,0.4270423948764801,2.0891242027282715,0.0257133974391023,0.1514994029992,0.0137694732725191,-0.2249890565872192,-0.2449701726436615,-0.1615655422210693,1.1488619559258222,0.4276908781379461,2.0873166554421188,-0.4546922773122788,-0.3746913373470306,-0.3491098016500473,0.3208779120139721,0.132635235786438,-0.065043568611145,-0.2848505973815918,11.015541478534033,-1.6188669668297997,0.2524338530048303,-2.118184332254052
0.58,1.147590160369873,0.4216283857822418,2.0850632190704346,0.0158531156412979,0.1673598742840134,0.0083306798802847,-0.2219849824905395,-0.2472399920225143,-0.1724445819854736,1.1403681103885173,0.4205725662410259,2.0809344594180583,-0.4946922779083252,-0.3997256606817245,-0.3891098022460937,0.5756084767149623,0.1502037048339843,-0.1134909689426422,-0.5439519882202148,10.841806571876075,-1.6272883624258232,0.2450988362593323,-2.147796150836604
0.6,1.142937183380127,0.416216641664505,2.0807621479034424,0.0109945563475583,0.1610786926887204,0.0120611262308202,-0.2168270945549011,-0.2435794472694397,-0.1881462335586547,1.1308742648363113,0.4128283962607383,2.073552263379097,-0.5346922785043716,-0.4247599840164184,-0.4291098028421402,0.8463823869437633,0.2578943967819214,0.1830272376537323,-0.7850825786590576,10.94143039611754,-1.6360281261951903,0.2254271282305449,-2.107455484081583
0.62,1.1382545232772827,0.4109562337398529,2.075942277908325,0.0086419288545089,0.1601741592884274,0.0105292746334799,-0.2100518345832824,-0.2401234209537506,-0.2052211761474609,1.132095828652382,0.404037669301033,2.0713548362255096,-0.3168270960450172,-0.2989720404148102,-0.2637189328670501,0.9346148003171943,0.3387629985809326,0.1728013157844543,-0.8537471294403076,10.936071143398747,-1.6246904683043537,0.2352457867575235,-2.1146510046831337
0.64,1.1359148025512695,0.4082756042480469,2.0734596252441406,0.0117041351486783,0.1541407759751917,0.0070681083996059,-0.2097916603088379,-0.2420894801616668,-0.2177578210830688,1.132095828652382,0.404037669301033,2.0713548362255096,-0.3168270960450172,-0.2989720404148102,-0.2637189328670501,0.6346269488912729,0.013008713722229,-0.0983029603958129,-0.6268322467803955,13.65149020120316,-1.6137844099148682,0.2327079559959159,-2.169463419840694
0.66,1.1313517093658447,0.4030671417713165,2.068399429321289,0.011576223638618,0.1442661834369959,0.0107551181164688,-0.2113500237464904,-0.2360109239816665,-0.2272689342498779,1.132095828652382,0.404037669301033,2.0713548362255096,-0.3168270960450172,-0.2989720404148102,-0.2637189328670501,0.5697337437546625,-0.0779181718826294,0.3039278090000152,-0.4755556583404541,12.7692676094307,-1.614300899106341,0.2001503208339481,-2.16292067526884
0.68,1.1266876459121704,0.3978377282619476,2.0629308223724365,0.0233811505107099,0.1320759665790497,0.0074331024128029,-0.2076110243797302,-0.2348522096872329,-0.2368980646133422,1.1289275576919318,0.4010479488968849,2.068717646896839,-0.3368270963430405,-0.3100505590438843,-0.2788334727287292,0.5197184012456878,0.1869499683380127,0.0579357147216796,-0.4814565181732178,12.64582258291466,-1.6235118503024468,0.2069742037564843,-2.095541470379983
0.7000000000000001,1.1221745014190674,0.3925950527191162,2.0575618743896484,0.0225099330915205,0.1240688288950254,0.0099518634463336,-0.2064871788024902,-0.2356220036745071,-0.243844985961914,1.1225910157710313,0.3950685080885887,2.063443268239498,-0.3768270969390869,-0.3322075963020324,-0.3090625524520874,0.3539609013986137,0.0561922788619995,-0.0384896993637084,-0.3473460674285888,13.453784701230234,-1.569246522031646,0.2240434290295032,-1.9870531943720493
0.72,1.1177724599838257,0.3874930739402771,2.0523436069488525,0.0216771313328395,0.1179701430772517,0.0081303066863058,-0.2005916833877563,-0.2327547222375869,-0.2382123470306396,1.116254473850131,0.3890890672802925,2.058168889582157,-0.4168270975351333,-0.3543646335601806,-0.3392916321754455,0.4321596648050447,0.2947747707366943,0.1433640718460083,0.2816319465637207,12.487656613449415,-1.5392656639106546,0.2179261694531135,-1.929617670336524
0.74,1.1133211851119995,0.3823362290859222,2.0471179485321045,0.021632108219403,0.1158836170326197,0.0081735024515754,-0.1991996169090271,-0.2308235317468643,-0.2349883317947387,1.1079179318994283,0.3820017746090889,2.051383056938648,-0.4568270981311798,-0.3765216708183289,-0.3695207118988037,0.2003847551211185,0.0696033239364624,0.0965595245361328,0.1612007617950439,12.140966734511949,-1.5106320606910837,0.2422855240065313,-2.113808584309557
0.76,1.1111438274383545,0.37970632314682,2.04463267326355,0.0197289589012859,0.1152780155338969,0.0073946020775552,-0.199424922466278,-0.2333877235651016,-0.2311742305755615,1.0995813899487257,0.3749144819378853,2.044597224295139,-0.4968270987272263,-0.3986787080764771,-0.3997497916221619,0.2300717843683394,-0.0112652778625488,-0.1282095909118652,0.1907050609588623,11.927320139604944,-1.4921984900502945,0.259090790768132,-2.1638912717182923
0.78,1.1065014600753784,0.3746786713600158,2.03953218460083,0.0211966315763378,0.1168467522120933,0.0042679444861857,-0.2039363980293274,-0.2311205863952636,-0.2300155162811279,1.0902448479831215,0.367273263335228,2.037055664658546,-0.5368270993232727,-0.4208357453346252,-0.42997887134552,0.2590170917091028,-0.2255737781524658,0.1133568584918975,0.0579357147216796,11.291817680667918,-1.4886293008403857,0.2403176212316208,-2.213386670615792
0.8,1.1016525030136108,0.3693696856498718,2.034267902374268,0.0167689568041157,0.1080997883009844,0.0049264012021003,-0.2135547995567321,-0.2325743436813354,-0.2332073450088501,1.079908306002617,0.3590781188011169,2.0287583780288694,-0.5768270999193191,-0.4429927825927734,-0.4602079510688781,0.5118955675142685,-0.4809200763702392,-0.0726878643035888,-0.1595914363861084,11.372486407810811,-1.5226935887424546,0.2589246226184469,-2.3590417564230703
0.8200000000000001,1.0968260765075684,0.3643751740455627,2.028992891311645,0.0175047650663322,0.0995590515253702,0.0054300914653395,-0.2176961302757263,-0.2318286895751953,-0.2371340990066528,1.096304640173912,0.3631226420402527,2.0280314087867737,-0.3039363995194435,-0.2514359392225742,-0.2707834541797638,0.2877760289241788,-0.207066535949707,0.0372827053070068,-0.1963376998901367,11.263770848200693,-1.556224621865636,0.244404550642997,-2.398990148587484
0.84,1.094343900680542,0.3619483411312103,2.026155471801758,0.0306075970159699,0.0897170823588299,0.0034977607229158,-0.2181065082550048,-0.2268914133310318,-0.243346095085144,1.096304640173912,0.3631226420402527,2.0280314087867737,-0.3039363995194435,-0.2514359392225742,-0.2707834541797638,0.3972845393299628,-0.0205188989639282,0.2468638122081756,-0.3105998039245605,13.997125141540891,-1.5415843876644433,0.2421839502472312,-2.420026759154841
0.86,1.0891667604446411,0.3568018674850464,2.0202770233154297,0.0269938882540977,0.0803879653734086,0.0044991226136614,-0.226442813873291,-0.2274875342845916,-0.2575939893722534,1.096304640173912,0.3631226420402527,2.0280314087867737,-0.3039363995194435,-0.2514359392225742,-0.2707834541797638,0.8259113801876476,-0.4168152809143066,-0.0298060476779937,-0.7123947143554688,13.297673857817244,-1.4906337799044482,0.3155491345227632,-2.459050808005941
0.88,1.0838582515716553,0.3517233729362488,2.0147273540496826,0.0408968030898665,0.0696523947922308,0.005359131468726,-0.2359271049499511,-0.2300617843866348,-0.2571326494216919,1.0932652761787176,0.3606082826480269,2.025323574244976,-0.3239363998174667,-0.2554990097880363,-0.2789370417594909,0.4919130394812399,-0.4742145538330078,-0.1287125051021576,0.0230669975280761,13.220639892286728,-1.4503553142338903,0.3130986867771835,-2.3814038850463906
0.9,1.07832133769989,0.3463246822357178,2.00968337059021,0.0356362420940765,0.0617037530503719,0.0065027480685079,-0.2440220117568969,-0.2357366681098938,-0.2383571863174438,1.0871865481883287,0.3555795638635755,2.019907905161381,-0.3639364004135131,-0.2636251509189605,-0.2952442169189453,1.060954565785721,-0.40474534034729,-0.2837441861629486,0.9387731552124025,12.63139890701268,-1.4384619314963905,0.3073754912762206,-2.3233787882746584
0.92,1.0724300146102903,0.3411193490028381,2.0049898624420166,0.0330811983008374,0.0678142715545968,0.0082373045782609,-0.2571353316307068,-0.2385905385017395,-0.2190935611724853,1.0811078201979398,0.350550845079124,2.014492236077785,-0.4039364010095596,-0.2717512920498848,-0.3115513920783996,1.1738728509210294,-0.6556659936904907,-0.1426935195922851,0.9631812572479248,12.995289271858836,-1.3920116700411025,0.2864937798377251,-2.079832268988294
0.94,1.0661348104476929,0.3358171880245209,2.00044846534729,0.0236264424832566,0.08030855864785,0.0073062471390369,-0.2741968631744385,-0.2364186197519302,-0.2077853679656982,1.0730290921777486,0.3451158192381263,2.0082612082362177,-0.443936401605606,-0.279877433180809,-0.327858567237854,1.0291845355371778,-0.8530765771865845,0.1085959374904632,0.5654096603393555,12.517708232531731,-1.4177432889519197,0.2884731788007005,-2.217535581039033
0.96,1.0630813837051392,0.3330514430999756,1.998409390449524,0.0169930639925541,0.0870635472440401,0.007050769632679,-0.278303325176239,-0.2420700341463089,-0.202997624874115,1.0649503641575573,0.3396807933971286,2.0020301803946494,-0.4839364022016525,-0.2880035743117332,-0.3441657423973083,0.4234501114069554,-0.2053231000900268,-0.2825707197189331,0.2393871545791626,12.406071432957106,-1.4768748596294872,0.3042561532189851,-2.289355844910007
0.98,1.0566539764404297,0.3278492391109466,1.994095802307129,0.002222268617994,0.1144551230826039,0.0047040370045783,-0.2841639518737793,-0.237579345703125,-0.1939719915390014,1.055871636122465,0.3340426140278578,1.9953914731740952,-0.5239364027976989,-0.2961297154426575,-0.3604729175567627,0.583042204907972,-0.2930313348770141,0.2245344221591949,0.4512816667556762,11.415221512428616,-1.4610290411077094,0.2591056722384421,-2.388570276012849
1.0,1.050026774406433,0.3226949274539947,1.989783763885498,-0.0070455419829644,0.1137453547260788,0.0070060799654349,-0.2937287092208862,-0.2330216020345688,-0.1940765976905822,1.0457929080724715,0.3282012811303139,1.9883450865745544,-0.5639364033937454,-0.3042558565735817,-0.376780092716217,0.5297842789859115,-0.4782378673553467,0.2278871834278106,-0.0052303075790405,11.750432065629411,-1.495014220706032,0.2551153467825157,-2.382108399035107
1.02,1.0432748794555664,0.3176307082176208,1.985627293586731,-0.0183222415085521,0.1244360070691292,0.0055363829344259,-0.3010296821594238,-0.2299169450998306,-0.1905414462089538,1.0424457788467407,0.3159702718257904,1.9843972027301788,-0.3841639533638954,-0.244357630610466,-0.2429432235658168,0.4342821563503837,-0.3650486469268799,0.1552328467369079,0.1767575740814209,11.145830024355746,-1.5408219757243131,0.2433979709739514,-2.4387514125328824
1.04,1.0365482568740845,0.3127253949642181,1.9814565181732176,-0.0268106405247848,0.1288284949261873,0.0057021166958459,-0.3032666444778442,-0.2243144810199737,-0.1873630285263061,1.0424457788467407,0.3159702718257904,1.9843972027301788,-0.3841639533638954,-0.244357630610466,-0.2429432235658168,0.340932336195494,-0.1118481159210205,0.2801232039928436,0.1589208841323852,13.410461160543946,-1.5913154257297344,0.200922389680579,-2.4558290610085995
1.06,1.0331261157989502,0.3103392720222473,1.9792373180389404,-0.0292759185148314,0.1295403540707781,0.0045325265913132,-0.3046506643295288,-0.2183941751718521,-0.1884305477142334,1.0424457788467407,0.3159702718257904,1.9843972027301788,-0.3841639533638954,-0.244357630610466,-0.2429432235658168,0.3086467620993016,-0.0692009925842285,0.2960152924060821,-0.0533759593963623,12.341436242528744,-1.6027582540352574,0.1706397378615632,-2.435219910895702
1.08,1.026400089263916,0.305705726146698,1.974626302719116,-0.0329491077992711,0.1279920746005029,0.0056369676028177,-0.3050315380096435,-0.2099465578794479,-0.2021741867065429,1.0386041393131018,0.3135266955196857,1.9819677704945209,-0.4041639536619186,-0.2457132875919342,-0.2527374699711799,0.806837832885367,-0.0190436840057373,0.4223808646202087,-0.6871819496154785,12.27552802322407,-1.5953003173175275,0.1428649362756691,-2.3327791451268123
1.1,1.019575595855713,0.301473319530487,1.970024824142456,-0.0333170223385982,0.1341153429262851,0.0061444764036096,-0.3048866987228393,-0.1994839310646057,-0.2072811126708984,1.0309208602458235,0.3086395429074764,1.9771089060232043,-0.444163954257965,-0.2484246015548706,-0.2723259627819061,0.5821688567139811,0.0072419643402099,0.5231313407421112,-0.2553462982177734,11.593466793674452,-1.5882795521252582,0.1253704323522007,-2.3695920585305705
1.12,1.012964367866516,0.2975334227085113,1.965698003768921,-0.0351246915910663,0.1418183279672427,0.0058886849361673,-0.3023037314414978,-0.1838768273591995,-0.2008867263793945,1.023237581178546,0.3037523902952671,1.972250041551888,-0.4841639548540115,-0.251135915517807,-0.2919144555926323,0.8531435724612206,0.1291483640670776,0.7803551852703094,0.3197193145751953,11.575699111702306,-1.571963907250323,0.1284844757975903,-2.2536454535467145
1.14,1.0063884258270264,0.293709397315979,1.9611304998397827,-0.0347383912614196,0.1513953531309958,0.0049900040892386,-0.2967113256454468,-0.1746882498264312,-0.2001222968101501,1.0135543020814657,0.2987296719849109,1.9664117524400355,-0.524163955450058,-0.2538472294807434,-0.3115029484033584,0.539187611666231,0.2796202898025512,0.4594288766384125,0.0382214784622192,11.419112874941677,-1.587852330918864,0.1529105547543792,-2.3358051540522298
1.16,1.0031682252883911,0.2919440865516662,1.9588006734848025,-0.0348141348835514,0.1563277858160566,0.005081885506636,-0.296805202960968,-0.1695585250854492,-0.2041482925415039,1.0038710229843857,0.2937069536745548,1.9605734633281824,-0.5641639560461045,-0.2565585434436798,-0.3310914412140846,0.3260810117803994,-0.004693865776062,0.2564862370491028,-0.201299786567688,11.291136476575048,-1.589963990993071,0.1324911030554227,-2.3541640030416366
1.18,0.996562123298645,0.2885939478874206,1.9540826082229612,-0.0266188315583894,0.1686668977442554,0.0018988009517439,-0.2933156490325928,-0.1561783254146576,-0.208914577960968,0.993187743872404,0.2886164525151253,1.9542454618960616,-0.6041639566421508,-0.2592698574066162,-0.3506799340248108,0.7313074021044221,0.1744776964187622,0.6690099835395813,-0.2383142709732055,11.102367690145911,-1.6253827728590775,0.0963954698446095,-2.362100434035732
1.2,0.9900606870651244,0.2854521572589874,1.9492747783660889,-0.023765808729583,0.1648895434542366,0.0050165196221799,-0.2949196100234985,-0.1460684090852737,-0.214332640171051,0.9815044647455216,0.2834581685066223,1.947427748143673,-0.6441639572381973,-0.2619811713695526,-0.3702684268355369,0.5790908762012642,-0.080198049545288,0.5054958164691925,-0.2709031105041504,11.395019032449454,-1.6373271952103208,0.1298710458308587,-2.282560089896077
1.22,0.9838929176330566,0.2825045883655548,1.9443367719650269,-0.013055152382955,0.158633269199169,0.004938861729335,-0.2850571274757385,-0.1370105892419815,-0.2192813158035278,0.9753147065639496,0.2781487368047237,1.9385581463575363,-0.3949196115136146,-0.1764007061719894,-0.2540391758084297,0.713796281921318,0.4931241273880005,0.4528909921646118,-0.2474337816238403,13.17080472322732,-1.6820340875462223,0.1368979280442377,-2.251026402729729
1.24,0.9807754158973694,0.2811728119850158,1.9416004419326784,0.0079003429829252,0.1490415278635625,0.0035880779115662,-0.2828711271286011,-0.1282726228237152,-0.2296105027198791,0.9753147065639496,0.2781487368047237,1.9385581463575363,-0.3949196115136146,-0.1764007061719894,-0.2540391758084297,0.6852422144712004,0.1093000173568725,0.4368983209133148,-0.5164593458175659,12.651050550443417,-1.6341198507414978,0.1567073819172715,-2.177877904271862
1.26,0.9747682213783264,0.2782501876354217,1.936104655265808,0.0062086586049492,0.1396387083688914,0.006794232158832,-0.2759832143783569,-0.1280788332223892,-0.2407309412956237,0.9753147065639496,0.2781487368047237,1.9385581463575363,-0.3949196115136146,-0.1764007061719894,-0.2540391758084297,0.6541120901295647,0.344395637512207,0.0096894800662994,-0.5560219287872314,12.992371982419629,-1.6143346888395211,0.2512137270418426,-2.210192203885644
1.28,0.9686909317970276,0.2756508588790893,1.9307869672775269,0.0237854977495533,0.12486098185902,0.0037904500718927,-0.2719008922576904,-0.1242439448833465,-0.2433031797409057,0.9713655104488136,0.2763847297430038,1.936017754599452,-0.4149196118116379,-0.1824671655893325,-0.2619804829359055,0.3081725697121465,0.2041161060333252,0.1917444169521331,-0.1286119222640991,13.28047649894188,-1.5716094113172163,0.232582898434106,-2.1087292470723416
1.3,0.9627119302749634,0.2729047834873199,1.9257832765579224,0.0216215835434252,0.1124661792311802,0.0058919691199912,-0.2712665498256683,-0.1202715933322906,-0.2322310209274292,0.9634671182185413,0.272856715619564,1.9309369710832835,-0.4549196124076843,-0.1946000844240188,-0.2778630971908569,0.5890133019658527,0.0317171216011047,0.1986175775527954,0.5536079406738281,12.715729977080628,-1.524250540110503,0.2613528747904178,-2.037144620427921
1.32,0.956547737121582,0.2703645527362823,1.9208407402038572,0.0224126243690358,0.106854787888104,0.00572259552705,-0.273221880197525,-0.1189418882131576,-0.2237901091575622,0.9555687259882688,0.2693287014961242,1.9258561875671147,-0.4949196130037308,-0.2067330032587051,-0.2937457114458084,0.4382933494636669,-0.0977665185928344,0.0664852559566497,0.4220455884933471,12.330167469314802,-1.5130169814590075,0.2869188695925291,-2.1158275081725693
1.34,0.950300395488739,0.2676904499530792,1.9158072471618648,0.0226585684007375,0.1036983923106476,0.0044403526486584,-0.2792595326900482,-0.1173225045204162,-0.2244606614112854,0.9456703337281942,0.2651940414309501,1.919981273338199,-0.5349196135997772,-0.2188659220933914,-0.3096283257007599,0.3143457152951248,-0.3018826246261596,0.0809691846370697,-0.0335276126861572,11.699594657617126,-1.509559514677518,0.2887810934999554,-2.1625981184768763
1.36,0.94710373878479,0.2662206888198852,1.91357696056366,0.0195250051277175,0.1045325126383121,0.0036799810632462,-0.2797463536262512,-0.1202957332134246,-0.218028724193573,0.9357719414681196,0.261059381365776,1.9141063591092824,-0.5749196141958237,-0.2309988409280777,-0.3255109399557114,0.3551299053073681,-0.0243410468101501,-0.1486614346504211,0.3215968608856201,11.711705351815908,-1.5190665345072587,0.3012483177339282,-2.2575108423017465
1.38,0.9407988786697388,0.2635346949100494,1.9088034629821775,0.0202591900586391,0.1074388149357129,0.0009952688633084,-0.2839453518390655,-0.1221612095832824,-0.2150219678878784,0.9248735491931438,0.2566213983297347,1.9078343795239925,-0.6149196147918701,-0.2431317597627639,-0.3413935542106628,0.2745549651688613,-0.2099499106407165,-0.0932738184928894,0.150337815284729,11.846599971271644,-1.5098528794195725,0.274261003063238,-2.373655392013408
1.4,0.93424391746521,0.2608823776245117,1.9041616916656492,0.0144458681236615,0.1004030195511621,0.0027302292502761,-0.2893459796905517,-0.1201120018959045,-0.2118435502052307,0.9129751569032668,0.2518800923228264,1.9011653345823287,-0.6549196153879165,-0.2552646785974502,-0.3572761684656143,0.3296527426763841,-0.2700313925743103,0.1024603843688964,0.1589208841323852,11.917102719447485,-1.5164444761870215,0.2609478451737229,-2.409063144174726
1.42,0.9276248216629028,0.2581375241279602,1.899356722831726,0.016989254630591,0.0952672696487171,0.0028174098772525,-0.2964162826538086,-0.1214363425970077,-0.2125516533851623,0.9266016110777856,0.2574266344308853,1.898052364587784,-0.3839453533291816,-0.1278495737351477,-0.217971385223791,0.3614016892540288,-0.3535151481628418,-0.0662170350551605,-0.035405158996582,11.662094843531577,-1.502081864170333,0.2677494474818518,-2.3550953271140034
1.44,0.920711874961853,0.2554916143417358,1.894636631011963,0.0195531931675163,0.0878430021919543,0.0023614373213763,-0.304470956325531,-0.1212921738624572,-0.2143138647079467,0.9266016110777856,0.2574266344308853,1.898052364587784,-0.3839453533291816,-0.1278495737351477,-0.217971385223791,0.4123225112945863,-0.4027336835861206,0.0072084367275238,-0.0881105661392211,13.07714014450039,-1.5064953529997307,0.2465302641801046,-2.325424673766581
1.46,0.9171844124794006,0.2541916370391845,1.89212429523468,0.0225527608064412,0.0846144718249818,0.0024308645683973,-0.3100083768367767,-0.1190216839313507,-0.2168217301368713,0.9266016110777856,0.2574266344308853,1.898052364587784,-0.3839453533291816,-0.1278495737351477,-0.217971385223791,0.3244516121674238,-0.2768710255622864,0.1135244965553283,-0.125393271446228,14.226086910333834,-1.4983836391659917,0.2439714184273949,-2.2866691962542705
1.48,0.910090446472168,0.2513785660266876,1.8875521421432493,0.0335003739633116,0.0764203732742992,0.000724397562121,-0.3164027631282806,-0.1259538531303405,-0.2112320065498352,0.9227621575444936,0.2561481386935338,1.895872650735546,-0.4039453536272049,-0.1289872465655207,-0.2185612686909735,0.5481517938214401,-0.3197193145751953,-0.3466084599494934,0.2794861793518066,12.692303443936908,-1.4713243591787974,0.2596394940142477,-2.267660543920536
1.5,0.9026843309402466,0.2486573904752731,1.883099675178528,0.0283204249246372,0.0697205581848342,0.0033688441379452,-0.3262518346309662,-0.1245205476880073,-0.2030539512634277,0.91508325047791,0.2535911472188308,1.89151322303107,-0.4439453542232513,-0.1312625922262668,-0.2197410356253385,0.6440868773379329,-0.4924535751342773,0.071665272116661,0.4089027643203735,12.976545307469678,-1.4394351074284917,0.2350557568394288,-2.2002297504948256
1.52,0.8951554298400879,0.2458461970090866,1.8789108991622925,0.0272587677634888,0.0762673234359599,0.0050989204039056,-0.3360378742218017,-0.1244783028960228,-0.1944279670715332,0.9074043434113264,0.2510341557441279,1.8871537953265944,-0.4839453548192978,-0.1335379378870129,-0.2209208025597036,0.6522575388116748,-0.4893019795417785,0.0021122395992279,0.4312992095947265,14.123833653140991,-1.4234580218868442,0.2535669147074922,-2.107889095670823
1.54,0.8912056088447571,0.2445352375507354,1.876914501190185,0.0276715066819863,0.0940843198706,0.0029870448808533,-0.3433187305927276,-0.1262032985687255,-0.1869794726371765,0.8977254363149404,0.2483633969863876,1.8827353792754,-0.5239453554153443,-0.135813283547759,-0.2221005694940686,0.5278885983413978,-0.3640428185462951,-0.0862497836351394,0.3724247217178345,12.382898765202754,-1.431306688909567,0.2645598799119874,-2.195222982641646
1.56,0.8832746148109436,0.2416173219680786,1.873279094696045,0.0186014794096774,0.0932063743068054,0.0056017557878554,-0.3513908386230469,-0.1280040740966797,-0.1714065670967102,0.8880465292185544,0.2456926382286474,1.878316963224206,-0.5639453560113907,-0.1380886292085051,-0.2232803364284336,0.8816420865741219,-0.4036054015159607,-0.090038776397705,0.7786452770233154,12.757066488210969,-1.5054990128179138,0.2576278692342947,-2.3720782142735573
1.58,0.8751028776168823,0.2389541566371917,1.8698127269744875,0.0086240157807445,0.1237001245956886,0.0032416549138363,-0.362311452627182,-0.1255743205547332,-0.1597899198532104,0.8773676221072674,0.2429649958293885,1.873869052999653,-0.6039453566074371,-0.1403639748692512,-0.2244601033627987,0.8063963133624558,-0.5460307002067566,0.1214876770973205,0.5808323621749878,12.316557895244388,-1.502771292169607,0.2430020625612244,-2.379513593527234
1.6,0.8670085072517395,0.2361773252487182,1.8663063049316408,-0.0008159652529044,0.1277116802301473,0.0068365066571628,-0.3659874200820923,-0.1223999261856079,-0.1568877696990966,0.865688714981079,0.2401804697886109,1.8693916486017408,-0.6439453572034836,-0.1426393205299973,-0.2256398702971637,0.2828957045331236,-0.1837983727455139,0.1587197184562683,0.1451075077056884,11.616102555396536,-1.5810364998285058,0.2398401719330105,-2.394241919915952
1.62,0.8588679432868958,0.2333531230688095,1.8627574443817136,-0.0087654936301908,0.1433610246983345,0.0066258954490498,-0.3652860224246979,-0.1260232627391815,-0.1587438583374023,0.8569873049855232,0.2326754406094551,1.8618232309818268,-0.4623114541172981,-0.1318409964442253,-0.163787193596363,0.2065526052093534,0.0350698828697204,-0.1811668276786804,-0.0928044319152832,11.73421835492718,-1.6189215205160346,0.2313831016600917,-2.5
1.64,0.8509933352470398,0.2308795750141143,1.859232783317566,-0.0175597280875014,0.1513295872217959,0.0063270944021622,-0.3603413701057434,-0.1191993802785873,-0.1591542363166809,0.8569873049855232,0.2326754406094551,1.8618232309818268,-0.4623114541172981,-0.1318409964442253,-0.163787193596363,0.4218511837047023,0.2472326159477234,0.3411941230297088,-0.0205188989639282,12.819938963734783,-1.635351842501212,0.1652392378621115,-2.5
1.66,0.8468742966651917,0.2296606302261352,1.8573158979415891,-0.0182841269542661,0.1556542639650735,0.0065112729427086,-0.3613699972629547,-0.1150744780898094,-0.1628369092941284,0.8569873049855232,0.2326754406094551,1.8618232309818268,-0.4623114541172981,-0.1318409964442253,-0.163787193596363,0.2812248751193589,-0.0514313578605651,0.2062451094388961,-0.1841336488723755,12.641524369552371,-1.6287260307652898,0.1637294329896973,-2.5
1.68,0.8390483856201172,0.2274014502763748,1.8537509441375728,-0.0216555223684161,0.1657302774825331,0.0028725780843128,-0.3570891916751861,-0.1074885204434394,-0.1618015766143798,0.8523641904443502,0.2313570306450128,1.8601853590458632,-0.4823114544153213,-0.1330943316221237,-0.1645866483449936,0.4385885419460483,0.2140402793884277,0.3792978823184967,0.0517666339874267,11.94211875497058,-1.674568262935827,0.1359034063198803,-2.5
1.7,0.831264853477478,0.2253966778516769,1.8500795364379885,-0.0255974295439539,0.1641454066286101,0.0067869258612635,-0.3512124717235565,-0.095938928425312,-0.1628181338310241,0.8431179613620042,0.2287202107161283,1.856909615173936,-0.5223114550113678,-0.1356010019779205,-0.1661855578422546,0.6499274993216292,0.2938359975814819,0.5774796009063721,-0.0508278608322143,12.013436775908758,-1.6795181469651208,0.131329599737115,-2.4725003274744184
1.72,0.8237634897232056,0.223445639014244,1.846466302871704,-0.0234558302696137,0.170056939876722,0.0068835892873802,-0.3439101576805115,-0.0890057533979415,-0.1639044284820556,0.8338717322796583,0.2260833907872438,1.8536338713020089,-0.5623114556074142,-0.1381076723337173,-0.1677844673395156,0.5063910110089479,0.3651157021522522,0.3466587513685226,-0.0543147325515747,12.132439077165143,-1.6676589031211944,0.14489921118697,-2.3701022129393032
1.74,0.8164443969726562,0.2218507528305053,1.8426775932312007,-0.0194993613658803,0.1761504834855919,0.0070900767599838,-0.33346027135849,-0.0797833129763603,-0.1665437221527099,0.82262550316751,0.2233212373405695,1.8502781819552183,-0.6023114562034607,-0.1406143426895141,-0.1693833768367767,0.7092591249901964,0.5224943161010742,0.4611220210790634,-0.1319646835327148,12.013657737406902,-1.675448389717879,0.136477275993953,-2.420339732386904
1.76,0.8129026293754578,0.2211260497570037,1.840827703475952,-0.0171774956550649,0.1773231049265574,0.0068780169510699,-0.3238418698310852,-0.0744551047682762,-0.1650363206863403,0.8113792740553617,0.2205590838938951,1.846922492608428,-0.6423114567995072,-0.1431210130453109,-0.1709822863340377,0.5549227645174841,0.4809200763702392,0.2664104104042053,0.0753700733184814,11.712035646751248,-1.6728032494587688,0.1449479206447994,-2.4509245329969884
1.78,0.8059042692184448,0.219653308391571,1.8367115259170528,-0.0037992178666938,0.1793140399573623,0.0025252582827042,-0.3167501091957092,-0.0661935657262802,-0.1742336153984069,0.7991330449283123,0.2177342636883259,1.843526830524206,-0.6823114573955535,-0.1456276834011078,-0.1725811958312988,0.712629508006267,0.3545880317687988,0.4130769520998001,-0.4598647356033325,11.658388742706848,-1.6730519024733457,0.1276435019122382,-2.4010693815252315
1.8,0.799089789390564,0.2183507531881332,1.832894325256348,-0.0031072784570583,0.1711661307391553,0.0071828646431169,-0.3107888996601105,-0.0624441727995872,-0.178501009941101,0.7858868157863617,0.2148467767238617,1.8400911957025528,-0.7223114579916,-0.1481343537569046,-0.1741801053285598,0.411717811823414,0.2980604767799377,0.1874696463346481,-0.2133697271347046,11.885303804200705,-1.6831637756342035,0.1571627069652753,-2.401121432012704
1.82,0.7923716306686401,0.2170220762491226,1.8287891149520876,0.0054236332987929,0.1610873014628316,0.0060475326823929,-0.3044843673706054,-0.0592027232050895,-0.1782542467117309,0.7835503444075584,0.2152285445481538,1.8239692747592928,-0.4107889011502266,-0.0891598742455244,-0.1795856088865548,0.3546653879167291,0.3152266144752502,0.162072479724884,0.0123381614685058,12.620160590628076,-1.6859211848662383,0.1580491441270754,-2.3740515429469418
1.84,0.7859076261520386,0.2159618139266967,1.82472825050354,0.011327097499149,0.1478221803461853,0.0051432381025666,-0.2965986728668213,-0.0537511333823204,-0.1837366819381714,0.7835503444075584,0.2152285445481538,1.8239692747592928,-0.4107889011502266,-0.0891598742455244,-0.1795856088865548,0.5521800100846808,0.394284725189209,0.2725794911384582,-0.2741217613220215,14.374741406670182,-1.678429186816402,0.1640180153078348,-2.342585311950783
1.86,0.782849133014679,0.2153146564960479,1.822791337966919,0.0148878784190668,0.1348462524799492,0.0062222997154131,-0.2882717549800873,-0.0535305216908454,-0.1807808876037597,0.7835503444075584,0.2152285445481538,1.8239692747592928,-0.4107889011502266,-0.0891598742455244,-0.1795856088865548,0.4419359432037805,0.4163458943367004,0.0110305845737457,0.147789716720581,13.940214298351748,-1.64066556755061,0.1879466177613936,-2.321763031163542
1.88,0.7762628793716431,0.2142858356237411,1.8189947605133057,0.0239675228035438,0.1147732990896236,0.0023228760132286,-0.2897737920284271,-0.0500848889350891,-0.175955593585968,0.7794424553960562,0.2143369458056986,1.822173418670427,-0.4307889014482498,-0.0945030145347118,-0.1798025286756455,0.3058265960485761,-0.0751018524169921,0.1722816377878189,0.2412647008895874,13.484337428098115,-1.573168742494951,0.1912539227270125,-2.207024449678774
1.9,0.7698264718055725,0.2130948305130005,1.8153239488601685,0.0225307720536171,0.1008199740147735,0.0060211179169735,-0.293009877204895,-0.0499460846185684,-0.168016254901886,0.7712266773730516,0.2125537483207881,1.818581706492696,-0.4707889020442962,-0.1051892951130867,-0.1802363682538271,0.4287324709192243,-0.1618042588233947,0.0069402158260345,0.3969669342041015,12.730813323639268,-1.555679222421546,0.2226969067538767,-2.1504570457659624
1.92,0.763507604598999,0.2118770778179168,1.8124786615371704,0.0230678850058593,0.0921070640176956,0.0046878954248743,-0.2869936823844909,-0.0541970506310462,-0.1466122269630432,0.7630108993500471,0.2107705508358776,1.8149899943149648,-0.5107889026403427,-0.1158755756914615,-0.1806702078320086,1.1318101918641887,0.3008097410202026,-0.2125483006238937,1.070201396942139,12.986215935057317,-1.533208109883904,0.2319902457087534,-2.152655028693627
1.94,0.7567690014839172,0.2106585949659347,1.8095815181732176,0.0255115433856666,0.0908426401195357,0.0038340285483737,-0.2937930822372436,-0.054815299808979,-0.1292046904563903,0.7527951212972402,0.2084530393220484,1.8113765901583243,-0.5507889032363892,-0.1265618562698364,-0.1811040474101901,0.93492833633664,-0.3399699926376343,-0.0309124588966369,0.8703768253326416,12.253714000035416,-1.4845381820791756,0.2090834986058324,-2.352096862022382
1.96,0.7532644867897034,0.2100829482078552,1.80790376663208,0.0282121783959986,0.0929063449857432,0.0036690819924276,-0.2998709678649902,-0.05340076982975,-0.1353093981742859,0.7425793432444334,0.2061355278082192,1.8077631860016845,-0.5907889038324357,-0.1372481368482113,-0.1815378869883716,0.4364889605907547,-0.3038942813873291,0.0707264989614486,-0.3052353858947754,12.509003478231987,-1.4972392681423174,0.2219134465940177,-2.449728403851268
1.98,0.7463691234588623,0.2086208313703537,1.805432200431824,0.0308555045163214,0.1004133359288983,0.0004026852136185,-0.3077057003974914,-0.0606266409158706,-0.120624303817749,0.7313635651767254,0.2035508592799305,1.8041389358555897,-0.630788904428482,-0.1479344174265861,-0.1819717265665531,0.9072599449295908,-0.391736626625061,-0.3612935543060303,0.7342547178268433,12.207023632417531,-1.4938906024612386,0.2543136827730042,-2.5
2.0,0.7393695116043091,0.2073281109333038,1.8026410341262815,0.0269308109076235,0.0942962032738103,0.0036480404544955,-0.3126369416713714,-0.0619838386774063,-0.1184114813804626,0.7191477870941162,0.2006990337371826,1.8005038397200406,-0.6707889050245285,-0.158620698004961,-0.1824055661447346,0.2786382484696469,-0.2465620636940002,-0.0678598880767822,0.1106411218643188,12.076952471509683,-1.5179670287189997,0.2242474813108425,-2.5
2.02,0.7322232127189636,0.2059083431959152,1.799976110458374,0.0258804396996705,0.0949873701804125,0.0025454467739048,-0.3182829916477203,-0.0610309839248657,-0.1227620244026184,0.7309838384389877,0.2055894993245601,1.7994009852409365,-0.4077057018876076,-0.0798198990523815,-0.1445932034403085,0.3595588863541566,-0.2823024988174438,0.0476427376270294,-0.217527151107788,12.08248400891307,-1.5080367846614482,0.2316104923722448,-2.5
2.04,0.7247524261474609,0.2043944150209427,1.79717218875885,0.0265582511887153,0.0924547617505152,0.0019828400348511,-0.3288844227790832,-0.0660081580281257,-0.1230490207672119,0.7309838384389877,0.2055894993245601,1.7994009852409365,-0.4077057018876076,-0.0798198990523815,-0.1445932034403085,0.585757993971237,-0.5300715565681458,-0.248858705163002,-0.0143498182296752,13.184879410392114,-1.4970137293516728,0.2482379336805535,-2.5
2.06,0.7210670709609985,0.2036724388599395,1.795898199081421,0.0271438598627065,0.0895749037108908,0.0020993942571348,-0.3324919939041137,-0.0672423094511032,-0.1225662231445312,0.7309838384389877,0.2055894993245601,1.7994009852409365,-0.4077057018876076,-0.0798198990523815,-0.1445932034403085,0.1921639449887602,-0.1803785562515258,-0.0617075711488723,0.0241398811340332,12.94800403492536,-1.5212853228845402,0.2278169220056198,-2.5
2.08,0.7134860754013062,0.2021569460630417,1.7932977676391602,0.0330506410682163,0.0918906091595453,-0.0002994732461667,-0.340275764465332,-0.0677881389856338,-0.1208657026290893,0.7269067814201117,0.2047913003340363,1.7979550532065331,-0.4277057021856308,-0.0836585506796836,-0.1493869833648204,0.3993018408857288,-0.3891885280609131,-0.0272914767265319,0.0850260257720947,13.632474556492523,-1.4944787436542386,0.2298877458110016,-2.5
2.1,0.7057465314865112,0.2005508691072464,1.7909101247787476,0.0281202450244601,0.0880680334010593,0.0017040992726916,-0.3447121381759643,-0.0702353194355964,-0.1122316718101501,0.7187526673823594,0.2031949023529887,1.795063189137727,-0.4677057027816772,-0.091335853934288,-0.1589745432138443,0.5005411872100559,-0.2218186855316162,-0.1223590224981308,0.4317015409469604,12.646587532360629,-1.496180113205836,0.2459161001845334,-2.5
2.12,0.697831392288208,0.1989191770553589,1.7886494398117063,0.027817481420029,0.0994316615684683,0.0035240267183673,-0.3522303700447082,-0.072849802672863,-0.1045873761177063,0.7105985533446073,0.2015985043719411,1.7921713250689209,-0.5077057033777237,-0.0990131571888923,-0.1685621030628681,0.5518029305459958,-0.3759115934371948,-0.130724161863327,0.3822147846221924,11.847147169899015,-1.4658379581794705,0.2430636958183793,-2.425369773434496
2.14,0.6898757815361023,0.197182297706604,1.786535382270813,0.0239187323907434,0.113157273094978,0.0032583493104747,-0.357091873884201,-0.0757928565144538,-0.0984317064285278,0.7004444392770528,0.1996182412281632,1.7888000830076636,-0.5477057039737702,-0.1066904604434967,-0.1781496629118919,0.4188915576201572,-0.2430751919746399,-0.147152692079544,0.3077834844589233,12.316133682874806,-1.494737157455168,0.2387016152360972,-2.4956956249008484
2.16,0.6858412027359009,0.1964208632707595,1.785311937332153,0.0230164894619231,0.1204913251153688,0.0037806146778264,-0.3584423661231994,-0.0744809210300445,-0.1020178198814392,0.6902903252094984,0.1976379780843854,1.785428840946406,-0.5877057045698166,-0.114367763698101,-0.1877372227609157,0.2025167505417715,-0.0675246119499206,0.0655967742204666,-0.1793056726455688,11.332887907357872,-1.5250814758923223,0.2255655351840814,-2.5
2.18,0.6778951287269592,0.1946740001440048,1.7830501794815063,0.0206154916673073,0.1462579695825591,0.0008032926425988,-0.3591813147068023,-0.0758716464042663,-0.1003763079643249,0.6791362111270427,0.1954657823592424,1.781817909888923,-0.627705705165863,-0.1220450669527053,-0.1973247826099395,0.1137400924228264,-0.0369474291801452,-0.06953626871109,0.0820755958557128,11.222137556165762,-1.5411802222390187,0.2448904420226814,-2.5
2.2,0.6699037551879883,0.1929550617933273,1.7807824611663818,0.0173849741476138,0.14567774152677,0.0043899504833705,-0.3585925698280334,-0.0779805332422256,-0.1019132137298584,0.6669820970296859,0.1931016540527343,1.7779672898352146,-0.6677057057619095,-0.1297223702073097,-0.2069123424589634,0.1337544724460131,0.029437243938446,-0.1054443418979644,-0.0768452882766723,11.340833550800198,-1.57948017860307,0.2383869937241488,-2.5
2.22,0.6620398759841919,0.1911837011575698,1.7779998779296875,0.0156549417917903,0.1520605581226552,0.004673123563092,-0.356743186712265,-0.078531727194786,-0.113631784915924,0.6599360629916191,0.1908804178237915,1.77803136408329,-0.4415787756443023,-0.0960104539990425,-0.107001616153866,0.5938201396995499,0.0924691557884216,-0.0275596976280212,-0.5859285593032837,10.988821966401702,-1.596099310608957,0.2191823599616159,-2.5
2.24,0.654143750667572,0.1897520571947097,1.7752264738082886,0.0132739985917771,0.1535620170190718,0.0045730261535848,-0.3546001017093658,-0.0720676034688949,-0.1250097155570984,0.6599360629916191,0.1908804178237915,1.77803136408329,-0.4415787756443023,-0.0960104539990425,-0.107001616153866,0.6630139790167571,0.1071542501449585,0.3232061862945556,-0.5688965320587158,11.925837425417283,-1.6137035473074206,0.2118859148488645,-2.5
2.26,0.650391161441803,0.1889118105173111,1.7738518714904783,0.0121849468926522,0.1520243809866612,0.0055594229764504,-0.3483143448829651,-0.0734445825219154,-0.1267638802528381,0.6599360629916191,0.1908804178237915,1.77803136408329,-0.4415787756443023,-0.0960104539990425,-0.107001616153866,0.3334812737354251,0.3142878413200378,-0.0688489526510238,-0.0877082347869873,12.84046920587707,-1.6159843523891533,0.2427141635052915,-2.5
2.28,0.6426675319671631,0.1873563528060913,1.7710050344467163,0.0109097541820045,0.1502058063663442,0.0004748272460233,-0.346156507730484,-0.0696884840726852,-0.1273566484451294,0.6555202752351761,0.189920313283801,1.7769613479217514,-0.4580582678318023,-0.1000382155179977,-0.1083266777917742,0.2186087307653182,0.1078918576240539,0.1878049224615097,-0.0296384096145629,12.698602226824278,-1.5847214326595802,0.2223337099221126,-2.4077706238805163
2.3000000000000003,0.6349426507949829,0.1858674436807632,1.7678658962249756,0.0081898426208253,0.1460735110269505,0.0043634906977256,-0.3475914895534515,-0.0684982538223266,-0.1346844434738159,0.64668869972229,0.1880001042038202,1.774821315598674,-0.4910172522068023,-0.1080937385559082,-0.1109768010675907,0.3780621670557594,-0.0717490911483764,0.059511512517929,-0.3663897514343261,12.102277449451776,-1.5833955954773808,0.2327919639358969,-2.286196740475689
2.32,0.6276372671127319,0.1843446642160415,1.7650824785232544,0.002982830467061,0.1470520228995412,0.0034106276984754,-0.3381809592247009,-0.0677629932761192,-0.133257508277893,0.637857124209404,0.1860798951238393,1.7726812832755967,-0.5239762365818024,-0.1161492615938186,-0.1136269243434071,0.4773228288917986,0.4705265164375305,0.0367630273103714,0.0713467597961425,11.80509792983048,-1.5848695636855843,0.2254311869972122,-2.156166419818957
2.34,0.6203755736351013,0.1830401271581649,1.7620161771774292,0.0025688154368159,0.1509594591358414,0.0036274132433969,-0.3277592360973358,-0.063614621758461,-0.1316186785697937,0.6273775994777679,0.183756909891963,1.770408744788729,-0.5569352209568024,-0.1242047846317291,-0.1162770476192236,0.5668047768061857,0.5210861563682556,0.2074185758829116,0.0819414854049682,12.509489080997357,-1.548296507260867,0.2044661828138463,-2.130899845510592
2.36,0.6166859865188599,0.1822841316461563,1.7607715129852295,0.0004877869507481,0.1517614224094385,0.0040741008542527,-0.324682742357254,-0.0631103664636612,-0.1296392083168029,0.6168980747461319,0.1814339246600866,1.7681362063018604,-0.5898942053318024,-0.1322603076696396,-0.11892717089504,0.1846441822639642,0.1538246870040893,0.0252127647399902,0.0989735126495361,11.987118505816852,-1.5268265785723591,0.2102089339469847,-2.2002252054618285
2.38,0.6093995571136475,0.1810143142938614,1.7576899528503418,0.0070456011122807,0.1586995659944022,0.0015835941675456,-0.3272402286529541,-0.0599446892738342,-0.1341050863265991,0.6055945754051208,0.1789095513522625,1.7657974147330968,-0.6228531897068024,-0.14031583070755,-0.1215772941708564,0.3021022782985308,-0.1278743147850036,0.1582838594913482,-0.2232939004898071,11.927162125502493,-1.562179698389796,0.1826953516794722,-2.2754295730435463
2.4,0.6023633480072021,0.179959550499916,1.754826307296753,0.0058769657270446,0.1520601482967423,0.0052254114400072,-0.3222593665122986,-0.0523030757904052,-0.1337671279907226,0.5934671014547348,0.1761837899684906,1.763392370082438,-0.6558121740818024,-0.1483713537454605,-0.1242274174466729,0.4563919919628494,0.2490431070327758,0.3820806741714477,0.0168979167938232,11.863952109518324,-1.6155716319058313,0.1915305937189336,-2.2750284328747243
2.42,0.5952968597412109,0.1789194047451019,1.751918077468872,0.011416741204165,0.1464855546194437,0.0065804988292617,-0.3173106908798218,-0.0471354648470878,-0.1298671960830688,0.5930375456809998,0.1780170798301696,1.7509846985340118,-0.396500326693058,-0.0825817845761776,-0.1136928331106901,0.4074403706718931,0.2474337816238403,0.2583805471658706,0.1949965953826904,12.021911096178885,-1.6048270318308815,0.2209350773586616,-2.219705010204416
2.44,0.5883128643035889,0.1777378618717193,1.7489726543426514,0.0173295781726287,0.1364609231310147,0.0066795946864487,-0.3161358833312988,-0.0499879941344261,-0.1317071914672851,0.5930375456809998,0.1780170798301696,1.7509846985340118,-0.396500326693058,-0.0825817845761776,-0.1136928331106901,0.1796014972454734,0.0587403774261474,-0.1426264643669128,-0.0919997692108154,13.683327087932868,-1.592569990750082,0.2446455306155844,-2.2123999542446486
2.46,0.5849967002868652,0.1771629899740219,1.7475532293319702,0.0204057592777634,0.1293337550664481,0.0057053445257835,-0.3129266202449798,-0.0499913468956947,-0.1313585042953491,0.5930375456809998,0.1780170798301696,1.7509846985340118,-0.396500326693058,-0.0825817845761776,-0.1136928331106901,0.1614075861142409,0.1604631543159485,-0.0001676380634307,0.0174343585968017,13.286495867296708,-1.596045038346959,0.2190320786770166,-2.226067938575009
2.48,0.5781174898147583,0.1762215495109558,1.744585037231445,0.0339755935000536,0.1172762035918084,0.0033460420619015,-0.308254212141037,-0.0472256541252136,-0.1304277777671814,0.5890725424140691,0.1771912619844079,1.749847770202905,-0.4103523463010788,-0.0871092036366462,-0.1096103824675083,0.2754392213389264,0.2336204051971435,0.1382846385240554,0.0465363264083862,13.27594968206904,-1.5685629427832992,0.2207165775913079,-2.1965436353728736
2.5,0.5712475180625916,0.1750625669956207,1.7422316074371338,0.0299776502255038,0.1100737152477313,0.0062792882531695,-0.3093566000461578,-0.0472595170140266,-0.1197364926338195,0.581142535880208,0.1755396262928843,1.7475739135406911,-0.4380563855171203,-0.0961640417575836,-0.1014454811811447,0.5374011155353116,-0.0551193952560424,-0.0016931444406509,0.5345642566680908,13.3364754592003,-1.5173936001862942,0.2581774356272912,-2.1619600431140955
2.52,0.5643105506896973,0.1740275025367736,1.7400286197662354,0.0317575215965756,0.110013190333469,0.0065884069116964,-0.3106561303138733,-0.0493660569190979,-0.1025193929672241,0.5732125293463468,0.1738879906013608,1.7453000568784771,-0.4657604247331619,-0.1052188798785209,-0.0932805798947811,0.8697051371267271,-0.0649765133857727,-0.1053269952535629,0.860854983329773,13.210062412808838,-1.4997229566656898,0.2682711052401146,-2.09377328893956
2.54,0.5572755932807922,0.1727625429630279,1.7379316091537476,0.0287459067784818,0.1124019726723439,0.0060258966660601,-0.3143683075904846,-0.0517505407333374,-0.0967499613761901,0.5638973208516835,0.1717836130037903,1.7434344452805817,-0.4934644639492034,-0.1142737179994583,-0.0851156786084175,0.3631541135557328,-0.1856088638305664,-0.1192241907119751,0.2884715795516968,13.00972101170828,-1.5092816134628912,0.2727748631309145,-2.200387390576969
2.56,0.5538566708564758,0.1722896546125412,1.7368297576904297,0.0291715984692709,0.114266524901643,0.0065970812955058,-0.3112073242664337,-0.0534369796514511,-0.0981500744819641,0.5545821123570204,0.1696792354062199,1.741568833682686,-0.5211685031652451,-0.1233285561203956,-0.0769507773220539,0.1923292002558136,0.1580491662025451,-0.0843219459056854,-0.0700056552886962,12.492133113487398,-1.5287306137279577,0.269547686481871,-2.307569910610387
2.58,0.5468211770057678,0.1709850430488586,1.7348428964614868,0.0294642027826827,0.1316004743471292,0.0021767333312018,-0.3145225346088409,-0.0546885654330253,-0.0926032662391662,0.5445743028819561,0.1673484868556261,1.7399073446169495,-0.5488725423812866,-0.132383394241333,-0.0687858760356903,0.3291054856175024,-0.1657605171203613,-0.0625792890787124,0.2773404121398926,12.828518442195218,-1.506686991660668,0.2718295991736692,-2.442411837637151
2.6,0.5398172736167908,0.1697216928005218,1.7327427864074707,0.0261174478072885,0.1280347164371548,0.0056670031476122,-0.3158864378929138,-0.0577791407704353,-0.0919568538665771,0.5338738924264907,0.1647913673520088,1.7384499780833722,-0.5765765815973282,-0.1414382323622703,-0.0606209747493267,0.1719719238709318,-0.0681951642036438,-0.1545287668704986,0.0323206186294555,12.20654676686263,-1.5553111186177209,0.2780972645116917,-2.5
2.62,0.5363590717315674,0.1690221577882766,1.7317845821380615,0.0283950954489942,0.1382030303676016,0.0017724823916306,-0.3132404386997223,-0.0568779185414314,-0.0895670056343078,0.5240229517221451,0.166832735762,1.7281449437141418,-0.3610187880694866,-0.0701625384390354,-0.0850029899738729,0.1838809928302924,0.1322999596595764,0.0450611114501953,0.1194924116134643,12.480965637153076,-1.5778948263069852,0.2658260069200337,-2.5
2.64,0.5257522463798523,0.167120948433876,1.72894024848938,0.0263451764163013,0.1327657118652241,0.0054946692310991,-0.3164631128311157,-0.0585167482495307,-0.0855571031570434,0.5240229517221451,0.166832735762,1.7281449437141418,-0.3610187880694866,-0.0701625384390354,-0.0850029899738729,0.2699569838255378,-0.1611337065696716,-0.0819414854049682,0.2004951238632202,13.045913429961274,-1.561416597213931,0.2930258105238628,-2.5
2.66,0.522267758846283,0.1664924621582031,1.7278449535369873,0.0266170748009821,0.1318267677644743,0.0052770476598749,-0.3170545399188995,-0.0569181516766548,-0.0886416435241699,0.5240229517221451,0.166832735762,1.7281449437141418,-0.3610187880694866,-0.0701625384390354,-0.0850029899738729,0.1762078763804836,-0.0295713543891906,0.0799298286437988,-0.1542270183563232,12.239118614584186,-1.591505654220779,0.2863865999435123,-2.5
