t,x,y,z,roll,pitch,yaw,v_x,v_y,v_z,ref_x,ref_y,ref_z,ref_v_x,ref_v_y,ref_v_z,a_com,a_x,a_y,a_z,thrust,wind_x,wind_y,wind_z
0.0,-0.2985478043556213,0.5506209135055542,2.6988213062286377,0.0248610628630445,0.0977843291978188,0.0002240216608289,0.0853941589593887,-0.0059129297733306,-0.0481188297271728,-0.298830185085535,0.5511812269687653,2.697436213493347,-0.0074322745203971,-0.0950593724846839,-0.1832343116402626,0.6869422940126192,-0.4062205553054809,-0.1575797796249389,0.5310773849487305,12.895462277718709,-1.6623881563937672,0.1211907814131802,-2.5
0.02,-0.2966382503509521,0.5504972338676453,2.69816517829895,0.0238478984538214,0.0889659715836544,-1.3253420279976357e-05,0.0833523273468017,-0.0044846534729003,-0.0376689434051513,-0.298904507830739,0.5502306332439184,2.6956038703769445,-0.0274322748184204,-0.1150593727827072,-0.2032343119382858,0.5371433087819816,-0.1020915806293487,0.0714138150215148,0.5224943161010742,12.846292610683577,-1.6639842822569142,0.1322470843801275,-2.5
0.04,-0.2953152358531952,0.5501558780670166,2.6975786685943604,0.0249719753861171,0.0855701752213894,-0.0006631004018215,0.0727327913045883,-0.0104632973670959,-0.0279593467712402,-0.2990531533211469,0.5483294457942247,2.69193918414414,-0.0674322754144668,-0.1550593733787536,-0.2432343125343322,0.7790940176877411,-0.530976802110672,-0.2989321947097778,0.4854798316955566,12.541155161461576,-1.6047539338302643,0.1709151883986968,-2.5
0.06,-0.2938337624073028,0.5498459339141846,2.6969761848449707,0.0251831084875224,0.0809029828239645,-0.0010093892154711,0.063100978732109,-0.0146542489528656,-0.0267523527145385,-0.2992017988115549,0.546428258344531,2.688274497911334,-0.1074322760105133,-0.1950593739748001,-0.2832343131303787,0.5286603902283289,-0.4815906286239624,-0.2095475792884826,0.060349702835083,11.469626806146152,-1.597210854572023,0.1592668760800791,-2.5
0.08,-0.2934171557426452,0.5496600270271301,2.696610927581787,0.0276992657345002,0.0802988989845216,-0.0004871473403286,0.0560548156499862,-0.0143632292747497,-0.0294721126556396,-0.3013504443317651,0.542527070865035,2.6826098116487267,-0.1474322766065597,-0.2350593745708465,-0.3232343137264251,0.377922613672889,-0.3523081541061401,0.0145509839057922,-0.1359879970550537,11.025749991814791,-1.5979856396690817,0.1526728369332083,-2.5
0.1,-0.2925620377063751,0.5492189526557922,2.6960248947143555,0.0319429808732066,0.0770427738552752,2.306456619849994e-05,0.0458932667970657,-0.0167262554168701,-0.0314730405807495,-0.3034990898519754,0.5386258833855391,2.676945125386119,-0.1874322772026062,-0.275059375166893,-0.3632343143224716,0.5311418835869548,-0.5080774426460266,-0.118151307106018,-0.1000463962554931,11.025749991814791,-1.6093816412679154,0.1810947728353032,-2.5
0.12,-0.2919950783252716,0.5485510230064392,2.6948764324188232,0.0415487320496595,0.0739979105856372,0.0011717308389179,0.0319967418909072,-0.0249525904655456,-0.039026141166687,-0.3066477353870868,0.5337246958911419,2.6702804391086103,-0.2274322777986526,-0.3150593757629394,-0.4032343149185181,0.891396826982572,-0.6948262453079224,-0.4113167524337768,-0.377655029296875,11.76536891153546,-1.5762242572814258,0.1993916042102373,-2.5
0.14,-0.2918581068515777,0.5480031967163086,2.6935360431671143,0.0529856783975777,0.0690319129504875,0.0008521173856531,0.0158384442329406,-0.0273545086383819,-0.0559991598129272,-0.3107963809370994,0.5278235083818436,2.6626157528162,-0.2674322783946991,-0.3550593763589859,-0.4432343155145645,1.177861575141652,-0.8079148828983307,-0.1200959086418151,-0.8486509323120117,10.5115408999186,-1.5903736624038023,0.2217926675400104,-2.5
0.16,-0.2918847203254699,0.5469497442245483,2.691686153411865,0.0673577257770597,0.0609443055250453,0.000679333557894,0.0024830549955368,-0.0360287725925445,-0.0717812776565551,-0.2903952412307262,0.5473033934831619,2.692925125360489,-0.0680032595992088,-0.1249525919556617,-0.1390261426568031,1.121031356005717,-0.6677694618701935,-0.4337131977081299,-0.7891058921813965,10.507095176288203,-1.5903736624038023,0.2217926675400104,-2.5
0.18,-0.2923569083213806,0.5457108020782471,2.6891558170318604,0.088626452967556,0.0511513269919947,0.0009443804481539,-0.0112230330705642,-0.0515788793563842,-0.0985550880432128,-0.2903952412307262,0.5473033934831619,2.692925125360489,-0.0680032595992088,-0.1249525919556617,-0.1390261426568031,1.6929999948783467,-0.6853044033050537,-0.7775053381919861,-1.3386905193328855,10.259158285728065,-1.5787266745901196,0.2250669609433477,-2.5
0.2,-0.2926046848297119,0.5450983047485352,2.6878137588500977,0.0996462395320945,0.0429791799873767,0.0009105538025002,-0.0176703929901123,-0.0523781776428222,-0.1114618778228759,-0.2903952412307262,0.5473033934831619,2.692925125360489,-0.0680032595992088,-0.1249525919556617,-0.1390261426568031,0.7224827854338687,-0.3223679959774017,-0.0399649143218994,-0.6453394889831543,14.662999893641429,-1.521117886927543,0.2281845939264906,-2.5
0.22,-0.29365074634552,0.5433802008628845,2.684939384460449,0.1193936888109505,0.0342507261021349,0.0033047503901612,-0.0349243730306625,-0.0649188458919525,-0.1221102476119995,-0.2910752738267183,0.5460538675636053,2.6915348639339207,-0.088003259897232,-0.1449525922536849,-0.1590261429548263,1.1920108709029966,-0.8626990020275116,-0.6270334124565125,-0.5324184894561768,13.442097186155934,-1.4783415364215915,0.3246652621154813,-2.5
0.24,-0.2950773239135742,0.5409848690032959,2.6824259757995605,0.1281431112961036,0.034500817261822,0.0043172776097625,-0.0556343793869018,-0.0925523042678833,-0.1212251186370849,-0.2924353390187025,0.543554815724492,2.688754341080785,-0.1280032604932785,-0.1849525928497314,-0.1990261435508728,1.7272057190676546,-1.035500317811966,-1.3816729187965393,0.0442564487457275,12.98395355521643,-1.454740205835791,0.3597241063787321,-2.5
0.26,-0.2969302535057068,0.5382243394851685,2.6802237033843994,0.1249153651828633,0.0402420308261882,0.0053672223491044,-0.0737889111042022,-0.1160068809986114,-0.1061028242111206,-0.2937954042106867,0.5410557638853788,2.685973818227649,-0.1680032610893249,-0.2249525934457779,-0.2390261441469192,1.6646230655899503,-0.9077265858650208,-1.1727288365364077,0.7561147212982178,12.118588742180693,-1.4474198904518016,0.3091901693230478,-2.393013141664301
0.28,-0.2992761433124542,0.5349248051643372,2.677884817123413,0.1137248617984958,0.0515588591431226,0.0059308051965539,-0.0944734364748001,-0.1363514363765716,-0.1021760702133178,-0.2971554694324732,0.5365567120164633,2.6811932953447104,-0.2080032616853714,-0.2649525940418243,-0.2790261447429656,1.46387321880436,-1.034226268529892,-1.0172277688980105,0.1963376998901367,12.3417441826723,-1.4372910613795435,0.2805330910882088,-2.0605478401539834
0.3,-0.3005447387695312,0.5329805612564087,2.676778793334961,0.1051258916873739,0.0581557153439465,0.0045727458657968,-0.1030075550079345,-0.151110291481018,-0.101172924041748,-0.3005155346542597,0.5320576601475477,2.676412772461772,-0.2480032622814179,-0.3049525946378708,-0.3190261453390122,0.8539046863865547,-0.426705926656723,-0.7379427552223206,0.0501573085784912,11.4201430037524,-1.4909030825859255,0.3205165305732952,-2.382338929884132
0.32,-0.3033997416496277,0.529069185256958,2.674448251724243,0.0852149636688171,0.0732213817650637,0.0047695479146025,-0.1204057037830352,-0.168827623128891,-0.1023584604263305,-0.3048755998909473,0.526558608263731,2.6706322495639325,-0.2880032628774643,-0.3449525952339172,-0.3590261459350586,1.242985235270744,-0.8699074387550354,-0.8858665823936462,-0.0592768192291259,11.4201430037524,-1.4367514173234297,0.3627157160596236,-2.4289669307227184
0.34,-0.3066431283950805,0.5248986482620239,2.6720495223999023,0.07312960079123,0.0883870079018628,0.0056703447975493,-0.1372137665748596,-0.1818430423736572,-0.1064085960388183,-0.3102356651425361,0.5200595563650131,2.663851726651192,-0.3280032634735107,-0.3849525958299636,-0.399026146531105,1.082030165257054,-0.840403139591217,-0.6507709622383118,-0.2025067806243896,11.207636572383764,-1.4882795372654292,0.3426901046627179,-2.5
0.36,-0.309964507818222,0.5203253626823425,2.669198036193848,0.0514963927578401,0.093783920692239,0.0043606934041471,-0.1477072387933731,-0.1967360079288482,-0.1181298494338989,-0.3135038167238235,0.5158064961433411,2.666729092597961,-0.1900182254612445,-0.2818430438637733,-0.2064085975289344,1.0831679964120395,-0.5246736109256744,-0.744648277759552,-0.5860626697540283,10.579693994061929,-1.5361657543687093,0.3350427357744805,-2.5
0.38,-0.3135015964508056,0.5156128406524658,2.665868759155273,0.0434873921402379,0.1013314889468499,0.0041982089058872,-0.1543155312538147,-0.2089306712150573,-0.1390671730041504,-0.3135038167238235,0.5158064961433411,2.666729092597961,-0.1900182254612445,-0.2818430438637733,-0.2064085975289344,1.255737691749508,-0.3304146230220794,-0.6097331643104553,-1.0468661785125732,13.61135730992146,-1.5450470459062908,0.271333029305497,-2.5
0.4,-0.3153547346591949,0.5133020281791687,2.66410756111145,0.0428333806633878,0.1035179825580299,0.0044174498308696,-0.1585963368415832,-0.2079221606254577,-0.1498067378997802,-0.3135038167238235,0.5158064961433411,2.666729092597961,-0.1900182254612445,-0.2818430438637733,-0.2064085975289344,0.5802599508777311,-0.2140402793884277,0.0504255294799804,-0.5369782447814941,13.61135730992146,-1.5844889940625526,0.2041424001347297,-2.5
0.42,-0.319151908159256,0.5083625912666321,2.660307645797729,0.0413345064915795,0.1071256976796804,0.0060018893647476,-0.1673812419176101,-0.2185919880867004,-0.1637434959411621,-0.315403998978436,0.5129880657047033,2.664665006622672,-0.2005791172385215,-0.3018430441617966,-0.2264085978269576,0.9813931423638452,-0.4392452538013458,-0.5334913730621338,-0.6968379020690918,12.217023742910442,-1.5587278174384165,0.2457145231746417,-2.5
0.44,-0.3228798806667328,0.5033252239227295,2.6563220024108887,0.0386733182047908,0.1154730650623924,0.0069890445282817,-0.1693157851696014,-0.2244780957698822,-0.1751750707626342,-0.3192043634876609,0.5073512048274278,2.6605368346720937,-0.2217009007930755,-0.341843044757843,-0.2664085984230041,0.6501338788102662,-0.0967271625995636,-0.2943053841590881,-0.5715787410736084,12.113281762010049,-1.5446124283715048,0.2196107055672596,-2.4592926806132533
0.46,-0.3267987668514251,0.4982133209705353,2.6525585651397705,0.0305977972683922,0.1247957396413283,0.0067703694951047,-0.1720543205738067,-0.228358581662178,-0.1743543148040771,-0.3230047279968858,0.5017143439501524,2.656408662721515,-0.2428226843476295,-0.3818430453538894,-0.3064085990190506,0.2409947471621532,-0.1369267702102661,-0.1940242946147918,0.0410377979278564,12.381940635525098,-1.5271638683024915,0.2080733985922263,-2.391590529661898
0.48,-0.3288370668888092,0.495734691619873,2.6504297256469727,0.0278341989246839,0.1319600306208672,0.0065647856645611,-0.1771122962236404,-0.2282586693763733,-0.1754647493362426,-0.3278611816838384,0.4940774830430746,2.650280490741134,-0.2639444679021835,-0.4218430459499359,-0.346408599615097,0.2589699065016572,-0.2528987824916839,0.0049956142902374,-0.0555217266082763,11.85499878316341,-1.5349132355429735,0.189088773135391,-2.213390907000877
0.5,-0.3326845467090606,0.4906127750873565,2.6465864181518555,0.0212856925120886,0.1423823366028302,0.0063731470357483,-0.1755143702030182,-0.2291364222764969,-0.1769775152206421,-0.3327176353707909,0.4864406221359967,2.644152318760753,-0.2850662514567375,-0.4618430465459824,-0.3864086002111435,0.1184512383014609,0.0798963010311126,-0.0438876450061798,-0.0756382942199707,12.022665651586522,-1.619683600541926,0.2147112101503397,-2.3900812822814728
0.52,-0.3365189135074615,0.4853370487689972,2.642406225204468,0.0189679131953347,0.1538422446952204,0.0058859910326364,-0.1728415489196777,-0.2339469641447067,-0.1805287599563598,-0.3381021336466074,0.4778037612140178,2.6370241467654707,-0.3061880350112915,-0.5018430471420288,-0.4264086008071899,0.3274775788181563,0.1336410641670227,-0.2405270934104919,-0.1775622367858886,11.549303480135222,-1.619663289564466,0.2177160301722649,-2.3683574473798075
0.54,-0.3403151929378509,0.4803278148174286,2.637906789779663,0.0208040906891377,0.1615219317021029,0.0065137724304853,-0.1716895401477813,-0.2314116060733795,-0.1952916383743286,-0.3440146765112877,0.4681669002771377,2.628895974755287,-0.3273098185658454,-0.5418430477380752,-0.4664086014032363,0.7511620064009124,0.0576004385948181,0.1267679035663604,-0.7381439208984375,11.14492490991188,-1.61004010490676,0.197587589972658,-2.3194358320188777
0.56,-0.3439942002296448,0.4750664234161377,2.633115768432617,0.0278028222700841,0.1668660302044994,0.0074236682182262,-0.1681939512491226,-0.2310890704393386,-0.2090352773666381,-0.34889966994524,0.4687572345137596,2.6281422078609467,-0.2272226810455322,-0.3314116075634956,-0.2952916398644447,0.7092439350015347,0.1747794449329376,0.0161267817020416,-0.6871819496154785,11.14492490991188,-1.6417125890060285,0.2211773168863506,-2.403746699733264
0.58,-0.3457413613796234,0.4725186824798584,2.630713701248169,0.0330676078554925,0.1664247272293257,0.0070144701006115,-0.1642899960279464,-0.2321472018957138,-0.2114009857177734,-0.34889966994524,0.4687572345137596,2.6281422078609467,-0.2272226810455322,-0.3314116075634956,-0.2952916398644447,0.2342919362171376,0.1951977610588073,-0.0529065728187561,-0.1182854175567627,12.462412918299831,-1.6564427150349843,0.2355448144942077,-2.4161863032480464
0.6,-0.3492310047149658,0.4673017263412475,2.625217199325561,0.0483278029275213,0.165523854815901,0.0077139998803344,-0.1571164280176162,-0.2353926748037338,-0.2335774898529052,-0.34889966994524,0.4687572345137596,2.6281422078609467,-0.2272226810455322,-0.3314116075634956,-0.2952916398644447,1.1766376970536043,0.35867840051651,-0.1622736454010009,-1.1088252067565918,12.462412918299831,-1.6685220155666018,0.2317842355187369,-2.437787746607836
0.62,-0.3524577021598816,0.4619868099689483,2.619701147079468,0.0624279417285941,0.1609855267317966,0.009459720295446,-0.151117667555809,-0.2369671314954757,-0.2477824687957763,-0.3511718967556953,0.4654431184381246,2.625189291462302,-0.2383293092250824,-0.3514116078615188,-0.3152916401624679,0.7749926898360463,0.2999380230903625,-0.0787228345870971,-0.7102489471435547,12.404231619856546,-1.6738482663422625,0.2547072074508015,-2.429325875447303
0.64,-0.3555842041969299,0.4564600586891174,2.6141722202301025,0.0668959545319616,0.1586877725464969,0.0081765622587413,-0.1429469883441925,-0.2439375221729278,-0.2485120296478271,-0.355716350376606,0.4588148862868547,2.6192834586650133,-0.2605425655841827,-0.3914116084575653,-0.3552916407585144,0.5382346235896998,0.4085339605808258,-0.3485195338726043,-0.036478042602539,12.16782930755562,-1.6605797511954743,0.2943969402124954,-2.4015956400278293
0.66,-0.3586209118366241,0.4507316350936889,2.6089389324188232,0.0611486892053477,0.1554637624466462,0.0062011195483807,-0.1386722177267074,-0.2532414197921753,-0.2421498298645019,-0.3602608039975166,0.4521866541355848,2.6133776258677246,-0.2827558219432831,-0.4314116090536117,-0.3952916413545608,0.602730787384581,0.2137385308742523,-0.4651948809623718,0.3181099891662597,12.239929851297347,-1.5969879827317133,0.3166137094079784,-2.2007488989556734
0.68,-0.3613761365413666,0.4449079930782318,2.6035516262054443,0.0499765824193268,0.1521401977573946,0.0050565888646541,-0.1303184777498245,-0.2599214911460876,-0.2389633655548095,-0.3659159204363823,0.4435584219545126,2.6054717930406333,-0.3049690783023834,-0.4714116096496581,-0.4352916419506072,0.5580364676517026,0.4176869988441467,-0.3340035676956177,0.1593232154846191,12.239929851297347,-1.584563046126688,0.3010446876971492,-2.021396324578633
0.7000000000000001,-0.3628059923648834,0.4418593347072601,2.600715398788452,0.0445002935815329,0.149477698129537,0.0040857777968741,-0.1289981603622436,-0.2642056345939636,-0.24594247341156,-0.371571036875248,0.4349301897734404,2.597565960213542,-0.3271823346614838,-0.5114116102457047,-0.4752916425466538,0.41474410653463,0.0660158693790435,-0.2142071723937988,-0.3489553928375244,12.3473893944697,-1.5837569195048455,0.305222959897838,-2.125091572194632
0.72,-0.3655430674552917,0.4357143640518188,2.5952906608581543,0.0350278555446728,0.1433487039892745,0.0029766706957087,-0.1241755485534668,-0.2735397219657898,-0.2420264482498169,-0.3777814847230911,0.4253019575774669,2.5886601273715497,-0.3493955910205841,-0.551411610841751,-0.5152916431427002,0.5606202475616725,0.2411305904388427,-0.4667043685913086,0.1958012580871582,12.3473893944697,-1.5837569195048455,0.305222959897838,-2.125091572194632
0.74,-0.3682275116443634,0.4296044707298279,2.589805841445923,0.0296700747071334,0.1314987329068998,0.0013750059140475,-0.1219841837882995,-0.2757344245910644,-0.2454650402069091,-0.3845472639799118,0.4146737253665924,2.578754294514656,-0.3716088473796844,-0.5914116114377975,-0.5552916437387466,0.2315313898523464,0.1095682382583618,-0.1097351312637329,-0.1719295978546142,11.451386582041325,-1.557320134051841,0.2621941774981159,-2.1340377676920324
0.76,-0.370794266462326,0.4233833253383636,2.583977460861206,0.0290720210168409,0.1219270828937757,0.0009384052362068,-0.1181519776582717,-0.2774483561515808,-0.2545469999313354,-0.3743267208337784,0.4158177495002746,2.5775325894355774,-0.1635836623609066,-0.3757344260811806,-0.3454650416970253,0.5002633247931967,0.1916103065013885,-0.0856965780258178,-0.4540979862213135,12.226449187805883,-1.557320134051841,0.2621941774981159,-2.1340377676920324
0.78,-0.3722194135189056,0.4202348589897156,2.581192970275879,0.0322081377272579,0.1155588170539899,0.0011076502724477,-0.1196365803480148,-0.2817935347557068,-0.2508401870727539,-0.3743267208337784,0.4158177495002746,2.5775325894355774,-0.1635836623609066,-0.3757344260811806,-0.3454650416970253,0.2950639075551766,-0.0742301344871521,-0.2172589302062988,0.1853406429290771,14.492186423958174,-1.4989691716602709,0.2719635660456465,-2.166384855693973
0.8,-0.3749690055847168,0.4139451086521148,2.5753602981567383,0.0407974239484053,0.1014199452858685,0.0018944616141304,-0.1225058734416961,-0.2817975878715515,-0.2604800462722778,-0.3743267208337784,0.4158177495002746,2.5775325894355774,-0.1635836623609066,-0.3757344260811806,-0.3454650416970253,0.5028910037767665,-0.1434646546840667,-0.0002026557922363,-0.4819929599761963,13.968255693684114,-1.5690301230184245,0.209368826714805,-2.276147508480003
0.8200000000000001,-0.3779753744602203,0.4073699116706848,2.56912612915039,0.0534099440628598,0.0913826455453832,0.0026794368229424,-0.1295091211795807,-0.2894613146781921,-0.2715039253234863,-0.3759625574573874,0.4120604052394628,2.5740779390186077,-0.171903558075428,-0.3957344263792038,-0.3654650419950485,0.7571395128717697,-0.3501623868942261,-0.3831863403320312,-0.5511939525604248,13.968255693684114,-1.5407639917399667,0.2447692377459557,-2.336508255921124
0.84,-0.38099205493927,0.40079465508461,2.5634844303131104,0.059567723376595,0.0864896394277232,0.0053323227890121,-0.1355186104774475,-0.2958852052688598,-0.2672070264816284,-0.3792342307046056,0.4045457167178393,2.5671686381846666,-0.1885433495044708,-0.4357344269752502,-0.4054650425910949,0.4894989060233052,-0.300474464893341,-0.3211945295333862,0.2148449420928955,12.237694253422887,-1.5020296049559334,0.2508452168439271,-2.2672913884366617
0.86,-0.384180873632431,0.394063800573349,2.558247804641724,0.056115853536839,0.085940079636572,0.0056881444008613,-0.1396237313747406,-0.299387514591217,-0.2447623014450073,-0.3825059039518237,0.3970310281962156,2.5602593373507263,-0.2051831409335136,-0.4757344275712967,-0.4454650431871414,1.1542138776461537,-0.2052560448646545,-0.1751154661178589,1.122236251831055,13.405843826491491,-1.4886713204903708,0.2669958104464292,-2.260519717899052
0.88,-0.387747973203659,0.3871680498123169,2.553260803222656,0.046386169822791,0.0919350809256873,0.004607933897883,-0.1520081609487533,-0.3065986037254333,-0.2300316095352172,-0.3866095667704939,0.3875163396447897,2.5513500364869834,-0.2218229323625564,-0.5157344281673432,-0.4854650437831878,1.027578691045664,-0.6192214787006378,-0.3605544567108154,0.736534595489502,12.828752532867838,-1.4568278483033552,0.2832201259061851,-2.0152168068556637
0.9,-0.3894007503986358,0.3837591409683227,2.5508573055267334,0.0415524600301788,0.0941635186268569,0.004896641270789,-0.1547399908304214,-0.3079383969306946,-0.2241522073745727,-0.3907132295891642,0.3780016510933637,2.542440735623241,-0.2384627237915992,-0.5557344287633896,-0.5254650443792344,0.3310034369226037,-0.1365914940834045,-0.0669896602630615,0.2939701080322265,11.93966053332997,-1.5057279988254435,0.2892372113018446,-2.212135517406695
0.92,-0.3933355510234833,0.3766235709190368,2.5459885597229004,0.0333812560773911,0.1038190282247033,0.0054332417937193,-0.1665564626455307,-0.3176285326480865,-0.2188682556152343,-0.3952328871935606,0.3674869625270366,2.5325314347445964,-0.2551025152206421,-0.595734429359436,-0.5654650449752807,0.8084675048722769,-0.5908235907554626,-0.4845067858695984,0.2641975879669189,12.300743419439186,-1.4888530573136898,0.3186586516027329,-2.3851034503283444
0.94,-0.3972446322441101,0.3697652816772461,2.5412676334381104,0.0259222584127723,0.1146040525347561,0.0062606063608523,-0.1764873415231704,-0.3148618340492248,-0.2157676219940185,-0.400168539583683,0.3559722739458084,2.5216221338510514,-0.2717423066496849,-0.6357344299554825,-0.6054650455713272,0.5382631913671716,-0.4965439438819885,0.1383349299430847,0.155031681060791,11.837304349117858,-1.5529329999056023,0.2607745987622341,-2.385523321241105
0.96,-0.401172399520874,0.3625877201557159,2.5360445976257324,0.0257271591305896,0.124925049931882,0.0080556978755864,-0.1763290911912918,-0.3158066272735595,-0.2237391471862793,-0.4060689993202686,0.3540221899747848,2.530479252338409,-0.1909571858122944,-0.414861835539341,-0.3157676234841347,0.4014439291331236,0.0079125165939331,-0.0472396612167358,-0.3985762596130371,11.837304349117858,-1.6057426545927578,0.2822094937857533,-2.4416953816627918
0.98,-0.4052193760871887,0.355395495891571,2.5302810668945312,0.0358296334446697,0.1369296194630194,0.0097480978871846,-0.1794317364692688,-0.3233201801776886,-0.2471977472305297,-0.4060689993202686,0.3540221899747848,2.530479252338409,-0.1909571858122944,-0.414861835539341,-0.3157676234841347,1.241355912903515,-0.1551322638988495,-0.3756776452064514,-1.1729300022125244,12.022214611141862,-1.6019299793999469,0.2808732569476733,-2.5
1.0,-0.4072714149951935,0.3518487215042114,2.5275721549987797,0.0411396233136732,0.1400489109275355,0.0105710186532415,-0.1840444654226303,-0.3220816850662231,-0.2479594945907592,-0.4060689993202686,0.3540221899747848,2.530479252338409,-0.1909571858122944,-0.414861835539341,-0.3157676234841347,0.2418232700709343,-0.2306364476680755,0.0619247555732727,-0.0380873680114746,11.996219985057904,-1.6041094133771858,0.2593170934916284,-2.5
1.02,-0.4112451076507568,0.3444928824901581,2.522084951400757,0.0524267320013166,0.150984891150789,0.0138311559969838,-0.1818309724330902,-0.3283855319023132,-0.253533124923706,-0.4079785711783916,0.3498735716193914,2.527321576103568,-0.1938511546701193,-0.4348618358373642,-0.3357676237821579,0.4350384788612686,0.110674649477005,-0.3151923418045044,-0.2786815166473388,13.567327221736376,-1.6650530408012365,0.2870229080670937,-2.5
1.04,-0.4152039885520935,0.3372878432273865,2.5166585445404053,0.0557111814744316,0.1601987812840533,0.0152252113702671,-0.1784829050302505,-0.3276197612285614,-0.2455562353134155,-0.4117977148946374,0.3415763349086046,2.521006223633885,-0.1996390923857688,-0.4748618364334106,-0.3757676243782043,0.4342428120116002,0.167403370141983,0.0382885336875915,0.3988444805145263,12.57129948826514,-1.655398988853262,0.2826820565874914,-2.474503054178676
1.06,-0.4189967513084411,0.3297571539878845,2.511703968048096,0.047367280564789,0.1666496423664512,0.0150663740122468,-0.1744119822978973,-0.3315538763999939,-0.2335721254348755,-0.4156168586108834,0.3332790981978178,2.514690871164203,-0.2054270301014185,-0.5148618370294571,-0.4157676249742508,0.6627000898894734,0.2035461366176605,-0.1967057585716247,0.599205493927002,12.951979658382244,-1.663697414659651,0.3283900519136489,-2.352298041407201
1.08,-0.4226483702659607,0.3222005367279053,2.5066123008728027,0.0377878878613618,0.1747178390850674,0.01432058989769,-0.1674985885620117,-0.339464396238327,-0.2260404825210571,-0.4197253992129117,0.3229818614572287,2.5063755186647176,-0.2112149678170681,-0.5548618376255036,-0.4557676255702972,0.6463299893268818,0.345669686794281,-0.3955259919166565,0.3765821456909179,12.191231812126262,-1.652774244551555,0.3395404416698179,-2.192108007280723
1.1,-0.4243530929088592,0.3185161352157593,2.5040547847747803,0.032872800340986,0.1790377603149769,0.0137069374357761,-0.1648009568452835,-0.3359231948852539,-0.2285456657409668,-0.4238339398149401,0.3126846247166395,2.498060166165233,-0.2170029055327177,-0.59486183822155,-0.4957676261663437,0.2554078447670601,0.1348815858364105,0.177060067653656,-0.1252591609954834,11.689239217072554,-1.685083297681567,0.3104902522229016,-2.290633445572755
1.12,-0.427762508392334,0.3111700415611267,2.49873948097229,0.0216825970360403,0.1837884835744666,0.0130271098725031,-0.1545173674821853,-0.3323565423488617,-0.2350527048110962,-0.4280871788598597,0.3013873879611492,2.4887448136508468,-0.2227908432483673,-0.6348618388175964,-0.5357676267623901,0.6340638334670428,0.5141794681549072,0.1783326268196106,-0.3253519535064697,11.592623041396564,-1.7259522278117423,0.3435563115606467,-2.319801288145619
1.14,-0.4310632050037384,0.303653746843338,2.4931836128234863,0.0166185795904101,0.1899219272499979,0.0125890695601004,-0.1509775221347808,-0.3344037532806396,-0.2446013689041137,-0.4324851163476705,0.2890901511907577,2.47842946112156,-0.2285787809640169,-0.6748618394136429,-0.5757676273584366,0.5193711669991306,0.176992267370224,-0.1023605465888977,-0.4774332046508789,11.060316658041756,-1.729346998113887,0.353696949729769,-2.379277623232712
1.16,-0.4338528215885162,0.2962050437927246,2.487569808959961,0.0161705567501674,0.1926044198802459,0.0114675789336814,-0.1370320469141006,-0.3367124497890472,-0.2513176202774048,-0.4386120811104774,0.286933559179306,2.4809535443782806,-0.1572188925929367,-0.4344037547707557,-0.3446013703942299,0.7824870465505697,0.6972737610340118,-0.1154348254203796,-0.3358125686645508,10.810799530574512,-1.810097985393564,0.3143761250640353,-2.5
1.18,-0.4368321001529693,0.2887956202030182,2.4812099933624268,0.0264684860785351,0.1969447606824279,0.0118462892109052,-0.1298001408576965,-0.334307849407196,-0.2694064378738403,-0.4386120811104774,0.286933559179306,2.4809535443782806,-0.1572188925929367,-0.4344037547707557,-0.3446013703942299,0.9814375811050972,0.3615953028202057,0.1202300190925598,-0.9044408798217772,11.259809735266572,-1.787248070818718,0.2819145729768759,-2.5
1.2,-0.4381623864173889,0.2848951518535614,2.4777865409851074,0.0328697410473148,0.1996336119173176,0.0113878286116508,-0.124601349234581,-0.3372213840484619,-0.282522439956665,-0.4386120811104774,0.286933559179306,2.4809535443782806,-0.1572188925929367,-0.4344037547707557,-0.3446013703942299,0.7203222006211779,0.259939581155777,-0.1456767320632934,-0.6558001041412354,13.274370759485464,-1.8006275709063226,0.297255819833099,-2.5
1.22,-0.4404042661190033,0.2775385081768036,2.470963954925537,0.0435484248520483,0.1982035881433462,0.0109145589928875,-0.1140213757753372,-0.3362759351730346,-0.302998423576355,-0.4401842700364068,0.2825895216315984,2.4775075306743384,-0.1584671666845679,-0.454403755068779,-0.3646013706922531,1.1533598930604447,0.5289986729621887,0.0472724437713623,-1.023799180984497,13.274370759485464,-1.8367311683094136,0.2770566896150612,-2.453976419333064
1.24,-0.442402720451355,0.2701389491558075,2.4640369415283203,0.0452329074481011,0.1964946350932838,0.0092764680592258,-0.0954075157642364,-0.3320145606994629,-0.3093659877777099,-0.4433286478882655,0.2739014465361833,2.470615503266454,-0.1609637148678303,-0.4944037556648254,-0.4046013712882995,1.0064553775195937,0.9306930005550385,0.2130687236785888,-0.318378210067749,12.277289496649246,-1.8094952199712036,0.3061026292450755,-2.394173938568049
1.26,-0.4441999793052673,0.2625922858715057,2.457319498062134,0.0403672539264638,0.19245089708852,0.0064129098426544,-0.0854035466909408,-0.3362900018692016,-0.3070002794265747,-0.4464730257401242,0.2652133714407682,2.4637234758585693,-0.1634602630510926,-0.5344037562608719,-0.444601371884346,0.556676230896342,0.5001984536647797,-0.2137720584869384,0.1182854175567627,12.569507725782389,-1.705717878154448,0.3618571429540532,-2.187206393385124
1.28,-0.4457217156887054,0.2550976574420929,2.450542688369751,0.0310889973401073,0.1884585541858865,0.003644967152614,-0.0746773928403854,-0.3384290635585785,-0.30362069606781,-0.4497422310011461,0.2545252963155508,2.454831448420882,-0.1659568112343549,-0.5744037568569184,-0.4846013724803924,0.5723799983742957,0.536307692527771,-0.1069530844688415,0.1689791679382324,12.118491299348534,-1.692976055461469,0.3470566248554239,-2.045809705899761
1.3,-0.4463827013969421,0.2514116168022156,2.447074174880981,0.0280453399251628,0.1848490468535572,0.0035188345362609,-0.0675628334283828,-0.3371630609035492,-0.305793285369873,-0.453011436262168,0.2438372211903333,2.4459394209831955,-0.1684533594176173,-0.6144037574529648,-0.524601373076439,0.3772925344639555,0.3557279706001282,0.0633001327514648,-0.1086294651031494,12.225069978799638,-1.7087403754708206,0.3348883123083067,-2.073558579323464
1.32,-0.4475905895233154,0.2438068389892578,2.44032883644104,0.0200712685269366,0.177174793905793,0.001016829883427,-0.060373842716217,-0.3394804894924164,-0.3035992383956909,-0.4563430552277714,0.2321491460502147,2.4360473935306075,-0.1709499076008796,-0.6544037580490112,-0.5646013736724853,0.3932744107141454,0.3594495356082916,-0.1158714294433593,0.1097023487091064,12.225069978799638,-1.7468934084294356,0.3478750416508998,-2.2155645114114173
1.34,-0.4486173987388611,0.2363594472408294,2.43340277671814,0.0152967380761712,0.1680842437864502,-0.0004501761351208,-0.0502806901931762,-0.3386738300323486,-0.3076064586639404,-0.4597370878979563,0.219461070895195,2.425155366063118,-0.173446455784142,-0.6944037586450577,-0.6046013742685318,0.544472776216017,0.5046576261520386,0.0403329730033874,-0.2003610134124755,11.514261063286083,-1.7363901634242749,0.3083901998111888,-2.281901421116055
1.36,-0.449509710073471,0.2289249897003173,2.426367282867432,0.0172345976150091,0.1583326079723667,-0.0017411956607773,-0.0431802123785018,-0.3348416090011596,-0.3141349554061889,-0.4511314332485199,0.219425755739212,2.418022453784942,-0.0574036808684468,-0.4386738315224647,-0.4076064601540565,0.5189507995516525,0.3550238907337188,0.1916110515594482,-0.3264248371124267,11.514261063286083,-1.7363901634242749,0.3083901998111888,-2.281901421116055
1.38,-0.4498736560344696,0.2251867800951004,2.422768831253052,0.022415716163304,0.1506471496101857,-0.0019897305220483,-0.0393413007259368,-0.3334746956825256,-0.3181958198547363,-0.4511314332485199,0.219425755739212,2.418022453784942,-0.0574036808684468,-0.4386738315224647,-0.4076064601540565,0.2876469831509377,0.1919455826282501,0.0683456659317016,-0.2030432224273681,11.26607464723611,-1.7252711346211005,0.3145269117814188,-2.328400227042479
1.4,-0.4506943523883819,0.217583879828453,2.4152991771698,0.037255196317569,0.1420335766983375,-0.0021487974045761,-0.0374597311019897,-0.3378805518150329,-0.3286296129226684,-0.4511314332485199,0.219425755739212,2.418022453784942,-0.0574036808684468,-0.4386738315224647,-0.4076064601540565,0.574055551089225,0.0940784811973571,-0.2202928066253662,-0.5216896533966064,13.042702223749984,-1.6610285194939922,0.3396237352902342,-2.3321833883001504
1.42,-0.4512701332569122,0.2101231813430786,2.4082417488098145,0.0540613107590897,0.1334077472859865,-0.0010025987844221,-0.0314207375049591,-0.3389309644699096,-0.3268593549728393,-0.4517054700572043,0.2150390174239873,2.413946389183402,-0.0588282790035009,-0.458673831820488,-0.4276064604520798,0.3190087131233069,0.301949679851532,-0.0525206327438354,0.088512897491455,13.042702223749984,-1.689304458170685,0.3179737805814946,-2.3601465535754325
1.44,-0.4520281553268432,0.202505886554718,2.401216506958008,0.062291973930489,0.1315417311946481,-0.0002637251982904,-0.0300105661153793,-0.3392548561096191,-0.3168600797653198,-0.4528535436745733,0.2062655407935381,2.405794259980321,-0.0616774752736091,-0.4986738324165344,-0.4676064610481262,0.5051707479109856,0.0705085694789886,-0.0161945819854736,0.4999637603759765,13.25283578524568,-1.6319936765804797,0.3492208388147504,-2.259295697341039
1.46,-0.4528780579566955,0.1946665048599243,2.3945095539093018,0.0595138336911653,0.1294498391230056,-0.0020794580152706,-0.0361783057451248,-0.3477752208709717,-0.3089743852615356,-0.4540016172919422,0.1974920641630888,2.39764213077724,-0.0645266715437173,-0.5386738330125809,-0.5076064616441727,0.6573085379291888,-0.3083869814872741,-0.4260182380676269,0.394284725189209,12.889726034313298,-1.604089934495036,0.3923524340311529,-2.110800299020886
1.48,-0.4536489844322204,0.1865472346544265,2.388047695159912,0.0486932615619437,0.1295994507114026,-0.0043541081076797,-0.0364686548709869,-0.359069675207138,-0.2962982654571533,-0.4552921507228166,0.1867185875028371,2.3874900015443563,-0.0673758678138256,-0.5786738336086273,-0.5476064622402191,0.8490185726203082,-0.014517456293106,-0.5647227168083191,0.6338059902191162,12.50813061297913,-1.5990602777383065,0.3829891009231684,-1.9268370631783185
1.5,-0.4539332687854767,0.1825296431779861,2.3847756385803223,0.0437184692537967,0.1311233036976313,-0.0052995563950406,-0.0348975509405136,-0.3588473796844482,-0.2933746576309204,-0.4565826841536909,0.1759451108425855,2.377337872311473,-0.0702250640839338,-0.6186738342046738,-0.5876064628362656,0.1663224697790936,0.0785551965236663,0.0111147761344909,0.1461803913116455,13.125639426397813,-1.6179676387957609,0.3409210219197145,-2.007970796218049
1.52,-0.4548344016075134,0.1744069308042526,2.3782780170440674,0.0325458283812864,0.1334531027693555,-0.0065093888319406,-0.0368589162826538,-0.3643676936626434,-0.2906334400177002,-0.4579444474913179,0.1641716341674327,2.366185743063689,-0.073074260354042,-0.6586738348007202,-0.627606463432312,0.3234002722101308,-0.0980682671070098,-0.2760156989097595,0.1370608806610107,12.063117219045123,-1.617049513306791,0.3706328060760338,-2.121583297907004
1.54,-0.4557392299175262,0.1662273108959198,2.371667861938477,0.0267553873991445,0.1384728172749906,-0.007743143027476,-0.0406341254711151,-0.3668024837970733,-0.2949249744415283,-0.4593774407356977,0.1513981574773788,2.3540336138010027,-0.0759234566241502,-0.6986738353967666,-0.6676064640283584,0.310635136157606,-0.1887604594230651,-0.1217395067214965,-0.2145767211914062,11.697889255503924,-1.6363426679656028,0.3490266047215515,-2.2325412227058044
1.56,-0.456601619720459,0.1579696834087371,2.364971399307251,0.0280448978961708,0.1456049952085294,-0.0069795423780988,-0.039762407541275,-0.3698380589485168,-0.2993988990783691,-0.457770936191082,0.1478871867060661,2.3569216132164,-0.0307501824572682,-0.4668024852871895,-0.3949249759316444,0.2738184175023526,0.0435858964920043,-0.151778757572174,-0.223696231842041,11.25478891270768,-1.6856528086494478,0.3309501035628503,-2.363575106793169
1.58,-0.4570194780826568,0.1537188589572906,2.361527681350708,0.0283237158620422,0.1487132120469153,-0.0071136925545122,-0.0384400784969329,-0.3738791346549988,-0.3035831451416015,-0.457770936191082,0.1478871867060661,2.3569216132164,-0.0307501824572682,-0.4668024852871895,-0.3949249759316444,0.2982732056550882,0.066116452217102,-0.2020537853240966,-0.2092123031616211,12.181540262146427,-1.6667721295457647,0.3261863249804068,-2.3635310321246004
1.6,-0.4578205049037933,0.1454866826534271,2.3541924953460693,0.038519758595478,0.1582602948214125,-0.0063852981100015,-0.03732830286026,-0.3735509216785431,-0.3196603059768677,-0.457770936191082,0.1478871867060661,2.3569216132164,-0.0307501824572682,-0.4668024852871895,-0.3949249759316444,0.8059448947465765,0.0555887818336486,0.0164106488227844,-0.8038580417633057,12.59147550468242,-1.694039545435629,0.280702125061488,-2.5
1.62,-0.4584993720054626,0.1370730102062225,2.3468005657196045,0.0450667470219524,0.1660358110675363,-0.004770754140352,-0.0332976132631301,-0.3745315968990326,-0.3313601016998291,-0.4580784380156547,0.1432191618531942,2.352972363457084,-0.0287733938544988,-0.4868024855852127,-0.4149249762296677,0.6206718184264515,0.2015344798564911,-0.0490337610244751,-0.5849897861480713,12.59147550468242,-1.7507025347302063,0.2928395536945294,-2.5
1.64,-0.45918670296669,0.1286213099956512,2.3395984172821045,0.0469450870142144,0.1737042131368471,-0.0038593020509584,-0.0307394564151763,-0.3794708847999573,-0.328366756439209,-0.4586934416648001,0.1338831121474504,2.3450738639384507,-0.0248198166489601,-0.5268024861812591,-0.4549249768257141,0.3158355872769516,0.1279078423976898,-0.2469643950462341,0.1496672630310058,13.53421329520961,-1.71455639268677,0.3278889842451243,-2.5
1.66,-0.4596058130264282,0.1201190873980522,2.3326516151428223,0.0424322904341496,0.1782888921780206,-0.0038395201426684,-0.0248949229717254,-0.3814632594585418,-0.3183513879776001,-0.4593084453139454,0.1245470624417066,2.337175364419818,-0.0208662394434213,-0.5668024867773056,-0.4949249774217605,0.5882935775902547,0.2922266721725464,-0.0996187329292297,0.5007684230804443,12.168738950966144,-1.742576915153335,0.3157973671206168,-2.3669102526546832
1.68,-0.4598225057125091,0.1113614216446876,2.3260035514831543,0.031645477415172,0.1815857085164298,-0.0046926918618644,-0.0143055617809295,-0.3883474767208099,-0.3058844804763794,-0.4597257701028138,0.1132110127061605,2.327276864871383,-0.0169126622378826,-0.6068024873733521,-0.534924978017807,0.8873426626552408,0.5294680595397949,-0.3442108631134033,0.6233453750610352,12.625244087720148,-1.7417646661935986,0.3339461476408387,-2.2562879079299587
1.7,-0.4599687159061432,0.1069755852222442,2.322499513626098,0.0275202157558497,0.1842828575893617,-0.0050301582560647,-0.0152000784873962,-0.3914560079574585,-0.3088939189910888,-0.4601430948916822,0.1018749629706144,2.317378365322948,-0.0129590850323438,-0.6468024879693985,-0.5749249786138535,0.2209063532426385,-0.0447258353233337,-0.1554265618324279,-0.1504719257354736,12.234541537769928,-1.7602646213869992,0.307443850140765,-2.356084686825316
1.72,-0.4598519206047058,0.098233439028263,2.3158438205718994,0.0175237983731553,0.1847214623565439,-0.0058897657117,-0.0023281574249267,-0.3930232524871826,-0.3064370155334472,-0.4604615802504122,0.0895389132201671,2.306479865759611,-0.0090055078268051,-0.6868024885654449,-0.6149249792098999,0.6598844252112769,0.6435960531234741,-0.078362226486206,0.12284517288208,12.234541537769928,-1.834038246215084,0.2930757919601597,-2.4047331032235437
1.74,-0.4596524834632873,0.0895470231771469,2.3089308738708496,0.014298261712782,0.1856981392038616,-0.0066298720536796,0.0071152299642562,-0.392142653465271,-0.305294394493103,-0.4606812261790037,0.0762028634548187,2.2945813661813736,-0.0050519306212663,-0.7268024891614914,-0.6549249798059463,0.4776468435502594,0.4721693694591522,0.044029951095581,0.0571310520172119,11.522022374506832,-1.8222985001366243,0.2846685084254941,-2.4924993989392843
1.76,-0.4591467380523681,0.0806082710623741,2.3018133640289307,0.0135614326873802,0.1864597602367042,-0.0065919119422813,0.015866607427597,-0.3965662717819214,-0.3156852722167969,-0.4592967219650745,0.0699398905038833,2.2936661541461945,0.0094629989471286,-0.4921426549553871,-0.4052943959832191,0.7143622092223776,0.4375688731670379,-0.2211809158325195,-0.5195438861846924,11.642890210029236,-1.8162881642502755,0.2762420502412133,-2.452386980878648
1.78,-0.4588013291358948,0.0764111131429672,2.297996759414673,0.0182316499003354,0.1869148948202381,-0.0047245350710742,0.0203747302293777,-0.3940865695476532,-0.3254055976867676,-0.4592967219650745,0.0699398905038833,2.2936661541461945,0.0094629989471286,-0.4921426549553871,-0.4052943959832191,0.5499018585364367,0.225406140089035,0.1239851117134094,-0.4860162734985351,11.642890210029236,-1.8296952699906344,0.2363059452560953,-2.5
1.8,-0.4580390453338623,0.0676793009042739,2.2905280590057373,0.0289552667051048,0.1882277461445052,-0.0044550782158539,0.030035376548767,-0.3907348215579986,-0.3363329172134399,-0.4592967219650745,0.0699398905038833,2.2936661541461945,0.0094629989471286,-0.4921426549553871,-0.4052943959832191,0.7482790487720461,0.4830323159694671,0.167587399482727,-0.5463659763336182,12.63459259096635,-1.861346306552469,0.2598081000963668,-2.5
1.82,-0.4571523368358612,0.0589425824582576,2.282996654510498,0.0399904776212284,0.188808835746006,-0.0037571713197297,0.0371023267507553,-0.3930419385433197,-0.3375023603439331,-0.4592020919756032,0.0650184639543294,2.289613210186362,0.0099325527437031,-0.5121426552534103,-0.4252943962812424,0.3762717474671592,0.353347510099411,-0.1153558492660522,-0.0584721565246582,12.636274328772744,-1.8651297077048097,0.2892671196950048,-2.5
1.84,-0.4558636546134949,0.0501743927597999,2.275753736495972,0.0399822285852783,0.1846458195264386,-0.0023713733904778,0.0489462912082672,-0.3938604295253753,-0.3324222564697265,-0.4590128319966607,0.0551756108552217,2.281507322266698,0.010871660336852,-0.5521426558494568,-0.4652943968772888,0.645671892162033,0.5921982228755951,-0.0409245491027832,0.2540051937103271,12.819628154788006,-1.8469167768038544,0.3001711678584545,-2.5
1.86,-0.45455402135849,0.0412374548614025,2.2687385082244877,0.0310616445495128,0.1797396670132928,-0.00421320154117,0.0584620982408523,-0.3983653783798218,-0.3208082914352417,-0.4588235720177181,0.045332757756114,2.2734014343470337,0.011810767930001,-0.5921426564455032,-0.5052943974733353,0.7837878084737155,0.4757903516292572,-0.2252474427223205,0.5806982517242432,12.37992770683013,-1.7833709075488042,0.3168935096178493,-2.298712235978174
1.88,-0.4536642432212829,0.0368894450366497,2.265187978744507,0.0280872455350383,0.1775659054591026,-0.0037538757061386,0.06345234811306,-0.3983352780342102,-0.3174394369125366,-0.4585873566591181,0.0334899046272039,2.263295546397567,0.0127498755231499,-0.6321426570415497,-0.5452943980693817,0.3010509949037903,0.249512493610382,0.0015050172805786,0.1684427261352539,11.98847316750016,-1.7652754884826354,0.2938624116886384,-2.157344420592292
1.9,-0.4519297480583191,0.027972862124443,2.258406162261963,0.0187635381926436,0.1686169578603664,-0.004637023466733,0.072515532374382,-0.3989704549312591,-0.3103208541870117,-0.4583511413005181,0.0216470514982938,2.2531896584481004,0.0136889831162989,-0.6721426576375962,-0.5852943986654282,0.5771026309621224,0.4531592130661011,-0.0317588448524475,0.3559291362762451,13.491295693631857,-1.746959327852079,0.3063195689262194,-2.148923037292973
1.92,-0.4501506388187408,0.018938098102808,2.2516977787017822,0.0113184217675554,0.1618629004278391,-0.0059783777025441,0.0790560990571975,-0.403905302286148,-0.3035295009613037,-0.4580914482520893,0.0088041983544826,2.2420837704837324,0.0146280907094478,-0.7121426582336425,-0.6252943992614746,0.5321048054301557,0.3270283341407776,-0.2467423677444458,0.3395676612854004,13.491295693631857,-1.7694004252425628,0.2918767317620938,-2.2247309183577952
1.94,-0.4481596052646637,0.0101566761732101,2.2452714443206787,0.0095595459667851,0.1535042355452682,-0.0049181958761781,0.0848282128572464,-0.4008641839027405,-0.295531153678894,-0.4578082775138318,-0.0050386548042297,2.229977882504463,0.0155671983025968,-0.752142658829689,-0.665294399857521,0.5160892800491109,0.2886056900024414,0.1520559191703796,0.3999173641204834,11.778347156219295,-1.76368213478137,0.245413291347673,-2.256240966187883
1.96,-0.4461826682090759,0.001257226569578,2.2385573387146,0.0120607665946753,0.1446557466733133,-0.0054183200966466,0.0892793387174606,-0.3978196382522583,-0.2956598997116089,-0.4439181946218014,-0.0098865330219268,2.230494886636734,0.0932101756334304,-0.5008641853928566,-0.3955311551690101,0.2697144563342761,0.2225562930107116,0.1522272825241089,-0.0064373016357421,11.850515945149256,-1.7287843878644544,0.2537800858279386,-2.200992785632718
1.98,-0.4451917111873626,-0.0031347160693258,2.235264539718628,0.0187445330917502,0.140631663586993,-0.0044748517727458,0.0909993052482605,-0.3966076374053955,-0.2984708547592163,-0.4439181946218014,-0.0098865330219268,2.230494886636734,0.0932101756334304,-0.5008641853928566,-0.3955311551690101,0.1755612371762165,0.0859983265399932,0.0606000423431396,-0.1405477523803711,14.326841051344218,-1.7072570531401003,0.2721927920322972,-2.40776240377256
2.0,-0.4432692229747772,-0.0120561849325895,2.2281336784362797,0.0337281435236964,0.1323764805236877,-0.004046806276496,0.0885826349258422,-0.3976256251335144,-0.3095269203186035,-0.4439181946218014,-0.0098865330219268,2.230494886636734,0.0932101756334304,-0.5008641853928566,-0.3955311551690101,0.5681399037986277,-0.1208335161209106,-0.0508993864059448,-0.5528032779693604,12.72091073905358,-1.7072570531401003,0.2721927920322972,-2.40776240377256
2.02,-0.4413745999336242,-0.0208301730453968,2.2211265563964844,0.0463511508871271,0.1226690429309014,-0.0034215989951585,0.085885003209114,-0.3981477618217468,-0.31810462474823,-0.4429860928654671,-0.0148951748758554,2.226539575085044,0.0948865681886673,-0.5208641856908798,-0.4155311554670334,0.4503522423679319,-0.1348815858364105,-0.026106834411621,-0.4288852214813232,12.72091073905358,-1.69895649473092,0.2840963594790853,-2.3803505422549414
2.04,-0.4395807385444641,-0.0298694726079702,2.214316844940185,0.0491034498450079,0.1182225710178393,-0.0022056654004774,0.0829908996820449,-0.4007989764213562,-0.3108787536621094,-0.4411218893527984,-0.0249124585837125,2.218628951981664,0.0982393532991409,-0.5608641862869262,-0.4555311560630798,0.4111507844812211,-0.1447051763534546,-0.1325607299804687,0.3612935543060303,13.978562756236444,-1.6820274444563268,0.3128707704919571,-2.364953189700244
2.06,-0.4379489421844482,-0.038817785680294,2.2076761722564697,0.0455383219974641,0.1165737126387452,-0.0019762498358215,0.0770772993564605,-0.4047212898731231,-0.3026336431503296,-0.4392576858401298,-0.0349297422915697,2.210718328878284,0.1015921384096145,-0.6008641868829727,-0.4955311566591263,0.5439141912474009,-0.2956800162792206,-0.1961156725883484,0.4122555255889892,12.573796503521407,-1.672406996741952,0.3251668223741755,-2.279109275016732
2.08,-0.4372864961624145,-0.0434844270348548,2.2046470642089844,0.0388099022292254,0.115046081698491,-0.0029804342824372,0.0745057314634323,-0.4054464399814605,-0.2927899360656738,-0.4372258430719375,-0.0469470260292291,2.200807705745101,0.1049449235200881,-0.6408641874790192,-0.5355311572551728,0.5099935619117598,-0.1285783946514129,-0.0362575054168701,0.4921853542327881,12.576227107214436,-1.6610354591110013,0.3311006102751049,-2.1694741727979623
2.1,-0.4358016550540924,-0.0527655854821205,2.1983675956726074,0.0264805453511546,0.1169659447106211,-0.0038725144471277,0.0679054856300354,-0.4117888212203979,-0.2838635444641113,-0.4351940003037453,-0.0589643097668886,2.1908970826119187,0.1082977086305618,-0.6808641880750657,-0.5755311578512192,0.6392759808285926,-0.3300122916698456,-0.3171190619468689,0.446319580078125,12.576227107214436,-1.6718301818932948,0.3395198624357743,-2.1438937752108846
2.12,-0.434568852186203,-0.0618475116789341,2.192091464996338,0.0168371831165926,0.1228641252792256,-0.0052130318281239,0.0611469894647598,-0.4131694138050079,-0.2825009822845459,-0.4330783379077911,-0.0719815935194492,2.179986459463835,0.1116504937410354,-0.720864188671112,-0.6155311584472656,0.3515674970539327,-0.3379248082637787,-0.0690296292304992,0.0681281089782714,12.38386380676684,-1.6773006728304054,0.3128675566674466,-2.1925663883033653
2.14,-0.4333333671092987,-0.0710294917225837,2.185549259185791,0.0103149924290093,0.1295593420383799,-0.0050834580731187,0.0555364787578582,-0.4109379053115845,-0.2884125709533691,-0.4308788558840752,-0.085998877286911,2.16807583630085,0.115003278851509,-0.7608641892671585,-0.655531159043312,0.4225054471182511,-0.2805255353450775,0.1115754246711731,-0.2955794334411621,12.409607225324637,-1.7188991290228537,0.2965288452547171,-2.4042905866801974
2.16,-0.4322371780872345,-0.080135278403759,2.179028987884521,0.0109045990289704,0.1374152542591117,-0.003943750716122,0.0524626672267913,-0.4114747643470764,-0.2939057350158691,-0.4305565431714058,-0.0915763869881629,2.1711286306381226,0.0715389009565115,-0.5109379068017006,-0.3884125724434852,0.3158772956784432,-0.1536905765533447,-0.0268429517745971,-0.274658203125,11.017484112984675,-1.728057350541716,0.2943110025780846,-2.448567597580974
2.18,-0.4311747550964355,-0.0892556011676788,2.1722841262817383,0.0160019161079469,0.1482492927777772,-0.0038082097892329,0.048568770289421,-0.4100874662399292,-0.2984654903411865,-0.4305565431714058,-0.0915763869881629,2.1711286306381226,0.0715389009565115,-0.5109379068017006,-0.3884125724434852,0.3077271438454702,-0.194694846868515,0.0693649053573608,-0.2279877662658691,10.729542951281474,-1.7527484624354206,0.2747345882238269,-2.5
2.2,-0.4306280612945556,-0.0936490446329116,2.168794631958008,0.0217135626764958,0.154167250754923,-0.0028300580103107,0.0462184846401214,-0.4062279462814331,-0.3052514791488647,-0.4305565431714058,-0.0915763869881629,2.1711286306381226,0.0715389009565115,-0.5109379068017006,-0.3884125724434852,0.4076437815092594,-0.117514282464981,0.1929759979248047,-0.3392994403839111,13.529596753593523,-1.798831080297768,0.2708507822000455,-2.5
2.22,-0.4295318126678467,-0.102784164249897,2.161856174468994,0.0316608498637843,0.1630039218195328,-0.001640048197426,0.0480511039495468,-0.4069638550281524,-0.3135824203491211,-0.4298411541618406,-0.09668576605618,2.167244504913688,0.0747393853962421,-0.5309379070997238,-0.4084125727415085,0.4280906343839625,0.0916309654712677,-0.036795437335968,-0.4165470600128174,13.529596753593523,-1.8580949600796464,0.2835967920002335,-2.5
2.24,-0.4283283054828644,-0.1117098405957222,2.154905319213867,0.0348042401157903,0.1726832729600213,-0.0006541757484187,0.0517445057630538,-0.4063678979873657,-0.312509536743164,-0.4284103761427104,-0.106904524192214,2.159476253464818,0.0811403542757034,-0.5709379076957702,-0.4484125733375549,0.1945986959258209,0.184670090675354,0.0297978520393371,0.0536441802978515,12.123177834352646,-1.863988864303608,0.2924851695092221,-2.5
2.26,-0.4270908236503601,-0.1205682381987571,2.147982120513916,0.0321111255417181,0.178683947779265,0.0005161322497544,0.0549222528934478,-0.4001416563987732,-0.3121662139892578,-0.4269795981235802,-0.117123282328248,2.1517080020159485,0.0875413231551647,-0.6109379082918167,-0.4884125739336014,0.3499358214644372,0.1588873565196991,0.3113120794296264,0.0171661376953125,12.692104844263213,-1.809853632138204,0.3177264502704829,-2.443939112829236
2.28,-0.4255841076374054,-0.1296910494565963,2.141496419906616,0.0202863253298057,0.1805130062265167,-0.0008580232428239,0.0617444515228271,-0.4045771956443786,-0.301700234413147,-0.4252287716604769,-0.1293420404940843,2.1419397505372766,0.093942292034626,-0.6509379088878632,-0.5284125745296478,0.6628595835951608,0.3411099314689636,-0.2217769622802734,0.523298978805542,12.571316417880098,-1.8130493579540208,0.3541880951673858,-2.256540518466883
2.3000000000000003,-0.4247673451900482,-0.1342279762029647,2.1381468772888184,0.0240018233761902,0.1769118120053156,-0.0012949732009989,0.065348669886589,-0.4062317907810211,-0.29987633228302,-0.4234779451973736,-0.1415607986599207,2.1321714990586043,0.1003432609140873,-0.6909379094839097,-0.5684125751256943,0.2182584136989971,0.1802109181880951,-0.0827297568321228,0.0911951065063476,11.838364484439808,-1.8234840910581955,0.3210803025977911,-2.2792759982172783
2.32,-0.4231218099594116,-0.1431024968624115,2.131600141525269,0.0069179401433231,0.1830715771538572,-0.0026028768744898,0.0725725293159484,-0.4028211832046509,-0.2968937158584595,-0.4215670945122838,-0.1547795568406582,2.121403247565031,0.1067442297935485,-0.730937910079956,-0.6084125757217407,0.4263578011224775,0.3611929714679718,0.1705303788185119,0.1491308212280273,11.838364484439808,-1.8320738286366527,0.3086765983502759,-2.239148742319996
2.34,-0.4210617244243622,-0.1519220769405365,2.124716758728028,0.0033501508541033,0.1819024140784427,-0.0016803151645678,0.0833764672279357,-0.3981172740459442,-0.3021776676177978,-0.4194962196052074,-0.1689983150362968,2.109634996056557,0.1131451986730098,-0.7709379106760025,-0.6484125763177871,0.6457011343773066,0.5401968955993652,0.2351954579353332,-0.2641975879669189,11.789523196219308,-1.8302436397156292,0.3030032358421932,-2.201313390237332
2.36,-0.4189785122871399,-0.1606601327657699,2.11771297454834,0.0080171146778605,0.1822084511878387,-0.0017597701069936,0.0932241976261138,-0.3950468003749847,-0.312461256980896,-0.4168929010629654,-0.1718279406428337,2.109607875347137,0.1189978681504726,-0.4981172755360603,-0.4021776691079139,0.728281904121065,0.492386519908905,0.1535236835479736,-0.5141794681549072,12.246099436285022,-1.824513668086572,0.2982826623274273,-2.296087930226187
2.38,-0.4166325330734253,-0.1692698895931244,2.1104650497436523,0.0194268621273648,0.1816832707526602,0.0002458589717945,0.09965680539608,-0.3903257846832275,-0.3206634521484375,-0.4168929010629654,-0.1718279406428337,2.109607875347137,0.1189978681504726,-0.4981172755360603,-0.4021776691079139,0.5721504117155023,0.3216303884983063,0.2360507845878601,-0.4101097583770752,11.530185613200956,-1.7997938589303843,0.2983780948586523,-2.358583755579348
2.4,-0.4154328107833862,-0.1735966354608535,2.106751680374145,0.0254942759013963,0.1834655225489766,0.0004101131651325,0.1046530902385711,-0.3881676197052002,-0.3291445970535278,-0.4168929010629654,-0.1718279406428337,2.109607875347137,0.1189978681504726,-0.4981172755360603,-0.4021776691079139,0.503860985790799,0.2498142421245575,0.1079082489013671,-0.4240572452545166,12.693425838649093,-1.8057342331061077,0.3240080163687209,-2.4168061294843737
2.42,-0.4128933250904083,-0.1823504567146301,2.099437713623047,0.0399472913706244,0.1831756868393887,0.0008548687991201,0.1108456403017044,-0.3930706977844238,-0.3327065706253052,-0.4157029223814606,-0.1768091133981943,2.105586098656058,0.12612214833498,-0.5181172758340835,-0.4221776694059372,0.4332306160159247,0.309627503156662,-0.2451539039611816,-0.1780986785888672,12.409548575913504,-1.8348354734683447,0.3295185969731606,-2.4178609330662537
2.44,-0.4101639986038208,-0.1911408752202987,2.092305898666382,0.0437258266594231,0.1802577121524182,0.0003330912087729,0.1185482740402221,-0.394745409488678,-0.3250300884246826,-0.4133229650184512,-0.1867714589089155,2.0975425452739,0.1403707087039947,-0.55811727643013,-0.4621776700019836,0.5501445373231314,0.385131686925888,-0.0837355852127075,0.3838241100311279,12.765032085730128,-1.842868904670409,0.3133074383712503,-2.375342440939436
2.46,-0.4071029126644134,-0.1998828500509262,2.0853960514068604,0.0378358869560475,0.1746246845078312,-0.000538175115447,0.1302842795848846,-0.3944788575172424,-0.3159373998641968,-0.4109430076554418,-0.1967338044196367,2.089498991891742,0.1546192690730095,-0.5981172770261765,-0.5021776705980301,0.74243158162186,0.5868002772331238,0.0133275985717773,0.454634428024292,13.510452829044423,-1.8358763799273985,0.3297065263800524,-2.308226673786354
2.48,-0.4039929807186126,-0.2086719870567321,2.078653573989868,0.0271829695957099,0.1691210185105736,-0.002084414796812,0.1388479024171829,-0.3944500088691711,-0.3071773052215576,-0.4078506222739816,-0.2086961499601602,2.079455438479781,0.1688678294420242,-0.6381172776222229,-0.5421776711940766,0.6125269920712704,0.4281811416149139,0.0014424324035644,0.438004732131958,12.646514827305964,-1.7889086400279923,0.3420089630321571,-2.16832191419189
2.5,-0.4023575186729431,-0.2131580561399459,2.075311183929444,0.0209260099038856,0.1669767807978578,-0.0031577143070359,0.140475332736969,-0.3973917365074157,-0.3052300214767456,-0.4047582368925214,-0.2206584955006838,2.0694118850678205,0.1831163898110389,-0.6781172782182694,-0.582177671790123,0.1942563057289287,0.0813715159893035,-0.1470863819122314,0.0973641872406005,13.204456614344508,-1.748286199638358,0.3511744100163223,-2.1318011143261963
2.52,-0.3990597426891327,-0.2221694588661193,2.068987369537353,0.0099814763345455,0.1607522491387585,-0.0045836753846299,0.1473645865917205,-0.4014958441257477,-0.2935785055160522,-0.4013096375018358,-0.2336208410561085,2.058368331640959,0.1973649501800537,-0.7181172788143158,-0.6221776723861694,0.707218746570592,0.3444626927375793,-0.2052053809165954,0.582575798034668,12.17593499372242,-1.7973527022861089,0.3155279149638034,-2.191530019886043
2.54,-0.3957817256450653,-0.2309480160474777,2.062441825866699,0.0068071655275784,0.1573049042044698,-0.0055674794636504,0.1479553431272506,-0.4002740979194641,-0.2895605564117431,-0.3975048241019249,-0.2475831866264343,2.046324778199196,0.2116135105490684,-0.7581172794103622,-0.6621776729822159,0.2120469999885518,0.0295378267765045,0.0610873103141784,0.2008974552154541,11.814994036959888,-1.7832001711162375,0.2685148981717802,-2.1917240280926764
2.56,-0.3922993242740631,-0.239702820777893,2.055868625640869,0.0114589498926865,0.1553004122791192,-0.0049614256317861,0.1521094143390655,-0.3945006430149078,-0.2951717376708984,-0.3883839584887028,-0.2509617209434509,2.047963798046112,0.1819437369704246,-0.4865273162722587,-0.3895605579018593,0.4529747351974208,0.207703560590744,0.2886727452278137,-0.2805590629577636,11.727913230413378,-1.811939749212513,0.257161938920985,-2.319226137266321
2.58,-0.3887583911418915,-0.2484823018312454,2.049147129058838,0.0246843533056677,0.1553528976848938,-0.0033637849676144,0.1580250263214111,-0.394521415233612,-0.2991306781768799,-0.3883839584887028,-0.2509617209434509,2.047963798046112,0.1819437369704246,-0.4865273162722587,-0.3895605579018593,0.3559076654858712,0.295780599117279,-0.0010386109352111,-0.1979470252990722,13.071741720703358,-1.783816883418709,0.2850483440724219,-2.364493401924056
2.6,-0.3870200514793396,-0.2530510127544403,2.0458738803863525,0.0316720581093633,0.154318707614146,-0.0034137211403589,0.1566249132156372,-0.3982604146003723,-0.2985298633575439,-0.3883839584887028,-0.2509617209434509,2.047963798046112,0.1819437369704246,-0.4865273162722587,-0.3895605579018593,0.2018750320168839,-0.0700056552886962,-0.1869499683380127,0.0300407409667968,12.836608435502058,-1.801597491299288,0.2740886626077924,-2.435408579158993
2.62,-0.3835947513580322,-0.2620250582695007,2.038961410522461,0.0483935302983095,0.1563242693260151,-0.0029059926125324,0.1554279774427414,-0.4024818837642669,-0.306469202041626,-0.3865645211189985,-0.2558269941061735,2.0440681924670936,0.1887414157390594,-0.5037779599428177,-0.4095605581998825,0.4535596870498758,-0.0598467886447906,-0.2110734581947326,-0.3969669342041015,12.836608435502058,-1.817165431994912,0.2657096455639383,-2.403669887127885
2.64,-0.3798696100711822,-0.2710335850715637,2.0322985649108887,0.0508014848440798,0.153054655765487,-0.0029188119415166,0.1608849316835403,-0.404607892036438,-0.305444598197937,-0.38292564637959,-0.2655575404316186,2.036276981309056,0.202336773276329,-0.5382792472839355,-0.4495605587959289,0.2972712305118654,0.2728477120399475,-0.106300413608551,0.0512301921844482,12.354895181916618,-1.809907234919326,0.282198516372697,-2.3590123453240666
2.66,-0.3761793076992035,-0.2802412807941437,2.026109218597412,0.0394463450354089,0.147636047142917,-0.0044300659976262,0.1668474823236465,-0.4098650217056274,-0.2891743183135986,-0.3792867716401815,-0.2752880867570638,2.0284857701510197,0.2159321308135986,-0.5727805346250534,-0.4895605593919754,0.905416244068452,0.29812753200531,-0.2628564834594726,0.813513994216919,12.848646582428955,-1.7556379223416745,0.3132895763306179,-2.252362053236182
