t,x,y,z,roll,pitch,yaw,v_x,v_y,v_z,ref_x,ref_y,ref_z,ref_v_x,ref_v_y,ref_v_z,a_com,a_x,a_y,a_z,thrust,wind_x,wind_y,wind_z
0.0,1.2058380842208862,0.4921236932277679,2.1256327629089355,0.0445776719608466,0.1543633515666314,0.0008659327048386,-0.0025051832199096,-0.0079742074012756,-0.0040555000305175,1.2061369121074677,0.4920447580516338,2.1259610652923584,-0.0962502732872963,-0.0968966633081436,-0.0970388427376747,0.4645185871991673,-0.1252591609954834,-0.3987103700637817,-0.2027750015258789,15.01849227326784,-2.069041779724302,0.5693183282837568,-2.5
0.02,1.2058956623077393,0.4919662177562713,2.125699520111084,0.0430041244838215,0.1537488643406338,0.0008619837233202,8.046627044677734e-05,-0.0083369761705398,-0.0037819147109985,1.2061369121074677,0.4920447580516338,2.1259610652923584,-0.0962502732872963,-0.0968966633081436,-0.0970388427376747,0.1312634125907745,0.1292824745178222,-0.018138438463211,0.0136792659759521,14.626443569580715,-2.109228041637043,0.5871014351880453,-2.5
0.04,1.2059518098831177,0.4918468296527862,2.12574315071106,0.0026383367674047,0.1370315346287225,-0.0058524296081101,0.0032481551170349,-0.008220300078392,0.0025534629821777,1.2061369121074677,0.4920447580516338,2.1259610652923584,-0.0962502732872963,-0.0968966633081436,-0.0970388427376747,0.3542064244705099,0.1583844423294067,0.0058338046073913,0.3167688846588135,14.626443569580715,-2.0974877964575507,0.5778701165842577,-2.5
0.06,1.2059447765350342,0.4917200803756714,2.125807523727417,0.0428648235992499,0.1532683570243585,0.0009937391455289,0.0011050701141357,-0.0055380910634994,0.0024300813674926,1.2051744093745946,0.4910757914185524,2.1249906768649818,-0.1162502735853195,-0.114542618393898,-0.1170388430356979,0.1717722442077345,-0.1071542501449585,0.1341104507446289,-0.0061690807342529,12.807806543128208,-2.0661685697094656,0.5136639893144966,-2.5
0.08,1.2059417963027954,0.4916983544826507,2.125739812850952,0.0477473613412606,0.1517203135178634,0.0010667342783068,-0.0002253055572509,-0.0033406913280487,-7.510185241699219e-05,1.2032494039088488,0.4891378581523895,2.123049900010228,-0.1562502741813659,-0.1498345285654068,-0.1570388436317444,0.1794046264014228,-0.0665187835693359,0.1098699867725372,-0.1252591609954834,12.898265204572454,-2.072702049272316,0.5507965346608968,-2.5
0.1,1.206024408340454,0.4916682243347168,2.125783681869507,0.0546974977263338,0.1479885549558618,0.0015821805194506,0.0017917156219482,-0.0011667609214782,-0.0005364418029785,1.2013243984431028,0.4871999248862266,2.121109123155475,-0.1962502747774124,-0.1851264387369156,-0.1970388442277908,0.1500598413961394,0.1008510589599609,0.1086965203285217,-0.0230669975280761,12.148472055136152,-2.1107850360088585,0.5768679307044547,-2.5
0.12,1.20608389377594,0.4916525483131408,2.125555515289306,0.0664908778003583,0.1417611025981017,0.0021063295558827,0.0030013918876647,-0.0004680454730987,-0.0056862831115722,1.1973993929475546,0.4834973961114883,2.117168346270919,-0.2362502753734588,-0.2204183489084243,-0.2370388448238372,0.2667976079790667,0.0604838132858276,0.0349357724189758,-0.2574920654296875,12.04402272819425,-2.093055099089168,0.6221087236777356,-2.5
0.14,1.2059507369995115,0.491506427526474,2.1248390674591064,0.0242959150266136,0.1273788529802507,-0.0044167195732305,0.0005337595939636,-0.0024890899658203,-0.0201594829559326,1.1934743874520062,0.47979486733675,2.113227569386363,-0.2762502759695053,-0.2557102590799331,-0.2770388454198838,0.7410252082643166,-0.1233816146850586,-0.1010522246360778,-0.7236599922180176,12.05453343663612,-2.053618545890528,0.6651465043561545,-2.5
0.16,1.2058831453323364,0.4914139211177826,2.124190092086792,0.0946817977002262,0.1197912164874875,0.0023632768480035,-0.0045168399810791,-0.0053691118955612,-0.0307220220565795,1.188549381941557,0.475210040807724,2.108286792486906,-0.3162502765655517,-0.2910021692514419,-0.3170388460159302,0.6028480626076242,-0.2525299787521362,-0.1440010964870453,-0.5281269550323486,12.272189097475804,-2.005266961767028,0.6184711471350809,-2.5
0.18,1.2056738138198853,0.4911337494850158,2.123204231262207,0.1144243727097039,0.1024131754223234,0.0029655013433355,-0.0062307715415954,-0.0083852559328079,-0.0367838144302368,1.1826243764162063,0.4697429165244102,2.102346015572548,-0.3562502771615982,-0.3262940794229507,-0.3570388466119766,0.3492134484412141,-0.0856965780258178,-0.1508072018623352,-0.3030896186828613,11.759042773935562,-1.988024784558283,0.6652314872861754,-2.5
0.2,1.2052905559539795,0.4906724691390991,2.121608257293701,0.1358166029914734,0.0819999680400398,0.0023677627054562,-0.013333261013031,-0.0166826695203781,-0.0580912828445434,1.2053622752428057,0.4907144866883755,2.121365040540695,-0.1062307730317115,-0.108385257422924,-0.1367838159203529,1.1971848637133309,-0.3551244735717773,-0.4148706793785095,-1.065373420715332,11.85100821578044,-1.8981990111854536,0.7388594344416541,-2.5
0.22,1.205023169517517,0.4903231859207153,2.120818853378296,0.1510327338587987,0.0653297976036107,0.0017864180671819,-0.0175336003303527,-0.0223535299301147,-0.0653600692749023,1.2053622752428057,0.4907144866883755,2.121365040540695,-0.1062307730317115,-0.108385257422924,-0.1367838159203529,0.5065490211655902,-0.2100169658660888,-0.2835430204868316,-0.3634393215179443,15.359304802385395,-1.8362176673970696,0.7911828498094218,-2.5
0.24,1.2040821313858032,0.4893951714038849,2.118651866912842,0.1124596828054533,0.0445458182219236,-0.0022289806969891,-0.0331494212150573,-0.0336067378520965,-0.0855785608291626,1.2053622752428057,0.4907144866883755,2.121365040540695,-0.1062307730317115,-0.108385257422924,-0.1367838159203529,1.3957757262255848,-0.7807910442352295,-0.5626603960990906,-1.0109245777130127,14.336826929923063,-1.7742022026643889,0.832462035129256,-2.5
0.26,1.202816605567932,0.4879047274589538,2.1165268421173096,0.1790452181256773,0.0311853628507225,0.0032348201510297,-0.0496476888656616,-0.0544153153896331,-0.0965702533721923,1.2042999675124884,0.4896306341141462,2.119997202381492,-0.1262307733297347,-0.1283852577209472,-0.1567838162183761,1.4370169097536265,-0.8249133825302124,-1.040428876876831,-0.5495846271514893,14.556869232034842,-1.6883939629681055,0.8473441822372139,-2.5
0.28,1.2010087966918943,0.4860169887542724,2.1143722534179688,0.1389481735199671,0.0102608678061074,0.0007029369593333,-0.0691500306129455,-0.0760091096162796,-0.0962913036346435,1.202175352051854,0.4874629289656877,2.1172615260630847,-0.1662307739257812,-0.1683852583169937,-0.1967838168144226,1.4549150281774883,-0.9751170873641968,-1.0796897113323212,0.0139474868774414,14.556869232034842,-1.6222877586344011,0.8758939143294564,-2.5
0.3,1.1985688209533691,0.4834547638893127,2.112365961074829,0.1677144178962932,0.0333492211411001,0.0055672881853365,-0.0955751538276672,-0.100124180316925,-0.0936198234558105,1.20005073659122,0.4852952238172293,2.1145258497446777,-0.2062307745218277,-0.2083852589130401,-0.236783817410469,1.7937116394199548,-1.321256160736084,-1.2057535350322723,0.1335740089416504,13.303812415495486,-1.5596744620544565,0.8349836070845272,-2.5
0.32,1.1955804824829102,0.480151891708374,2.1107399463653564,0.1532693970448747,0.0416443953543133,0.0065268352361086,-0.1221370697021484,-0.1319646835327148,-0.0817269086837768,1.1959261211007832,0.4811275186389684,2.109790173396468,-0.2462307751178741,-0.2483852595090866,-0.2767838180065154,2.1568463330361496,-1.32809579372406,-1.5920251607894895,0.5946457386016846,12.914201441205025,-1.5866444906910742,0.9020818666131002,-2.5
0.34,1.193838119506836,0.4784944057464599,2.1099133491516118,0.1124907113165512,0.0239404473997616,0.0035706290342157,-0.1360899209976196,-0.1405490934848785,-0.0756114721298217,1.1918015056103466,0.4769598134607077,2.105054497048259,-0.2862307757139206,-0.2883852601051331,-0.316783818602562,0.8743179023470085,-0.6976425647735596,-0.4292204976081848,0.3057718276977539,12.92045043467715,-1.566114290229407,0.8957182361218663,-2.5
0.36,1.189892053604126,0.4745970964431762,2.1083126068115234,0.1101181200581856,0.0759913992455073,0.0094272449149831,-0.1626786589622497,-0.1628127694129943,-0.072484016418457,1.1866768901050089,0.4717921082675457,2.0993188206851485,-0.326230776309967,-0.3283852607011795,-0.3567838191986084,1.7409862374603051,-1.3294368982315063,-1.1131837964057922,0.1563727855682373,12.062305800397551,-1.566114290229407,0.8957182361218663,-2.5
0.38,1.1856242418289185,0.4704469442367553,2.1062464714050293,0.0967160748142569,0.0902519844217094,0.0101074400607492,-0.1848122477531433,-0.1810678839683532,-0.0825047492980957,1.18055227458477,0.4656244030594826,2.0925831443071368,-0.3662307769060134,-0.3683852612972259,-0.3967838197946548,1.5195065380237067,-1.1066794395446775,-0.9127557277679444,-0.5010366439819336,12.062305800397551,-1.6719229743556303,0.8391595792410133,-2.5
0.4,1.180939555168152,0.4661312997341156,2.103886604309082,0.0824850398458328,0.1071659678343067,0.0108508958645667,-0.2014312148094177,-0.190480425953865,-0.0995850563049316,1.1763836294412613,0.4613935500383377,2.1021212339401245,-0.2848122492432594,-0.2330711148679256,-0.1825047507882118,1.2811351412851857,-0.8309483528137207,-0.470627099275589,-0.8540153503417969,11.34064119470986,-1.7519713198444569,0.7775846645033597,-2.5
0.42,1.178514003753662,0.4640219509601593,2.102302312850952,0.0746039626536691,0.1212992010791095,0.0116789146489563,-0.2086222171783447,-0.1908619701862335,-0.1138597726821899,1.1763836294412613,0.4613935500383377,2.1021212339401245,-0.2848122492432594,-0.2330711148679256,-0.1825047507882118,0.7994116879342172,-0.3595501184463501,-0.0190772116184234,-0.713735818862915,14.075018500604074,-1.8090301063996892,0.7509695583552686,-2.5
0.44,1.1734647750854492,0.4594640135765075,2.0992352962493896,0.0344398493140212,0.1039311218293715,0.006229237947857,-0.2234575152397155,-0.198122039437294,-0.1318949460983276,1.1763836294412613,0.4613935500383377,2.1021212339401245,-0.2848122492432594,-0.2330711148679256,-0.1825047507882118,1.222765466320164,-0.7417649030685425,-0.3630034625530243,-0.9017586708068848,13.341882270106908,-1.8840721999053351,0.7580992164370128,-2.5
0.46,1.168227195739746,0.4548925161361694,2.095542907714844,0.0703770165767678,0.1461382569797769,0.0145974481422194,-0.2314531803131103,-0.205412283539772,-0.1520866155624389,1.173535506948829,0.4590628388896584,2.1002961864322423,-0.3048122495412826,-0.2434717610478401,-0.202504751086235,1.1454058612425844,-0.3997832536697387,-0.3645122051239013,-1.0095834732055664,13.171047727888435,-1.879275027405424,0.6853212016609382,-2.5
0.48,1.1628791093826294,0.4504093825817108,2.0916078090667725,0.0671547502922616,0.1559877191370992,0.0149580224867096,-0.238177478313446,-0.2037291973829269,-0.1716184616088867,1.1678392619639637,0.4544014165922999,2.096646091416478,-0.3448122501373291,-0.264273053407669,-0.2425047516822815,1.0362697194635415,-0.3362149000167846,0.0841543078422546,-0.9765923023223876,13.171047727888435,-1.8993724234050824,0.6674041016437364,-2.5
0.5,1.157598614692688,0.4457948803901672,2.08756947517395,0.0632428479367994,0.1687146465120957,0.0151970421711747,-0.2391430735588073,-0.2046968042850494,-0.1794022321701049,1.1621430169790985,0.4497399942949414,2.092995996400714,-0.3848122507333755,-0.285074345767498,-0.2825047522783279,0.3951446616259277,-0.0482797622680664,-0.0483803451061248,-0.3891885280609131,13.602409576500122,-1.9261803938781008,0.6824795129396969,-2.5
0.52,1.1523964405059814,0.4412113726139068,2.083228826522827,0.058855902781612,0.1791620116382051,0.0151617125026969,-0.2358600497245788,-0.206955224275589,-0.1885271072387695,1.154446771964431,0.4440385073795915,2.0873459013551474,-0.4248122513294219,-0.305875638127327,-0.3225047528743743,0.4978505081058898,0.1641511917114257,-0.1129209995269775,-0.4562437534332275,12.799005517862495,-1.979516008259056,0.7017853053939825,-2.5
0.54,1.1497114896774292,0.4389053285121918,2.0812275409698486,0.0185332386779512,0.1621464194994195,0.0080064297675695,-0.2372145652770996,-0.2082031220197677,-0.1882857084274292,1.146750526949763,0.4383370204642415,2.0816958063095807,-0.4648122519254685,-0.3266769304871559,-0.3625047534704209,0.0928740349621947,-0.0677257776260376,-0.0623948872089386,0.0120699405670166,12.799005517862495,-2.0110217853716743,0.6892906771047322,-2.5
0.56,1.144651174545288,0.434156060218811,2.076786756515503,0.0528319070518128,0.1884167016620227,0.0143561566550876,-0.2327486872673034,-0.2092277258634567,-0.1928186416625976,1.1380542819201944,0.4321155012398958,2.075045711249113,-0.5048122525215148,-0.3474782228469849,-0.4025047540664673,0.322262948341016,0.2232939004898071,-0.0512301921844482,-0.2266466617584228,12.3742068011461,-2.035731169122482,0.6248375675502306,-2.5
0.58,1.1397966146469116,0.4298803210258484,2.071916341781616,0.0522630377463071,0.1860157614398273,0.013734207086213,-0.2230846881866455,-0.2030626684427261,-0.2095019817352295,1.128358036875725,0.4253739497065544,2.0673956161737443,-0.5448122531175613,-0.3682795152068138,-0.4425047546625137,1.0120951625353054,0.4831999540328979,0.3082528710365295,-0.8341670036315918,12.126005671083476,-2.0547564528353384,0.6306957285650763,-2.5
0.6,1.1350367069244385,0.4254505336284637,2.066915273666382,0.0544762114984454,0.1786015224737105,0.0129499632428503,-0.2163255214691162,-0.195874348282814,-0.2221083641052246,1.1286423802375791,0.4197271876037121,2.0614412426948547,-0.3230846896767616,-0.248235285282135,-0.2979694679379463,0.8004360653657454,0.3379583358764648,0.3594160079956054,-0.6303191184997559,12.335675264636848,-2.0453558022021627,0.6779712827915267,-2.5
0.62,1.1305032968521118,0.420878529548645,2.0617055892944336,0.0571858098468716,0.1661766391055733,0.0123740312376392,-0.2090996503829956,-0.2025403082370758,-0.2297419309616089,1.1286423802375791,0.4197271876037121,2.0614412426948547,-0.3230846896767616,-0.248235285282135,-0.2979694679379463,0.6223334677163522,0.3612935543060303,-0.333297997713089,-0.3816783428192138,14.70211192189572,-2.0396753490461514,0.7116064106220023,-2.5
0.64,1.128284573554993,0.4188001453876495,2.058778524398804,0.0168341497187194,0.1513827254097316,0.0058888877734338,-0.2060633897781372,-0.19719198346138,-0.2452611923217773,1.1286423802375791,0.4197271876037121,2.0614412426948547,-0.3230846896767616,-0.248235285282135,-0.2979694679379463,0.8346719857706894,0.1518130302429199,0.26741623878479,-0.7759630680084229,13.545653761498215,-1.9939521393434183,0.6694547971480025,-2.5
0.66,1.1237949132919312,0.41434246301651,2.053120374679565,0.0591216679015249,0.1448443149388618,0.0109896984229864,-0.1978343725204467,-0.1978906989097595,-0.2526426315307617,1.1254115333408117,0.4172448347508907,2.058461548015475,-0.3430846899747848,-0.2572698086500168,-0.3156629651784897,0.553828884000065,0.4114508628845215,-0.0349357724189758,-0.3690719604492187,13.593305577378487,-1.961763827474601,0.6409743295836078,-2.5
0.68,1.1194370985031128,0.4098766148090362,2.047614574432373,0.0563179404846212,0.1399009099359353,0.0096253308033419,-0.1990681886672973,-0.2007794380187988,-0.2511888742446899,1.1189498395472766,0.412280129045248,2.0525021586567163,-0.3830846905708313,-0.2753388553857803,-0.3510499596595764,0.1730644834384659,-0.0616908073425293,-0.1444369554519653,0.0726878643035888,14.054780826535534,-1.8767995597278408,0.6499263214825112,-2.5
0.7000000000000001,1.1151005029678345,0.4056473970413208,2.042203426361084,0.0536277886108517,0.1373739686240925,0.0082411155032138,-0.1956242322921753,-0.1956389844417572,-0.2456313371658325,1.1124881457537412,0.4073154233396053,2.0465427692979574,-0.4230846911668777,-0.2934079021215439,-0.3864369541406631,0.4158464767024577,0.1721978187561035,0.2570226788520813,0.2778768539428711,13.259585683806108,-1.8752121277275748,0.625443630809964,-2.5
0.72,1.1130695343017578,0.4033898115158081,2.0396504402160645,0.0505168618830924,0.1360927124562956,0.007331780805805,-0.1933389902114868,-0.1993934065103531,-0.2380836009979248,1.1040264519304035,0.4014472652971744,2.038814030215144,-0.4630846917629241,-0.3114769488573074,-0.4218239486217499,0.4367102520460547,0.1142621040344238,-0.1877211034297943,0.3773868083953857,13.17323107278662,-1.8584612651843544,0.6835884545398389,-2.5
0.74,1.108514428138733,0.3992145657539367,2.034135103225708,0.0088052138972336,0.1196281088948375,0.0002560544340077,-0.196927785873413,-0.1922560483217239,-0.2433031797409057,1.095564758107066,0.3955791072547436,2.0310852911323307,-0.5030846923589707,-0.329545995593071,-0.4572109431028366,0.477140803301371,-0.1794397830963134,0.3568679094314575,-0.2609789371490478,14.228139457504312,-1.8276767206547837,0.6358638824722183,-2.5
0.76,1.1043193340301514,0.3949046730995178,2.028811454772949,0.0459004598820396,0.1298746489610832,0.005256229956734,-0.196879506111145,-0.1909156143665313,-0.2438771724700927,1.0861030642688274,0.3892592230439186,2.0224718771874906,-0.543084692955017,-0.3476150423288345,-0.4925979375839233,0.0729479570796434,0.0024139881134033,0.0670216977596283,-0.0286996364593505,12.555681160075435,-1.8287985940460316,0.5897556400854598,-2.5
0.78,1.099668025970459,0.3907815515995025,2.023162841796875,0.0469151930980898,0.1218699948886094,0.0044347284464277,-0.1990440487861633,-0.1897428184747696,-0.2468758821487426,1.0756413704156875,0.3824876126646995,2.0129737883806227,-0.5830846935510635,-0.3656840890645981,-0.5279849320650101,0.1939906887748567,-0.1082271337509155,0.0586397945880889,-0.1499354839324951,12.407978617472509,-1.8078740979469148,0.6192452464384319,-2.5
0.8,1.0951817035675049,0.3867227137088775,2.017673254013061,0.0500828525847443,0.1149915050462091,0.0040222671019772,-0.2055966854095459,-0.1840940862894058,-0.2506095170974731,1.0897158235311508,0.3812944106757641,2.010819047689438,-0.2990440502762794,-0.2325700484216213,-0.3088975213468075,0.4711296317109565,-0.3276318311691284,0.2824366092681885,-0.1866817474365234,12.241207876844785,-1.8016691108214544,0.620000898092725,-2.5
0.8200000000000001,1.0927965641021729,0.3847138881683349,2.014734029769897,0.057814782066241,0.1023054253132032,0.003123333279066,-0.2085095643997192,-0.1827704161405563,-0.2542197704315185,1.0897158235311508,0.3812944106757641,2.010819047689438,-0.2990440502762794,-0.2325700484216213,-0.3088975213468075,0.2411995844230172,-0.145643949508667,0.0661835074424743,-0.1805126667022705,16.33308437947244,-1.8116796670783923,0.6510789378256937,-2.5
0.84,1.0879210233688354,0.3806755840778351,2.00888991355896,0.0165884411302606,0.0840050777626788,-0.0024444778332453,-0.214557945728302,-0.1811423152685165,-0.2591389417648315,1.0897158235311508,0.3812944106757641,2.010819047689438,-0.2990440502762794,-0.2325700484216213,-0.3088975213468075,0.3982206541352847,-0.3024190664291382,0.0814050436019897,-0.2459585666656494,16.33308437947244,-1.8051024200221808,0.683178447164649,-2.5
0.86,1.0827418565750122,0.3765566349029541,2.002856492996216,0.0687268860713174,0.0841862036267968,0.0033085803856383,-0.2262309193611145,-0.1835381984710693,-0.2672445774078369,1.086725383028388,0.3789687101915479,2.0077300724759697,-0.3190440505743027,-0.2411354944109916,-0.3213018491864204,0.7205898606866628,-0.583648681640625,-0.1197941601276397,-0.4052817821502685,14.61430526780714,-1.7552875784357165,0.6345894248880299,-2.5
0.88,1.0773690938949585,0.3725294768810272,1.9970940351486208,0.0688186578134622,0.0877151135030386,0.0025733875514614,-0.2374184131622314,-0.1832874119281768,-0.2654072642326355,1.0807445020228623,0.3743173092231154,2.0015521220490338,-0.3590440511703491,-0.2582663863897323,-0.3461105048656464,0.567006682376616,-0.5593746900558472,0.0125393271446228,0.0918656587600708,14.118826244611228,-1.7349925516119884,0.648932116276274,-2.5
0.9,1.0714837312698364,0.3682612776756286,1.9915634393692017,0.0681642796751692,0.0942795046857576,0.0024348227817127,-0.2533078193664551,-0.1866455376148224,-0.2540937066078186,1.0747636210173368,0.369665908254683,1.9953741716220972,-0.3990440517663955,-0.275397278368473,-0.3709191605448723,0.9896297587736806,-0.7944703102111816,-0.1679062843322754,0.5656778812408447,13.373264070939513,-1.7224300741618157,0.6717207712677603,-2.5
0.92,1.0657343864440918,0.3644251823425293,1.986256718635559,0.0652628863903792,0.1062852514646391,0.0020014012532985,-0.2617809176445007,-0.1823466271162033,-0.2438396215438842,1.066782739982009,0.3641579626873136,1.9879557884112,-0.439044052362442,-0.2925281703472137,-0.3957278162240982,0.6989640305533587,-0.4236549139022827,0.2149455249309539,0.5127042531967163,13.859627050458585,-1.7944181010839362,0.7030036949545523,-2.5
0.94,1.062796950340271,0.3623157143592834,1.9837799072265625,0.0225330364080659,0.0895210200424912,-0.0041420874879168,-0.2649915218353271,-0.1851139962673187,-0.2380219101905822,1.058801858946681,0.3586500171199441,1.9805374052003024,-0.4790440529584885,-0.3096590623259544,-0.4205364719033241,0.3599030309647184,-0.1605302095413208,-0.1383684575557708,0.2908855676651001,13.859627050458585,-1.827655021331157,0.7567518609763169,-2.5
0.96,1.056643843650818,0.3581287860870361,1.978654265403748,0.0574577724620801,0.1340507981315311,0.0010895725623369,-0.2740547060966491,-0.1881401985883712,-0.235307514667511,1.0498209778964518,0.3527137992531061,1.9724988055974244,-0.5190440535545349,-0.3267899543046951,-0.44534512758255,0.4966567036150033,-0.4531592130661011,-0.1513101160526275,0.1357197761535644,12.66785298959894,-1.7886120731283397,0.6885969233358318,-2.5
0.98,1.0501587390899658,0.3540414571762085,1.9731985330581665,0.0159131345577275,0.1186711226183708,-0.0037651585869797,-0.2843597531318664,-0.1861707866191864,-0.2380809187889099,1.0398400968313215,0.3463493090867996,1.9638399896025656,-0.5590440541505813,-0.3439208462834358,-0.4701537832617759,0.5425964161395691,-0.5152523517608643,0.0984705984592437,-0.1386702060699463,12.66785298959894,-1.8491360041699856,0.6881211480833509,-2.5
1.0,1.0437579154968262,0.3497766852378845,1.967790365219116,0.0563411599350098,0.1515928151177111,0.0013975566303494,-0.2899333834648132,-0.1879222691059112,-0.2444377541542053,1.0359407514333725,0.3447329178452492,1.961294487118721,-0.3843597546219826,-0.2176058478653431,-0.3057463318109512,0.4316897087351015,-0.2786815166473388,-0.0875741243362426,-0.3178417682647705,12.170532627159446,-1.8812108093235784,0.639404803738844,-2.5
1.02,1.037409782409668,0.3455967903137207,1.9619805812835691,0.060988078309185,0.1556847741945662,0.0014474746666227,-0.2868515253067016,-0.1900050044059753,-0.2524039149284363,1.0359407514333725,0.3447329178452492,1.961294487118721,-0.3843597546219826,-0.2176058478653431,-0.3057463318109512,0.439588880426211,0.1540929079055786,-0.1041367650032043,-0.3983080387115478,15.176525362580378,-1.9354413516097264,0.6472539566698936,-2.5
1.04,1.0341380834579468,0.3435409665107727,1.959033250808716,0.0195569107425093,0.1392378731997509,-0.0043640140253325,-0.2898743748664856,-0.1867561787366867,-0.2582859992980957,1.0359407514333725,0.3447329178452492,1.961294487118721,-0.3843597546219826,-0.2176058478653431,-0.3057463318109512,0.368413504849871,-0.1511424779891967,0.1624412834644317,-0.2941042184829712,15.176525362580378,-1.9396417623025055,0.6414807515511127,-2.5
1.06,1.0277920961380005,0.3393189609050751,1.952944040298462,0.0683055718370028,0.1597203927385785,0.0022597996368578,-0.2890241146087646,-0.1878518611192703,-0.2696183323860168,1.0320971538871526,0.3425568593665957,1.9582370238006117,-0.4043597549200058,-0.2238928601145744,-0.3192794144153595,0.5708441897859611,0.0425130128860473,-0.0547841191291809,-0.5666166543960571,15.193943207968914,-1.9428272168164555,0.6142451647448215,-2.5
1.08,1.0213427543640137,0.3350459039211273,1.9470468759536743,0.0673861637827638,0.1653671906977633,0.0022080316666846,-0.2878949046134949,-0.1911389082670211,-0.2696934342384338,1.024409958794713,0.3382047424092889,1.9521220971643924,-0.4443597555160522,-0.2364668846130371,-0.346345579624176,0.1738205572795595,0.0564604997634887,-0.1643523573875427,-0.0037550926208496,14.447794979018,-1.927701448219924,0.6449460198715927,-2.5
1.1,1.0152287483215332,0.3308879733085632,1.9413206577301023,0.0648079789332219,0.1700796083212358,0.0022118603144678,-0.2826753258705139,-0.1896972209215164,-0.2615261077880859,1.016722763702273,0.333852625451982,1.9460071705281732,-0.4843597561120987,-0.2490409091114998,-0.3734117448329925,0.489968585735146,0.2609789371490478,0.072084367275238,0.408366322517395,13.71955027923832,-1.9403974858425896,0.6337552728952685,-2.5
1.12,1.0120353698730469,0.3286601901054382,1.9382442235946653,0.0597463087545022,0.17533575566565,0.001645304053382,-0.2790972590446472,-0.1927133649587631,-0.2634787559509277,1.0070355685800314,0.328871807269752,1.9385389356315132,-0.5243597567081452,-0.2616149336099624,-0.400477910041809,0.2535375806051052,0.1789033412933349,-0.1508072018623352,-0.0976324081420898,13.292695943529909,-1.9662228995472013,0.698610854374342,-2.5
1.14,1.0061622858047483,0.3243807852268219,1.9326393604278564,0.0183201623295761,0.1571726344551184,-0.0052046867618032,-0.2719545364379883,-0.191841647028923,-0.2596405148506164,0.9973483734577894,0.323890989087522,1.931070700734853,-0.5643597573041916,-0.2741889581084251,-0.4275440752506256,0.4077697669304336,0.3571361303329468,0.0435858964920043,0.1919120550155639,12.740794672505215,-1.9927719660060976,0.6850003078272481,-2.5
1.16,1.0003725290298462,0.3200840651988983,1.9267550706863403,0.0496087500184911,0.176589133528574,0.0006559936065043,-0.2624139189720154,-0.1929628103971481,-0.2585059404373169,0.9866611783206464,0.3185958202928304,1.9229258117079733,-0.604359757900238,-0.2867629826068878,-0.4546102404594421,0.4836518583381828,0.477030873298645,-0.0560581684112548,0.056728720664978,12.531525424663414,-2.011428535932097,0.6373075562551191,-2.5
1.18,0.9946487545967102,0.3158025741577148,1.9208054542541504,0.0451029493154134,0.1713963362242078,0.0003827155509137,-0.2590544521808624,-0.1930097490549087,-0.2662628889083862,0.974973983168602,0.3129863008856773,1.914104268550873,-0.6443597584962845,-0.2993370071053505,-0.4816764056682586,0.4226655591045857,0.1679733395576477,-0.002346932888031,-0.3878474235534668,12.531525424663414,-2.01167121534068,0.642730526942155,-2.5
1.2,0.9889076948165894,0.3115196228027344,1.9148414134979248,0.0435518329656996,0.1620148089277689,9.912809520476744e-05,-0.2579587697982788,-0.1926999539136886,-0.2680572867393493,0.9816960319876672,0.3061520867049694,1.907492309808731,-0.3590544536709785,-0.2256195098161697,-0.2942463885992765,0.1062586054020202,0.0547841191291809,0.0154897570610046,-0.0897198915481567,12.382674353494622,-2.0297934382977063,0.6381707147150083,-2.5
1.22,0.986283242702484,0.3094319403171539,1.9117670059204104,0.0454149430336695,0.1487677831693122,0.0001315964872091,-0.2500529587268829,-0.1905937492847442,-0.2692320942878723,0.9816960319876672,0.3061520867049694,1.907492309808731,-0.3590544536709785,-0.2256195098161697,-0.2942463885992765,0.4132738783532625,0.3952905535697937,0.1053102314472198,-0.0587403774261474,15.336701741759498,-2.029583579887422,0.6371772644457684,-2.5
1.24,0.9808366894721984,0.3053064346313476,1.905639886856079,0.0486845272154963,0.1337289136045983,0.0002158783064742,-0.2467685937881469,-0.1871504634618759,-0.2744007110595703,0.9816960319876672,0.3061520867049694,1.907492309808731,-0.3590544536709785,-0.2256195098161697,-0.2942463885992765,0.3512757806960297,0.1642182469367981,0.1721642911434173,-0.2584308385848999,14.640785817528922,-1.8791021606017932,0.6556443122368101,-2.5
1.26,0.9753208160400392,0.3012617826461792,1.8991519212722776,0.0500886649474616,0.1266302209648549,0.0003843248035686,-0.246654599905014,-0.1838285475969314,-0.2838394045829773,0.9781054874509572,0.3038958916068077,1.9045498459227383,-0.3790544539690018,-0.2321414619684219,-0.2998430885374546,0.5003425202997601,0.0056996941566467,0.1660957932472229,-0.4719346761703491,14.87733788343212,-1.8791021606017932,0.6556443122368101,-2.5
1.28,0.9698919653892516,0.29730886220932,1.8930789232254028,0.050629987737019,0.1213928770341615,0.0005631447874327,-0.2462562918663025,-0.1799453794956207,-0.282621681690216,0.9709243983775376,0.2993835014104843,1.898664918150753,-0.4190544545650482,-0.2451853662729263,-0.3110364884138107,0.2044534961812477,0.0199154019355773,0.1941584050655365,0.0608861446380615,14.80104529064556,-1.852512494370129,0.6668378630922879,-2.5
1.3,0.96438467502594,0.2932876944541931,1.887568473815918,0.0483339256055394,0.1195265375667758,0.0004660559804526,-0.2460631728172302,-0.1794169843196869,-0.2606275677680969,0.963743309304118,0.2948711112141609,1.8927799903787672,-0.4590544551610946,-0.2582292705774307,-0.3222298882901668,1.100065388565857,0.0096559524536132,0.0264197587966918,1.099705696105957,14.683851463102656,-1.7973573766135578,0.6927790625557587,-2.5
1.32,0.958657681941986,0.2894799709320068,1.8819944858551023,0.0443373103468494,0.1213063070297557,0.0004948698187616,-0.2527713775634765,-0.1761500537395477,-0.2493998408317566,0.9545622202008962,0.2897065258026123,1.886335392612964,-0.4990544557571411,-0.2712731748819351,-0.333423288166523,0.6740450624587954,-0.3354102373123169,0.163346529006958,0.5613863468170166,13.504546781698991,-1.7990999408182415,0.6998700288211599,-2.5
1.34,0.9556797742843628,0.2874652445316314,1.8791849613189695,0.0035706032554378,0.1041243391234009,-0.0058742810279421,-0.2568429708480835,-0.1762097328901291,-0.2509823441505432,0.9453811310976744,0.2845419403910637,1.8798907948471604,-0.5390544563531876,-0.2843170791864395,-0.3446166880428791,0.2184362048187128,-0.2035796642303466,-0.0029839575290679,-0.079125165939331,13.27811393261345,-1.8300118148000364,0.7168316958736345,-2.5
1.36,0.9498504996299744,0.2837163209915161,1.8739173412323,0.0382598067721658,0.1226272604967142,0.0001448898278068,-0.2623428404331207,-0.1717773824930191,-0.2451968193054199,0.9352000419795512,0.2790512573719025,1.8731663620844483,-0.579054456949234,-0.2973609834909439,-0.3558100879192352,0.4565265414757326,-0.2749934792518616,0.2216175198554992,0.2892762422561645,14.028321215691449,-1.826206557360868,0.6293311266340116,-2.5
1.38,0.9438510537147522,0.2799359858036041,1.8688708543777464,0.036858793961313,0.1205824194810201,0.0001560726668016,-0.2661462128162384,-0.1694083213806152,-0.2320674061775207,0.924018952846527,0.2732344767451286,1.8661620943248272,-0.6190544575452804,-0.3104048877954483,-0.3670034877955913,0.6936490126894465,-0.1901686191558838,0.1184530556201934,0.6564706563949585,13.098686397735946,-1.8524551418547055,0.6515694084614093,-2.5
1.4,0.937729001045227,0.2764396965503692,1.8634699583053589,0.0380702500500226,0.1156189987836045,0.0002763932134305,-0.2727337181568146,-0.1637240499258041,-0.2350661158561706,0.9305437430739404,0.2714655697345733,1.8572674840688703,-0.3661462143063545,-0.1980515513569116,-0.2535300906747579,0.4601587452198655,-0.3293752670288086,0.2842135727405548,-0.1499354839324951,13.211872355997455,-1.8639606665714907,0.6509711896530462,-2.5
1.42,0.9314470291137696,0.2729201912879944,1.858217477798462,0.0390856352232652,0.1102267872955478,0.0004984912879476,-0.27909055352211,-0.1578553766012191,-0.239700973033905,0.9305437430739404,0.2714655697345733,1.8572674840688703,-0.3661462143063545,-0.1980515513569116,-0.2535300906747579,0.4907458189077146,-0.3178417682647705,0.293433666229248,-0.2317428588867187,16.432012004877834,-1.8689274300920693,0.6626374418406127,-2.5
1.44,0.928127110004425,0.2712902724742889,1.855773687362671,0.0428310155030575,0.1018300184009137,0.0004223317818527,-0.2851013839244842,-0.1544436067342758,-0.2346181869506836,0.9305437430739404,0.2714655697345733,1.8572674840688703,-0.3661462143063545,-0.1980515513569116,-0.2535300906747579,0.4289666948577681,-0.3005415201187134,0.1705884933471679,0.2541393041610718,13.90688866909477,-1.8538284228065596,0.6832170070269638,-2.5
1.46,0.9215148687362672,0.2678253054618835,1.8506617546081543,0.0475815997167671,0.100638956112907,0.00087137582367,-0.2950362861156463,-0.155847743153572,-0.227641761302948,0.9268822809308768,0.2694850542210042,1.854732183162123,-0.3861462146043777,-0.2037801973521709,-0.2578226275742054,0.6110327230401307,-0.4967451095581054,-0.0702068209648132,0.3488212823867798,14.828794625227149,-1.839865278257568,0.6908801506961468,-2.5
1.48,0.9146801829338074,0.264757364988327,1.8459465503692627,0.0062178819568837,0.0835415476611091,-0.005119348343501,-0.3025558590888977,-0.146990418434143,-0.2211105823516845,0.9195593566447496,0.265524023193866,1.849661581348628,-0.4261462152004241,-0.2152374893426895,-0.2664077013731002,0.6664316870071658,-0.3759786486625671,0.4428662359714508,0.3265589475631714,14.306661951187834,-1.8348355840363253,0.6739384528970499,-2.5
1.5,0.9078620672225952,0.2615292072296142,1.841350793838501,0.0486427538181869,0.1147617390737296,0.001251571652569,-0.3071880340576172,-0.1416622102260589,-0.2094966173171997,0.9122364323586224,0.2615629921667278,1.8445909795351327,-0.4661462157964706,-0.226694781333208,-0.2749927751719951,0.6795789716283221,-0.2316087484359741,0.2664104104042053,0.5806982517242432,13.540890637156735,-1.7818410573544947,0.663623047626371,-2.5
1.52,0.9007995128631592,0.258375734090805,1.8372997045516968,0.0481395017449932,0.1283215930633583,0.0015718948671647,-0.3123150765895843,-0.1435866951942443,-0.1945540308952331,0.9029135080426932,0.2570290965400636,1.8390911240316927,-0.5061462163925171,-0.2381520733237266,-0.28357784897089,0.795724664213871,-0.2563521265983581,-0.0962242484092712,0.7471293210983276,13.349666602600337,-1.8233955244091729,0.7075346102868804,-2.5
1.54,0.8972721099853516,0.2568119764328003,1.835273623466492,0.0051566740805849,0.1096292537422514,-0.0043301389669177,-0.3146834671497345,-0.1407938450574875,-0.1875025033950805,0.8935905837267637,0.2524952009133995,1.833591268528253,-0.5461462169885636,-0.2496093653142452,-0.2921629227697849,0.397282411570156,-0.1184195280075073,0.1396425068378448,0.3525763750076294,13.349666602600337,-1.8539698201498125,0.6837474897353945,-2.5
1.56,0.8899047374725342,0.253840297460556,1.8310203552246092,0.0492656546124331,0.1541751897866736,0.0020185145472747,-0.3230667114257812,-0.1377937942743301,-0.1897770166397094,0.8832676593959331,0.2476748729869723,1.8278767861798408,-0.5861462175846099,-0.2610666573047638,-0.3007479965686798,0.4594902060800262,-0.4191622138023376,0.1500025391578674,-0.1137256622314453,13.937776409948585,-1.830597093984631,0.635053531266961,-2.5
1.58,0.8825302720069885,0.2507514357566833,1.8268463611602783,0.0079723785062661,0.1380054035001304,-0.0041188391693846,-0.3316913545131683,-0.1363621652126312,-0.189613401889801,0.8719447350502014,0.2425681127607822,1.821947676986456,-0.6261462181806564,-0.2725239492952823,-0.3093330703675747,0.4372093318466062,-0.4312321543693542,0.0715814530849456,0.0081807374954223,13.937776409948585,-1.9331111242100312,0.652384886802777,-2.5
1.6,0.8753670454025269,0.2477902472019195,1.8227999210357664,0.0549582502486584,0.1656988294519706,0.0027136274973145,-0.3270980715751648,-0.1361261308193206,-0.1849597692489624,0.8659457042813301,0.2439333274960518,1.8173656910657885,-0.4316913560032844,-0.1770003177225589,-0.2174284756183624,0.3271477385649279,0.229664146900177,0.0118017196655273,0.2326816320419311,12.863396019916763,-1.989548210644743,0.5948851699089786,-2.5
1.62,0.8684278130531311,0.2449347376823425,1.818324327468872,0.0614002181286557,0.1656007869659117,0.0032190780957812,-0.317305326461792,-0.1308757066726684,-0.1917457580566406,0.8659457042813301,0.2439333274960518,1.8173656910657885,-0.4316913560032844,-0.1770003177225589,-0.2174284756183624,0.6509885841417837,0.4896372556686401,0.2625212073326111,-0.3392994403839111,14.055926595645817,-1.9745693374825868,0.6213785134043999,-2.5
1.64,0.864629864692688,0.2434595823287964,1.815763592720032,0.02022859490176,0.1487427134346574,-0.0036309969433885,-0.3260251879692077,-0.1323737204074859,-0.2080696821212768,0.8659457042813301,0.2439333274960518,1.8173656910657885,-0.4316913560032844,-0.1770003177225589,-0.2174284756183624,0.9283729405877562,-0.4359930753707886,-0.0749006867408752,-0.8161962032318115,14.11467457380786,-1.943948206821698,0.6679451009865346,-2.5
1.66,0.8577327132225037,0.240471601486206,1.8115178346633911,0.070361693459301,0.1590704091801322,0.0043155286722251,-0.3167702257633209,-0.1335398107767105,-0.2037110924720764,0.8616287907212973,0.2421633243188262,1.8151914063096048,-0.4516913563013077,-0.1851279482245445,-0.2229914903640747,0.5148091780254828,0.462748110294342,-0.0583045184612274,0.2179294824600219,14.224162021887878,-1.996781667078667,0.6095005480642147,-2.5
1.68,0.8508735299110413,0.2375554740428924,1.806933879852295,0.0710490580890575,0.1585937699426993,0.0038095398188537,-0.3095175325870514,-0.1328424364328384,-0.1986685395240783,0.8529949636012315,0.238623317964375,1.8108428367972371,-0.4916913568973541,-0.2013832092285156,-0.2341175198554992,0.4430440991536887,0.3626346588134765,0.0348687171936035,0.2521276473999023,14.498043995177795,-1.9393869343906065,0.6352158936803564,-2.5
1.7,0.8439924716949463,0.2346363961696624,1.8026103973388672,0.0716893705217867,0.160135152966235,0.0036625449311258,-0.3091554343700409,-0.1312921196222305,-0.2004173398017883,0.8443611364811658,0.2350833116099238,1.80649426728487,-0.5316913574934006,-0.2176384702324867,-0.2452435493469238,0.118246561718873,0.0181049108505249,0.0775158405303955,-0.087440013885498,13.476764750322218,-1.9106980131537876,0.6656763940164513,-2.5
1.72,0.8373650312423706,0.2317050397396087,1.7984174489974976,0.0687338207103996,0.1615396563490618,0.0032433607577033,-0.3039412200450897,-0.131634771823883,-0.1916196942329406,0.8337273093312978,0.2307305422052741,1.801589396297932,-0.571691358089447,-0.2338937312364578,-0.2563695788383484,0.511624884834798,0.2607107162475586,-0.0171326100826263,0.4398822784423828,13.042353359527624,-1.9396412993252783,0.7525493120696072,-2.5
1.74,0.8340483903884888,0.230140283703804,1.7963956594467163,0.0282879386768863,0.1440224040210712,-0.0028030380485269,-0.3011463582515716,-0.1365331560373306,-0.1880013942718505,0.8230934821814299,0.2263777728006243,1.796684525310993,-0.6116913586854935,-0.2501489922404289,-0.267495608329773,0.3350280397065443,0.1397430896759033,-0.2449192106723785,0.1809149980545044,13.042353359527624,-1.9396412993252783,0.7525493120696072,-2.5
1.76,0.8276782035827637,0.2270029485225677,1.7922742366790771,0.0616382769727321,0.1583345213045061,0.0021413650947879,-0.2935919165611267,-0.1372435986995697,-0.1871725916862487,0.8114596550166606,0.2216186218708753,1.791501503586769,-0.6516913592815399,-0.2664042532444,-0.2786216378211975,0.3816452271303883,0.3777220845222473,-0.0355221331119537,0.0414401292800903,13.108796530676043,-1.931549420103173,0.6803569123579088,-2.5
1.78,0.8213527202606201,0.2239260077476501,1.7880992889404297,0.0188562544556282,0.1393249859389466,-0.0041212458550844,-0.2856525778770447,-0.1398212015628814,-0.1866683363914489,0.7988258278369903,0.2164530894160271,1.7860403311252593,-0.6916913598775863,-0.2826595142483711,-0.2897476673126221,0.4181250072162871,0.3969669342041015,-0.1288801431655883,0.0252127647399902,13.108796530676043,-1.91947424183606,0.706559683303367,-2.5
1.8,0.81477952003479,0.2208422720432281,1.7836699485778809,0.0587404204873116,0.1429049147796657,0.0015981207268188,-0.2902203798294067,-0.138615220785141,-0.1935964822769165,0.8070700913667679,0.216934947669506,1.7787658721208572,-0.3856525793671608,-0.1627681516110897,-0.2066982965916395,0.4192803647996255,-0.228390097618103,0.0602990388870239,-0.3464072942733764,12.918844880098732,-1.8800867852112615,0.639475462899509,-2.5
1.82,0.8083360195159912,0.2176558226346969,1.779276967048645,0.0615777532840762,0.1289942521932595,0.0020024462605165,-0.2928757667541504,-0.1410791575908661,-0.198502242565155,0.8070700913667679,0.216934947669506,1.7787658721208572,-0.3856525793671608,-0.1627681516110897,-0.2066982965916395,0.304912070556269,-0.1327693462371826,-0.1231968402862548,-0.2452880144119262,16.010122306724497,-1.9079960459737968,0.6565300206121328,-2.5
1.84,0.8049903512001038,0.2161032855510711,1.7771774530410769,0.0186157575494995,0.112881798502817,-0.0042535458300003,-0.2943550050258636,-0.1401001513004303,-0.1954525709152221,0.8070700913667679,0.216934947669506,1.7787658721208572,-0.3856525793671608,-0.1627681516110897,-0.2066982965916395,0.1764022133762661,-0.0739619135856628,0.0489503145217895,0.152483582496643,16.010122306724497,-1.9089370357786184,0.6543068839633391,-2.5
1.86,0.7986160516738892,0.2129617929458618,1.7730897665023804,0.0690206819069233,0.1091798000818036,0.0042325029986488,-0.2921622991561889,-0.1416343748569488,-0.1909893751144409,0.8032135655730963,0.2153072661533951,1.776698889154941,-0.405652579665184,-0.1673575416207313,-0.2107042886316776,0.2602014494021585,0.1096352934837341,-0.0767111778259277,0.2231597900390625,14.087209950480885,-1.869006001741358,0.6109324230163803,-2.5
1.88,0.7920370101928711,0.2097905725240707,1.769160509109497,0.069730165114624,0.1086522974295467,0.0051527171076619,-0.291450172662735,-0.1420360505580902,-0.1803812384605407,0.795500513985753,0.2120519031211734,1.772564923223108,-0.4456525802612304,-0.1765363216400146,-0.2187162727117538,0.5319798651720435,0.0356063246726989,-0.0200837850570678,0.5304068326950073,14.129929573826304,-1.7934909807559505,0.6345786322529168,-2.5
1.9,0.7853454947471619,0.2065405845642089,1.7655243873596191,0.0694721203367924,0.1130902851727365,0.0057688049120424,-0.2985875308513641,-0.1444771885871887,-0.1702210307121276,0.7877874623984098,0.2087965400889516,1.7684309572912753,-0.4856525808572769,-0.1857151016592979,-0.22672825679183,0.6327141105602432,-0.3568679094314575,-0.1220569014549255,0.5080103874206543,13.864996665366562,-1.744711206430827,0.6585760060845163,-2.5
1.92,0.7783157825469971,0.2032782435417175,1.7623473405838013,0.0665182338794773,0.1181459628830765,0.0060393629773359,-0.3087276220321655,-0.1465274095535278,-0.1532962918281555,0.7780744107812643,0.2050822380557656,1.7638963921554387,-0.5256525814533234,-0.1948938816785812,-0.2347402408719062,0.991805980845576,-0.5070045590400696,-0.1025110483169555,0.8462369441986084,13.458654912034945,-1.7962204725649642,0.6948563357993871,-2.5
1.94,0.774909257888794,0.2016926258802414,1.7606797218322754,0.0253447359482412,0.1013283269471037,-0.0001576500403526,-0.3098715841770172,-0.1473873853683471,-0.1497074961662292,0.7683613591641187,0.2013679360225796,1.759361827019602,-0.5656525820493699,-0.2040726616978645,-0.2427522249519825,0.1931816638166563,-0.0571981072425842,-0.0429987907409668,0.1794397830963134,13.458654912034945,-1.854727094056643,0.7269098173439726,-2.5
1.96,0.76771080493927,0.198328897356987,1.75786554813385,0.056546290598244,0.132547141614238,0.0058464690845324,-0.315932035446167,-0.1483057141304016,-0.1336678862571716,0.757648307532072,0.1974241644889116,1.7546269622817636,-0.6056525826454162,-0.2132514417171478,-0.2507642090320587,0.8585474409368636,-0.303022563457489,-0.0459164381027221,0.8019804954528809,13.36830295785785,-1.8269104405397047,0.680577760129443,-2.5
1.98,0.7603716254234314,0.1951020658016204,1.7545795440673828,0.0514521019203309,0.1372757296322538,0.0055772061058683,-0.3270967304706573,-0.1482875943183899,-0.137253999710083,0.7459352558851242,0.1932509234547615,1.7496917979419233,-0.6456525832414627,-0.2224302217364311,-0.2587761931121349,0.5863253214185343,-0.5582347512245178,0.0009059906005859,-0.1793056726455688,12.402218168807847,-1.8565953131518524,0.6958037660894401,-2.5
2.0,0.7531560659408569,0.1917561888694763,1.7515099048614502,0.0475477744520122,0.1388375380956552,0.0054110438400904,-0.3274816274642944,-0.1478859484195709,-0.1430019736289978,0.7440167888998985,0.187687686085701,1.7477168440818789,-0.4270967319607734,-0.1684939991682768,-0.1496262373402714,0.2887415336259821,-0.0192448496818542,0.0200822949409484,-0.2873986959457397,12.804946432301222,-1.9423759042391349,0.6836209489640586,-2.5
2.02,0.7459115982055664,0.1885885745286941,1.7482844591140747,0.0436739399744257,0.1369935129233118,0.0049749391121296,-0.3253506124019623,-0.1465535461902618,-0.1416394114494323,0.7440167888998985,0.187687686085701,1.7477168440818789,-0.4270967319607734,-0.1684939991682768,-0.1496262373402714,0.1429431407040612,0.1065507531166076,0.0666201114654541,0.0681281089782714,14.48957826983542,-1.9329483922040147,0.6797034886216176,-2.5
2.04,0.7420633435249329,0.186937615275383,1.746504545211792,0.0402112312265517,0.1325634663566242,0.0048197978788682,-0.3325563669204712,-0.1453794240951538,-0.1491495966911316,0.7440167888998985,0.187687686085701,1.7477168440818789,-0.4270967319607734,-0.1684939991682768,-0.1496262373402714,0.523699205746651,-0.3602877259254455,0.0587061047554016,-0.3755092620849609,14.48957826983542,-1.89482765671312,0.6758805570910607,-2.5
2.06,0.7347901463508606,0.183937206864357,1.7432947158813477,0.0371515508670825,0.1327020070925439,0.0041717588822073,-0.332011878490448,-0.1407646834850311,-0.1480686664581298,0.7397458215802908,0.1860027460940182,1.746220581708476,-0.4470967322587967,-0.1725352801382541,-0.1521006848663091,0.2385409226828894,0.0272244215011596,0.230737030506134,0.0540465116500854,14.826610489074485,-1.9208644170794515,0.6651681175452804,-2.5
2.08,0.7273082137107849,0.180963933467865,1.7399625778198242,0.0346331294814688,0.1377013299059245,0.0038889396034206,-0.3319904208183288,-0.1344078481197357,-0.1471942663192749,0.7312038869410753,0.1826328661106527,1.7432280569616705,-0.4870967328548431,-0.1806178420782089,-0.1570495799183845,0.3208363753379314,0.001072883605957,0.3178417682647705,0.043720006942749,14.26823713709291,-1.8904096182389905,0.6599186349908498,-2.5
2.1,0.719772458076477,0.1780250668525695,1.7368443012237549,0.0340071027775815,0.1431598853511158,0.003483405903157,-0.3378979861736297,-0.1330231428146362,-0.1451343297958374,0.7226619523018598,0.1792629861272871,1.740235532214865,-0.5270967334508896,-0.1887004040181636,-0.1619984749704599,0.3203906821745676,-0.2953782677650451,0.0692352652549743,0.102996826171875,13.111718330804251,-1.861546160802083,0.6800396377307459,-2.5
2.12,0.7123351693153381,0.1753404140472412,1.7337167263031006,0.033845578667281,0.1521300274225984,0.0036676776361203,-0.3368934988975525,-0.126529186964035,-0.1405316591262817,0.712120017632842,0.1754889780469239,1.736995562715456,-0.5670967340469361,-0.1967829659581184,-0.1669473700225353,0.4011391110629411,0.0502243638038635,0.3246977925300598,0.2301335334777832,13.65787493982043,-1.9264250675337915,0.6587778259503162,-2.5
2.14,0.7085763812065125,0.1739978790283203,1.7320729494094849,0.0338599305130436,0.1590448672148394,0.0034111824143687,-0.3363315761089325,-0.1245168596506118,-0.1398664712905883,0.7015780829638243,0.1717149699665606,1.7337555932160469,-0.6070967346429825,-0.2048655278980732,-0.1718962650746107,0.1096322636530157,0.0280961394309997,0.1006163656711578,0.0332593917846679,13.02548770897556,-1.9490523560754875,0.6773950165059448,-2.5
2.16,0.7013532519340515,0.1715324968099594,1.728893518447876,0.0347521131012697,0.1629061250511998,0.0033218241494746,-0.3301115334033966,-0.1146044209599495,-0.1417654752731323,0.6900361482799053,0.1677388978376984,1.7303919013403355,-0.6470967352390289,-0.2129480898380279,-0.1768451601266861,0.5927722753734114,0.3110021352767944,0.4956219345331192,-0.0949501991271972,12.946617518934543,-1.9963119429396248,0.6631559042940798,-2.5
2.18,0.6941249966621399,0.1690065711736679,1.7257221937179563,0.0362830313535143,0.1628598170799689,0.0033531202707343,-0.3251561522483825,-0.1123044267296791,-0.1428920030593872,0.6774942135810852,0.1635607616603374,1.7269044870883226,-0.6870967358350754,-0.2210306517779827,-0.1817940551787615,0.2789033914456296,0.2477690577507019,0.1149997115135192,-0.0563263893127441,12.946617518934543,-1.988695578338208,0.7067890492399507,-2.5
2.2,0.6869571208953857,0.1667054146528244,1.7222449779510498,0.0404966910130457,0.1584040004335516,0.0032693842824623,-0.3239129483699798,-0.1086093485355377,-0.1495921611785888,0.6778671890497208,0.1633913498371839,1.7185775935649872,-0.4251561537384987,-0.1243209931999445,-0.1212551165372133,0.3875928197425703,0.0621601939201355,0.1847539097070694,-0.335007905960083,12.750349608737451,-1.9766893192584127,0.6887802538143885,-2.5
2.22,0.6798080801963806,0.1644206643104553,1.7189313173294067,0.0459216167144349,0.1485897945254909,0.0031405486795316,-0.3221306204795837,-0.1031829044222831,-0.1527947187423706,0.6778671890497208,0.1633913498371839,1.7185775935649872,-0.4251561537384987,-0.1243209931999445,-0.1212551165372133,0.3274116803524823,0.0891163945198059,0.2713222056627273,-0.1601278781890869,15.420605194157815,-1.983353943494217,0.6973420756103232,-2.5
2.24,0.6762887239456177,0.1633999645709991,1.7173365354537964,0.0024742001457794,0.1294046841186369,-0.003025755491626,-0.3197072446346283,-0.1003008708357811,-0.1501581072807312,0.6778671890497208,0.1633913498371839,1.7185775935649872,-0.4251561537384987,-0.1243209931999445,-0.1212551165372133,0.2298400970201229,0.1211687922477722,0.1441016793251037,0.1318305730819702,15.420605194157815,-1.978318847962096,0.7059503428774676,-2.5
2.26,0.6693878769874573,0.1613005846738815,1.7138060331344604,0.0559016711156316,0.1308934213673318,0.0037813835641275,-0.3128354251384735,-0.0972307473421096,-0.154430866241455,0.6736156275123357,0.1621481399051845,1.717365042399615,-0.4451561540365219,-0.1267243064939975,-0.1169277392327785,0.4327355733891436,0.3435909748077392,0.1535061746835708,-0.2136379480361938,13.458578926470182,-1.9257665420647856,0.6414870841883554,-2.5
2.28,0.6622713208198547,0.1591925323009491,1.7106956243515017,0.0576953085294072,0.1279865409647029,0.0032562379817849,-0.3153915703296661,-0.0946672260761261,-0.1494204998016357,0.6651125044375658,0.1596617200411856,1.7149399400688707,-0.4851561546325683,-0.1315309330821037,-0.108272984623909,0.3090683232752717,-0.1278072595596313,0.128176063299179,0.2505183219909668,13.787955239544315,-1.850522714154996,0.6798168061985149,-2.5
2.3000000000000003,0.6554157733917236,0.1572650521993637,1.7078015804290771,0.0583939353413494,0.1302721534430786,0.0031268499460906,-0.3143723309040069,-0.090799480676651,-0.1351001858711242,0.6566093813627958,0.1571753001771867,1.7125148377381263,-0.5251561552286148,-0.1363375596702098,-0.0996182300150394,0.7434206321968402,0.0509619712829589,0.1933872699737548,0.7160156965255737,13.849146035333431,-1.83788935917729,0.7002336424768325,-2.5
2.32,0.648357093334198,0.1552946865558624,1.705051064491272,0.0568965610193643,0.1342882736871329,0.002741160942425,-0.3130701184272766,-0.08770152926445,-0.1270025968551635,0.6461062582582235,0.1544485489837825,1.7105224731378257,-0.5651561558246613,-0.141144186258316,-0.0909634754061698,0.4383606054332357,0.0651106238365173,0.1548975706100464,0.4048794507980346,13.494724908816352,-1.8457428432362837,0.7500193225830503,-2.5
2.34,0.6448599696159363,0.1542976796627044,1.703724980354309,0.0546630912513432,0.1368055768487835,0.0024383126695756,-0.3163531422615051,-0.0902730971574783,-0.1209005713462829,0.6356031351536512,0.1517217977903783,1.7085301085375248,-0.6051561564207077,-0.1459508128464222,-0.0823087207973003,0.3695467569726327,-0.1641511917114257,-0.1285783946514129,0.3051012754440307,14.64058651986852,-1.852223112679404,0.7774259951556742,-2.5
2.36,0.637892484664917,0.1523205041885376,1.7013567686080933,0.0524101967462348,0.1382799295165109,0.0023078661760413,-0.314982533454895,-0.0864006578922271,-0.1165553927421569,0.6241000120341778,0.1488748809322714,1.706754112802446,-0.6451561570167541,-0.1507574394345283,-0.0736539661884307,0.2989771373599087,0.0685304403305053,0.1936219632625579,0.2172589302062988,13.283596796731215,-1.8734438540185547,0.7512019684323554,-2.5
2.38,0.6308460831642151,0.1504047065973281,1.6987954378128052,0.0482810203634118,0.1368493428678779,0.0017963296825043,-0.3153124451637268,-0.0875918939709663,-0.1109147071838378,0.6115968888998031,0.1459077984094619,1.7051944859325885,-0.6851561576128006,-0.1555640660226345,-0.0649992115795612,0.2887265951499088,-0.0164955854415893,-0.0595618039369583,0.2820342779159546,13.61437895212748,-1.8647694942201152,0.7711331957715318,-2.5
2.4,0.62368243932724,0.1484546065330505,1.696288824081421,0.0450321883328164,0.1327395151771438,0.0017111188329718,-0.3197260200977325,-0.0869826972484588,-0.1140287518501281,0.6150804609060287,0.1460251118987798,1.6932497024536133,-0.4153124466538429,-0.1062185298651456,-0.1207583341747522,0.2717905375856956,-0.2206787467002868,0.0304598361253738,-0.1557022333145141,13.395686295086309,-1.8584457793553493,0.7587740700959358,-2.5
2.42,0.6166006326675415,0.1466275453567505,1.69416606426239,0.0453364074751345,0.1226923887837816,0.0013182913456605,-0.3205226361751556,-0.0849861279129982,-0.1041609048843383,0.6150804609060287,0.1460251118987798,1.6932497024536133,-0.4153124466538429,-0.1062185298651456,-0.1207583341747522,0.5049635878614359,-0.0398308038711547,0.0998284667730331,0.4933923482894897,14.944052994876529,-1.8795819801758085,0.7377664258282242,-2.5
2.44,0.6130028963088989,0.145774558186531,1.6930532455444336,0.0015614339460293,0.1057547055497768,-0.0051515076139902,-0.3208377957344055,-0.0818345323204994,-0.0985577702522277,0.6150804609060287,0.1460251118987798,1.6932497024536133,-0.4153124466538429,-0.1062185298651456,-0.1207583341747522,0.3218190408910008,-0.0157579779624938,0.1575797796249389,0.2801567316055298,14.944052994876529,-1.8721050315221728,0.741060443531785,-2.5
2.46,0.6057465672492981,0.1440881341695785,1.6907967329025269,0.0493558198162591,0.1091821710806776,0.0002021760648951,-0.3264623880386352,-0.0773254036903381,-0.0996842980384826,0.6109273364394903,0.1449629266001284,1.6920421191118658,-0.4353124469518661,-0.1099438570439815,-0.1227270595729351,0.3648196281909215,-0.2812296152114868,0.2254564315080642,-0.0563263893127441,14.808622258336529,-1.8333724137585992,0.6731985452827985,-2.5
2.48,0.5983774065971375,0.1423776745796203,1.689274787902832,0.0531491386582614,0.1102574804782281,-0.0001297801908682,-0.3290735185146332,-0.0764298811554908,-0.0850152969360351,0.6026210875064134,0.1428385560028255,1.689626952428371,-0.4753124475479126,-0.1173945114016532,-0.1266645103693008,0.7463235831673662,-0.1305565237998962,0.0447761267423629,0.7334500551223755,14.930060011978185,-1.799544588358523,0.7016223397800918,-2.5
2.5,0.5909225940704346,0.1408673524856567,1.6877046823501587,0.0555479453599843,0.1187943525363019,9.763066080597936e-06,-0.3335393965244293,-0.0724675878882408,-0.0695711374282836,0.5943148385733366,0.1407141854055225,1.6872117857448756,-0.515312448143959,-0.124845165759325,-0.1306019611656665,0.8278977854103516,-0.2232939004898071,0.198114663362503,0.7722079753875732,13.15558788691851,-1.799544588358523,0.7016223397800918,-2.5
2.52,0.5834216475486755,0.1392949372529983,1.686398148536682,0.0564242667177403,0.1272989242329233,-6.615537902956901e-05,-0.336504578590393,-0.0693615898489952,-0.0647243857383728,0.5840085896104574,0.138217282090336,1.6845997465215623,-0.5553124487400055,-0.1322958201169967,-0.1345394119620323,0.323768939398781,-0.1482591032981872,0.1552999019622802,0.2423375844955444,13.469894326624852,-1.817850122419808,0.742869217798791,-2.5
2.54,0.5795683264732361,0.1385477036237716,1.6856358051300049,0.0142190575353669,0.1108017472070317,-0.0067514213699996,-0.3381353616714477,-0.0685498863458633,-0.0646787881851196,0.5737023406475782,0.1357203787751495,1.681987707298249,-0.595312449336052,-0.1397464744746685,-0.138476862758398,0.0911097575909605,-0.0815391540527343,0.0405851751565933,0.0022798776626586,12.748875549136756,-1.8445362142982904,0.7612030139436559,-2.5
2.56,0.5719641447067261,0.1371198296546936,1.684242844581604,0.0579631330296072,0.1497678463296254,-0.0003538796955162,-0.3406177461147308,-0.0678233429789543,-0.0622808933258056,0.5623960916697979,0.1330372091010212,1.6792772318050264,-0.6353124499320983,-0.1471971288323402,-0.1424143135547638,0.176351903481205,-0.124119222164154,0.0363271683454513,0.1198947429656982,12.748875549136756,-1.8224831855926484,0.6984911390547471,-2.5
2.58,0.5644574165344238,0.1357050240039825,1.6827669143676758,0.0579699200492387,0.1574703187455205,-0.0003619877922516,-0.3399954736232757,-0.0639602914452552,-0.0645500421524047,0.5500898426771164,0.1301677730679512,1.6764683200418948,-0.6753124505281448,-0.1546477831900119,-0.1463517643511295,0.2261604883865235,0.0311136245727539,0.1931525766849517,-0.113457441329956,12.142110541177315,-1.8619175402366124,0.7423458171659345,-2.5
2.6,0.5569703578948975,0.1342979073524475,1.6812013387680054,0.0590292782420321,0.1600694220781212,-0.0003280964268452,-0.3373602032661438,-0.0634932518005371,-0.0684338808059692,0.54745764285326,0.1325070094317197,1.6795394122600555,-0.4321230873465538,-0.0905583426356315,-0.0737223206087946,0.2358335142205101,0.1317635178565979,0.0233519822359085,-0.1941919326782226,12.457249141240482,-1.890964201647526,0.7576263151515209,-2.5
2.62,0.5495703816413879,0.1328858435153961,1.679377198219299,0.0634909522598819,0.1582760301959995,-0.0003091795621875,-0.3349582850933075,-0.0634315609931945,-0.0762686133384704,0.54745764285326,0.1325070094317197,1.6795394122600555,-0.4321230873465538,-0.0905583426356315,-0.0737223206087946,0.4097439765284685,0.1200959086418151,0.0030845403671264,-0.391736626625061,13.337196275499082,-1.909024843680463,0.7598551109998559,-2.5
2.64,0.5458300113677979,0.1323153376579284,1.6781721115112305,0.0244970025869978,0.1412250473941299,-0.0061556000315186,-0.332724004983902,-0.0583769381046295,-0.0898835062980651,0.54745764285326,0.1325070094317197,1.6795394122600555,-0.4321230873465538,-0.0905583426356315,-0.0737223206087946,0.7346879107044586,0.1117140054702758,0.2527311444282532,-0.6807446479797363,13.337196275499082,-1.8976274203850712,0.772374169186187,-2.5
2.66,0.5386483669281006,0.1308153569698333,1.6762893199920654,0.0270535137504207,0.1335198753727882,-0.0059947380445191,-0.3267721831798553,-0.0617457926273345,-0.0918388366699218,0.5431364119797945,0.1316014260053634,1.6788021890539675,-0.4505486100912094,-0.0958779528737068,-0.0755567763000726,0.3556567180772091,0.2975910902023315,-0.1684427261352539,-0.0977665185928344,14.054399245484548,-1.869513925152345,0.7481603354305446,-2.5
2.68,0.531273365020752,0.1294650733470916,1.6742030382156372,0.0695154178002563,0.1443866421978671,-0.0002369688675292,-0.3275245428085327,-0.0641309469938278,-0.0893041491508483,0.5344939502328634,0.1297902591526508,1.6773277426417916,-0.4873996555805206,-0.1065171733498573,-0.0792256876826286,0.1780424611027672,-0.0376179814338684,-0.1192577183246612,0.1267343759536743,13.426572853240032,-1.8022424918282265,0.684861051463235,-2.5
2.7,0.5241329073905945,0.1279510259628296,1.6723518371582031,0.0679989434462229,0.1444671815986666,-0.0004934002533542,-0.3265978395938873,-0.0644474476575851,-0.0885933637619018,0.5258514884859323,0.1279790922999382,1.6758532962296158,-0.5242507010698318,-0.1171563938260078,-0.0828945990651846,0.060501392284244,0.0463351607322692,-0.0158250331878662,0.0355392694473266,13.581412602218734,-1.8022424918282265,0.684861051463235,-2.5
2.72,0.5170868635177612,0.1266341209411621,1.6704493761062622,0.0662954030746973,0.1454924654435221,-0.0005578136993695,-0.3191962838172912,-0.0636964291334152,-0.0844573974609375,0.5153664744645357,0.125635964423418,1.674195404248312,-0.561101746559143,-0.1277956143021583,-0.0865635104477405,0.4255974447186619,0.3700777888298034,0.037550926208496,0.2067983150482177,12.75577091651212,-1.811184053561498,0.7068344913089428,-2.5
