t,x,y,z,roll,pitch,yaw,v_x,v_y,v_z,ref_x,ref_y,ref_z,ref_v_x,ref_v_y,ref_v_z,a_com,a_x,a_y,a_z,thrust,wind_x,wind_y,wind_z
0.0,-0.3038710057735443,0.545730471611023,2.716343641281128,0.0115486375055149,0.1425055555196391,0.0007607443068433,-0.0033279508352279,-0.0088807940483093,-0.0094252824783325,-0.3040624335408211,0.5453960001468658,2.716174602508545,-0.0518775545060634,-0.1111204400658607,-0.1081539168953895,0.6685426491379268,-0.1663975417613983,-0.4440397024154663,-0.471264123916626,12.829536624733464,-1.6320981677398214,0.1511853228419556,-2.5
0.02,-0.3038834035396576,0.5456767678260803,2.716147899627685,0.0122285960183909,0.1409718459428295,0.0001688342575565,-4.0903687477111816e-05,-0.0061932206153869,-0.0097739696502685,-0.3040374033153057,0.5452864319086075,2.7158723771572117,-0.0516679883003234,-0.1088807955384254,-0.1094252839684486,0.2130100505419866,0.1643523573875427,0.1343786716461181,-0.0174343585968017,12.022953515731388,-1.661984040404234,0.15786844485856,-2.5
0.04,-0.3038309514522552,0.545583963394165,2.7160558700561523,0.0125533605332989,0.1396692005809168,-5.6505273757216e-06,0.001053437590599,-0.006127506494522,-0.0114423036575317,-0.3040374033153057,0.5452864319086075,2.7158723771572117,-0.0516679883003234,-0.1088807955384254,-0.1094252839684486,0.0998153237029924,0.0547170639038085,0.0032857060432434,-0.0834167003631591,12.622054682496127,-1.6381128609723592,0.1764824465242477,-2.5
0.06,-0.3038417100906372,0.5454499125480652,2.7160587310791016,0.0137300758783311,0.1366414368394367,-0.0005725409907556,0.0021826475858688,-0.0053751468658447,-0.005192756652832,-0.3040374033153057,0.5452864319086075,2.7158723771572117,-0.0516679883003234,-0.1088807955384254,-0.1094252839684486,0.3197577129180459,0.0564604997634887,0.0376179814338684,0.3124773502349853,11.726501554986498,-1.6427256973986704,0.1743531335923615,-2.5
0.08,-0.3037539422512054,0.545249342918396,2.715986967086792,0.0144605843553009,0.1322993120502014,-0.0006086203191107,0.0017327070236206,-0.0075289607048034,-0.0015503168106079,-0.3045540831983089,0.5441976239532232,2.714778124317527,-0.0613359957933425,-0.1288807958364486,-0.1294252842664718,0.2127717589734838,-0.0224970281124115,-0.107690691947937,0.182121992111206,12.086872008590037,-1.643179983564986,0.1776982954864139,-2.5
0.1,-0.3037119209766388,0.5451347231864929,2.715740919113159,0.0183876912195975,0.1271485709744119,-0.0010244443272484,0.0029202550649642,-0.0070917606353759,-0.0071507692337036,-0.3055874429643154,0.5420200080424546,2.712589618638158,-0.0806720107793808,-0.1688807964324951,-0.1694252848625183,0.2870822251314298,0.0593774020671844,0.0218600034713745,-0.2800226211547851,11.201898961413464,-1.6342902838424809,0.1724742006810138,-2.5
0.12,-0.3036319017410278,0.5450546145439148,2.7154548168182373,0.0224213282143911,0.1225838334071611,-0.0012558423485336,0.0027459114789962,-0.004381388425827,-0.0119733810424804,-0.3066208027303219,0.5398423921316862,2.710401112958789,-0.100008025765419,-0.2088807970285415,-0.2094252854585647,0.2767403921476652,-0.0087171792984008,0.1355186104774475,-0.2411305904388427,11.017474323800345,-1.6124769492283433,0.1800724993410998,-2.494519928865431
0.14,-0.3036220371723175,0.5449313521385193,2.715280532836914,0.0249980811054446,0.1192492619672767,-0.0015852358329663,0.0017910450696945,-0.0069254636764526,-0.0110507011413574,-0.3086209632456302,0.5356647761911153,2.706212607249617,-0.1193440407514572,-0.248880797624588,-0.2494252860546112,0.1434871678966017,-0.0477433204650878,-0.1272037625312805,0.0461339950561523,11.270044866321768,-1.606290093000819,0.2079291773624933,-2.5
0.16,-0.3038041293621063,0.5444816946983337,2.714649200439453,0.0363821034827564,0.1129959646022871,-0.0009830144640774,-0.0048306584358215,-0.0126627087593078,-0.0210338830947875,-0.3106211237609386,0.5314871602505445,2.7020241015404465,-0.1386800557374954,-0.2888807982206345,-0.2894252866506577,0.6641288662055805,-0.3310851752758026,-0.2868622541427612,-0.4991590976715088,10.801523548993371,-1.6097485439254644,0.1926414256050113,-2.4829413064942023
0.18,-0.3040472269058227,0.5441296100616455,2.71407413482666,0.04959666403002,0.1043151073517714,-0.0011065807615254,-0.0095667690038681,-0.01803919672966,-0.0271439552307128,-0.3131046846508979,0.5263095442950725,2.696835595816374,-0.1580160707235336,-0.3288807988166809,-0.3294252872467041,0.4708246693683188,-0.2368055284023285,-0.2688243985176086,-0.3055036067962646,10.51551765572276,-1.608465008806847,0.1929299602168158,-2.4959187374816367
0.2,-0.3045027554035187,0.5436223149299622,2.7131502628326416,0.0690391103712634,0.0952520827796797,-0.0010992774893618,-0.0157190859317779,-0.0193360447883605,-0.0337260961532592,-0.3160716459155083,0.5201319283246993,2.6906470900774004,-0.1773520857095718,-0.3688807994127273,-0.3694252878427505,0.4551301945406976,-0.3076158463954925,-0.064842402935028,-0.3291070461273193,10.36348045347222,-1.5644382659478748,0.2121161600446571,-2.36956426314418
0.22,-0.3051345348358154,0.5428848266601562,2.711751937866211,0.0934829818226181,0.08708192203426,-0.0003240858732874,-0.0244644284248352,-0.0280076265335083,-0.0522494316101074,-0.3052887097001076,0.5426555126905441,2.711463958024978,-0.0618083141744136,-0.1193360462784767,-0.1337260976433754,1.112195241100432,-0.4372671246528625,-0.4335790872573852,-0.9261667728424072,10.40733988658667,-1.552876787135601,0.2639791353658233,-2.2751204200991006
0.24,-0.3054495453834533,0.5421375632286072,2.71065092086792,0.1076898926142032,0.0839758969650141,-0.0008099631084843,-0.0259704887866973,-0.0396779179573059,-0.0656336545944213,-0.3052887097001076,0.5426555126905441,2.711463958024978,-0.0618083141744136,-0.1193360462784767,-0.1337260976433754,0.8910686626514461,-0.0753030180931091,-0.5835145711898804,-0.6692111492156982,13.457334901987906,-1.5431387162265455,0.3021286666340622,-2.284277386223897
0.26,-0.3062449991703033,0.5406347513198853,2.7087771892547607,0.1334292681203424,0.0730256247067011,-0.0005512537342579,-0.0314200669527053,-0.0597260892391204,-0.0818288326263427,-0.3052887097001076,0.5426555126905441,2.711463958024978,-0.0618083141744136,-0.1193360462784767,-0.1337260976433754,1.3171093969542116,-0.2724789083003998,-1.0024085640907288,-0.8097589015960693,12.08990178958402,-1.4937263920218224,0.3307492924652925,-2.219145664289334
0.28,-0.3074301183223724,0.5387999415397644,2.7072365283966064,0.1490226030439887,0.0659546570933642,0.0015072697810833,-0.044562891125679,-0.0750964879989624,-0.0768238306045532,-0.3059067928418517,0.5414621522277594,2.710126697048545,-0.0710261598229408,-0.1393360465764999,-0.1537260979413986,1.0416729699339031,-0.6571412086486816,-0.768519937992096,0.2502501010894775,12.899236459864367,-1.4215865368390856,0.3475965782351657,-2.103332187781872
0.3,-0.3090267777442932,0.5361170172691345,2.705880641937256,0.1502006560868378,0.0633483104914567,0.001330842749141,-0.062590017914772,-0.1016490161418914,-0.0651723146438598,-0.30714295912534,0.5390754313021898,2.707452175095677,-0.0894618511199951,-0.1793360471725464,-0.193726098537445,1.7071700817679003,-0.9013563394546508,-1.327626407146454,0.582575798034668,12.30959368654112,-1.419275749418376,0.3809927334748306,-1.618635158181616
0.32,-0.3098609447479248,0.5346129536628723,2.70510196685791,0.1339490452465758,0.0675973605365636,0.0014384942463187,-0.0678612291812896,-0.1147851347923278,-0.0690293312072753,-0.3083791254088283,0.5366887103766202,2.70477765314281,-0.1078975424170494,-0.2193360477685928,-0.2337260991334915,0.7335186742426318,-0.2635605633258819,-0.6568059325218201,-0.1928508281707763,11.61748481755285,-1.419275749418376,0.3809927334748306,-1.618635158181616
0.34,-0.311646968126297,0.530945360660553,2.704040765762329,0.1301948973889546,0.0711350644659181,0.0017224348958198,-0.0777914375066757,-0.1495707035064697,-0.0537675619125366,-0.3105370762571692,0.5323019894212484,2.70010313116014,-0.1263332337141036,-0.2593360483646392,-0.2737260997295379,1.963139341818151,-0.4965104162693023,-1.7392784357070925,0.7630884647369385,12.211710920581936,-1.409564540673529,0.3980464840857211,-1.8820829252098792
0.36,-0.3139236867427826,0.5268434882164001,2.7030932903289795,0.1064415303577475,0.0800037435545678,0.0005037073175038,-0.0914116948843002,-0.1748129725456237,-0.0451952219009399,-0.3126950271055102,0.5279152684658766,2.6954286091774704,-0.144768925011158,-0.2993360489606858,-0.3137261003255844,1.4968037367605944,-0.6810128688812256,-1.2621134519577026,0.428617000579834,11.609350274085957,-1.4046934660243653,0.3892464197941793,-1.8700229942509063
0.38,-0.3164266347885132,0.5224602818489075,2.7020633220672607,0.0822915033991994,0.0874576433128302,0.0005662873798363,-0.1075424998998642,-0.1909142732620239,-0.044492483139038,-0.3153138702362776,0.5225285474956035,2.6897540871798995,-0.1632046163082122,-0.3393360495567322,-0.3537261009216308,1.1401190694150882,-0.8065402507781982,-0.8050650358200073,0.0351369380950927,10.88191585786899,-1.4229119139898718,0.3622607658121545,-1.9361986328571388
0.4,-0.3190972805023193,0.5176898837089539,2.700571060180664,0.0621252326966066,0.0994134933261833,0.000149986253304,-0.1164058595895767,-0.2059561014175415,-0.0567501783370971,-0.3183936056494713,0.5161418265104294,2.6830795651674277,-0.1816403076052665,-0.3793360501527786,-0.3937261015176773,1.0666147744357648,-0.4431679844856262,-0.7520914077758789,-0.6128847599029541,10.607957619069111,-1.4862186016535426,0.3390820736663314,-1.995229042638837
0.42,-0.3218266367912292,0.5126699805259705,2.698763132095337,0.0480950484368697,0.1098436038914563,0.0011033765630744,-0.1215000450611114,-0.2202817797660827,-0.0742542743682861,-0.3249175734817981,0.5073920786380768,2.697733551263809,-0.124510115943849,-0.3059561029076576,-0.1567501798272133,1.159276890601793,-0.2547092735767364,-0.716283917427063,-0.8752048015594482,10.178338467330375,-1.514337302129663,0.2862918181244448,-2.04834068368022
0.44,-0.323231041431427,0.5101985335350037,2.6976518630981445,0.0439250247736498,0.1143780643688061,0.0016761946499939,-0.1222953200340271,-0.2228862047195434,-0.0813996791839599,-0.3249175734817981,0.5073920786380768,2.697733551263809,-0.124510115943849,-0.3059561029076576,-0.1567501798272133,0.3823359177497239,-0.0397637486457824,-0.1302212476730346,-0.3572702407836914,12.114849200397655,-1.5220047082239068,0.2363615409519718,-2.185953662922268
0.46,-0.3263526856899261,0.5049363970756531,2.695255279541016,0.039172930449013,0.1251945850964621,0.0027145152330778,-0.1337349414825439,-0.2301415801048278,-0.1023745536804199,-0.3249175734817981,0.5073920786380768,2.697733551263809,-0.124510115943849,-0.3059561029076576,-0.1567501798272133,1.2484498097731085,-0.5719810724258423,-0.3627687692642212,-1.048743724822998,12.178063572421706,-1.5204994578810678,0.2405827586484907,-2.184973232134862
0.48,-0.3294189870357513,0.4996174573898315,2.692284107208252,0.0378066063485161,0.1353640803330068,0.0034962705090727,-0.1392287760972976,-0.2380742132663726,-0.120774507522583,-0.3261626746412366,0.5043325176090002,2.6961660494655373,-0.1261309672147035,-0.3259561032056808,-0.1767501801252365,1.038830098047364,-0.2746917307376861,-0.39663165807724,-0.9199976921081544,11.881755261218132,-1.5474571178582042,0.2376173914677019,-2.1496811804281486
0.5,-0.3324185311794281,0.494279682636261,2.6891894340515137,0.0338566009628556,0.1451750901336664,0.0042155138684736,-0.1364815235137939,-0.239776074886322,-0.1364815235137939,-0.3286528769601136,0.498213395550847,2.693031045868993,-0.1293726697564125,-0.3659561038017273,-0.2167501807212829,0.8018012239314377,0.1373626291751861,-0.085093080997467,-0.7853507995605469,11.596673050116806,-1.5789686205799192,0.1995176857150428,-2.092808646779508
0.52,-0.3354439735412597,0.488872766494751,2.686122179031372,0.0283329500902082,0.1558116829301666,0.0035991946924641,-0.1355621963739395,-0.2417555451393127,-0.1386433839797973,-0.3311430792789906,0.4920942734926939,2.6898960422724487,-0.1326143722981214,-0.4059561043977737,-0.2567501813173294,0.1535993615466597,0.0459663569927215,-0.0989735126495361,-0.1080930233001709,11.522306712268346,-1.5426995741376692,0.2110283307077787,-1.959815447671792
0.54,-0.3368602693080902,0.4861193001270294,2.684558153152466,0.0247503086548165,0.1588117283260618,0.003504459155481,-0.134824588894844,-0.2451807260513305,-0.1376885175704956,-0.333795366724953,0.4839751514047384,2.6847610386461023,-0.1358560748398304,-0.4459561049938201,-0.2967501819133758,0.1815743575844454,0.0368803739547729,-0.1712590456008911,0.0477433204650878,11.44926926002654,-1.585666033014936,0.206457068942671,-2.0003588324726884
0.56,-0.3397181034088135,0.4807924628257751,2.6811304092407227,0.0215114038719649,0.1682440916505796,0.0037581077307455,-0.1314912736415863,-0.2425776422023773,-0.1459604501724243,-0.3364476541709154,0.4758560293167829,2.6796260350197554,-0.1390977773815393,-0.4859561055898667,-0.3367501825094223,0.4645210034894362,0.1666657626628875,0.1301541924476623,-0.4135966300964355,11.336281164017691,-1.6148391451128692,0.2014093953562443,-2.014297586352103
0.58,-0.3424888253211975,0.475218117237091,2.6774778366088867,0.0214827092370225,0.1746551334805453,0.0041268087530438,-0.1266425102949142,-0.2452766150236129,-0.1593071222305297,-0.3391809841804206,0.4667369072139263,2.673491031378508,-0.1423394799232483,-0.525956106185913,-0.3767501831054687,0.7227181596383414,0.2424381673336029,-0.1349486410617828,-0.6673336029052734,10.904878527046094,-1.6441825574300677,0.2158728976484736,-2.0683583805721524
0.6,-0.3451279699802398,0.4698249399662018,2.6736268997192383,0.027912581624854,0.1808193152852173,0.0038808121052575,-0.1217219978570938,-0.2467692643404007,-0.1688289642333984,-0.3419953567534685,0.4566177850961685,2.666356027722359,-0.1455811824649572,-0.5659561067819595,-0.4167501837015152,0.5410751328633717,0.2460256218910217,-0.0746324658393859,-0.4760921001434326,10.938696134463498,-1.6441825574300677,0.2158728976484736,-2.0683583805721524
0.62,-0.3477443158626556,0.4642886221408844,2.6693477630615234,0.0367577851836741,0.185537992717713,0.004757185028956,-0.1182485371828079,-0.2459136396646499,-0.1829266548156738,-0.3512140698730945,0.4574864767491817,2.6651854515075684,-0.1374130081385374,-0.3467692658305168,-0.2688289657235145,0.7272240067460994,0.1736730337142944,0.0427812337875366,-0.7048845291137695,10.869883376708458,-1.6746674423720995,0.2111894080214044,-2.064195619094137
0.64,-0.3488098680973053,0.4616279304027557,2.6670377254486084,0.0426452224729602,0.1886618873152229,0.0055098175471189,-0.1113103330135345,-0.2458586543798446,-0.1936286687850952,-0.3512140698730945,0.4574864767491817,2.6651854515075684,-0.1374130081385374,-0.3467692658305168,-0.2688289657235145,0.6377201648798595,0.3469102084636688,0.0027492642402648,-0.5351006984710693,12.168698171010874,-1.7141387882154862,0.2702595778944515,-2.045802289332971
0.66,-0.3510025441646576,0.4560080170631408,2.6624789237976074,0.0551387711447323,0.1903513822222155,0.0052247454394342,-0.1026159524917602,-0.2486508339643478,-0.2045345306396484,-0.3512140698730945,0.4574864767491817,2.6651854515075684,-0.1374130081385374,-0.3467692658305168,-0.2688289657235145,0.7112073225862547,0.4347190260887146,-0.1396089792251587,-0.5452930927276611,12.08291724252922,-1.7141387882154862,0.2702595778944515,-2.045802289332971
0.68,-0.3529797494411468,0.4503083527088165,2.657593250274658,0.0664295202816524,0.1921854667099491,0.0053877510143528,-0.0938223302364349,-0.2546904981136322,-0.2125006914138794,-0.3525881999544799,0.4540187840908766,2.662497161850333,-0.1405512101948261,-0.36676926612854,-0.2888289660215378,0.6657046133353732,0.4396811127662658,-0.3019832074642181,-0.3983080387115478,12.115910077014178,-1.69573794169049,0.2976182812440544,-1.9655986203530655
0.7000000000000001,-0.3546924889087677,0.4443531334400177,2.6526741981506348,0.0686157862276852,0.1920833626367702,0.0058861981211868,-0.0830237567424774,-0.2622348666191101,-0.2206063270568847,-0.3553364601172507,0.4470833987742662,2.657120582535863,-0.1468276143074035,-0.4067692667245864,-0.3288289666175842,0.773349880112501,0.539928674697876,-0.3772184252738952,-0.4052817821502685,12.870442956413171,-1.6906431420036498,0.3096675841969529,-1.8848905661819209
0.72,-0.3561462461948395,0.4382042288780212,2.647769927978516,0.0613844240728127,0.1888574186908596,0.0035291413529546,-0.0712461769580841,-0.2723428010940552,-0.221024751663208,-0.3580847202800214,0.4401480134576559,2.651744003221393,-0.153104018419981,-0.4467692673206329,-0.3688289672136307,0.7763002062325982,0.5888789892196655,-0.5053967237472534,-0.0209212303161621,12.10128861813564,-1.6689518724941137,0.3167288971176429,-1.8039656581140555
0.74,-0.3568090498447418,0.4351381659507751,2.645406007766724,0.0571191417042455,0.1869892055200264,0.0022764771506995,-0.0685324519872665,-0.273069679737091,-0.219050645828247,-0.361146800648421,0.4312126281112433,2.64436742387712,-0.1593804225325584,-0.4867692679166793,-0.4088289678096771,0.1716810241885173,0.1356862485408783,-0.0363439321517944,0.0987052917480468,12.097100706595027,-1.6717935868204707,0.305075415074503,-1.8438444562478848
0.76,-0.3579488396644592,0.4287933111190796,2.640550374984741,0.0469092511716432,0.1811539526986213,-0.0001528056006114,-0.0551515817642211,-0.2816111445426941,-0.2185302972793579,-0.3642088810168206,0.4222772427648306,2.636990844532848,-0.1656568266451359,-0.5267692685127259,-0.4488289684057236,0.7941584721635662,0.6690435111522675,-0.4270732402801513,0.026017427444458,11.861114819659631,-1.718298155626782,0.350198132697176,-1.850924445078368
0.78,-0.3589921593666076,0.4223362505435943,2.6350326538085938,0.0418268687213043,0.1734689654520363,-0.0012315412621927,-0.0491199642419815,-0.2880430817604065,-0.2334004640579223,-0.3674278714880347,0.4123418574035168,2.628614265173674,-0.1719332307577133,-0.5667692691087722,-0.48882896900177,0.8643958675420433,0.3015808761119842,-0.3215968608856201,-0.7435083389282227,11.606843484668843,-1.6860844882539938,0.3286205780418796,-1.8717905207777168
0.8,-0.3597005605697632,0.415685087442398,2.6297502517700195,0.0376495550861676,0.1632079387032784,-0.0023835585429796,-0.0394137203693389,-0.2949350476264953,-0.2430027723312378,-0.3708037720620632,0.4014064720273018,2.619237685799599,-0.1782096348702907,-0.6067692697048187,-0.5288289695978164,0.7647134884882155,0.4853121936321258,-0.3445982933044433,-0.4801154136657715,11.537727500434812,-1.7134877302002085,0.3145535343315299,-2.08067197146492
0.8200000000000001,-0.3604094982147217,0.409037172794342,2.6243996620178223,0.0401730761061903,0.1512107195108293,-0.0027979554886713,-0.0318901240825653,-0.2992292642593384,-0.2392423152923584,-0.3616712465882301,0.4009383350610733,2.6176001131534576,-0.0555010940879583,-0.3949350491166115,-0.3430027738213539,0.4721912608186378,0.3761798143386841,-0.2147108316421508,0.1880228519439697,11.317929279462078,-1.6895528116847842,0.2855357052807647,-2.144682690809485
0.84,-0.3607347905635834,0.4055881798267364,2.6214842796325684,0.0440738555610462,0.1448268507222319,-0.003015158731772,-0.030473917722702,-0.303259938955307,-0.2448105812072754,-0.3616712465882301,0.4009383350610733,2.6176001131534576,-0.0555010940879583,-0.3949350491166115,-0.3430027738213539,0.3509186667080613,0.070810317993164,-0.2015337347984314,-0.2784132957458496,13.018539207006596,-1.6601212743170293,0.2825231452715036,-2.1201173025630364
0.86,-0.361581951379776,0.3987648487091064,2.615317821502685,0.0588889348756359,0.1323740609724444,-0.0027113913306709,-0.034898892045021,-0.3070787191390991,-0.2646106481552124,-0.3616712465882301,0.4009383350610733,2.6176001131534576,-0.0555010940879583,-0.3949350491166115,-0.3430027738213539,1.0322380188068228,-0.2212487161159515,-0.1909390091896057,-0.9900033473968506,12.566199189966028,-1.674469382659204,0.3083149022122997,-2.1975384671141818
0.88,-0.3623212575912475,0.3916921019554138,2.6093106269836426,0.0678916757094406,0.1246042088298057,-0.0012389986311663,-0.0356955081224441,-0.3126617670059204,-0.2739071846008301,-0.3622262575291097,0.3969889845699071,2.6141700854152443,-0.0587185688316822,-0.4149350494146347,-0.3630027741193771,0.5436695010360716,-0.0398308038711547,-0.2791523933410644,-0.4648268222808838,13.29110795383167,-1.674469382659204,0.3083149022122997,-2.1975384671141818
0.9,-0.362979918718338,0.3844765126705169,2.603569269180298,0.0657004442077311,0.1201380480471593,-0.0011316715683845,-0.0314542651176452,-0.321487545967102,-0.2643424272537231,-0.3633362794108689,0.3890902835875749,2.607310029938817,-0.0651535183191299,-0.4549350500106811,-0.4030027747154235,0.6844105120584211,0.2120621502399444,-0.441288948059082,0.4782378673553467,12.552200024435024,-1.6368866323354778,0.3424593533136478,-2.175213028986821
0.92,-0.363657683134079,0.3772814273834228,2.59834623336792,0.0544093711427073,0.1195750396379688,-0.0013008523049733,-0.0300695747137069,-0.3242401778697967,-0.2466988563537597,-0.364446301292628,0.3811915826052427,2.60044997446239,-0.0715884678065776,-0.4949350506067276,-0.44300277531147,0.8955304908384276,0.0692345201969146,-0.1376315951347351,0.882178544998169,12.416962914832766,-1.5660693386876647,0.3445001608963733,-2.015025058683249
0.94,-0.3639686107635498,0.3734358251094818,2.5955498218536377,0.0483936683066091,0.1202610565328809,-0.0010703011525756,-0.0308192521333694,-0.330251008272171,-0.2433782815933227,-0.3658780706487596,0.3712928815931082,2.591589918956161,-0.0780234172940254,-0.5349350512027741,-0.4830027759075164,0.3453922230570265,-0.0374838709831237,-0.3005415201187134,0.1660287380218505,12.209083143100544,-1.5703098420719068,0.357452436072147,-2.0481267366846136
0.96,-0.3649349808692932,0.3659893274307251,2.590177059173584,0.0333407971233752,0.124357536754217,-0.0008773659741875,-0.0382543355226516,-0.3340497016906738,-0.2403098344802856,-0.3673098400048912,0.3613941805809736,2.582729863449931,-0.0844583667814731,-0.5749350517988205,-0.523002776503563,0.4447637136133713,-0.3717541694641113,-0.1899346709251403,0.1534223556518554,12.050783692476216,-1.5577803726305186,0.357013369583276,-2.093525148068678
0.98,-0.365763396024704,0.3582082986831665,2.585002422332764,0.0202183417540029,0.1272529533497017,-0.0029377660339492,-0.0403826683759689,-0.3426193594932556,-0.2373164892196655,-0.3689024830982089,0.3504954795539379,2.5728698079288006,-0.0908933162689209,-0.6149350523948669,-0.5630027770996093,0.4661784836227896,-0.106416642665863,-0.4284828901290893,0.1496672630310058,11.526344501573476,-1.6093041954668794,0.3465849382762407,-2.2252457843411544
1.0,-0.3667236864566803,0.350821703672409,2.579566478729248,0.0168225528327363,0.1331457517294549,-0.0021057090330762,-0.0402458757162094,-0.3412715196609497,-0.2387380599975586,-0.3706559999287128,0.338596778512001,2.562009752392769,-0.0973282657563686,-0.6549350529909134,-0.6030027776956558,0.0981866579769624,0.006839632987976,0.0673919916152954,-0.0710785388946533,10.795542485413534,-1.6212139151307725,0.2816978612074952,-2.2566136452403507
1.02,-0.367674708366394,0.3431949317455292,2.573748588562012,0.0204767989239501,0.1367935061641709,-0.001359450538072,-0.0430045276880264,-0.3378007411956787,-0.2532112598419189,-0.3687359802424907,0.3337581276893616,2.56762957572937,-0.0366239151917398,-0.4412715211510658,-0.3387380614876747,0.7568519960854159,-0.1379325985908508,0.1735389232635498,-0.7236599922180176,10.592549226645588,-1.6307974125769948,0.273111215034551,-2.297000108701317
1.04,-0.368232250213623,0.3393315970897674,2.570675134658813,0.0268194394025747,0.1393290576930832,-0.0012197374543341,-0.0469560921192169,-0.3412507474422455,-0.2593696117401123,-0.3687359802424907,0.3337581276893616,2.56762957572937,-0.0366239151917398,-0.4412715211510658,-0.3387380614876747,0.4044833205991976,-0.1975782215595245,-0.1725003123283386,-0.3079175949096679,13.308715902508084,-1.6464708938663168,0.2946883133717554,-2.378204390164368
1.06,-0.3690808117389679,0.3316009044647217,2.564416885375977,0.041979113143024,0.1404143275376961,-0.0003160107808639,-0.04319429397583,-0.3450990319252014,-0.2752858400344848,-0.3687359802424907,0.3337581276893616,2.56762957572937,-0.0366239151917398,-0.4412715211510658,-0.3387380614876747,0.8400695534477096,0.188089907169342,-0.1924142241477966,-0.7958114147186279,12.473753274950012,-1.6753798885172269,0.2785135129252111,-2.3859496525666146
1.08,-0.3701327741146087,0.3239182829856872,2.55801010131836,0.0531817791712348,0.1412874647909032,0.0013560361938185,-0.0427617877721786,-0.3467995524406433,-0.2849632501602173,-0.3691022193944082,0.3293454124778509,2.5642421951144936,-0.0358995230868458,-0.461271521449089,-0.3587380617856979,0.4917598458121203,0.0216253101825714,-0.0850260257720947,-0.4838705062866211,13.39396687078306,-1.638672251133176,0.2844636951079846,-2.3823621811212807
1.1,-0.3711175918579101,0.3161174654960632,2.551990509033203,0.05384507862062,0.1453039858190567,0.0020804657520289,-0.0458275526762008,-0.348377376794815,-0.2795934677124023,-0.3698346976982429,0.3205199820548296,2.55746743388474,-0.034450738877058,-0.5012715220451355,-0.3987380623817443,0.3190729057606321,-0.1532882452011108,-0.0788912177085876,0.268489122390747,12.284010861554634,-1.6286405612892068,0.3019683270535827,-2.260426716449357
1.12,-0.3719275891780853,0.3082516193389892,2.546494722366333,0.0428647785044289,0.1493246493723375,0.0018250887543289,-0.0403833389282226,-0.3524999320507049,-0.2590960264205932,-0.3705671760020778,0.3116945516318083,2.5506926726549866,-0.0330019546672701,-0.541271522641182,-0.4387380629777908,1.0802546281811296,0.2722106873989105,-0.2061277627944946,1.024872064590454,12.248813942664585,-1.6293864367207704,0.3281599779529627,-2.029386647244084
1.14,-0.3723491132259369,0.3041739463806152,2.5433342456817627,0.0383561837309561,0.1522628227692949,0.000777679554271,-0.0377681851387023,-0.3580179214477539,-0.26092529296875,-0.3712272150954231,0.3008691211789847,2.541917911395431,-0.0315531704574823,-0.5812715232372284,-0.4787380635738372,0.3187218710450857,0.1307576894760131,-0.2758994698524475,-0.0914633274078369,12.194591963359017,-1.6330191993424088,0.3338645716631684,-2.0588679639918173
1.16,-0.3731811046600342,0.2963089644908905,2.5379998683929443,0.0248691768433857,0.1557508341390715,0.0004606497437239,-0.035741776227951,-0.3554993271827698,-0.2477127313613891,-0.3718872541887685,0.290043690726161,2.5331431501358748,-0.0301043862476944,-0.6212715238332749,-0.5187380641698838,0.6801129214576963,0.1013204455375671,0.1259297132492065,0.660628080368042,11.681151302435865,-1.6406228531683698,0.321841901096041,-2.1186051543914948
1.18,-0.3737753033638,0.2881955504417419,2.531981468200684,0.0161022075449688,0.1615179870046846,5.361989418695123e-06,-0.032089278101921,-0.359513908624649,-0.2554374933242798,-0.3725110736768693,0.2782182602584362,2.523368388861418,-0.0286556020379066,-0.6612715244293212,-0.5587380647659301,0.4720422494265098,0.1826249063014984,-0.2007290720939636,-0.3862380981445312,11.740975208074817,-1.683375624085337,0.3340610749110139,-2.1954622723037684
1.2,-0.3744048476219177,0.2802327871322632,2.525897026062012,0.0132848830952752,0.1688531435294229,0.0004228456440464,-0.0275342166423797,-0.3617140054702759,-0.2723139524459839,-0.3730986735597253,0.2653928297758102,2.51259362757206,-0.0272068178281188,-0.7012715250253677,-0.5987380653619766,0.8809141324738828,0.227753072977066,-0.1100048422813415,-0.8438229560852051,11.386803257958944,-1.696043527952151,0.2919592852642286,-2.25466010100428
1.22,-0.3748112022876739,0.2721827626228332,2.5198237895965576,0.018841169436837,0.172616797419868,0.0015049281806745,-0.0233077257871627,-0.3602877259254455,-0.2735477685928345,-0.3757815584540367,0.2621470868587494,2.5122813284397125,-0.026368694496341,-0.461714006960392,-0.3723139539361,0.2314076520637518,0.211324542760849,0.0713139772415161,-0.0616908073425293,11.270596649225354,-1.7182691082411523,0.2574398032068586,-2.3594884590841256
1.24,-0.3750325441360473,0.268159955739975,2.5167973041534424,0.0238024758388712,0.1749440464939983,0.0020895923060978,-0.0180814415216445,-0.3612560033798218,-0.2728289365768432,-0.3757815584540367,0.2621470868587494,2.5122813284397125,-0.026368694496341,-0.461714006960392,-0.3723139539361,0.2681805731213126,0.2613142132759094,-0.048413872718811,0.0359416007995605,12.855146545266052,-1.7188900029671967,0.2766238934382902,-2.334726465099462
1.26,-0.3752272129058838,0.2598755657672882,2.5101001262664795,0.0414381681282838,0.1807843024286408,0.0037082777056165,-0.0137979537248611,-0.3673794865608215,-0.2868837118148803,-0.3757815584540367,0.2621470868587494,2.5122813284397125,-0.026368694496341,-0.461714006960392,-0.3723139539361,0.7958988958481483,0.2141743898391723,-0.3061741590499878,-0.7027387619018555,12.057961540442191,-1.7411566503347256,0.2582589394249784,-2.262248585382553
1.28,-0.3752391338348388,0.251725286245346,2.503549575805664,0.0544041653681757,0.1823482543917124,0.0043919613917152,-0.0046482682228088,-0.3697800636291504,-0.2980738878250122,-0.3760452453990001,0.2575299467891455,2.508558188900352,-0.0261355900671333,-0.4817140072584152,-0.3923139542341232,0.7326314799835976,0.4574842751026153,-0.1200288534164428,-0.5595088005065918,12.393730708250589,-1.753143559463434,0.252248924475646,-2.2782514263296045
1.3,-0.3749910295009613,0.2433218955993652,2.49734115600586,0.0561581770045605,0.1813104807730852,0.0037642878595348,0.0053141266107559,-0.3724575638771057,-0.2870768308639526,-0.3765726192889269,0.2482956666499376,2.501111909821629,-0.0256693812087178,-0.5217140078544616,-0.4323139548301696,0.7539124289372529,0.4981197416782379,-0.1338750123977661,0.5498528480529785,12.076480911031467,-1.7321033712779752,0.2827036963529675,-2.2333280063135685
1.32,-0.3746263682842254,0.2349712550640106,2.491101026535034,0.0488955407227559,0.1799429884776361,0.0022992480912081,0.0137872248888015,-0.3769657015800476,-0.2800923585891723,-0.3770999931788538,0.2390613865107297,2.493665630742908,-0.0252031723503023,-0.5617140084505081,-0.4723139554262161,0.5935055874532286,0.4236549139022827,-0.2254068851470947,0.3492236137390136,12.303628771059266,-1.7043267770506123,0.3087074963170202,-2.0454238850545954
1.34,-0.3742597103118896,0.2307216674089431,2.488159418106079,0.0416231668157144,0.1776972759209017,0.001501306922217,0.0196431577205657,-0.3769767582416534,-0.2748620510101318,-0.3776040566258598,0.2278271063417196,2.484219351634384,-0.0247369634918868,-0.6017140090465546,-0.5123139560222626,0.39258180342213,0.292796641588211,-0.0005528330802917,0.2615153789520263,12.143742173479495,-1.7237098740317705,0.3181185482782292,-2.0951603903009697
1.36,-0.3735100328922272,0.2222381383180618,2.4822428226470947,0.0301633326994828,0.1721581153201373,-0.0004569932279426,0.030529573559761,-0.3838774263858795,-0.265742540359497,-0.3781081200728658,0.2165928261727094,2.474773072525859,-0.0242707546334713,-0.6417140096426011,-0.5523139566183091,0.7894598551662693,0.5443207919597626,-0.3450334072113037,0.4559755325317383,12.000734653092875,-1.7286916903166454,0.3447340673346779,-2.050667968506969
1.38,-0.3725445866584778,0.2136923819780349,2.476253032684326,0.0182267971680439,0.1657717077698859,-0.0020548366705016,0.0385902822017669,-0.3831589221954345,-0.2678936719894409,-0.3786005282984115,0.2043585459887981,2.4643267934024333,-0.0238045457750558,-0.6817140102386474,-0.5923139572143554,0.418684366117069,0.403035432100296,0.0359252095222473,-0.1075565814971923,12.045648614729089,-1.6816848865307006,0.3064954974271578,-2.046070906410788
1.4,-0.3714885115623474,0.2050940543413162,2.470241069793701,0.0143660152614521,0.1582852982363021,-0.0026126624196652,0.0454842299222946,-0.3857418894767761,-0.270039439201355,-0.3790812813024968,0.1911242657899856,2.452880514264107,-0.0233383369166404,-0.7217140108346939,-0.6323139578104019,0.3834141105827183,0.3446973860263824,-0.1291483640670776,-0.1072883605957031,12.003172080668264,-1.6816848865307006,0.3064954974271578,-2.046070906410788
1.42,-0.3703725337982178,0.1964951008558273,2.4641661643981934,0.0159180891975096,0.1494659527931578,-0.0025563838595557,0.0488711893558502,-0.3869388103485107,-0.2719545364379883,-0.3692143000662327,0.1858069598674774,2.456739097833633,0.0434601637534797,-0.4857418909668922,-0.3700394406914711,0.2035418335595029,0.1693479716777801,-0.0598460435867309,-0.095754861831665,10.992844829823298,-1.684437785654714,0.2633697525325815,-2.102195405000274
1.44,-0.3698445558547973,0.1922417283058166,2.461058616638184,0.0194065767628147,0.1460376009440608,-0.0038033844065067,0.0505194067955017,-0.3838878273963928,-0.2762407064437866,-0.3692143000662327,0.1858069598674774,2.456739097833633,0.0434601637534797,-0.4857418909668922,-0.3700394406914711,0.2756645199381434,0.0824108719825744,0.152549147605896,-0.214308500289917,13.897988068882114,-1.6739899454724307,0.2509868024891789,-2.120908840347074
1.46,-0.3685571253299713,0.1836668103933334,2.4546091556549072,0.0273233541008305,0.1376974692273353,-0.0026484577893466,0.0545286387205123,-0.3849902153015136,-0.2855211496353149,-0.3692143000662327,0.1858069598674774,2.456739097833633,0.0434601637534797,-0.4857418909668922,-0.3700394406914711,0.5084678592425138,0.200461596250534,-0.0551193952560424,-0.464022159576416,13.127981391650335,-1.6811472182156249,0.2620821860974312,-2.1450053149535564
1.48,-0.3672932386398315,0.1751947253942489,2.448307514190674,0.0333366385524405,0.1319983680099277,-0.0012683991220858,0.0574046373367309,-0.3835575580596924,-0.2868998050689697,-0.3687796984286979,0.1809495409578085,2.453038703426719,0.0430553505197167,-0.5057418912649154,-0.3900394409894943,0.1748182314418319,0.1437999308109283,0.0716328620910644,-0.0689327716827392,12.813264180136684,-1.6458237518439671,0.2691099802112964,-2.1920971278537613
1.5,-0.3660162389278412,0.1665553748607635,2.442337274551392,0.0294155335771078,0.1294981376149885,-0.0016071972342912,0.0571699440479278,-0.3850072920322418,-0.2761173248291015,-0.3679104951536283,0.1712347031384706,2.445637914612889,0.0422457240521907,-0.5457418918609619,-0.4300394415855407,0.5441017589893471,-0.011734664440155,-0.0724866986274719,0.5391240119934082,12.063270307153289,-1.620010383093582,0.2924898896969327,-2.1859547470709386
1.52,-0.3647792339324951,0.1580084711313247,2.43662166595459,0.020296416469574,0.1292822822732317,-0.002892498481204,0.0565651059150695,-0.3866907358169555,-0.2629315853118896,-0.3670412918785587,0.1615198653191328,2.43823712579906,0.0414360975846648,-0.5857418924570084,-0.4700394421815872,0.6653261207088872,-0.0302419066429138,-0.0841721892356872,0.6592869758605957,12.255936293748164,-1.5956316306791096,0.287070663524873,-1.9862749728798932
1.54,-0.3641648292541504,0.1536727398633957,2.433703184127808,0.0145728851566771,0.1270824097299236,-0.0031087411077176,0.0559931248426437,-0.3856124877929687,-0.2619016170501709,-0.3662125699268654,0.1498050274699926,2.4288363369554284,0.0406264711171388,-0.6257418930530548,-0.5100394427776337,0.0798532367627141,-0.0285990536212921,0.0539124011993408,0.0514984130859375,11.728567750479217,-1.6098999179955862,0.2848879480102864,-2.137284122569145
1.56,-0.3631066381931305,0.1451827585697174,2.427888870239258,0.0067153338372491,0.1273609971565809,-0.0039650109568345,0.0524123758077621,-0.3844470381736755,-0.2603834867477417,-0.3653838479751721,0.1380901896208524,2.4194355481117964,0.0398168446496129,-0.6657418936491013,-0.5500394433736802,0.203007118600986,-0.1790374517440796,0.0582724809646606,0.0759065151214599,12.033042973222564,-1.621335734958884,0.2774790511017012,-2.260340797274266
1.58,-0.3620672225952148,0.1366289258003235,2.422068357467652,0.0022092055933646,0.1256022586436944,-0.0042339660878128,0.0471961498260498,-0.3834858238697052,-0.2617835998535156,-0.364575366685167,0.1253753517568111,2.4090347592532635,0.0390072181820869,-0.7057418942451477,-0.5900394439697265,0.2742866344693447,-0.260811299085617,0.0480607151985168,-0.0700056552886962,11.828017233614446,-1.635666320071539,0.2660965716449905,-2.322740202954709
1.6,-0.3611669540405273,0.1282084435224533,2.41632342338562,0.0041993133450732,0.1266831155025818,-0.0043884957137482,0.0436428934335708,-0.3819220960140228,-0.2602225542068481,-0.36378712605685,0.1116605138778686,2.3976339703798297,0.0381975917145609,-0.7457418948411941,-0.630039444565773,0.2092112527345802,-0.1776628196239471,0.0781863927841186,0.078052282333374,11.44490610980438,-1.681147203472678,0.2183061550401532,-2.323031161986571
1.62,-0.3602639436721802,0.1198386698961258,2.410477638244629,0.0162298435683998,0.1262024745917304,-0.0027005726964737,0.04057377576828,-0.3777807652950287,-0.2607911825180053,-0.3589848093688488,0.1091123387217521,2.4033122956752777,0.0551652554422616,-0.4819220975041389,-0.3602225556969642,0.2592944345899767,-0.1534558832645416,0.207066535949707,-0.0284314155578613,11.01353042402252,-1.6506832735743044,0.2359177286765305,-2.2990395399649897
1.64,-0.3597792387008667,0.1156062185764312,2.4074857234954834,0.0230121713408771,0.1259279273490396,-0.0018111145957312,0.0403370708227157,-0.3771179318428039,-0.2649003267288208,-0.3589848093688488,0.1091123387217521,2.4033122956752777,0.0551652554422616,-0.4819220975041389,-0.3602225556969642,0.2084492957647057,-0.0118352472782135,0.0331416726112365,-0.2054572105407714,12.983496314090644,-1.6480933555878217,0.2546427105892708,-2.243335852737225
1.66,-0.359030544757843,0.107153832912445,2.401146411895752,0.0448441564924547,0.1297678771564587,-0.0003630477627561,0.0385413318872451,-0.3780509829521179,-0.2776890993118286,-0.3589848093688488,0.1091123387217521,2.4033122956752777,0.0551652554422616,-0.4819220975041389,-0.3602225556969642,0.6473947151407118,-0.089786946773529,-0.0466525554656982,-0.6394386291503906,12.689439144413882,-1.6610429850476116,0.2395200951960738,-2.2680764804487974
1.68,-0.3581716418266296,0.0985480770468711,2.395005941390991,0.0619460480557842,0.1328421388630491,0.0018939283221038,0.0361709296703338,-0.3838081955909729,-0.2807950973510742,-0.3584331568144261,0.1042931177467107,2.3997100701183083,0.0574697278439998,-0.5019220978021621,-0.3802225559949875,0.3478919654818402,-0.1185201108455658,-0.287860631942749,-0.1552999019622802,12.204462595753284,-1.6522052172566883,0.2717176522366146,-2.299724611862426
1.7,-0.3576426208019256,0.0898988395929336,2.389355182647705,0.0666119556272637,0.1372808083869754,0.0026814957431238,0.0312282890081405,-0.3882373571395874,-0.2653026580810547,-0.3573298517055809,0.094654675796628,2.392505619004369,0.0620786726474762,-0.5419220983982086,-0.4202225565910339,0.8427081987178823,-0.2471320331096649,-0.2214580774307251,0.7746219635009766,12.280514121716806,-1.6370158136682973,0.2998860702065329,-2.21564841594716
1.72,-0.3568715453147888,0.0810109451413154,2.3839776515960693,0.05854203643904,0.1390286254515162,0.0014286591601301,0.0292521715164184,-0.3945854604244232,-0.2481365203857422,-0.3562265465967357,0.0850162338465452,2.3853011678904297,0.0666876174509525,-0.5819220989942551,-0.4602225571870804,0.9204343255095148,-0.0988058745861053,-0.3174051642417907,0.858306884765625,11.901845407645853,-1.6496504689745286,0.323911302175159,-1.982293956636235
1.74,-0.3565487265586853,0.0765792205929756,2.3811755180358887,0.0533091132378608,0.1406298937207377,0.0001749590717674,0.029873102903366,-0.3973561823368072,-0.2475571632385254,-0.3548927942477166,0.0733777918666601,2.376096716746688,0.0712965622544288,-0.6219220995903015,-0.5002225577831269,0.1448974672578244,0.0310465693473815,-0.1385360956192016,0.0289678573608398,11.71671005586768,-1.6804130937094115,0.3342038326109377,-2.0044226347629985
1.76,-0.3559431433677673,0.0674336105585098,2.3758058547973637,0.0408198354471986,0.1443823787360072,-0.0010957170194613,0.0298650562763214,-0.4038769602775574,-0.2426540851593017,-0.3535590418986976,0.061739349886775,2.3668922656029463,0.0759055070579052,-0.661922100186348,-0.5402225583791733,0.4079239645808502,-0.0004023313522338,-0.3260388970375061,0.2451539039611816,11.673071590375002,-1.6756847913443906,0.3668753877457585,-2.081064181022402
1.78,-0.3552661836147308,0.0582394190132617,2.370633125305176,0.0286042483069974,0.1482392877855619,-0.0015538232904026,0.0288572162389755,-0.412645548582077,-0.23720383644104,-0.3521100659295916,0.0491009078919887,2.3566878144443035,0.0805144518613815,-0.7019221007823944,-0.5802225589752197,0.5186740148830229,-0.0503920018672943,-0.4384294152259826,0.2725124359130859,11.586608159090249,-1.6905821062473536,0.3368957051944918,-2.0744453848804176
1.8,-0.3545010983943939,0.0490766279399395,2.3652279376983643,0.0209412345622893,0.1528737943541064,-0.0022484360349401,0.0324460119009017,-0.4130321145057678,-0.238003134727478,-0.3505458663403987,0.0354624658823013,2.34548336327076,0.0851233966648578,-0.7419221013784408,-0.6202225595712662,0.1848497042675645,0.1794397830963134,-0.0193282961845397,-0.0399649143218994,11.167723722946905,-1.7144172559316098,0.2812256184103998,-2.072845651079352
1.82,-0.3536364138126373,0.039897933602333,2.3595006465911865,0.0200695137043349,0.1582055058583031,-0.0012481593017989,0.0366698205471038,-0.4126834273338318,-0.2504807710647583,-0.3528787977993488,0.0284250222146511,2.3533277809619904,0.0499288495630025,-0.5130321159958839,-0.3380031362175941,0.6588883645751785,0.2111904323101043,0.0174343585968017,-0.6238818168640137,11.23118327612383,-1.7034086147833096,0.2744546927527471,-2.061044830194873
1.84,-0.3531592786312103,0.0352797135710716,2.3567588329315186,0.021449737439295,0.1599163876463222,-0.0008004591948298,0.0378801673650741,-0.4131978154182434,-0.2544987201690674,-0.3528787977993488,0.0284250222146511,2.3533277809619904,0.0499288495630025,-0.5130321159958839,-0.3380031362175941,0.2113850132221628,0.0605173408985137,-0.025719404220581,-0.2008974552154541,12.545262326209922,-1.688787429272109,0.2759661975896676,-2.0952604100501158
1.86,-0.3522735834121704,0.0261139012873172,2.3506147861480717,0.031273621020795,0.1693692427769057,0.0006584461141855,0.0402874499559402,-0.4128203690052032,-0.2651149034500122,-0.3528787977993488,0.0284250222146511,2.3533277809619904,0.0499288495630025,-0.5130321159958839,-0.3380031362175941,0.5446118404919605,0.1203641295433044,0.018872320652008,-0.5308091640472412,13.186272020437173,-1.7014622873571972,0.2729713701197856,-2.073242206522771
1.88,-0.3511467576026916,0.0167842768132686,2.3445656299591064,0.0392658776244685,0.1750545257681458,0.0007244521021477,0.0452817231416702,-0.4161473214626312,-0.2743470668792724,-0.3523795093037188,0.0232947010546922,2.3499477495998145,0.0534254170954227,-0.5330321162939071,-0.3580031365156174,0.5505547631531718,0.249713659286499,-0.1663476228713989,-0.4616081714630127,12.564555735085833,-1.7168604833587262,0.2841334241684332,-2.079877519005892
1.9,-0.349875658750534,0.007437611464411,2.3386070728302,0.0376372160485779,0.1783604043902228,-0.00043765164814,0.0539533048868179,-0.4202165305614471,-0.2701735496520996,-0.3513809323124587,0.0130340587347745,2.343187686875462,0.060418552160263,-0.5730321168899536,-0.3980031371116638,0.5224295136623067,0.4335790872573852,-0.2034604549407959,0.2086758613586425,12.243499479549428,-1.7180920692807768,0.2782711554195723,-2.028099294761708
1.92,-0.3483620584011078,-0.0018855440430343,2.3328096866607666,0.0288766125964797,0.1796588965593805,-0.0017024123839991,0.0626557320356369,-0.4200709760189056,-0.2645087242126465,-0.3503823553211987,0.0027734164148569,2.336427624151111,0.0674116872251033,-0.6130321174860001,-0.4380031377077102,0.5192390385574626,0.4351213574409485,0.0072777271270751,0.2832412719726562,12.039862477673523,-1.6893368512705471,0.2777376517305008,-1.9011876837813129
1.94,-0.3475143015384674,-0.0063976207748055,2.3299038410186768,0.0224804101583235,0.1792677153270114,-0.0014507595973628,0.0697045773267746,-0.4179161190986633,-0.2605444192886352,-0.3490341215766966,-0.009487225934863,2.3276675613969564,0.0744048222899436,-0.6530321180820465,-0.4780031383037567,0.418465475922596,0.3524422645568847,0.1077428460121154,0.1982152462005615,11.792055995784269,-1.7025848119486853,0.2872336926622125,-1.9410993541215995
1.96,-0.3457453846931457,-0.015720747411251,2.3240983486175537,0.0106197366979623,0.1772512418136552,-0.0034170029265301,0.0746284425258636,-0.4184997379779815,-0.2636182308197021,-0.3476858878321946,-0.0217478682845831,2.3189074986428024,0.081397957354784,-0.693032118678093,-0.5180031388998032,0.2916906615903941,0.2461932599544525,-0.0291809439659118,-0.1536905765533447,11.60128290415787,-1.735762461588387,0.3011580396632645,-2.06184587603918
1.98,-0.3437427580356598,-0.0249843057245016,2.31831693649292,0.0018693217073793,0.1736526035738571,-0.0038180821413369,0.0848597288131713,-0.4182004034519195,-0.2607053518295288,-0.3461628257110715,-0.0350085106492042,2.309147435873747,0.0883910924196243,-0.7330321192741394,-0.5580031394958496,0.5321035713626093,0.511564314365387,0.0149667263031005,0.145643949508667,11.41453695597238,-1.7542680392570686,0.2848175810076642,-2.1342885764711643
2.0,-0.341681569814682,-0.0340869762003421,2.312342882156372,-0.0011663709651421,0.1708692481435271,-0.0030697503152386,0.0914358347654342,-0.4132401347160339,-0.2644979953765869,-0.3444649352133274,-0.0492691530287265,2.2983873730897906,0.0953842274844646,-0.7730321198701858,-0.598003140091896,0.4534136646116686,0.3288052976131439,0.248013436794281,-0.1896321773529052,11.255356812287118,-1.741948126761865,0.2479580763880652,-2.131869781922294
2.02,-0.3394476175308227,-0.0430847145617008,2.30631160736084,0.0023246308683998,0.1673050453233297,-0.0035325656988175,0.0966406613588333,-0.4072591960430145,-0.2701199054718017,-0.3371097780764103,-0.0547489829361438,2.2991179823875427,0.1161596607416868,-0.51324013620615,-0.364497996866703,0.485972531107602,0.2602413296699524,0.2990469336509704,-0.2810955047607422,11.464377031753884,-1.7353523438677636,0.2479343077492767,-2.1420174263355403
2.04,-0.3382790684700012,-0.047656811773777,2.3031787872314453,0.0084296686686932,0.165289459639281,-0.0027730769388316,0.100305899977684,-0.4081186056137085,-0.2748245000839233,-0.3371097780764103,-0.0547489829361438,2.2991179823875427,0.1161596607416868,-0.51324013620615,-0.364497996866703,0.3012713453338969,0.1832619309425354,-0.0429704785346984,-0.2352297306060791,12.344663685393243,-1.7345208984949791,0.2536827820702712,-2.1367886244311314
2.06,-0.3358191549777984,-0.0565434917807579,2.296766996383667,0.0201018890008303,0.1604616488276709,-0.0017383138290972,0.107259526848793,-0.4017902910709381,-0.2842819690704345,-0.3371097780764103,-0.0547489829361438,2.2991179823875427,0.1161596607416868,-0.51324013620615,-0.364497996866703,0.6667912177842292,0.3476813435554504,0.3164157271385193,-0.4728734493255615,13.157541586696423,-1.727383711034139,0.2373735626697741,-2.101639154137633
2.08,-0.3333469927310943,-0.0654848963022232,2.2901418209075928,0.032529952647773,0.15708829885245,-0.0011500791181839,0.1109717041254043,-0.4011318981647491,-0.2933317422866821,-0.3359481814689934,-0.0598813842982053,2.295473002418876,0.1211044259369373,-0.5332401365041732,-0.3844979971647262,0.4901839874409943,0.1856088638305664,0.0329196453094482,-0.4524886608123779,13.013749011246546,-1.6961195672337197,0.2732271218236493,-2.079363738148071
2.1,-0.3308079540729522,-0.074409581720829,2.2839043140411377,0.0379965101956934,0.151986201425418,-0.0012197196488256,0.1127520203590393,-0.4019870162010193,-0.2894103527069092,-0.3336249882541597,-0.0701461870223283,2.288183042481542,0.1309939563274383,-0.5732401371002197,-0.4244979977607727,0.2195338754272931,0.0890158116817474,-0.042755901813507,0.1960694789886474,12.659369468028215,-1.6776873812672906,0.2907256530601542,-2.037340683707173
2.12,-0.3280810713768005,-0.0834125578403472,2.2777602672576904,0.0329485118925943,0.1474411902958894,-0.0027192818111162,0.118483230471611,-0.4033723771572113,-0.2785849571228027,-0.3313017950393259,-0.0804109897464513,2.280893082544208,0.1408834867179393,-0.6132401376962662,-0.4644979983568191,0.6163505169255902,0.2865605056285858,-0.0692680478096008,0.5412697792053223,13.366257473598123,-1.6722196171326875,0.3028529283383986,-1.9486209684975933
2.14,-0.3268690705299377,-0.0879481136798858,2.274749755859375,0.0296841798194186,0.1449236453673101,-0.0044612803624217,0.1173446327447891,-0.4055369198322296,-0.2744704484939575,-0.3284841253049671,-0.0926757925003766,2.2716031225770714,0.1507730171084404,-0.6532401382923126,-0.5044979989528656,0.2393262993923837,-0.0569298863410949,-0.1082271337509155,0.2057254314422607,13.161648797494308,-1.6517307598404938,0.3067295620922166,-1.9341451173109612
2.16,-0.3242457211017608,-0.0969006642699241,2.2688748836517334,0.0226413319686504,0.1405014456266085,-0.005182759604397,0.117039531469345,-0.404656320810318,-0.2683442831039428,-0.3256664555706083,-0.104940595254302,2.262313162609935,0.1606625474989414,-0.6932401388883591,-0.5444979995489121,0.3098323894119311,-0.0152550637722015,0.044029951095581,0.3063082695007324,11.877738451649748,-1.6857014321142425,0.3047743302919329,-2.060124199092747
2.18,-0.3217276036739349,-0.105955958366394,2.263122081756592,0.0174581042264588,0.1374531915417374,-0.0069472905540696,0.1156830042600631,-0.4051765203475952,-0.261622667312622,-0.322601547576487,-0.1182053980231285,2.252023202627897,0.1705520778894424,-0.7332401394844055,-0.5844980001449585,0.3438418694481476,-0.067826360464096,-0.026009976863861,0.33608078956604,11.720221891888286,-1.6997118758981014,0.3115891511126324,-2.142003710045648
2.2,-0.3190367817878723,-0.114989623427391,2.257253170013428,0.0161744812413956,0.1357363829988042,-0.0067733104487142,0.1172011345624923,-0.4070015847682953,-0.2614885568618774,-0.3192894013226032,-0.1324702008068561,2.2407332426309585,0.1804416082799434,-0.7732401400804519,-0.6244980007410049,0.118886136364359,0.0759065151214599,-0.0912532210350036,0.0067055225372314,11.249214658038454,-1.7113309513634134,0.2970262006381573,-2.170529304898248
2.22,-0.3165198266506195,-0.1238843947649002,2.251210927963257,0.0209910545517888,0.1352110912235195,-0.0066257427429715,0.1171749830245971,-0.4033898115158081,-0.2680009603500366,-0.3131767250597477,-0.1353397026658058,2.244178742170334,0.1350945737212896,-0.5070015862584114,-0.3614885583519935,0.3723472476160659,-0.0013075768947601,0.1805886626243591,-0.325620174407959,11.381561517842783,-1.7096815629139632,0.2790872562422588,-2.318709777923028
2.24,-0.3152665495872497,-0.1284334510564804,2.248097419738769,0.0240797778440874,0.1354545407035986,-0.0065483466989753,0.112808346748352,-0.4050980508327484,-0.2699160575866699,-0.3131767250597477,-0.1353397026658058,2.244178742170334,0.1350945737212896,-0.5070015862584114,-0.3614885583519935,0.2532448980666788,-0.2183318138122558,-0.0854119658470153,-0.095754861831665,13.099960883156657,-1.7165972044765676,0.300694912595835,-2.465746237773077
2.26,-0.3127377927303314,-0.1373894959688186,2.241748094558716,0.0385645361846278,0.139117645411058,-0.0046891474850977,0.1136371493339538,-0.4032811820507049,-0.2814871072769165,-0.3131767250597477,-0.1353397026658058,2.244178742170334,0.1350945737212896,-0.5070015862584114,-0.3614885583519935,0.5871054352312279,0.0414401292800903,0.0908434391021728,-0.5785524845123291,12.39204806271573,-1.733568299187564,0.2879060556320156,-2.417373261101914
2.28,-0.3101915419101715,-0.1466197818517685,2.235546827316284,0.0491809391726807,0.1408245426977891,-0.0049610846482565,0.1141876727342605,-0.4091924428939819,-0.2823883295059204,-0.3118257793225348,-0.1404097185283899,2.240563856586814,0.1386732615530491,-0.5270015865564346,-0.3814885586500168,0.3002427446150684,0.027526170015335,-0.2955630421638489,-0.0450611114501953,12.1976386383285,-1.7153978091167097,0.3182832762596302,-2.4105547311232205
2.3000000000000003,-0.3077967762947082,-0.1558291465044021,2.229612112045288,0.0466056838553584,0.1392623270684982,-0.0071448309441803,0.1111728698015213,-0.4148921370506286,-0.273059606552124,-0.309123887848109,-0.1505497502535581,2.233334085419774,0.145830637216568,-0.5670015871524811,-0.4214885592460632,0.5670110716539265,-0.1507401466369629,-0.2849847078323364,0.4664361476898193,12.794452929380896,-1.6880460517125624,0.317240440497794,-2.279662408790849
2.32,-0.3064855635166168,-0.1604089438915252,2.226694107055664,0.0259101717540605,0.135263686173952,-0.0099390648613689,0.1113130152225494,-0.4130347073078155,-0.2705597877502441,-0.3064219963736832,-0.1606897819787263,2.2261043142527344,0.1529880128800869,-0.6070015877485275,-0.4614885598421097,0.1558747897412704,0.0070072710514068,0.0928714871406555,0.1249909400939941,12.429732747946218,-1.6927447640578333,0.306960358733204,-2.12157302285478
2.34,-0.3041307330131531,-0.1698415577411651,2.2211034297943115,0.0268809600309967,0.1386043654713011,-0.0092334524634158,0.1115195453166961,-0.4206652641296386,-0.2582484483718872,-0.3033622361160815,-0.1728298137336969,2.216874543055892,0.1601453885436058,-0.647001588344574,-0.5014885604381562,0.7242878042945734,0.0103265047073364,-0.381527841091156,0.6155669689178467,12.318768824175097,-1.6885405978276062,0.3421014298878107,-2.2120134226113515
2.36,-0.3017579615116119,-0.1793198734521865,2.2156803607940674,0.0122328853982037,0.1385685303994548,-0.0116448012185728,0.1063710451126098,-0.4254959225654602,-0.2478092908859253,-0.3003024758584797,-0.1849698454886675,2.2076447718590497,0.1673027642071247,-0.6870015889406205,-0.5414885610342026,0.6301157121746869,-0.2574250102043152,-0.2415329217910766,0.5219578742980957,12.129071415667113,-1.703461313423818,0.2977436514588912,-2.1954256215509287
2.38,-0.2993601262569427,-0.1886742413043975,2.210420608520508,0.0028107971126358,0.1376950386313558,-0.0108535904674465,0.1073386520147323,-0.4237353801727295,-0.2403634786605835,-0.29706378120929,-0.1981098772585392,2.1974150006473065,0.1744601398706436,-0.7270015895366668,-0.581488561630249,0.3856030741860289,0.0483803451061248,0.0880271196365356,0.3722906112670898,11.50516892549831,-1.7232460315872555,0.2585120562239355,-2.136536559128813
2.4,-0.2968975901603699,-0.1979207843542099,2.204960823059082,-0.0004012203882549,0.140884483877363,-0.0105037727826837,0.1093583554029464,-0.4185205101966858,-0.2411895990371704,-0.2936461521685123,-0.212249909043312,2.186185229420662,0.1816175155341625,-0.7670015901327133,-0.6214885622262954,0.2826506037496545,0.1009851694107055,0.260743498802185,-0.0413060188293457,10.960454753741033,-1.730225984313975,0.2340906055771966,-2.181362899208136
2.42,-0.294485479593277,-0.2072225958108902,2.199418783187866,0.004198874830937,0.1433355675973278,-0.0095868607143787,0.1096795499324798,-0.4173379838466644,-0.247541069984436,-0.2914296723902225,-0.2188468098640442,2.1929013431072235,0.1341878455132246,-0.4972065016627311,-0.3411896005272865,0.3234297361416244,0.0160597264766693,0.0591263175010681,-0.3175735473632812,10.48834042168437,-1.7142492625692771,0.2418043391192172,-2.220634105422321
2.44,-0.293355256319046,-0.2118738740682602,2.196659564971924,0.0097655700162133,0.146758501615549,-0.0085152139464366,0.1052914559841156,-0.4196131527423858,-0.2476805448532104,-0.2914296723902225,-0.2188468098640442,2.1929013431072235,0.1341878455132246,-0.4972065016627311,-0.3411896005272865,0.2472408504007224,-0.2194046974182129,-0.1137584447860717,-0.0069737434387207,12.37670079329746,-1.7108981921019852,0.2323411112698948,-2.273444037531082
2.46,-0.2909626066684723,-0.2210275828838348,2.190702199935913,0.025536631421556,0.1534679466260514,-0.0073364537131349,0.1046524196863174,-0.4147928953170776,-0.258527398109436,-0.2914296723902225,-0.2188468098640442,2.1929013431072235,0.1341878455132246,-0.4972065016627311,-0.3411896005272865,0.5943430713784638,-0.0319518148899078,0.2410128712654113,-0.5423426628112793,13.09684184989419,-1.7538184073234917,0.2004638937758833,-2.267339385028064
2.48,-0.2884888648986816,-0.2303759455680847,2.184680938720703,0.0388650372334622,0.1581153759802911,-0.0058844964510327,0.1094938069581985,-0.4162966012954712,-0.2695190906524658,-0.2900877939350903,-0.2238188748806715,2.1894894471019506,0.1391537435352802,-0.5129436999559402,-0.3611896008253097,0.605221999241364,0.2420693635940551,-0.0751852989196777,-0.5495846271514893,12.068565495968867,-1.752571395328537,0.2455916420889305,-2.243483102345364
2.5,-0.2860492467880249,-0.2395714372396469,2.178792715072632,0.0432450375288845,0.1650797305148972,-0.005868539497741,0.1105505973100662,-0.417236715555191,-0.2679634094238281,-0.2874040370248258,-0.2337630049139261,2.182665655091405,0.1490855395793914,-0.5444180965423584,-0.4011896014213562,0.1051280737275359,0.0528395175933837,-0.0470057129859924,0.0777840614318847,12.15019074383963,-1.7182185333354487,0.2602528139561937,-2.1588845982565834
2.52,-0.2848391234874725,-0.2443746626377105,2.175917625427246,0.0415576523296285,0.1652916745713722,-0.0060325345814897,0.1081862300634384,-0.4191762804985046,-0.2650183439254761,-0.2847202801145613,-0.2437071349471807,2.17584186308086,0.1590173356235027,-0.5758924931287766,-0.4411896020174026,0.2122825677949149,-0.1182183623313903,-0.0969782471656799,0.1472532749176025,12.100620671883007,-1.705197883144262,0.284072938995364,-1.948243754489604
2.54,-0.282232254743576,-0.2537790834903717,2.170623302459717,0.0294418911252136,0.1649043696746886,-0.0075537031713073,0.1149319857358932,-0.4230597913265228,-0.2495902776718139,-0.2815399334020912,-0.2552249848097563,2.167018071040512,0.168949131667614,-0.6073668897151947,-0.481189602613449,0.8640198265537352,0.3372877836227417,-0.1941755414009094,0.7714033126831055,12.44555509166048,-1.7532757181510756,0.3049647513271727,-1.9798073257525377
2.56,-0.2795941531658172,-0.2632754147052765,2.164897918701172,0.0179023324752236,0.1641468054945442,-0.0084986760666006,0.1180118322372436,-0.4252669215202331,-0.2479434013366699,-0.2783595866896212,-0.2667428346723318,2.158194279000164,0.1788809277117252,-0.6388412863016129,-0.5211896032094956,0.2065737146100973,0.1539923250675201,-0.1103565096855163,0.0823438167572021,11.459688413861386,-1.7619965873978771,0.2870934170034864,-2.0215253173389303
2.58,-0.2768861651420593,-0.2727789580821991,2.1593048572540283,0.0046829531177532,0.1625599402732644,-0.0085086604682432,0.1202870160341262,-0.4274971783161163,-0.2546650171279907,-0.2749309450760483,-0.2790475444495678,2.148370486944914,0.1888127237558365,-0.670315682888031,-0.561189603805542,0.3719227928324423,0.1137591898441314,-0.1115128397941589,-0.33608078956604,11.495888824748818,-1.7617882132603435,0.2713773461542989,-2.0160179350203777
2.6,-0.2739685773849487,-0.2821530997753143,2.153714179992676,-0.0044828545428296,0.1610250534475336,-0.0093467907170493,0.1265754550695419,-0.4247479140758514,-0.2516341209411621,-0.2712540085613727,-0.2921391141414642,2.1375466948747635,0.1987445197999477,-0.7017900794744492,-0.6011896044015884,0.3751308140511481,0.3144219517707824,0.1374632120132446,0.1515448093414306,11.199254743274196,-1.7789283392898856,0.2262535313680762,-2.077865381946555
2.62,-0.271347165107727,-0.2914294302463531,2.1481356620788574,-0.0074629084092376,0.1606261725406445,-0.0090680907409175,0.1246275007724762,-0.4196356236934662,-0.2513068914413452,-0.2676398046314716,-0.3033904954791069,2.1411324739456177,0.1590691171586513,-0.48070814833045,-0.3516341224312782,0.274030646291779,-0.0973977148532867,0.2556145191192627,0.0163614749908447,10.92876539029885,-1.7508489951397987,0.2175569449969794,-2.0602864581075924
2.64,-0.2698434889316559,-0.2960565388202667,2.14530348777771,-0.0078471952374569,0.1595136478338222,-0.0084316389916522,0.1254918426275253,-0.4189992547035217,-0.2543967962265014,-0.2676398046314716,-0.3033904954791069,2.1411324739456177,0.1590691171586513,-0.48070814833045,-0.3516341224312782,0.1635509394277834,0.0432170927524566,0.0318184494972229,-0.1544952392578125,12.397958933847804,-1.7908770413335626,0.2116357930506512,-2.106794169802213
