t,x,y,z,roll,pitch,yaw,v_x,v_y,v_z,ref_x,ref_y,ref_z,ref_v_x,ref_v_y,ref_v_z,a_com,a_x,a_y,a_z,thrust,wind_x,wind_y,wind_z
0.0,2.3549623699511306,-2.0898705891646028,2.586509593388929,0.0299009905020694,0.0996404463271053,0.04272174762516,0.0052944947686466,-0.0069702389859424,0.0071982555659205,2.3551174842169957,-2.0900014386557544,2.586729869574018,-0.0947954225730439,0.0949336968201387,-0.0534466978774878,0.5666365448166176,0.2647247384323347,-0.3485119492971238,0.3599127782960278,10.250070291325756,-0.9415321985874612,0.2545769079869732,-0.8772929009232704
0.02,2.3552289001421123,-2.090249406092865,2.5864927570158107,0.0196585566359306,0.094257151820087,0.0418734719862621,0.0206615288636833,-0.0264609592987864,-0.0094539979889151,2.3551174842169957,-2.0900014386557544,2.586729869574018,-0.0947954225730439,0.0949336968201387,-0.0534466978774878,1.4944325542208872,0.7683517047518318,-0.9745360156422002,-0.8326126777417842,10.250799593571172,-0.9462612679946404,0.2571132285196917,-0.876844672226697
0.04,2.35572192077736,-2.090762086495208,2.5861097103507262,0.0036508797750055,0.0798818081964946,0.0406382691118887,0.0290755172675365,-0.0259180960344129,-0.0298861741452175,2.3551174842169957,-2.0900014386557544,2.586729869574018,-0.0947954225730439,0.0949336968201387,-0.0534466978774878,1.1051738820952066,0.4206994201926616,0.027143163218676,-1.0216088078151206,9.318321291481425,-0.9502043400289928,0.2711091707918233,-0.8666752357094353
0.06,2.3563021063116616,-2.091212507765539,2.585288949274511,-0.0135393285452884,0.0589653815885505,0.0396613279240483,0.0274541908203395,-0.0187806194555592,-0.0510821214464359,2.354169529991265,-2.089052101687553,2.5861954025952434,-0.1147954228710671,0.114933697118162,-0.0655968364940497,1.1212052146664468,-0.0810663223598531,0.3568738289426852,-1.0597973650609198,9.0433938625697,-0.9604394240846466,0.2834552961711903,-0.8522355112103807
0.08,2.3567444380104168,-2.09148212102275,2.5840521756296826,-0.0300317558178581,0.0360028477165455,0.0392036367400212,0.0161071796967124,-0.0082123259715175,-0.0715266800063831,2.352273621539804,-2.0871534277511503,2.5851264686376934,-0.1547954234671136,0.1549336977142084,-0.0898971137271735,1.2829881754284265,-0.5673505561813539,0.5284146742020872,-1.0222279279973587,9.037740261086585,-0.9747821618347458,0.2942783564101134,-0.8344837611575776
0.1,2.356867436968775,-2.0915107584245853,2.5824139388151437,-0.0457100419905899,0.0139995689041977,0.0392091328262725,-0.0035812330226079,0.005138185014449,-0.0913255187090982,2.350377713088343,-2.0852547538147475,2.584057534680144,-0.19479542406316,0.1949336983102549,-0.1141973909602973,1.5474687015969324,-0.9844206359660164,0.6675255492983259,-0.9899419351357576,9.150561340589777,-0.9896384917622628,0.3032290865593763,-0.8169251219225622
0.12,2.356555312392669,-2.0912657393875187,2.580495911334704,-0.0598822288459451,-0.0042399829122057,0.0394997468967909,-0.0283591443555175,0.0202561863133068,-0.1096243047150736,2.34648180460708,-2.0813560798485424,2.5817735868609377,-0.2347954246592065,0.2349336989063013,-0.138497668193421,1.7156226439592417,-1.2388955666454815,0.7559000649428923,-0.9149393002987692,9.223622968850576,-1.004728511813583,0.3114424248123504,-0.7995428236195634
0.14,2.355672603939865,-2.0906663100131238,2.578098221850123,-0.0739033976722884,-0.0196802757674389,0.0399464375497575,-0.0586903509956622,0.0390896382620904,-0.1292172606474045,2.342585896125817,-2.0774574058823374,2.579489639041732,-0.274795425255253,0.2749336995023478,-0.1627979454265448,2.036274128598944,-1.516560332007234,0.941672597439178,-0.9796477966165424,9.223622968850576,-1.0174680548764432,0.3183166340264949,-0.785849617362546
0.16,2.3541421249573493,-2.0896397833718883,2.5753047259090445,-0.0861099700629277,-0.030689739083123,0.0404175844416776,-0.0928169023476648,0.0623613372902119,-0.1491451674869775,2.3376899876296524,-2.072558731901231,2.5765981842916976,-0.3147954258512994,0.3149337000983943,-0.1870982226596686,2.2930955899411645,-1.7063275676001326,1.1635849514060752,-0.9963953419786508,9.247847278764766,-1.0267409576634654,0.3239165523337276,-0.776751355690891
0.18,2.3518923984040487,-2.088118268530824,2.572111804639056,-0.0957073447464299,-0.0364318722225086,0.0407440349826659,-0.13028631660355,0.0880197925279251,-0.1691220913458949,2.3317940791185867,-2.066660057905224,2.573099222610836,-0.3547954264473458,0.3549337006944407,-0.2113984998927924,2.480620293762151,-1.8734707127942576,1.282922761885662,-0.9988461929458722,9.348884651429216,-1.0313749801455965,0.3275450811343477,-0.7743072757119362
0.2,2.3490534293973853,-2.086185538049154,2.568711616715852,-0.1024909839693608,-0.036581721628927,0.0407525521662972,-0.1660056425919062,0.1136245038456592,-0.187671859194492,2.325898170607521,-2.0607613839092163,2.569600260929973,-0.3947954270433923,0.3949337012904871,-0.2356987771259162,2.385144323706537,-1.7859662994178114,1.2802355658867046,-0.9274883924298524,9.348884651429216,-1.0340516779083802,0.3288523183875693,-0.7767906485771496
0.22,2.3453115577108608,-2.08347595444649,2.5648766670354317,-0.1032518120089846,-0.0310747976014934,0.0406285891901239,-0.2055829424832014,0.1543275972654567,-0.1938293151739209,2.345378082573871,-2.083717278904428,2.563655700071761,-0.2302863180936661,0.1880197940180412,-0.2163274091113692,2.855266513289469,-1.9788649945647565,2.0351546709898765,-0.3078727989714466,9.380074916700323,-1.0349375138432115,0.3267565521614307,-0.7806894539186888
0.24,2.340833827892893,-2.080046184423141,2.560961844279484,-0.097265073582137,-0.0205163843832469,0.0404837694107599,-0.2394314470818939,0.185324274442663,-0.1972200663975161,2.345378082573871,-2.083717278904428,2.563655700071761,-0.2302863180936661,0.1880197940180412,-0.2163274091113692,2.301093464777107,-1.6924252299346298,1.549833858860311,-0.1695375611797611,10.318033142347304,-1.0323566191120543,0.3214003817141469,-0.7878909845481429
0.26,2.3360100233401955,-2.076286729336622,2.557174159746698,-0.0899823462900742,-0.0079826673817589,0.0402865444984353,-0.2661221067195808,0.2086011654022495,-0.201230596403261,2.345378082573871,-2.083717278904428,2.563655700071761,-0.2302863180936661,0.1880197940180412,-0.2163274091113692,1.782055916326917,-1.334532981884344,1.1638445479793245,-0.200526500287243,10.223946779590731,-1.0274848385887685,0.316059433814072,-0.7965622032518376
0.28,2.3304419758318238,-2.071892753200124,2.553091503166388,-0.0825870271666167,0.0060790419658531,0.0400783504845445,-0.288814892782985,0.2295485820834459,-0.2069052449394576,2.3430752193929343,-2.081837080964247,2.5614924259806475,-0.2502863183916893,0.2080197943160645,-0.2257684726644641,1.5699987587132462,-1.134639303170207,1.0473708340598211,-0.2837324268098309,10.081785661004687,-1.0205667218399863,0.3109213646253743,-0.8077109942256139
0.3,2.3247791898561148,-2.067352139566452,2.5490880132312115,-0.0764919741430144,0.0189826582893108,0.0399376679047005,-0.3059178933236829,0.2475256281883797,-0.2142488940075363,2.338469493031061,-2.0780766850838863,2.55716587779842,-0.2902863189877358,0.2480197949121109,-0.2446505997706538,1.2938469729735471,-0.8551500270348983,0.8988523052466918,-0.3671824534039331,9.94463646566237,-1.0124405903725306,0.3064783521937819,-0.8198608101417753
0.32,2.318828502189011,-2.062483064072503,2.5449268349394827,-0.0714702294516684,0.0305781255879988,0.0398857337089523,-0.3194683538892722,0.2642721708934619,-0.2234240444538934,2.333863766669188,-2.0743162892035256,2.5528393296161926,-0.3302863195837823,0.2880197955081574,-0.2635327268768436,1.1707316727436088,-0.6775230282794642,0.8373271352541095,-0.4587575223178569,9.817077022446938,-1.003507617060446,0.3027932328239578,-0.8322551728011488
0.34,2.3123167231460835,-2.057021113644138,2.54034611415578,-0.0672820943631912,0.0408390829710985,0.0399394372524913,-0.3308930657225403,0.2811784458427592,-0.2342523481412699,2.327258040277512,-2.0685558932933623,2.547568675078656,-0.3702863201798287,0.3280197961042038,-0.2824148539830333,1.1549873742605392,-0.5712355916634021,0.8453137474648625,-0.541415184368825,9.708168900821876,-0.9952062764266398,0.2998270552940166,-0.8435157814302665
0.36,2.305594740022064,-2.051217286447581,2.5355381818482807,-0.0638026553297711,0.0489841159964659,0.0401143159536446,-0.3406921799120274,0.2983328733017394,-0.2460537644938496,2.3206523138858364,-2.062795497383199,2.5422980205411188,-0.4102863207758752,0.3680197967002503,-0.3012969810892231,1.1506198853997762,-0.4899557094743545,0.8577213729490107,-0.5900708176289862,9.61057710629757,-0.9881201632156518,0.2975131127767413,-0.8528671565985599
0.38,2.299038602944551,-2.045387645203681,2.530744529895524,-0.0607643605088189,0.0549287080031168,0.0403915381017914,-0.3489700575982607,0.3143875275836921,-0.2579669846407009,2.31304658747926,-2.056035101458135,2.5365553128259277,-0.4502863213719216,0.4080197972962967,-0.3201791081954128,1.081896479993124,-0.4138938843116668,0.8027327140976342,-0.5956610073425641,9.61057710629757,-0.9821221399199072,0.2953262166334119,-0.8608420126787051
0.4,2.292330964126365,-2.0392583738819643,2.5257185161143694,-0.057886192228794,0.0593727697035162,0.0407566202299242,-0.3566661817914709,0.3298948946889426,-0.2704975957709372,2.3044408610577816,-2.0482747055181694,2.5303405519330813,-0.490286321967968,0.4480197978923431,-0.3390612353016025,1.0685562425903496,-0.3848062096605126,0.7753683552625262,-0.6265305565118118,9.58201502486918,-0.9769135997152384,0.293068243807859,-0.8679381848719712
0.42,2.285127390930796,-2.0324933341490548,2.520245090737825,-0.0551469164800661,0.0624715952105477,0.0412141720022644,-0.3633230099871811,0.3458218542384271,-0.2757947236034268,2.281590100064638,-2.0296682688244965,2.517846180663488,-0.4489700590883768,0.4143875290738082,-0.3164335271528793,0.9028302240618872,-0.3328414097855087,0.7963479774742266,-0.2648563916244822,10.029350042803344,-0.976550208403312,0.2909858786768887,-0.8694623342140608
0.44,2.2777981556398808,-2.025428301372206,2.514659786858066,-0.0531991647556332,0.0638361558070225,0.0417087175075899,-0.36939618285983,0.360071302132475,-0.2826617322248247,2.281590100064638,-2.0296682688244965,2.517846180663488,-0.4489700590883768,0.4143875290738082,-0.3164335271528793,0.8471806204001254,-0.3036586436324456,0.7124723947023931,-0.3433504310698942,10.029350042803344,-0.9747761952159444,0.2902290454388044,-0.8712858772312745
0.46,2.270719973628709,-2.01845435387744,2.5092016579903493,-0.0522724395276275,0.0635910423528509,0.0421897835812263,-0.3754824064199776,0.3734200102939639,-0.2915310517686384,2.281590100064638,-2.0296682688244965,2.517846180663488,-0.4489700590883768,0.4143875290738082,-0.3164335271528793,0.8571682389924568,-0.3043111780073798,0.6674354080744432,-0.4434659771906879,9.877165176466406,-0.9740245906690932,0.2899886300050009,-0.872049859976229
0.48,2.2631397202338905,-2.0108430209809023,2.5032571047270133,-0.0522551261348507,0.061873160982611,0.0426989592272656,-0.3823180262463891,0.387078644907846,-0.3025325460950809,2.277100399473754,-2.0255243935337583,2.5146818453919595,-0.4689700593864001,0.4343875293718314,-0.328126835655315,0.9411653352911932,-0.3417809913205755,0.6829317306941057,-0.5500747163221215,9.754227726427416,-0.9746639806687136,0.2903198692966496,-0.8713472164574618
0.5,2.255415712659232,-2.0029597714844463,2.4970783657168094,-0.0533281457406145,0.058739693807104,0.0432029987865996,-0.3898800563732412,0.4006804313310445,-0.3147858263898385,2.2681209982919865,-2.017236642952282,2.5083531748489016,-0.5089700599824465,0.4743875299678778,-0.3515134526601864,0.9903733784836136,-0.3781015063426013,0.680089321159924,-0.6126640147378792,9.661525409793285,-0.9764287946268896,0.2913137166177384,-0.869322862351646
0.52,2.247927343590224,-1.995216004561149,2.49097438086045,-0.0553381013038061,0.0546116529826076,0.0436777607093304,-0.3981308144834953,0.4138825674123461,-0.3271244032721279,2.259141597110219,-2.008948892370806,2.502024504305844,-0.548970060578493,0.5143875305639243,-0.3749000696650578,0.9932420223481516,-0.4125379055127082,0.6601068040650832,-0.6169288441144699,9.599989133918823,-0.9795594797278304,0.2931499553683537,-0.8655255306621639
0.54,2.2398589250431318,-1.9867807231907209,2.484292976719794,-0.0581946808434422,0.0493602585040301,0.0441881461812014,-0.4085522882149877,0.4291848540947783,-0.3403846826698115,2.248162195898649,-1.9986611417595277,2.494526502912543,-0.5889700611745394,0.5543875311599707,-0.3982866866699291,1.1386418468422796,-0.5210736865746163,0.765114334121611,-0.6630139698841797,9.561358129538348,-0.9841503800805452,0.2958042859217268,-0.8594437717102928
0.56,2.2315530753756434,-1.978014501219426,2.4773464566890557,-0.0608347241660954,0.0439496959801506,0.044738743790242,-0.4216666844599793,0.446561057537568,-0.3535826599635558,2.2371827946870795,-1.9883733911482488,2.487028501519242,-0.6289700617705859,0.5943875317560172,-0.4216733036748005,1.2728967354051703,-0.6557198122495833,0.8688101721394809,-0.6598988646872167,9.551088767718284,-0.9890024591840604,0.2981935835646865,-0.853016022366952
0.58,2.223394609774945,-1.9693540898970376,2.470504008422929,-0.0625597635185051,0.0395236142819231,0.0452828654031087,-0.4365472416268752,0.4639449947341038,-0.3659990832899059,2.2252033934606086,-1.9770856405220687,2.478945834700819,-0.6689700623666323,0.6343875323520636,-0.4450599206796719,1.301729447955192,-0.7440278583447951,0.869196859826793,-0.6208211663175062,9.566624323140786,-0.9935027401136068,0.3000029870723874,-0.8470853988716588
0.6,2.2144782997589654,-1.9598782992112072,2.463044696769801,-0.0634002747540509,0.0365001142510079,0.0458232554354064,-0.4544222653483096,0.4826178345333195,-0.3792803339314974,2.2122239922192364,-1.9647978898809884,2.4702785024572744,-0.7089700629626787,0.67438753294811,-0.4684465376845432,1.4530855427449805,-0.8937511860717201,0.9336419899607844,-0.6640625320795734,9.583191209170764,-0.9972620731091562,0.301151722066598,-0.8421748047620885
0.62,2.20565998107694,-1.950524029708875,2.455709752344501,-0.0629638019466254,0.0359407223917197,0.0462712549165009,-0.4727049164133083,0.5009955096796406,-0.3921322551586947,2.201567247693602,-1.9461568401603329,2.4522040542584342,-0.5365472431169913,0.56394499622422,-0.4079698876235927,1.4466911842012855,-0.9141325532499328,0.9188837573160524,-0.6425960613598652,9.58150031562036,-1.0000438036259098,0.3011984570641086,-0.8388711477107428
0.64,2.19597878808355,-1.9402330137186312,2.4479110351683238,-0.059109788240804,0.0388159514149059,0.0467563870674266,-0.493934478616839,0.5260148450082532,-0.3859211031543588,2.201567247693602,-1.9461568401603329,2.4522040542584342,-0.5365472431169913,0.56394499622422,-0.4079698876235927,1.6697603577011508,-1.0614781101765336,1.2509667664306334,0.3105576002167959,9.571056536869037,-1.0057378788846691,0.2987027703848469,-0.8328724861927028
0.66,2.1859107267882334,-1.929515903953104,2.440253249433449,-0.0526632941260353,0.0451431146840588,0.0472293274785421,-0.5112850199049389,0.5440427056176461,-0.3802165113655286,2.201567247693602,-1.9461568401603329,2.4522040542584342,-0.5365472431169913,0.56394499622422,-0.4079698876235927,1.283147895430363,-0.8675270644049965,0.9013930304696438,0.2852295894415074,10.83632337178642,-1.0045115783272085,0.295727607593076,-0.8340577357069223
0.68,2.1765863339884177,-1.9195977425210344,2.43342486203383,-0.0468299532565041,0.0523506054112364,0.0476033828717892,-0.5236234638082848,0.5570874161815593,-0.378762216268956,2.196201775262432,-1.9405173901980903,2.4481243553821983,-0.5565472434150145,0.5839449965222432,-0.4163640484903301,0.9007172778960642,-0.6169221951672965,0.6522355281956604,0.0727147548286288,10.594921550020445,-1.00054985602011,0.2923218229490694,-0.8388381581607931
0.7000000000000001,2.166535399482911,-1.9088967076904808,2.4262101964263736,-0.0414316293140165,0.0603775996597346,0.0479564442006832,-0.5334844238503946,0.5687921234180149,-0.3807607431623337,2.1854708304000923,-1.929238490273606,2.4399649576297264,-0.596547244011061,0.6239449971182897,-0.4331523702238049,0.7717396163648316,-0.4930480021054895,0.5852353618227779,-0.0999263446688852,10.324530925814544,-0.9946840794752464,0.2888869714702646,-0.8462670563579373
0.72,2.1557824102386443,-1.897403138692104,2.418543141495951,-0.0367823730255155,0.068394264414833,0.0483012251412075,-0.5411270570427431,0.5800678623551689,-0.3859989867949081,2.174739885537752,-1.9179595903491216,2.4318055598772546,-0.6365472446071074,0.6639449977143361,-0.4499406919572796,0.7297111192894155,-0.382131659617424,0.5637869468577028,-0.2619121816287179,10.104604885044864,-0.988018453623328,0.2859063712377467,-0.8546853341294258
0.74,2.144900563621554,-1.8856912547267777,2.410741886794974,-0.0331336040812229,0.0753625609737351,0.0486317790567179,-0.5465921337277023,0.5906783329216893,-0.3939916032777999,2.16200894064561,-1.9046806903948348,2.422806746038109,-0.6765472452031539,0.7039449983103826,-0.4667290136907543,0.7182114365875696,-0.2732538342479607,0.5305235283260157,-0.3996308241445895,9.782931071704295,-0.981463398123442,0.2833843083209043,-0.8629700453204485
0.76,2.1344791255802456,-1.8743736293462148,2.4031676331174228,-0.0305195283623766,0.0806440175353396,0.0489366231989115,-0.5501741843687793,0.6002996884531882,-0.4029124316619202,2.149277995753468,-1.891401790440548,2.413807932198963,-0.7165472457992004,0.7439449989064291,-0.4835173354242291,0.6800418151071144,-0.1791025320538486,0.4810677765749449,-0.4460414192060169,9.782931071704295,-0.9760991011503606,0.2814121839016228,-0.8698511538828088
0.78,2.1234421431199126,-1.86225747014924,2.3950029470840413,-0.0282872244601583,0.0847807549156232,0.0492629202614294,-0.553344850092854,0.6107981906666449,-0.4131312543463642,2.1355470508464247,-1.8771228904713604,2.404389410316481,-0.7565472463952467,0.7839449995024754,-0.5003056571577038,0.7494931736111475,-0.1585332862037325,0.5249251106728359,-0.5109411342221981,9.725040063563029,-0.9712270770249636,0.2796170775028325,-0.8761388686307179
0.8,2.1123455571808165,-1.8499309917690143,2.386627194525018,-0.0262319145445138,0.0876687103858929,0.0496057498655152,-0.5561788630616992,0.6212610189462092,-0.4239602514851159,2.09577490061527,-1.8317175606159075,2.374346384366723,-0.6533448515829701,0.710798192156761,-0.4516482600879604,0.7661096268588585,-0.1417006484422611,0.5231414139782176,-0.541449856937587,9.663654984055029,-0.9678348856558122,0.2781074393664025,-0.8805406030316986
0.8200000000000001,2.10175705179806,-1.838025404856567,2.3785774720605577,-0.0242750491095327,0.0896169146347414,0.0499440757449391,-0.5582518030781044,0.631334224366022,-0.4228332456838436,2.09577490061527,-1.8317175606159075,2.374346384366723,-0.6533448515829701,0.710798192156761,-0.4516482600879604,0.5172926875025929,-0.1036470008202616,0.5036602709906413,0.056350290063617,9.663654984055029,-0.9684252560216454,0.2765123035199009,-0.8808554204965819
0.84,2.09057885641096,-1.8253075800753973,2.3701169619875238,-0.0227113210104582,0.0908845757341244,0.0502737383049463,-0.5595174885611471,0.640039966455617,-0.4234438715619262,2.09577490061527,-1.8317175606159075,2.374346384366723,-0.6533448515829701,0.710798192156761,-0.4516482600879604,0.4409216739839245,-0.0632842741521366,0.4352871044797479,-0.0305312939041318,10.368053896898346,-0.9671614274391862,0.2760908846006032,-0.8816717882012729
0.86,2.0793768252677958,-1.8124206341668787,2.3616177584134026,-0.022114981121079,0.0911025004943572,0.0505478812306675,-0.5607218195279104,0.6482898024533282,-0.4265460572496628,2.0892414520994405,-1.82460957869434,2.3698299017658435,-0.6733448518809932,0.7307981924547842,-0.4593516612362797,0.4447857998740369,-0.0602165483381655,0.4124917998855615,-0.1551092843868284,10.073711088446544,-0.9665421261937626,0.2762871734396968,-0.8817416573149134
0.88,2.068149452031545,-1.799372146085542,2.3530367757988437,-0.0226224412721262,0.0902395641175793,0.0507582330518977,-0.5620209991455536,0.6562374305109211,-0.4314639263616408,2.076174555067781,-1.8103936148512043,2.360796936564084,-0.7133448524770397,0.7707981930508306,-0.4747584635329182,0.471800000061689,-0.0649589808821571,0.3973814028796429,-0.2458934555989,10.073711088446544,-0.9669389997003202,0.2771224655700149,-0.8807320977721758
0.9,2.0574590023210906,-1.786829578962874,2.34478063437231,-0.0242686626561441,0.0882713443988299,0.0508969096108759,-0.5633283552046124,0.6637800130968554,-0.437346886216692,2.0631076580361216,-1.7961776510080694,2.351763971362325,-0.7533448530730862,0.8107981936468771,-0.4901652658295566,0.4827239081165888,-0.0653678029529425,0.377129129296716,-0.2941479927525581,9.976147566119836,-0.968464883457174,0.2788627913458721,-0.8783150498938495
0.92,2.046175312976117,-1.7734645929530453,2.335961749328576,-0.0271689338945079,0.0848177660592184,0.0509967737993139,-0.5651024235499225,0.6727204058578445,-0.4442642784616753,2.04804076097466,-1.7799616871351318,2.341960666045733,-0.7933448536691327,0.8507981942429236,-0.5055720681261952,0.5721194295895161,-0.088703417265501,0.4470196380494562,-0.3458696122491667,9.909802823243808,-0.9711936268187225,0.2815424103201269,-0.8742667686920709
0.94,2.034847424944562,-1.759897916066833,2.327005568446421,-0.0304903018428211,0.0798331146876538,0.0511198472770033,-0.567834476458643,0.6836120272265552,-0.4509835052947664,2.032973863913198,-1.7637457232621945,2.3321573607291426,-0.8333448542651791,0.89079819483897,-0.5209788704228336,0.6542926301929735,-0.1366026454360291,0.5445810684355346,-0.3359613416545559,9.865572007442095,-0.9754125181403186,0.2846010414808008,-0.868334310550701
0.96,2.023437751881508,-1.7460914024598504,2.3179206381614903,-0.0333985286614757,0.0738212880344055,0.0513183635440651,-0.5732390427870313,0.6963046015310868,-0.4571566653034115,2.016906966836835,-1.7465297593743556,2.3219688853551355,-0.8733448548612255,0.9307981954350164,-0.5363856727194721,0.7556763264889547,-0.270228316419413,0.6346287152265762,-0.308658000432252,9.879398622275405,-0.980431215237361,0.2872961497304015,-0.8614356423815792
0.98,2.012473031741602,-1.732731979146383,2.309180185927344,-0.0353876292251729,0.0680109830461859,0.0515754657031,-0.5807815856897633,0.7090767233159602,-0.4625627391679497,1.9998400697455712,-1.728313795471616,2.311395239923712,-0.913344855457272,0.9707981960310628,-0.5517924750161106,0.7893710834519394,-0.377127145136602,0.6386060892436707,-0.2703036932269143,9.936428018903824,-0.9864947901491704,0.2895894053098282,-0.8532792764917745
1.0,2.0007541186332705,-1.7184049107080424,2.299870341260644,-0.036600030741531,0.0624378069128204,0.0518929915768872,-0.5908697904416661,0.7228615348474017,-0.4681214402488989,1.9827731726543072,-1.710097831568876,2.300821594492289,-0.9533448560533184,1.0107981966271091,-0.5671992773127491,0.8981815821160847,-0.5044102375951376,0.6892405765720755,-0.2779350540474568,9.936428018903824,-0.992337499339812,0.2912069018702427,-0.8454484216861026
1.02,1.9887727696703892,-1.703744124452638,2.29062404423215,-0.0351400889855072,0.0594977951758545,0.0522941701421637,-0.6069426967923292,0.7420445191552051,-0.4552583114444911,1.983433952457114,-1.6972781429805852,2.286052048968947,-0.6807815871798795,0.8090767248060763,-0.4697681225544127,1.4069339786832595,-0.8036453175331526,0.9591492153901704,0.643156440220391,9.943187448081517,-0.9995662703589472,0.2906689064808173,-0.8370725410913086
1.04,1.9764724761410717,-1.688735132520569,2.281655371242532,-0.0304949542731004,0.0609339571532307,0.0527485210037933,-0.6216811382556375,0.7570780741834852,-0.4422788418774994,1.983433952457114,-1.6972781429805852,2.286052048968947,-0.6807815871798795,0.8090767248060763,-0.4697681225544127,1.2366245022198097,-0.7369220731654191,0.7516777514140038,0.6489734783495849,11.010944452078547,-1.0034092350787875,0.2894738042495214,-0.8310214066597874
1.06,1.9645448836099135,-1.6742443613790003,2.2733459559808917,-0.0254763556169117,0.0648231871212907,0.0531418792815874,-0.6328073595201656,0.7674576415072112,-0.4330216948969101,1.983433952457114,-1.6972781429805852,2.286052048968947,-0.6807815871798795,0.8090767248060763,-0.4697681225544127,0.8905377415854291,-0.5563110632264057,0.5189783661863012,0.4628573490294607,11.010944452078547,-1.003343553040454,0.2872489074904463,-0.8303769133842868
1.08,1.9517920033531997,-1.658802395259786,2.2647599769142865,-0.0206843654454951,0.0702135049934042,0.0534958041056477,-0.6416448762499402,0.776252503911438,-0.426198486354792,1.9766261365853155,-1.6891873757325244,2.2813543677434027,-0.7007815874779026,0.8290767251040995,-0.4712091992317053,0.7106466799112624,-0.4418758364887254,0.4397431202113389,0.3411604271059076,10.7760072191586,-1.001188538441053,0.2850278597707678,-0.8325989963841445
1.1,1.938889312020988,-1.6431972164060182,2.2562801703335333,-0.0167630399434988,0.0758836630931559,0.0537918202223868,-0.648020611092401,0.7839414564734758,-0.4222469774239667,1.9630105048417177,-1.673005841236403,2.2719590052923144,-0.7407815880739491,0.8690767257001459,-0.4740913525862904,0.5370856754583717,-0.318786742123045,0.3844476281018916,0.1975754465412649,10.579337520802255,-0.9979089748879256,0.2831472848080774,-0.8362773953324841
1.12,1.9258816686738087,-1.6274460913027982,2.2478521967533487,-0.01378061287965,0.0810694398373547,0.0540348329818426,-0.652383846547528,0.7909949648133221,-0.4207505343015075,1.94939487309812,-1.6568243067402817,2.262563642841226,-0.7807815886699956,0.9090767262961924,-0.4769735059408756,0.4213939533142166,-0.2181617727563478,0.3526754169923152,0.0748221561229584,10.410048087309406,-0.9945253607013363,0.2817450796553634,-0.840139994785121
1.14,1.913459285445538,-1.6123550160592348,2.2398634976678475,-0.0117383651419117,0.0851013032927211,0.0542216575632895,-0.655049953061377,0.797371854157612,-0.4202489818918662,1.93377924132472,-1.6386427722143575,2.2530241727224087,-0.820781589266042,0.9490767268922388,-0.4798556592954608,0.3464981835166081,-0.133305325692451,0.3188444672144963,0.0250776204820668,10.280931898139896,-0.9914832002482076,0.2806650390722025,-0.8436381940684188
1.16,1.900334551914512,-1.596332211257881,2.231459115471179,-0.0100717619310759,0.0882749426532075,0.0543913777164249,-0.6572883447468777,0.8045661909060048,-0.4202409081753652,1.91816360955132,-1.6204612376884338,2.243484702603592,-0.8607815898620885,0.9890767274882852,-0.4827378126500459,0.3767258412024955,-0.1119195842750331,0.359716837419638,0.0004036858250483,10.232821110972507,-0.9890103117965112,0.279909641244801,-0.8463311229563754
1.18,1.8871687522544875,-1.5801643114902622,2.223050688204157,-0.0085654032299573,0.0904634642264711,0.0545513460698294,-0.659200914849615,0.8118127994239331,-0.4206185790411617,1.901547977763019,-1.6012797031476087,2.233873178650909,-0.9007815904581348,1.0290767280843316,-0.4856199660046311,0.3752129218619333,-0.0956285051368632,0.3623304258964177,-0.0188835432898243,10.19049358963366,-0.9873278565964652,0.2792487247328642,-0.8480666539414643
1.2,1.8739664382802224,-1.5638526496985168,2.2146310542867123,-0.0070691833139259,0.0917998913960218,0.0547077967381154,-0.660987117799502,0.8189131714854067,-0.4213255538841801,1.8542087065120063,-1.5395736715190655,2.202019759252099,-0.7592009163397311,0.9118128009140491,-0.4314356048292901,0.3677826050066797,-0.0893101474943536,0.3550186030736757,-0.0353487421509174,10.19049358963366,-0.9864231212246228,0.2786610188989811,-0.8488436097082402
1.22,1.861373291480436,-1.5482088810965229,2.206670087135872,-0.004988692748012,0.0931102020216146,0.0548921070043284,-0.6643276486319445,0.8269394121597406,-0.4166198971376251,1.8542087065120063,-1.5395736715190655,2.202019759252099,-0.7592009163397311,0.9118128009140491,-0.4314356048292901,0.4942744455796561,-0.1670265416221228,0.4013120337166997,0.2352828373277493,10.174859155233207,-0.9864567667345188,0.2775384897154225,-0.8488506135851109
1.24,1.8480668025740408,-1.5316132455120206,2.198379333082175,-0.0027074182561742,0.0947906178615364,0.0550805625833613,-0.6660907135436154,0.8323230969469159,-0.4127979829029957,1.8542087065120063,-1.5395736715190655,2.202019759252099,-0.7592009163397311,0.9118128009140491,-0.4314356048292901,0.3416851188861237,-0.0881532455835443,0.2691842393587607,0.1910957117314704,10.522420673823037,-0.9863870178245644,0.2768710733425714,-0.8482378458918832
1.26,1.834736320183743,-1.514919796574367,2.190144981935543,-0.0011703955944022,0.0960557836608869,0.0552079627367668,-0.6669305279206447,0.8369188060675603,-0.4108232700485696,1.846616697348609,-1.530455543509925,2.197705403203806,-0.7792009166377543,0.9318128012120724,-0.4335990099869158,0.2536006770834572,-0.0419907188514645,0.2297854560322221,0.0987356427213037,10.420670177391004,-0.9858925040182024,0.2765637026433385,-0.84812333942469
1.28,1.821394033960433,-1.498139925773527,2.1819376865877502,-0.0005611352127668,0.0966144567512033,0.05526102243061,-0.6673165965496025,0.8409162848130648,-0.4100575393154785,1.8314326790218145,-1.512219287491644,2.1890766911072204,-0.8192009172338007,0.9718128018081188,-0.4379258203021671,0.2044213104266883,-0.0193034314478923,0.1998739372752245,0.0382865366545553,10.31859232073839,-0.9857717315426784,0.2767250372412438,-0.8475595254137828
1.3,1.8087145508381348,-1.4821305771931232,2.174145835624852,-0.0011535282422386,0.0963045903201326,0.0552217708882014,-0.6674592594570122,0.8442445294889627,-0.4101682027390535,1.81624866069502,-1.493983031473363,2.1804479790106344,-0.8592009178298472,1.0118128024041653,-0.4422526306174185,0.1666569209567253,-0.0071331453704859,0.1664122337948936,-0.0055331711787509,10.247706107080376,-0.9862853181682664,0.2776462747222841,-0.8461956408245018
1.32,1.7953651839851543,-1.4652109485408389,2.165937661993976,-0.0032384383937595,0.094955823422498,0.0550750888891287,-0.6675368305205528,0.8477018092037786,-0.4106530539751,1.799064642338423,-1.4737467754252798,2.171602926398286,-0.8992009184258937,1.0518128030002116,-0.4465794409326698,0.1745986899827155,-0.003878553177028,0.1728639857407954,-0.0242425618023234,10.201643187690934,-0.9877791879891432,0.2795693256568475,-0.8435257224346214
1.34,1.7820136283586616,-1.4482070160744265,2.157721980112976,-0.0066275977171707,0.0923282852847093,0.0548450873768881,-0.6677238856140826,0.8529374710340303,-0.4108685393063717,1.781880623981826,-1.4535105193771964,2.162757873785937,-0.93920091902194,1.0918128035962582,-0.4509062512479211,0.2621715961768329,-0.0093527546764893,0.2617830915125851,-0.0107742665635846,10.17811416845143,-0.9901946764236452,0.282381603343518,-0.8395333556510483
1.36,1.7686482441603,-1.431065974268068,2.1495092953428614,-0.0100673082065324,0.0883720828937735,0.0546317048857535,-0.6689576766707354,0.8608309570975579,-0.4103734803434089,1.763696605610328,-1.432274263314212,2.153804650915708,-0.9792009196179864,1.1318128041923046,-0.4552330615631725,0.4002325760835512,-0.0616895528326388,0.3946743031763788,0.0247529481481378,10.227455946658663,-0.9939020631903408,0.2855654321685405,-0.8333855925199996
1.38,1.7559140068606534,-1.4146221815459012,2.1417236014159564,-0.0127249727273857,0.0836452319205537,0.0544940272741387,-0.6715736347823256,0.8695133704524431,-0.4091800299022096,1.7445125872239289,-1.4100380072363263,2.144743257787597,-1.0192009202140329,1.171812804788351,-0.4595598718784239,0.4573069605371314,-0.1307979055795105,0.4341206677442644,0.0596725220599642,10.227455946658663,-0.999026640362955,0.2887324006730591,-0.8251519117740823
1.4,1.7424349557109398,-1.3971307481147672,2.133558202500962,-0.0147533299654803,0.0781303706160525,0.0544208666369756,-0.6764139211522124,0.8790300085153667,-0.4073852416355375,1.722335325121537,-1.3711465130232792,2.121264599920846,-0.7715736362724417,0.9695133719425592,-0.4255937632653612,0.5413317769293207,-0.2420143184943435,0.4758319031461788,0.089739413333606,10.291020354989088,-1.004587684417403,0.2913438751116917,-0.8163731483682717
1.42,1.7287712366073562,-1.3793865945786132,2.125472140865178,-0.0140047080479015,0.0747728964392407,0.054510758888476,-0.6896830573028538,0.8939630849767389,-0.4012785317013822,1.722335325121537,-1.3711465130232792,2.121264599920846,-0.7715736362724417,0.9695133719425592,-0.4255937632653612,1.0444599717142804,-0.6634568075320701,0.7466538230686104,0.3053354967077648,10.611612400403828,-1.0094674466415552,0.293047483242871,-0.8077410765770586
1.44,1.7148459823980993,-1.3613869010184596,2.117501835889998,-0.0101939884496235,0.0756192892448021,0.0547439473130519,-0.7016186544692365,0.9047195562375988,-0.3960336980756681,1.722335325121537,-1.3711465130232792,2.121264599920846,-0.7715736362724417,0.9695133719425592,-0.4255937632653612,0.845086435616628,-0.5967798583191353,0.5378235630429884,0.2622416812857076,10.611612400403828,-1.0126802108345525,0.2916185331517698,-0.8036537919170111
1.46,1.7014247523566366,-1.344129040493047,2.1100059836893434,-0.0058647955350331,0.0788318647833221,0.0549866383556653,-0.7102668026386895,0.9113089063016034,-0.3932583309820686,1.7146195887588125,-1.3614513793038536,2.1170086622881925,-0.7915736365704649,0.9895133722405824,-0.4288765099379915,0.5610540605214566,-0.4324074084726459,0.329467503200237,0.1387683546799717,10.4950389600599,-1.012219826234701,0.2891609211387164,-0.8046895077885714
1.48,1.6871480931858618,-1.3258509081767675,2.1021501957830564,-0.0017967539317844,0.0834421998230712,0.0552056932669907,-0.7167258320085892,0.9162534414977788,-0.3925749798367952,1.6991881160333635,-1.3420611118650023,2.108496787022885,-0.8315736371665113,1.029513372836629,-0.4354420032832521,0.4081496585052791,-0.3229514684949863,0.2472267598087663,0.0341675572636729,10.19311647210452,-1.0097696367992726,0.2865749933993967,-0.8085450046117978
1.5,1.6727671712679897,-1.307485351014888,2.0942832498183117,0.0013493220893197,0.0882879769166457,0.0553659796840604,-0.720942240647576,0.9202865001931346,-0.3941569100421168,1.683756643307915,-1.3226708444261512,2.099984911757578,-0.8715736377625578,1.0695133734326754,-0.4420074966285127,0.3022671311341035,-0.2108204319493378,0.2016529347677931,-0.0790965102660801,10.19311647210452,-1.0065854779308003,0.2845328696840799,-0.8131311356983083
1.52,1.6590450836971744,-1.2899674942773534,2.0867645502789007,0.0034725861509247,0.092461183711455,0.0554596698268501,-0.7232656879772632,0.9237155719484588,-0.3972151130601139,1.6663251705526638,-1.3012805769574978,2.091144761825008,-0.9115736383586044,1.1095133740287215,-0.4485729899737734,0.2574371102632615,-0.1161723664843628,0.1714535877662071,-0.152910150899857,10.073558932194828,-1.003038363939074,0.2828055368227677,-0.8181003125758379
1.54,1.6445670610407008,-1.271460732442243,2.0787773329390604,0.0047935296436674,0.0959595533153666,0.0554896673497216,-0.724407893378153,0.9268777599686135,-0.4013939843393537,1.648893697797413,-1.2798903094888443,2.0823046118924378,-0.9515736389546507,1.1495133746247683,-0.455138483319034,0.2681745300223708,-0.0571102700444914,0.1581094010077388,-0.2089435639619913,9.987674247960967,-0.9999751649348452,0.2816509368780703,-0.8222830894324902
1.56,1.6300712905764954,-1.2528855815650064,2.07070040284988,0.0053113630394064,0.0984219670443194,0.0554536447988795,-0.7251364147913544,0.9304948784724832,-0.4061120625259056,1.6304622250272605,-1.2575000420052895,2.073300324626236,-0.9915736395506972,1.189513375220815,-0.4617039766642946,0.2994768417379956,-0.0364260706600672,0.1808559251934849,-0.2359039093275922,9.93954458112512,-0.9975239613514412,0.2810698748026538,-0.8254403569704273
1.58,1.6155629530467768,-1.2342347672853635,2.062526668266416,0.0053212572475653,0.0999848124230775,0.0553710913891407,-0.7256940823290781,0.934401816408014,-0.411033599183861,1.611030752242207,-1.2341097745068337,2.0641319000264025,-1.0315736401467437,1.229513375816861,-0.4682694700095552,0.3154230500071247,-0.0278833768861841,0.1953468967765326,-0.2460768328977736,9.917768728133524,-0.9957004719878046,0.2808259270199852,-0.8277164103720389
1.6,1.601770190205909,-1.2164408854055084,2.0546699685965293,0.0050393667486066,0.10076002415542,0.0552627720320473,-0.7262017683691813,0.9384162836915484,-0.4157422587749184,1.579278248930323,-1.187514676464963,2.041974988307223,-0.8256940838191942,1.03440181789813,-0.4154439494134522,0.3104237741795064,-0.0253843020051602,0.2007233641767192,-0.2354329795528659,9.91307570764002,-0.9946767422120838,0.2809041265595292,-0.8288637977702334
1.62,1.587227181741231,-1.1975953473086174,2.0463975813966813,0.0055910430339187,0.1016267205326042,0.0552018553750129,-0.7279592981575352,0.9456639956970256,-0.4107433735505619,1.579278248930323,-1.187514676464963,2.041974988307223,-0.8256940838191942,1.03440181789813,-0.4154439494134522,0.448907267031788,-0.0878764894176986,0.3623856002738623,0.2499442612178215,9.91307570764002,-0.9948157759989678,0.2793514877995122,-0.8305404896446704
1.64,1.5726640300126389,-1.1786274896935485,2.0382351693672622,0.0072403049312734,0.1028534155802739,0.0552122160758553,-0.7282126215095021,0.9507187290247484,-0.4058649692994986,1.579278248930323,-1.187514676464963,2.041974988307223,-0.8256940838191942,1.03440181789813,-0.4154439494134522,0.3514730778161979,-0.0126661675983408,0.2527366663861441,0.2439202125531642,10.542887917917142,-0.995170388891212,0.279253985890309,-0.8291553363510352
1.66,1.5581066483974555,-1.1595729128208057,2.03015037724556,0.009005948369646,0.1037220634078844,0.0552208610236549,-0.7275764348558128,0.9545438786938087,-0.4028505192128829,1.5710213080921311,-1.1771706582859816,2.0378205488130883,-0.8456940841172174,1.0544018181961532,-0.4163260194593704,0.2455779549030362,0.0318093326844626,0.1912574834530223,0.1507225043307858,10.456777333437458,-0.99512178340061,0.279013911751659,-0.8282479578300311
1.68,1.5442937297429546,-1.14141088496313,2.0225118163447697,0.0103270979565151,0.103895577381651,0.0551912607879699,-0.7265489603739105,0.957152181237173,-0.4013533924244236,1.5545074264157472,-1.156482621928019,2.0295116698248195,-0.8856940847132638,1.0944018187921998,-0.4180901595512069,0.1589051178329637,0.0513737240951162,0.1304151271682097,0.0748563394229684,10.350678852892996,-0.9953265683630338,0.27874388958394,-0.8272106252038237
1.7,1.5297767352879628,-1.12224881277509,2.014492013695579,0.0108841070554881,0.103194191333143,0.0550856261155577,-0.7252702689967189,0.9590015512940014,-0.4007435406198998,1.5379935447393631,-1.1357945855700564,2.02120279083655,-0.9256940853093104,1.134401819388246,-0.4198542996430433,0.11648111937862,0.0639345688595804,0.0924685028414196,0.0304925902261887,10.269130323576064,-0.9961942545347762,0.2788021453670313,-0.8255588605830758
1.72,1.5152866337216555,-1.103055576502801,2.00647797347086,0.010190806643679,0.1013521554236197,0.0548758565533255,-0.7238779248269238,0.9603533459472012,-0.4007030676602774,1.519479663033177,-1.1131065491822916,2.0128057048436894,-0.9656940859053568,1.1744018199842925,-0.4216184397348798,0.0970516503213897,0.0696172084897528,0.0675897326599839,0.0020236479811197,10.21193176561428,-0.9979429840231708,0.2795442742222129,-0.8228435549293827
1.74,1.5008241749275717,-1.0838361373060066,1.9984676743740808,0.0079924834980579,0.0980919864180266,0.0545494204848846,-0.7225489950045768,0.9616869057800944,-0.4003103952530626,1.500965781326991,-1.0904185127945265,2.0044086188508285,-1.0056940865014032,1.214401820580339,-0.4233825798267162,0.0961590858943889,0.0664464911173501,0.0666779916446702,0.01963362036074,10.179684235985404,-1.000774919557952,0.2811054904663814,-0.8187395408057376
1.76,1.487099850801882,-1.065531065444655,1.9908734957909409,0.0049808176245054,0.0936114988310516,0.0541765655028861,-0.7223531178386084,0.9652919770220518,-0.3990784040922733,1.4814518996059036,-1.0667304763918604,1.9959674293556715,-1.0456940870974496,1.2544018211763854,-0.4251467199185527,0.1907400635944004,0.009793858298418,0.1802535620978651,0.0615995580394657,10.19819457705671,-1.0050449646068504,0.2838215902225074,-0.8120781797103078
1.78,1.472636478331604,-1.0461676490801357,1.9829148693144392,0.0019541347269201,0.0878283367520341,0.0538087871753776,-0.7242905048117275,0.9708249830267036,-0.3967907940292705,1.460938017869915,-1.0420424399742931,1.987482136358219,-1.085694087693496,1.2944018217724318,-0.4269108600103891,0.3146457672187675,-0.0968693486559535,0.2766503002325837,0.114380503150141,10.241710493172832,-1.0108545830083049,0.2870346610597529,-0.8027562622424094
1.8,1.4581069550651369,-1.0266827010531867,1.9750124023397564,-0.0004807315470947,0.0817361039488645,0.0535017378765003,-0.7287559507714853,0.9772796797529312,-0.3935179159142658,1.4404241361339265,-1.017354403556726,1.978996843360766,-1.1256940882895423,1.3344018223684784,-0.4286750001022256,0.425191276376779,-0.2232722979878865,0.322734836311378,0.1636439057502325,10.292908734113553,-1.0171211933319015,0.289669970954685,-0.7931189412835714
1.82,1.4434628570391173,-1.007062341215503,1.967183521333101,-0.0021424538819759,0.076045807686946,0.0532632426374723,-0.7355519236847925,0.98425206501185,-0.3895189853058821,1.4364219530910176,-0.9976263999288004,1.963075329612976,-0.8242905063018436,1.0708249845168196,-0.389814289219116,0.5262861627666661,-0.3397986456653623,0.3486192629459483,0.1999465304191872,10.341776244344146,-1.023738985231588,0.2919849399452585,-0.782958102026131
1.84,1.4293438422476596,-0.9882229086639492,1.9598818570371528,-0.0006646163605128,0.0735448485048889,0.0532464571418238,-0.7500990853131775,0.9974409642639864,-0.3792461333693764,1.4364219530910176,-0.9976263999288004,1.963075329612976,-0.8242905063018436,1.0708249845168196,-0.389814289219116,1.108037072749292,-0.7273580814192493,0.65944496260682,0.5136425968252811,10.375221801330554,-1.028674788994393,0.2918435739469271,-0.7763057138381617
1.86,1.41420278102204,-0.9681822420611376,1.9524071743196691,0.0043694697258119,0.0756905408177204,0.0534623996315927,-0.7626423473607516,1.0051625456003102,-0.3688022068611735,1.4364219530910176,-0.9976263999288004,1.963075329612976,-0.8242905063018436,1.0708249845168196,-0.389814289219116,0.9028175923689138,-0.6271631023787083,0.3860790668161862,0.5221963254101458,10.750571398607462,-1.0315428931899766,0.2899861278910361,-0.7727633366816372
1.88,1.398851310269689,-0.9480421767121416,1.9451171307609525,0.0098152175649527,0.0806800682362082,0.0537287187477994,-0.7715160887138557,1.0084517666690334,-0.3608435284495076,1.4281790480279992,-0.9869181500836324,1.9591771867207848,-0.8442905065998668,1.0908249848148428,-0.3884189882570851,0.6182694050756483,-0.4436870676552018,0.1644610534361601,0.397933920583296,10.750571398607462,-1.030202863787331,0.287183413481672,-0.775268990394532
1.9,1.3833586471834054,-0.927861820050242,1.93795579736308,0.0143971920460682,0.0869251229511678,0.0539668395521513,-0.7770703204336411,1.0096826682630862,-0.3556850743492001,1.4116932379019622,-0.965501650393296,1.9513809009364025,-0.8842905071959133,1.1308249854108894,-0.3856283863330234,0.3839734933439146,-0.2777115859892709,0.0615450797026406,0.2579227050153759,10.570355708055104,-1.0268971358110337,0.2845485665117633,-0.7804703947229699
1.92,1.3685660159807445,-0.9086773575492778,1.9312268645001776,0.0176347766477756,0.0929201549971242,0.054133017227564,-0.7796803629024083,1.009972372418189,-0.3528892750975776,1.3952074277759254,-0.9440851507029596,1.94358461515202,-0.9242905077919598,1.1708249860069355,-0.3828377844089616,0.1917859721253418,-0.1305021234383585,0.0144852077551438,0.1397899625811244,10.41042780547832,-1.0225348258224398,0.2821992519039898,-0.7869760065588066
1.94,1.3529647922600168,-0.8884802379937689,1.9241856924315568,0.0198645932039192,0.0984892820430338,0.0542233635227851,-0.7802350847255477,1.00995762005017,-0.3514485182179355,1.3767216176200865,-0.9206686509828208,1.9359278594638407,-0.964290508388006,1.210824986602982,-0.3800471824848998,0.0771964105328967,-0.0277360911569712,-0.0007376184009588,0.0720378439821062,10.287963460471474,-1.0182241244021393,0.2805003690175365,-0.7931070739863015
1.96,1.3373709171376795,-0.8682867945037678,1.9171635795346769,0.0208879467573263,0.102766808646255,0.0542074216784278,-0.7791325015025444,1.0095063209626989,-0.3508715169395638,1.358235807464247,-0.8972521512626821,1.9282711037756612,-1.0042905089840526,1.250824987199029,-0.377256580560838,0.0661870664337664,0.0551291611501636,-0.0225649543735606,0.0288500639185812,10.20840393970957,-1.0146387766203742,0.2795682660180294,-0.7979525380382146
1.98,1.3218068426937144,-0.8480981981105129,1.9101498145511395,0.0207620920507107,0.105592050135613,0.054079376716301,-0.7774257702270451,1.009459500161483,-0.3505381378689113,1.3387499972935066,-0.8728356515276422,1.920684113135584,-1.044290509580099,1.290824987795075,-0.3744659786367763,0.0869808231586612,0.0853365637749681,-0.0023410400607826,0.016668953532628,10.172480712793003,-1.0121458752217138,0.2794465215075311,-0.8010345895295725
2.0,1.3070546902298572,-0.8289156240036513,1.903494648806673,0.0198099897447378,0.1070806856211712,0.0538720853215735,-0.7756120966586074,1.0098076450926043,-0.3500236313036119,1.318264187107865,-0.8474191517777012,1.913166887543608,-1.0842905101761453,1.3308249883911214,-0.3716753767127145,0.0958557994026835,0.0906836784218823,0.017407246556067,0.0257253282649694,10.168530640567042,-1.0106536537730937,0.2800232356201329,-0.8025574345008515
2.02,1.291536838054495,-0.8086337891519096,1.896487695927336,0.0205993164601164,0.1082077640156545,0.053766955173619,-0.7762344388471937,1.0177783811328094,-0.3507739717443278,1.2829355541823622,-0.7976252231024388,1.892622907657694,-0.8774257717171612,1.0951954619563362,-0.3570677247242334,0.4015063934711738,-0.0311171094293127,0.398536802010252,-0.0375170220357962,10.184777947310067,-1.009418406311002,0.2802277612109543,-0.8029276643687521
2.04,1.2760207131989625,-0.7882342392511471,1.889460605078624,0.0241576658704678,0.1092186357884887,0.0538475070136211,-0.7753022040050704,1.021225664383916,-0.351907960840874,1.2829355541823622,-0.7976252231024388,1.892622907657694,-0.8774257717171612,1.0951954619563362,-0.3570677247242334,0.187341632354596,0.0466117421061618,0.1723641625553273,-0.056699454827308,10.10402101640102,-1.009156998672109,0.2782427321458577,-0.8034812695909619
2.06,1.2613059345753528,-0.7688286661406113,1.8827542823968777,0.0278154274790446,0.1095309184031372,0.0539211850991084,-0.7737652253029124,1.02133517594628,-0.3539654184665211,1.2829355541823622,-0.7976252231024388,1.892622907657694,-0.8774257717171612,1.0951954619563362,-0.3570677247242334,0.1285245909788498,0.0768489351079038,0.005475578118208,-0.1028728812823537,10.086966072471114,-1.0084447880219447,0.2754151542311048,-0.8050049348401822
2.08,1.2458509950467611,-0.7484178119313407,1.8756447382969657,0.0310310292765345,0.1090020031454436,0.0539210138356568,-0.7718763121800845,1.0198697779470238,-0.3569109369539105,1.2741612964651905,-0.7866732684828754,1.889052230410452,-0.8974257720151844,1.1123426543153068,-0.3583736420952979,0.1896804104366654,0.0944456561413953,-0.0732698999628134,-0.1472759243694721,9.990564549561896,-1.0081677838108352,0.2725965474172429,-0.8063017503419446
2.1,1.230435604717719,-0.728044905384301,1.868471193527306,0.0333142285541331,0.1073863440839543,0.0538108492363102,-0.7698261821562846,1.017668629573611,-0.3603037178835597,1.2566127810308474,-0.7647693592437487,1.881910875915967,-0.9374257726112308,1.146637039033248,-0.3609854768374267,0.22671044149341,0.1025065011899917,-0.1100574186706393,-0.1696390464824615,9.990564549561896,-1.008713151559142,0.2701915643772929,-0.8066417474907757
2.12,1.2150624363031814,-0.7077232853191473,1.8612292633321512,0.0345416557354548,0.1043993737030322,0.0535707607542178,-0.7677345662969376,1.0148006113111774,-0.3637044124327981,1.239064265596504,-0.742865450004622,1.8747695214214823,-0.9774257732072772,1.1809314237511894,-0.3635973115795555,0.2457900988340704,0.1045807929673514,-0.1434009131216829,-0.1700347274619207,9.969160588842897,-1.0104344201118294,0.2686169963134286,-0.8052663134722248
2.14,1.200493579933845,-0.6884772538339581,1.854289869003109,0.0345163416860895,0.1000794217587065,0.053202540054781,-0.7660977903823936,1.0114200534977544,-0.3665703530056306,1.2195157501323586,-0.7192468215295982,1.8674975751898912,-1.0174257738033237,1.2152258084691308,-0.3662091463216844,0.2362245853596404,0.0818387957272015,-0.1690278906711473,-0.1432970286416229,9.989781429597317,-1.013589110158314,0.267811188154453,-0.8019017569769425
2.16,1.1851716860104011,-0.6682830175069625,1.8469342031427485,0.0332305882942318,0.0941909742001788,0.052683717985521,-0.766507711782394,1.008255491092927,-0.3687947427453417,1.1999672346682129,-0.6956281930545744,1.8602256289583,-1.0574257743993702,1.249520193187072,-0.3688209810638132,0.1944890773434222,-0.02049607000002,-0.1582281202413771,-0.1112194869855559,9.989781429597317,-1.0179255658970074,0.2682143192293788,-0.7963488382706081
2.18,1.1698132649722452,-0.6481462797411656,1.839546107433894,0.0308847720267533,0.0878092309129211,0.0520883215760628,-0.7695332852616519,1.005694459644203,-0.3698409686456865,1.1794187191891663,-0.6711522049616021,1.852888386858156,-1.0974257749954166,1.2838145779050132,-0.3714328158059421,0.2049851555253074,-0.1512786739628957,-0.1280515724361941,-0.0523112950172377,10.091664543158004,-1.0229678019489252,0.2690983535736042,-0.7900607481565588
2.2,1.1551436329569715,-0.6290481419573469,1.832520665052986,0.0281857509979164,0.0819771457973833,0.0515170698586928,-0.7745896153739664,1.0048677811535198,-0.3696182577905341,1.1313366007091628,-0.5978615567589554,1.8210540590016095,-0.869533286751768,1.0220455354871796,-0.3451782690952962,0.25641505248649,-0.2528165056157272,-0.0413339245341592,0.0111355427576204,10.091664543158004,-1.0286156721835231,0.2704825366983099,-0.782852329899071
2.22,1.1395333519708115,-0.6086897845739521,1.8252327697626547,0.0339853479147344,0.0778066467982017,0.0515744734959795,-0.7862605861993589,1.0269886266628798,-0.3587197542229809,1.1313366007091628,-0.5978615567589554,1.8210540590016095,-0.869533286751768,1.0220455354871796,-0.3451782690952962,1.3641121160558092,-0.583548541269624,1.106042275468,0.544925178377656,10.153887265762933,-1.035103456270818,0.2674852762240461,-0.7751879279444346
2.24,1.123687973380592,-0.5881244819681998,1.818174021711508,0.0478953798909769,0.0774241036487142,0.0522815885625259,-0.7971824035202408,1.027508961744048,-0.3478147543942737,1.1313366007091628,-0.5978615567589554,1.8210540590016095,-0.869533286751768,1.0220455354871796,-0.3451782690952962,0.7721331871049144,-0.5460908660440966,0.026016754058411,0.5452499914353648,10.854158785428808,-1.0393775320750045,0.259788852136869,-0.771502518772998
2.26,1.1076520944483594,-0.5676383516811739,1.8112976707443895,0.0625546083161534,0.0796560310781391,0.0531511028747024,-0.8055455089081024,1.020698025604268,-0.3403872183144462,1.122641267841645,-0.5876411014040835,1.8176022763106567,-0.8895332870497912,1.0253157506557748,-0.3402457291852182,0.6547875133311915,-0.4181552693930779,-0.340546806988995,0.3713768039913745,10.743262632681764,-1.0393130871400529,0.2503944409066664,-0.7748567511948058
2.28,1.0922874197034818,-0.5483450335681394,1.80487334760278,0.0758084998690522,0.0830070140238691,0.0540209307514097,-0.8111987088373523,1.0103826873924546,-0.3362476451995939,1.1052506021066095,-0.56720019069434,1.810698710928751,-0.9295332876458376,1.0318561809929656,-0.3303806493650621,0.6235000750548867,-0.2826599964624976,-0.5157669105906759,0.2069786557426151,10.533764655162486,-1.0371837103466548,0.2397752355723537,-0.7818547965201944
2.3000000000000003,1.0760217406206414,-0.528294894338581,1.7981716247159694,0.0881128136996048,0.0868621692241452,0.0548705300983944,-0.8149520153008701,0.9953213705746768,-0.3342456213155048,1.0878599363715744,-0.5467592799845964,1.803795145546845,-0.969533288241884,1.038396611330156,-0.320515569544906,0.7825258355591582,-0.1876653231758895,-0.7530658408888891,0.1001011942044549,10.368542605415314,-1.034256484140821,0.2293844987757776,-0.7901532233684769
2.32,1.059701118427461,-0.5085787064770821,1.7914876532453894,0.0980108161735153,0.0903208083338963,0.055535385684299,-0.8169360484372167,0.9775483952282848,-0.3342332354965102,1.068469270606737,-0.5259913477579933,1.7973848341559469,-1.0095332888379305,1.044937041667347,-0.3106504897247499,0.8941688788451749,-0.099201656817327,-0.8886487673196053,0.0006192909497271,10.256042652871656,-1.0309189910724594,0.2199774113957564,-0.7987011765083338
2.34,1.043355543283374,-0.4892360546099443,1.7847974609365809,0.1054821516066827,0.0929219573437044,0.055951812977321,-0.8176051388989257,0.9581395853540668,-0.3347617402942262,1.049078604841899,-0.50522341553139,1.7909745227650489,-1.049533289433977,1.0514774720045377,-0.3007854099045938,0.9713764719467692,-0.0334545230854521,-0.9704404937109,-0.0264252398857967,10.176588099287985,-1.0282400388761306,0.212162441960006,-0.8060002418729617
2.36,1.0278188566350257,-0.4712278623167917,1.7784338077843478,0.1105702882779412,0.0945031382885513,0.0561074631209055,-0.8178779620015139,0.938867417741932,-0.3350440304168193,1.0286879390621602,-0.4842919725463572,1.7848108383696546,-1.0895332900300234,1.058017902341728,-0.2909203300844377,0.9638082856938364,-0.0136411551294068,-0.9636083806067396,-0.014114506129656,10.171033366683332,-1.0259712559580094,0.2053247199565645,-0.8124439618950694
2.38,1.0114605147096047,-0.4526703546766094,1.7717356815588725,0.114183992788455,0.0953540387632564,0.0560469029101024,-0.8179987516704483,0.9181781404084212,-0.334700436876751,1.0072972732675205,-0.4631970188028945,1.7788937809697642,-1.1295332906260698,1.0645583326789188,-0.2810552502642816,1.0346241385737878,-0.0060394834467236,-1.034463866675539,0.0171796770034149,10.201719656568455,-1.02449662090122,0.1997636439595102,-0.8175105771449098
2.4,0.9951000075270386,-0.4345323037132967,1.7650530040128525,0.1162319974104114,0.0954976783496937,0.0557808661549388,-0.8181116487952966,0.8969200286841454,-0.3335263731903943,0.9705605771260823,-0.4067614476561884,1.755000659715035,-0.8824076723757668,0.8937080048388487,-0.3018219746515522,1.0645403766205972,-0.0056448562424149,-1.062905586213786,0.0587031843178348,10.25153015534579,-1.0236575666539915,0.1954159663206319,-0.8213704545727044
2.42,0.9786423030322248,-0.4167189507663431,1.7583576579140114,0.1201065804137939,0.0977284272491869,0.0558752523418202,-0.8272784422661054,0.884113256659296,-0.3364696259595577,0.9705605771260823,-0.4067614476561884,1.755000659715035,-0.8824076723757668,0.8937080048388487,-0.3018219746515522,0.8011027541709571,-0.4583396735404366,-0.6403386012424739,-0.1471626384581731,10.033174075832903,-1.017731396067128,0.190729537498815,-0.8292555859744942
2.44,0.9620410212332722,-0.3992391053482617,1.751605267217018,0.1259848479960824,0.1037148036924364,0.0565658693128203,-0.8318644324779194,0.8643481965345499,-0.3386363764810613,0.9705605771260823,-0.4067614476561884,1.755000659715035,-0.8824076723757668,0.8937080048388487,-0.3018219746515522,1.020274124659788,-0.2292995105907025,-0.9882530062373052,-0.1083375260751778,10.033174075832903,-1.0138067252438392,0.1832538907942099,-0.8385389630068264
2.46,0.9462295468330696,-0.3830353832608647,1.745155332831556,0.1311231913049143,0.1108991170212847,0.0573982186014568,-0.8320128313437072,0.8425005358999847,-0.3402097844595024,0.9617365004023248,-0.3978243676077999,1.751982439968519,-0.8952894565168305,0.8888139777249342,-0.2952462822065125,1.0952373145728684,-0.0074199432893884,-1.0923830317282557,-0.0786703989220538,10.136053393161092,-1.0069549869490977,0.1756438243274836,-0.8507972238037996
2.48,0.9296231860653952,-0.3664429990931248,1.7383386686801092,0.1353983338913341,0.1186163134060797,0.0582335525033184,-0.8283907511754612,0.8180881990005092,-0.341343413221891,0.9440883469548094,-0.3799502075110229,1.7459460004754883,-0.921053024798958,0.8790259234971053,-0.282094897316433,1.235280101646596,0.1811040084122972,-1.2206168449737764,-0.0566814381194297,10.18572136363855,-1.0000815572326618,0.1700488657183865,-0.8614611762697039
2.5,0.9131241833281004,-0.350349347071379,1.7315059602475882,0.1383069671505682,0.1254367359352606,0.0588589692849942,-0.8215903771265789,0.7927652539020364,-0.3418301861574182,0.926440193507294,-0.3620760474142459,1.7399095609824573,-0.9468165930810852,0.8692378692692763,-0.2689435124263535,1.311233754480623,0.340018702444117,-1.2661472549236386,-0.0243386467763617,10.239149786389136,-0.9931598263418928,0.1652985681731885,-0.8716548983220693
2.52,0.8967894756192455,-0.3347713168210364,1.7246740720803702,0.1397008014920724,0.1306088558491727,0.0591437908232561,-0.8123311895255121,0.7666293730162459,-0.3413230286909832,0.9075038616456724,-0.3446912900288604,1.7345306907339302,-0.9725801613632126,0.8594498150414472,-0.255792127536274,1.3866092036004072,0.4629593800533405,-1.3067940442895276,0.0253578733217518,10.376758131630597,-0.9882065075551064,0.16220774118735,-0.8788963522426655
2.54,0.8814587298235604,-0.3204643912033903,1.7182029970760877,0.1393727505009724,0.1336571042856971,0.0590228642679293,-0.8020696852311253,0.7409424741431986,-0.3398478929616365,0.8885675297840505,-0.3273065326434748,1.729151820485403,-0.99834372964534,0.8496617608136183,-0.2426407426461945,1.3850011457737794,0.5130752147193385,-1.2843449436523655,0.0737567864673355,10.457373143331097,-0.984281819876882,0.1601158157245088,-0.8847640293035853
2.56,0.8655362120947194,-0.3059362822425736,1.7114358686878328,0.1369097271161937,0.1348986856432836,0.0584546580482171,-0.790841239830467,0.7134684100318109,-0.3368382321350864,0.8689871087153757,-0.3101664766137851,1.724101734859128,-1.0241072979274677,0.8398737065857893,-0.229489357756115,1.491610072374039,0.5614222700329186,-1.373703205569382,0.150483041327501,10.457373143331097,-0.982152777017335,0.1597579042518846,-0.8882677195792769
2.58,0.8498409225064173,-0.2919412832128739,1.704751620971965,0.1325090907236144,0.1342105848673483,0.0574749497514626,-0.7793465055975335,0.6879587987545333,-0.3315748399422868,0.8487625984396476,-0.293271121939791,1.7193804338551049,-1.0498708662095948,0.8300856523579604,-0.2163379728660355,1.423527730656141,0.5747367116466728,-1.2754805638638844,0.2631696096399794,10.5572602698403,-0.9825561653423118,0.1614972703142596,-0.8882749467144865
2.6,0.8343780629798675,-0.2784330317670709,1.698200071424447,0.1272641900125155,0.1314289920018931,0.0561617408761315,-0.7677069770253706,0.6644895424217236,-0.3237937432094941,0.8108735972265406,-0.2575433432751472,1.688172878974851,-0.789446706369819,0.6447066808226904,-0.2732095359192594,1.3664096060135091,0.5819764286081441,-1.1734628166404804,0.3890548366396351,10.67374690086217,-0.9852411131901933,0.1644007798858601,-0.8853547953358313
2.62,0.8197600924796301,-0.2659324947972474,1.6920663526869095,0.1247692273108778,0.1306968133317248,0.055335945899912,-0.7710166799454923,0.6511150670282552,-0.3224603428166648,0.8108735972265406,-0.2575433432751472,1.688172878974851,-0.789446706369819,0.6447066808226904,-0.2732095359192594,0.692113939459308,-0.1654851460060835,-0.6687237696734238,0.0666700196414654,10.383217630648687,-0.9760043913355484,0.162379440238755,-0.8956373642409403
2.64,0.8043453915118894,-0.2530994134405048,1.6856562097389225,0.1251890468500799,0.1348831697088909,0.0552934445115271,-0.7696353323551418,0.6327232068488798,-0.3184536174928197,0.8108735972265406,-0.2575433432751472,1.688172878974851,-0.789446706369819,0.6447066808226904,-0.2732095359192594,0.9436928656133322,0.0690673795175234,-0.9195930089687664,0.200336266192258,10.383217630648687,-0.9762688538999846,0.1617771167443923,-0.8964412894300857
