t,x,y,z,roll,pitch,yaw,v_x,v_y,v_z,ref_x,ref_y,ref_z,ref_v_x,ref_v_y,ref_v_z,a_com,a_x,a_y,a_z,thrust,wind_x,wind_y,wind_z
0.0,-0.7667278879760513,1.5954689030396636,2.9035000541107743,0.030551841105259,0.1006062400330495,0.0438527289829483,0.0041566301245184,0.0067575286610447,0.0318732631947684,-0.7666037343130871,1.595701961024549,2.904465855671466,-0.0349268420252227,-0.0924842323204499,-0.0678890926600461,1.6422900735557324,0.2078315062259213,0.3378764330522391,1.5936631597384228,10.219105966283678,-0.9489462999582556,0.2635102093846542,-0.8593733813738216
0.02,-0.7666104803405304,1.5958107170112483,2.9039294933242417,0.0391689522201832,0.0985638154338262,0.0443605112485537,0.0078152916693464,0.0238658607615731,0.0098462048092596,-0.7666037343130871,1.595701961024549,2.904465855671466,-0.0349268420252227,-0.0924842323204499,-0.0678890926600461,1.4064779883455223,0.1829330772413988,0.8554166050264197,-1.1013529192754403,10.219491325800846,-0.9494434428340696,0.2619538658025164,-0.8543569639594538
0.04,-0.7664295472724166,1.5962821715931628,2.9038464524561367,0.0526052962448376,0.0924059711075044,0.0449641362800106,0.010425194897035,0.0243160596106427,-0.0175959483488012,-0.7666037343130871,1.595701961024549,2.904465855671466,-0.0349268420252227,-0.0924842323204499,-0.0678890926600461,1.3784829014283009,0.1304951613844324,0.022509942453479,-1.3721076579030445,8.877520232815641,-0.942731281523302,0.2451131871092095,-0.8700647635644548
0.06,-0.7662321736364951,1.596716596854308,2.9031846374051256,0.0670465487119811,0.0831488803313053,0.0453231274079239,0.0087395342757759,0.0187280714959863,-0.0471618846020598,-0.7669530027333393,1.5947771187013446,2.903786964744866,-0.0427405780765437,-0.1124842326184731,-0.0878890929580693,1.5068275029273912,-0.0842830310629533,-0.2793994057328195,-1.4782968126629326,8.654093482291955,-0.9399226168872842,0.2255093593367248,-0.8843618632829148
0.08,-0.766113228082325,1.5970007621919666,2.901934844820584,0.0809159350100019,0.0729750214413302,0.0453972097747317,0.0029518732682445,0.0096424195670327,-0.0763611299891522,-0.7676515395738438,1.5929274340549355,2.902429182891665,-0.0583680501791858,-0.1524842332145196,-0.1278890935541158,1.5561507173855578,-0.2893830503765734,-0.4542825964476821,-1.4599622693546186,8.66721581533102,-0.9394062201000888,0.2058017147462244,-0.8970555296772779
0.1,-0.7661466233132221,1.5970721161970518,2.9001055673259963,0.0941043040879305,0.0632838460320937,0.0452807191487906,-0.0061672453931343,-0.0023564603511111,-0.1051290949357385,-0.7683500764143483,1.5910777494085266,2.901071401038464,-0.0739955222818278,-0.192484233810566,-0.1678890941501622,1.623828232617571,-0.4559559330689431,-0.599943995907193,-1.4383982473293144,8.717601666599421,-0.9406529567054608,0.1853324836137325,-0.908461938871333
0.12,-0.7663731517131062,1.596891895956844,2.897839362193461,0.1060210797831359,0.0553758272596537,0.0450981551244796,-0.0172016716904538,-0.0162586695081664,-0.1320407021598988,-0.7698299868599848,1.5872280647323154,2.897713619155461,-0.0896229943844699,-0.2324842344066125,-0.2078890947462086,1.611881343760268,-0.551721314865975,-0.6951104578527657,-1.3455803612080124,8.825042933776786,-0.9422951798182496,0.1649533295322888,-0.9195311945624328
0.14,-0.7668559986029436,1.5963922284685008,2.894892826962652,0.1179548686535985,0.0488657885986229,0.0449237858865641,-0.0305745763268721,-0.0332488204127366,-0.1612922502962333,-0.7713098973056214,1.583378380056104,2.8943558372724576,-0.105250466487112,-0.272484235002659,-0.2478890953422551,1.818758418913229,-0.6686452318209145,-0.8495075452285089,-1.4625774068167257,8.825042933776786,-0.9423492922313756,0.1443416363971958,-0.9324664351289592
0.16,-0.7676283747786034,1.5955276414125077,2.891355740827437,0.1292987350213017,0.0448183510563484,0.0448955683865462,-0.0459834896746027,-0.0526170793644807,-0.1910285465464022,-0.7731804945538241,1.5785286953649915,2.889998055374553,-0.120877938589754,-0.3124842355987054,-0.2878890959383016,1.9344323327900972,-0.7704456673865308,-0.9684129475872066,-1.486814812508444,8.807483328334001,-0.9403622781720944,0.1236200832404245,-0.947510247766908
0.18,-0.7687224622393104,1.594251749141382,2.887221900134397,0.1400883530269477,0.0439054664219347,0.0451684368986483,-0.0622851673760856,-0.0742306436786502,-0.2209084183691674,-0.7754417786045927,1.572679010658978,2.884640273461748,-0.1365054106923961,-0.3524842361947518,-0.327889096534348,2.015997022809461,-0.8150838850741446,-1.0806782157084742,-1.493993591138261,8.827867204489849,-0.938423515792518,0.106413805110871,-0.9591464136543396
0.2,-0.7700492952739052,1.5926128313070531,2.882741502942729,0.1496345227918298,0.0456081506245719,0.045709334095305,-0.0762580267241576,-0.0972435356961933,-0.2492399106406231,-0.7718367206081147,1.5905402169574496,2.8761764792159386,-0.0970826458433116,-0.1742306451687663,-0.3209084198592835,1.954166991136928,-0.698642967403602,-1.150644600877157,-1.416574613572788,8.853739839591526,-0.9340858817685588,0.0883433544244017,-0.973693199670079
0.22,-0.7717153249111152,1.590242166622008,2.8775693500829345,0.1546120139354185,0.0498133254363329,0.0462756028386719,-0.0893071392890823,-0.1367783585428,-0.2654029294369682,-0.7718367206081147,1.5905402169574496,2.8761764792159386,-0.0970826458433116,-0.1742306451687663,-0.3209084198592835,2.2330051124301376,-0.6524556282462325,-1.9767411423303345,-0.8081509398172537,8.882309540308142,-0.9304220534215754,0.0722980603890603,-0.9897329964375692
0.24,-0.7736140566013281,1.5871458564822576,2.8721004001667314,0.1538610506294178,0.0559942992881548,0.0467285799267438,-0.0996048499087923,-0.1703701868400058,-0.2807917253133232,-0.7718367206081147,1.5905402169574496,2.8761764792159386,-0.0970826458433116,-0.1742306451687663,-0.3209084198592835,1.917856101797239,-0.5148855309855017,-1.6795914148602875,-0.7694397938177472,9.840997683230851,-0.9249227042028324,0.0685793355428168,-0.9992312359604104
0.26,-0.7756897261962448,1.5834113000034638,2.866298839259916,0.1498289536030517,0.0629512486112055,0.0470345880927409,-0.1072557558549294,-0.2004579836509954,-0.2984514331104032,-0.7728075470665479,1.588797910505762,2.872967395017345,-0.1040421415367568,-0.1942306454667895,-0.3409084201573067,1.7858311497831203,-0.3825452973068514,-1.5043898405494818,-0.8829853898539991,9.568778897586526,-0.918236449346376,0.0683555321493916,-1.0088046129190524
0.28,-0.7778946326129765,1.5791259418971204,2.860125622550419,0.144548403438375,0.0698263967783886,0.0471908361642475,-0.1127241659021278,-0.2262638226507677,-0.3179598019545606,-0.7747491999834141,1.5853132976023867,2.86654922662016,-0.1179611329236472,-0.234230646062836,-0.3809084207533532,1.6404429964846088,-0.2734205023599216,-1.2902919499886143,-0.9754184422078704,9.568778897586526,-0.9110678575203623,0.0699222776123418,-1.018183801492927
0.3,-0.7800732931465981,1.5746041525159156,2.853881673785528,0.1394653014096691,0.0757647524983302,0.0472016820900763,-0.1162785379729826,-0.2483489583270755,-0.3383345808762955,-0.7766908529002803,1.5818286846990113,2.8601310582229744,-0.1318801243105377,-0.2742306466588824,-0.4209084213493996,1.5128767256195808,-0.1777186035427425,-1.1042567838153885,-1.0187389460867473,9.330305067665904,-0.903415482819136,0.0712650698750341,-1.028226991391158
0.32,-0.7824263430818317,1.569411165336944,2.846871996340915,0.134536299504074,0.0810879835003606,0.0470695469957663,-0.1187843968226156,-0.2697718719873355,-0.3616766704137313,-0.779328455386491,1.5763440717658337,2.8517128897959862,-0.1457991156974281,-0.3142306472549289,-0.460908421945446,1.5890828347217367,-0.125292942481648,-1.0711456830129986,-1.1671044768717913,9.330305067665904,-0.8958029122515112,0.0719496340939228,-1.0384522357326076
0.34,-0.7848181696981789,1.5638020679197635,2.839383340901323,0.1302152111946263,0.0852952084644361,0.0467931193270941,-0.1202928377853428,-0.2901294043182799,-0.3860524585481135,-0.7819660578727018,1.570859458832656,2.843294721368998,-0.1597181070843185,-0.3542306478509754,-0.5009084225414926,1.5897197582559688,-0.0754220481363622,-1.0178766165472224,-1.2187894067191063,9.225782133443316,-0.8892716562878586,0.071838010910376,-1.047792291827783
0.36,-0.7871131852386658,1.55809520496503,2.831810950571829,0.1263855483043808,0.0882946223851628,0.0463926007021286,-0.1212453732345091,-0.3094525602891053,-0.4098275965150916,-0.7849516351435848,1.5643748458845772,2.833876552927109,-0.1736370984712089,-0.3942306484470218,-0.540908423137539,1.5326030681520315,-0.0476267724583104,-0.9661577985412672,-1.1887568983489083,9.18575310941742,-0.8831314871678382,0.0713806944729334,-1.0570525247774374
0.38,-0.789546404933515,1.5516980282476924,2.823344870226804,0.1224208963588359,0.0905487418052252,0.0458382512328638,-0.1220485500273851,-0.329124245041277,-0.435562626104106,-0.78828518719914,1.5568902329215972,2.8234583844703187,-0.1875560898580993,-0.4342306490430682,-0.5809084237335854,1.620117296599916,-0.0401588396438015,-0.9835842376085868,-1.2867514794507209,9.131867874120871,-0.8779851052964547,0.0713345035938425,-1.0649614796329805
0.4,-0.7919946221692705,1.544913535397441,2.8143582793810267,0.1184433906895884,0.0920281651993217,0.045168892994092,-0.1227806843764634,-0.3481744835223436,-0.4618007759696638,-0.7956488324348843,1.5352418159956285,2.801566738921599,-0.1365401351106909,-0.4291242465313931,-0.5355626275942222,1.621641232870328,-0.0366067174539165,-0.9525119240533314,-1.3119074932778862,9.131867874120871,-0.8744174056822499,0.0719133881563565,-1.070893445551302
0.42,-0.7943523825852189,1.5381209106006235,2.8055303936519564,0.1153655464176121,0.0939960933470899,0.044631997856321,-0.1250352026737397,-0.3662228441741335,-0.4661760596781912,-0.7956488324348843,1.5352418159956285,2.801566738921599,-0.1365401351106909,-0.4291242465313931,-0.5355626275942222,0.9353732978067292,-0.1127259148638155,-0.9024180325894916,-0.2187641854263705,9.112511000649649,-0.8757266841112433,0.0719853733431196,-1.0723829673815446
0.44,-0.7968667941608435,1.530606804217178,2.7961292374171296,0.1132822914039436,0.097439145381432,0.044287762645716,-0.1260813117511829,-0.38440583802621,-0.474023271222822,-0.7956488324348843,1.5352418159956285,2.801566738921599,-0.1365401351106909,-0.4291242465313931,-0.5355626275942222,0.991582496130237,-0.0523054538721562,-0.909149692603825,-0.392360577231543,10.353823404444483,-0.8716176601156891,0.0727042263531859,-1.0765797243127126
0.46,-0.7993857041404691,1.5227259451979624,2.786524391628041,0.1119547863202918,0.1015385049598304,0.0440517531046343,-0.1256082631541493,-0.4027563041584507,-0.4862459376940711,-0.7970142337859911,1.5309505735303146,2.7962111126456564,-0.1394384521273521,-0.4491242468294164,-0.5555626278922454,1.1026751084443074,0.0236524298516754,-0.9175233066120364,-0.6111333235624544,10.071766248912354,-0.8663069791008218,0.0722311345301842,-1.0822647579319695
0.48,-0.801880731839491,1.514481677596579,2.776635182880624,0.1110048838885818,0.1056813404502077,0.043829067559888,-0.1238236878201289,-0.4207382614115437,-0.502060679867328,-0.7997450364882049,1.5223680885996866,2.785499860093772,-0.1452350861606744,-0.4891242474254628,-0.5955626284882919,1.2006681117001567,0.089228766701023,-0.8990978626546492,-0.7907371086628451,9.841148575205809,-0.8605506717286294,0.0710541901236543,-1.0886440964358253
0.5,-0.8042074186450977,1.506320217761984,2.7669220229746245,0.1103671940849954,0.1092876234483309,0.0435839429363627,-0.1211426608311139,-0.437450854173567,-0.5195931862265835,-0.8024758391904188,1.513785603669059,2.7747886075418875,-0.1510317201939968,-0.5291242480215093,-0.6355626290843384,1.2184902972350595,0.1340513494507471,-0.835629638101168,-0.8766253179627703,9.532771207692347,-0.8547448518230625,0.0694012343346105,-1.0952609813374536
0.52,-0.8065940024125134,1.497391696282044,2.756315830929273,0.11002467305433,0.1125145857548826,0.043270942695859,-0.1176293079354915,-0.4545221183152927,-0.540211598096174,-0.8054964735942987,1.5032031187086288,2.762077354960201,-0.1568283542273191,-0.5691242486175557,-0.6755626296803848,1.3498987147095702,0.1756676447811196,-0.8535632070862831,-1.0309205934795285,9.532771207692347,-0.8498407170367228,0.0675121189869237,-1.1009996513231313
0.54,-0.8089033797695632,1.4881228254214105,2.7452862483742413,0.1100614329485402,0.1150382106234959,0.0428925844673804,-0.1134790297362997,-0.4715241259813919,-0.5617505805912066,-0.8085171079981787,1.4926206337481986,2.749366102378514,-0.1626249882606414,-0.6091242492136022,-0.7155626302764313,1.3876426419742451,0.2075139099595939,-0.8501003833049608,-1.0769491247516303,9.418327200356543,-0.8454030406164296,0.0648779769806264,-1.1067505643431903
0.56,-0.8111246067482198,1.4785018599027888,2.7338189679044973,0.1100764939710976,0.1168142866043655,0.0424164577329888,-0.10889603916147,-0.4895935331815232,-0.5838968418487517,-0.8116826582528917,1.4810381487728672,2.735654849781926,-0.1684216222939638,-0.6491242498096486,-0.7555626308724777,1.4473805364006505,0.2291495287414818,-0.903470360006564,-1.107313062877252,9.384976645858842,-0.8415244606052047,0.0621013248046057,-1.1122487161184365
0.58,-0.8131478251566806,1.469019491049661,2.722509591565451,0.10954481248351,0.1178537920771256,0.0418420611252526,-0.1043541625278252,-0.5074811299748129,-0.6054482305095232,-0.8149931243584376,1.4684556637826347,2.720943597170437,-0.1742182563272861,-0.689124250405695,-0.7955626314685241,1.418676421530107,0.2270938316822408,-0.8943798396644831,-1.0775694330385777,9.368845575439993,-0.8378238835798113,0.0595598064971924,-1.11792310637507
0.6,-0.815184799088256,1.4586687522738762,2.7101552512399967,0.1080556316356041,0.1183492018173085,0.0410950066743575,-0.0996279015145925,-0.5265173026203535,-0.6288761790484754,-0.8183655332830718,1.4436454345509204,2.692237180039975,-0.1162553241612571,-0.607481131464929,-0.7054482319996394,1.5277288575691537,0.2363130506616344,-0.9518086322770292,-1.1713974269476068,9.316838270127846,-0.8347570028288279,0.0579923481057446,-1.123088353291672
0.62,-0.817111924517031,1.4479052516587294,2.6975518148351347,0.1051202445369419,0.1186932111696791,0.0402207776737718,-0.0931867165140973,-0.5484409779305126,-0.629060337775925,-0.8183655332830718,1.4436454345509204,2.692237180039975,-0.1162553241612571,-0.607481131464929,-0.7054482319996394,1.142552315818386,0.3220592500247615,-1.0961837655079576,-0.0092079363724795,9.316838270127846,-0.8333182039632401,0.055239770434612,-1.129903465136491
0.64,-0.8189073398409608,1.4367390516326368,2.684948298093392,0.1015482253772532,0.1191608657288784,0.0393084289212547,-0.0866842603898256,-0.5669944329450062,-0.6314113081407388,-0.8183655332830718,1.4436454345509204,2.692237180039975,-0.1162553241612571,-0.607481131464929,-0.7054482319996394,0.9899996089382408,0.3251228062135853,-0.9276727507246784,-0.1175485182406899,10.77526240622683,-0.8321029536835441,0.058256209356918,-1.1306682327718864
0.66,-0.8204936726328637,1.4258016624994,2.672883707668241,0.0982096418106253,0.1194540238946551,0.0384256760949487,-0.0806540936864431,-0.5832928682725151,-0.6384116835586248,-0.8195280865246843,1.437570623236271,2.6851826977199784,-0.1186355564879435,-0.6274811317629522,-0.7254482322976625,0.936759254807388,0.3015083351691219,-0.8149217663754482,-0.3500187708943003,10.461263613893609,-0.8306887989644464,0.060935649276709,-1.1320853495182663
0.68,-0.8220430136966255,1.4139683704491186,2.660000022663879,0.0948813913581516,0.1194376666859235,0.0374748214855605,-0.0746530053621596,-0.5991175871365662,-0.6497629538647948,-0.8218531930079095,1.4254210006069723,2.671073733079986,-0.1233960211413163,-0.6674811323589986,-0.765448232893709,1.018928512906869,0.3000544162141786,-0.7912359432025506,-0.5675635153085001,9.937774558944511,-0.8300552072881769,0.0634869216890279,-1.132819982179481
0.7000000000000001,-0.8234768266916075,1.4018289195298168,2.6468529514825425,0.0918142982801496,0.1190288494059197,0.0365042803419514,-0.0690933242259697,-0.6139894270741892,-0.6645057108012233,-0.8241782994911346,1.413271377977674,2.656964768439993,-0.128156485794689,-0.7074811329550451,-0.8054482334897555,1.0833173121862767,0.2779840568094944,-0.7435919968811544,-0.7371378468214285,9.937774558944511,-0.8296607129468229,0.0654571014312598,-1.1337573368778209
0.72,-0.8248045315135446,1.3894016576175927,2.633379238777492,0.0890326352323264,0.1182122961967766,0.0355175651615846,-0.0640089873130992,-0.6279962855429362,-0.6821143604252855,-0.8267414292070284,1.399121755318573,2.6408558037701977,-0.1329169504480618,-0.7474811335510916,-0.8454482340858019,1.1533723461983885,0.2542168456435248,-0.700342923437347,-0.8804324812031084,9.60756692891573,-0.8296364567201968,0.0668749787553173,-1.134614949395882
0.74,-0.8259747415311104,1.377342638472399,2.6202410335344,0.086681513938406,0.1170439948234205,0.0345682653689793,-0.0594707366044498,-0.6407001503178532,-0.6999708857013354,-0.8293045589229222,1.3849721326594722,2.6247468391004025,-0.1376774151014346,-0.787481134147138,-0.8854482346818484,1.118972066952681,0.2269125354324708,-0.6351932387458514,-0.8928262638024931,9.545763271778014,-0.8299770292728562,0.0677227897604603,-1.1356563700390925
0.76,-0.8271173486205954,1.3643859971567218,2.6060346498549536,0.0842941100791527,0.1153875287999157,0.0335424051893378,-0.0550889516829301,-0.654183623036223,-0.7197600811201267,-0.8319867002551502,1.3698225099854702,2.6076378744157065,-0.1424378797548073,-0.8274811347431844,-0.9254482352778948,1.217185617488753,0.2190892460759815,-0.6741736359184902,-0.9894597709395658,9.491461323413205,-0.8307305937050571,0.0683730845948596,-1.1365332286962784
0.78,-0.8281773940301107,1.3511615954795224,2.591423573370656,0.0817434731955053,0.1133043564101437,0.0324759737583415,-0.0512051705247215,-0.6674282415224014,-0.74037554417123,-0.8347878532037126,1.3536728872965669,2.5895289097161087,-0.1471983444081801,-0.8674811353392309,-0.9654482358739412,1.2404646223700622,0.1941890579104307,-0.6622309243089208,-1.0307731525551644,9.447076096957062,-0.8319771321582287,0.0691457754936741,-1.1371148202785866
0.8,-0.8291664755282566,1.3376770680923076,2.5763906481171093,0.0789426462170082,0.1108321690356074,0.0313703264403293,-0.0479789907402567,-0.6801650223603241,-0.7618627564045287,-0.8307376525563468,1.3177901834034025,2.5544047961620944,-0.0313709799176506,-0.7674282430125176,-0.8403755456613461,1.2592995192504697,0.1613089892232397,-0.6368390418961312,-1.0743606116649371,9.447076096957062,-0.8335732447615415,0.0701270705194636,-1.1373714248923013
0.8200000000000001,-0.8301112832967877,1.3246180471937106,2.5619624600424378,0.0762189743113787,0.1109905523048487,0.0305198870449386,-0.0509788671194429,-0.6937126506234974,-0.7558051796995499,-0.8307376525563468,1.3177901834034025,2.5544047961620944,-0.0313709799176506,-0.7674282430125176,-0.8403755456613461,0.7570200218360066,-0.1499938189593093,-0.6773814131586675,0.3028788352489431,9.399869428095371,-0.8303204191489171,0.066640113521953,-1.1470123939627923
0.84,-0.8311455171561439,1.3106135766308704,2.546872840674471,0.0737339002684799,0.1158121995318281,0.0300041569054146,-0.0517452521060367,-0.7060556284023298,-0.7538696539403789,-0.8307376525563468,1.3177901834034025,2.5544047961620944,-0.0313709799176506,-0.7674282430125176,-0.8403755456613461,0.6258648143985283,-0.0383192493296886,-0.617148888941621,0.0967762879585498,11.12168033031412,-0.8267128329396225,0.0699422323952379,-1.1477692736867204
0.86,-0.8321567180375291,1.2963697556884195,2.53175338814236,0.0717166634698785,0.1235220522459812,0.0297243491800092,-0.048865586298758,-0.7177247923335833,-0.7581608655603788,-0.8310513623555233,1.310115900973277,2.5460010407054807,-0.0274041417962364,-0.7874282433105407,-0.8603755459593693,0.6381151134076439,0.1439832903639366,-0.5834581965626751,-0.2145605809999951,10.68695968360953,-0.8194219678934054,0.0722789106174753,-1.1517897256208642
0.88,-0.8330338130047582,1.28262867391377,2.517265817654463,0.0700834612014417,0.1321085461673242,0.0295578164317283,-0.0432831519490276,-0.7281381836679328,-0.7666466718041142,-0.8316787819538763,1.2947673361130267,2.529193529792254,-0.019470465553408,-0.8274282439065872,-0.9003755465554157,0.727343110157739,0.279121717486518,-0.5206695667174743,-0.4242903121867702,10.337118484406346,-0.8092570714816977,0.0738903113150765,-1.1584931169835704
0.9,-0.8338121141233567,1.267959442259118,2.501804378107651,0.06870420911924,0.1414817203607675,0.0294190933243666,-0.0345688023821245,-0.7382253539832917,-0.7792379707673062,-0.8323062015522293,1.2794187712527765,2.512386018879027,-0.0115367893105797,-0.8674282445026337,-0.9403755471514622,0.9168310953028932,0.4357174783451538,-0.5043585157679442,-0.6295649481596,9.881480704242676,-0.7978740924934038,0.074823561391497,-1.1664027765088083
0.92,-0.8343884221828094,1.2530963043057397,2.4860582156875908,0.0678252089426038,0.1504227976659211,0.0292783138034914,-0.023305727758868,-0.7475904223159374,-0.794893404907293,-0.8325369373384409,1.2620702063627238,2.493578507935998,-0.0036031130677513,-0.90742824509868,-0.9803755477475088,1.0719771137431462,0.5631537311628276,-0.468253416632286,-0.7827717069993412,9.734447365080086,-0.7860121295661703,0.0748952429927823,-1.1750108715081389
0.94,-0.8347140119698099,1.2380524723792774,2.4699822314808686,0.067628044267241,0.1583571017892761,0.0291146674256877,-0.009731334723746,-0.7564016081664299,-0.8119516190996277,-0.8327676731246525,1.2447216414726712,2.4747709969929685,0.004330563175077,-0.9474282456947266,-1.0203755483435553,1.1756740766422626,0.6787196517560998,-0.4405592925246226,-0.8529107096167332,9.734447365080086,-0.7750894600113744,0.0739323577225341,-1.1833251309454995
0.96,-0.8347520961296279,1.2235902915266388,2.454385947646696,0.0678900287975775,0.1646108256115328,0.0289057877799489,0.005038807661491,-0.7654501858153778,-0.8289313563533768,-0.8328000670047935,1.2263730765677174,2.4549634860350382,0.0122642394179053,-0.987428246290773,-1.0603755489396016,1.2127915533548748,0.738507119261852,-0.4524288824473976,-0.8489868626874564,9.66744294333148,-0.7647088837416891,0.0719717624023668,-1.1917468833646223
0.98,-0.8344757368701848,1.2081771746791838,2.4376112038985345,0.0683053476152332,0.1696440835406278,0.0285934482799173,0.0218190187331105,-0.7753626220537546,-0.8477001528903073,-0.8326341189788636,1.2070245116478624,2.4341559750622066,0.0201979156607337,-1.0274282468868194,-1.100375549535648,1.3528669550557089,0.8390105535809745,-0.4956218119188393,-0.9384398268465266,9.66744294333148,-0.7556964385030343,0.0696912309242151,-1.1994116245864392
1.0,-0.8338524423070058,1.192559163699311,2.4204527976184225,0.0685581800196411,0.1729784664311074,0.0281558725832964,0.0395510300797793,-0.7858550271049767,-0.8672062725494978,-0.8333847859335293,1.169409043576496,2.395226196254019,0.0533083425577546,-0.8753626235438707,-0.9477001543804234,1.4186291748691413,0.886600567333443,-0.5246202525611032,-0.9753059829595234,9.613716119841229,-0.7487306652576972,0.0675592890033225,-1.2057743646783463
1.02,-0.832896552058945,1.1774811735349575,2.404051544779532,0.067620758924373,0.1751385781216706,0.0275894556807575,0.0602126104026457,-0.8003476682676076,-0.8582479243989226,-0.8333847859335293,1.169409043576496,2.395226196254019,0.0533083425577546,-0.8753626235438707,-0.9477001543804234,1.339019744901057,1.033079016143318,-0.7246320581315469,0.4479174075287584,11.417767951609676,-0.7418060145850256,0.0631846532868732,-1.2161835086377597
1.04,-0.8314645719002913,1.1613364211949362,2.386948146799433,0.065232962404621,0.1768400541890933,0.0268571091041428,0.0818353556741437,-0.8131991250827414,-0.852934410086933,-0.8333847859335293,1.169409043576496,2.395226196254019,0.0533083425577546,-0.8753626235438707,-0.9477001543804234,1.2854342551167846,1.081137263574902,-0.6425728407566889,0.2656757155994782,11.417767951609676,-0.7371292008472227,0.0660083058924656,-1.2185939881281858
1.06,-0.8296014007795882,1.144956773119414,2.369887976030131,0.0622730090470159,0.1776662478386484,0.0260309948659265,0.1032984982277616,-0.8239387082275481,-0.8535759794645345,-0.8328517025079517,1.1606554173410577,2.3857491947102147,0.0596062073226834,-0.8953626238418939,-0.9677001546784466,1.2004340315771358,1.073157127680893,-0.536979157240336,-0.0320784688800701,11.020270175536098,-0.7336902427481836,0.0688754912533812,-1.2208836772067844
1.08,-0.8273123883461727,1.1283809397339308,2.352757402694294,0.0593542215392871,0.1772507293031609,0.025138271403598,0.124415200732106,-0.8330884738563642,-0.8594179624041011,-0.8317855356567967,1.14314816487018,2.366795191622606,0.072201936852541,-0.9353626244379404,-1.007700155274493,1.1871837477676264,1.055835125217218,-0.4574882814408043,-0.2920991469783307,10.6674764926438,-0.7315680900642776,0.071294532893129,-1.2227234702136318
1.1,-0.8247498763504227,1.1124750460650816,2.336337278837984,0.0568529070101377,0.1754109365928338,0.0242351116340506,0.1441678555510841,-0.8407971103431985,-0.8687089210318919,-0.8307193688056416,1.1256409123993023,2.3478411885349977,0.0847976663823986,-0.9753626250339869,-1.0477001558705394,1.1574890508198918,0.9876327409489064,-0.3854318243417143,-0.4645479313895417,10.385571860530945,-0.7309996234212686,0.0732445579671548,-1.2240404021685083
1.12,-0.8216532654281877,1.0955824834564958,2.318830461492231,0.0546349851755692,0.1716197160294661,0.0232246669191136,0.1643210459753027,-0.8481062848759126,-0.8816128235826338,-0.8290234154779936,1.106133659898623,2.3268871854175868,0.0973933959122563,-1.0153626256300332,-1.0877001564665858,1.2510853464727494,1.0076595212109296,-0.3654587266357034,-0.645195127537096,10.16341312700115,-0.7324916114289172,0.074489426026706,-1.2244705098023292
1.14,-0.818165812309605,1.0785494967215004,2.301046806037486,0.0529229156971226,0.1657652099286235,0.0221565819212903,0.1829652341088044,-0.854921023785747,-0.896056726462803,-0.8273274621503456,1.086626407397943,2.3059331823001763,0.1099891254421139,-1.0553626262260798,-1.1277001570626324,1.227469702251724,0.932209406675083,-0.3407369454917208,-0.7221951440084584,9.898410897525537,-0.7355188726621997,0.0747130605876311,-1.224751160505292
1.16,-0.8143316563664593,1.0613740542776409,2.282964332840016,0.0514506646245321,0.1583927658447477,0.0210458428935362,0.1991464896393254,-0.8622130263874719,-0.9114254131293288,-0.8253166155844512,1.066119154882362,2.283979179167864,0.1225848549719716,-1.0953626268221262,-1.1677001576586787,1.1738854952053728,0.8090627765260524,-0.3646001300862456,-0.7684343333262844,9.898410897525537,-0.7406182121265257,0.0746392018402363,-1.2236518566690229
1.18,-0.8104138998930676,1.04492109744933,2.265491802278496,0.0499889909944436,0.1504968181538698,0.0199619748953455,0.21214392607465,-0.8692248969869355,-0.9269840117967132,-0.8229908757803104,1.04461190235188,2.261025176020651,0.1351805845018292,-1.1353626274181725,-1.207700158254725,1.0725782904835726,0.6498718217662305,-0.350593529973181,-0.7779299333692258,9.837215055322304,-0.7476405933898995,0.0746176502109664,-1.2214054672698913
1.2,-0.8060504084756268,1.027460472816229,2.246768218245001,0.0482720179644731,0.1417144149501621,0.0188113480258649,0.2232236837506441,-0.8763899511885594,-0.9445912653216828,-0.799806703589335,1.0014598525999834,2.2191426016886604,0.2402730622644684,-0.9692248984770516,-1.0146468352949622,1.1001300020492095,0.5539878837997044,-0.3582527100811972,-0.8803626762484862,9.768989736518051,-0.7558030454983611,0.0748228397225172,-1.2182971894242098
1.22,-0.8014737923534538,1.009823147323838,2.2280470074945806,0.0457446005454455,0.13392943553158,0.0176834693969515,0.2338424949002369,-0.8863964907848073,-0.9266001543758012,-0.799806703589335,1.0014598525999834,2.2191426016886604,0.2402730622644684,-0.9692248984770516,-1.0146468352949622,1.1581990955671453,0.5309405574796422,-0.5003269798123933,0.8995555472940897,11.92849213572299,-0.7616256912318963,0.0725654639938448,-1.2207396657017204
1.24,-0.7969501350142439,0.9929118856345428,2.210562040353983,0.0430200322978803,0.1284650508700678,0.0167111996370355,0.241728080741749,-0.8932238070409351,-0.9149085068766076,-0.799806703589335,1.0014598525999834,2.2191426016886604,0.2402730622644684,-0.9692248984770516,-1.0146468352949622,0.7834049600469131,0.3942792920756041,-0.3413658128063879,0.5845823749596801,11.397699933138938,-0.7684230978391375,0.0763682511187039,-1.2151128234249562
1.26,-0.7920449921328736,0.9749861707020498,2.1923292264171974,0.0404805909540769,0.1246182905532427,0.0158223693123948,0.2482707462784234,-0.8990091175458128,-0.90928194674555,-0.7974039729666903,0.9917676036152128,2.208996133335711,0.2458988895024321,-0.9892248987750748,-1.032179399994612,0.5194575749544936,0.3271332768337173,-0.2892655252438869,0.2813280065528778,11.397699933138938,-0.7728401005554243,0.0794521515104931,-1.2113879774040366
1.28,-0.7870235050560229,0.9569540942143128,2.174146076189688,0.0384373183550028,0.1226319965534904,0.0150669875971058,0.2535776796030748,-0.9039616884466763,-0.909543899554964,-0.792598511721401,0.9723831056456718,2.1887031966298114,0.2571505439783594,-1.0292248993711213,-1.0672445293939117,0.3631808059174435,0.2653466662325729,-0.2476285450431825,-0.013097640470705,10.961174902911807,-0.7751496741718928,0.0817296686628998,-1.2092951162604024
1.3,-0.7818966764923666,0.9388314006404964,2.1559033216417665,0.0369723796848995,0.1221342253786457,0.0144274212995307,0.2589758199271442,-0.90815036228449,-0.9146969591420456,-0.7877930504761116,0.9529986076761308,2.1684102599239123,0.2684021984542868,-1.0692248999671676,-1.1023096587932113,0.4278987338902165,0.2699070162034661,-0.2094336918906703,-0.2576529793540838,10.611518451364644,-0.7756478036418132,0.0830914962048899,-1.2086860041488243
1.32,-0.7769222800439468,0.9215446301879932,2.1384430469900493,0.0362809309886229,0.1224746013007232,0.0139127012885916,0.2644498380745951,-0.9113980585181092,-0.9229657977765052,-0.7824250065070258,0.9316141096767874,2.146364066748048,0.2796538529302141,-1.109224900563214,-1.137374788192511,0.5217425080133382,0.2737009073725455,-0.1623848116809711,-0.4134419317229798,10.143608318056977,-0.774872246443614,0.0834718054792013,-1.2092973395847733
1.34,-0.7715685132881372,0.9032879652302136,2.119878778469348,0.0365856310681824,0.1232814900759309,0.0134720954683527,0.270694625976037,-0.9141962974282613,-0.933085975990657,-0.7770569625379401,0.910229611677444,2.124317873572184,0.2909055074061415,-1.1492249011592606,-1.1724399175918103,0.6108304265884144,0.3122393950720947,-0.1399119455075981,-0.5060089107075838,10.143608318056977,-0.7733953098217444,0.0824106545223053,-1.210780274552676
1.36,-0.7660826098475132,0.8849677909592452,2.101102277231487,0.0379088016085016,0.1242056272428275,0.0131188442438544,0.2776132796261317,-0.9177392982009824,-0.9440925143730824,-0.7714076272069562,0.8878451136631995,2.101395052161337,0.3021571618820688,-1.189224901755307,-1.2075050469911102,0.6737293781060602,0.3459326825047348,-0.1771500386360536,-0.5503269191212634,10.067055991069536,-0.7716339369200904,0.0800515003709168,-1.2127260248550449
1.38,-0.7604524985154664,0.8665684328751665,2.082096787322657,0.0399101441488553,0.1249346094737582,0.0128164156676142,0.2850312344794027,-0.9220557970714012,-0.9559079761466512,-0.7654770005140741,0.8644606156340539,2.077595602515508,0.3134088163579962,-1.2292249023513533,-1.2425701763904098,0.7301769539402166,0.3708977426635534,-0.215824943520948,-0.5907730886784479,10.023755884537422,-0.7700206205105297,0.0770130917225702,-1.2147074262265996
1.4,-0.7549635240580492,0.8489973536122668,2.0638153100487973,0.0420836058511521,0.125279804158257,0.0125429331374173,0.2923423958302066,-0.9273946741208698,-0.967872056617366,-0.7462009367914962,0.8204656430215964,2.034301388515324,0.3317750856344454,-1.011336961181108,-0.9710631965509186,0.7501598328965762,0.365558067540192,-0.266943852473428,-0.5982040235357367,9.946223556002224,-0.7686012018920213,0.0733575994505662,-1.2168051779858589
1.42,-0.7489913796899339,0.8302722045611468,2.044775279939803,0.0413181044819994,0.1257005857175937,0.0120541350175898,0.3048178471752634,-0.9441296641591956,-0.9330811751118798,-0.7462009367914962,0.8204656430215964,2.034301388515324,0.3317750856344454,-1.011336961181108,-0.9710631965509186,2.0286092611531457,0.6237725672528394,-0.8367495019162952,1.7395440752743074,9.946223556002224,-0.7655738310442755,0.0682761940598801,-1.226217607941803
1.44,-0.7427564285021365,0.8112486094015731,2.026473795979488,0.0359801654058484,0.1263896918511172,0.0112731120902956,0.3180310203445478,-0.9560688522276556,-0.8990159364542819,-0.7462009367914962,0.8204656430215964,2.034301388515324,0.3317750856344454,-1.011336961181108,-0.9710631965509186,1.9219603545173944,0.6606586584642193,-0.5969594034229864,1.703261932879896,13.357209987042552,-0.7649647460164237,0.0752466128641857,-1.2243783733267943
1.46,-0.7362591508180287,0.7920587288610847,2.0087795635370638,0.0292870040599309,0.1268734424783177,0.0104106307314572,0.3309975747110708,-0.9620112699634716,-0.872088628722185,-0.7428831859351518,0.8103522734097853,2.0245907565498147,0.3411238558654539,-1.0291931940030494,-0.974094240631772,1.523584394106532,0.6483277183261499,-0.2971208867908081,1.3463653866048475,12.340943776494896,-0.7640477701476118,0.0841089532292473,-1.222718483643524
1.48,-0.7298507074881866,0.7737538040856061,1.9924089368011637,0.0231259114604222,0.1269029651531364,0.0096151523865216,0.3428644219215876,-0.9645060610026466,-0.852467096584872,-0.7362476842224629,0.7901255341861632,2.0051694926187964,0.359821396327471,-1.0649056596469322,-0.9801563287934788,1.153311068687136,0.593342360525842,-0.1247395519587468,0.9810766068656496,12.340943776494896,-0.7633527997592582,0.0925072050746625,-1.2213085116253035
1.5,-0.7228679309127388,0.7544577340428825,1.9755313051191463,0.0174246107685501,0.126404836794207,0.008847797518474,0.3546985893929809,-0.9650024255744124,-0.8365359919376274,-0.729612182509774,0.769898794962541,1.985748228687778,0.378518936789488,-1.100618125290815,-0.986218416955186,0.992590037239123,0.591708373569666,-0.0248182285882914,0.7965552323622282,11.60358617032307,-0.7633162047878412,0.0997854782356261,-1.2197659364702735
1.52,-0.7156558633095157,0.7351691997581368,1.958923553584607,0.012776594962632,0.1253483232253716,0.0081745741801069,0.3658268081395392,-0.9640174242470828,-0.825015822839462,-0.7220418037739843,0.7478864324567247,1.9660238603486744,0.3972164772515051,-1.1363305909346977,-0.9922805051168928,0.8023742520426775,0.5564109373279141,0.0492500663664852,0.5760084549082722,11.60358617032307,-0.7636390885714809,0.105413008049011,-1.2184302577335273
1.54,-0.7086022806167951,0.7168737861104985,1.943345990204721,0.0093772759914223,0.123813103170763,0.0076277390412386,0.3760279301748668,-0.9620920270755452,-0.8152916467089576,-0.7144714250381945,0.7258740699509083,1.9462994920095704,0.4159140177135222,-1.1720430565785804,-0.9983425932785998,0.7112131299140961,0.5100561017663818,0.0962698585768695,0.4862088065252179,11.27017039528073,-0.7656472459962541,0.1102977721824318,-1.215517875309695
1.56,-0.7009703963674856,0.6976538991293088,1.9271409806271245,0.0066169906344148,0.1215196556189092,0.0071326246146573,0.386549893526011,-0.9600545507622904,-0.8057436661791271,-0.7064336077908543,0.702968895803995,1.926423571466424,0.4346115581755392,-1.2077555222224632,-1.0044046814403067,0.7176819537370281,0.5260981675572096,0.1018738156627452,0.4773990264915262,11.222481894636983,-0.7684758834371975,0.1140973029070272,-1.212300826586754
1.58,-0.6931314975535448,0.6784776162005505,1.9111181509499409,0.004424586312158,0.1183071309805547,0.0067015305241118,0.3967121270218764,-0.957717368773776,-0.7970436869077281,-0.6979283520319637,0.6791709100159846,1.9063960987192352,0.4533090986375563,-1.243467987866346,-1.0104667696020138,0.6790122395706443,0.5081116747932712,0.1168590994257146,0.4349989635699491,11.222481894636983,-0.7723773169989889,0.1172361354177946,-1.2084675936967757
1.6,-0.6850957331525882,0.6593523449907773,1.89525808265224,0.0027109425607579,0.1139493101245885,0.00632927279823,0.4061945518234868,-0.9549998144915308,-0.7893768175965404,-0.6732958912024509,0.6305917477618617,1.8712659666045544,0.4447978724459087,-0.9839908484589636,-0.7773935945592717,0.6246646428884389,0.4741212400805189,0.1358777141122646,0.3833434655593826,11.162861952620004,-0.7772635378637537,0.1197064836923704,-1.2041262158197237
1.62,-0.677271528404346,0.6410387207878576,1.8805719310491589,-0.0048482967281704,0.1088121971857713,0.005605593654008,0.4166730298201093,-0.9684244596437956,-0.7568168037758067,-0.6732958912024509,0.6305917477618617,1.8712659666045544,0.4447978724459087,-0.9839908484589636,-0.7773935945592717,1.8372357623589697,0.5239238998311219,-0.6712322576132412,1.628000691036685,11.094202887890788,-0.7819443697405628,0.1256411789341608,-1.20436777486956
1.64,-0.6688460189070559,0.6216729724700879,1.865772351190048,-0.0181541707641536,0.1027739752521467,0.0045862091896616,0.4250081591646787,-0.966511750585533,-0.7251244842265179,-0.6732958912024509,0.6305917477618617,1.8712659666045544,0.4447978724459087,-0.9839908484589636,-0.7773935945592717,1.6412921400123284,0.4167564672284712,0.0956354529131342,1.584615977464443,12.958631251411134,-0.7931380094222888,0.1438872133703212,-1.1893624962116558
1.66,-0.6602868804277918,0.6024400415387593,1.8515458243187752,-0.031858617915019,0.0966224912648356,0.0036818510952091,0.4302520701143537,-0.9565959765847664,-0.6993591323489161,-0.6688479124779918,0.6207518392772721,1.8634920306589615,0.4544150215307151,-0.9892455443960008,-0.7734635760895804,1.40505741293642,0.2621955474837484,0.4957887000383243,1.288267593880088,12.58902591010974,-0.803637962015868,0.1624596872089188,-1.1743609968080388
1.68,-0.6516543677844612,0.5834623788702883,1.8377733163463492,-0.0441170974864832,0.0908859364099456,0.0029999131770705,0.432571539864352,-0.9418324178227092,-0.6791386059890483,-0.6599519550290737,0.6010720223080928,1.8479441587677763,0.473649319700328,-0.9997549362700758,-0.7656035391501979,1.2571916058341976,0.1159734874999152,0.7381779381028686,1.011026317993391,12.165303227767254,-0.8119139795131125,0.1779453600509238,-1.1622063449457507
1.7,-0.6434365575616248,0.5657396339456912,1.8250253330137016,-0.053833252527675,0.0863746770656883,0.002550062555798,0.4322356744415428,-0.9248045608946264,-0.6637380997617432,-0.6510559975801555,0.5813922053389134,1.8323962868765908,0.4928836178699409,-1.0102643281441508,-0.7577435022108153,1.1480813442465203,-0.0167932711404555,0.851392846404142,0.7700253113652522,11.828961914044156,-0.8186176716495787,0.191407228817914,-1.1519112136175569
1.72,-0.6348165879374532,0.5474536165008497,1.81189609288588,-0.0619169955242093,0.0832777508869263,0.0022195181482705,0.4296522079440084,-0.9049665992035788,-0.6500870760223888,-0.6411983252227567,0.5611869187760304,1.8172414168323745,0.5121179160395538,-1.0207737200182256,-0.7498834652714328,1.2109598180077783,-0.1291733248767218,0.9918980845523784,0.6825511869677225,11.58817406223534,-0.8228415224250342,0.2019893569813497,-1.1443863189412506
1.74,-0.6262614534952594,0.5295818635406198,1.7990276204495002,-0.0678070784902709,0.0823987777244517,0.0019624497189605,0.4262380378935017,-0.8835568237328248,-0.6374343831987519,-0.6313406528653579,0.5409816322131474,1.8020865467881584,0.5313522142091667,-1.0312831118923007,-0.7420234283320503,1.255115212372138,-0.1707085025253352,1.0704887735376922,0.6326346411818451,11.439317582250624,-0.8253737834094759,0.2098721267827671,-1.1384547885288738
1.76,-0.6177633186764034,0.5121481002610734,1.786409331058906,-0.0716132499820346,0.0833142124211114,0.0017677113208968,0.4239553881592079,-0.8614099816760507,-0.624984978236088,-0.6210021230537187,0.5205136108534125,1.7871281776674266,0.5505865123787796,-1.0417925037663756,-0.7341633913926676,1.275422270094864,-0.1141324867146909,1.1073421028387098,0.6224702481331945,11.372588139405709,-0.8255493063942282,0.2151554468568373,-1.1350654034804653
1.78,-0.6097195682632041,0.4960011404727471,1.7746534256163722,-0.0735290288778229,0.0852091383098598,0.0016556685090389,0.4230135302431834,-0.8398061248569062,-0.6130701196013792,-0.6101827357878393,0.4997828546968257,1.7723663094701794,0.5698208105483925,-1.0523018956404506,-0.7263033544532851,1.234481249433508,-0.0470928958012262,1.0801928409572226,0.5957429317354379,11.372588139405709,-0.8242496588924146,0.2188387224320126,-1.1329965208790027
1.8,-0.6012582595867276,0.4794523761669028,1.7625260642253051,-0.0737135195176394,0.0877602594715505,0.0016518683735826,0.4232959053441693,-0.8164162786982748,-0.6002639410894622,-0.5885688917510449,0.4540108342299018,1.7439999196363032,0.4667579639144194,-0.8389832492081692,-0.5708898123918875,1.3333818349418751,0.0141187550492943,1.1694923079315689,0.6403089255958505,11.37524964870954,-0.8221740015482668,0.2205900547034878,-1.1318153940250213
1.82,-0.5927406826706717,0.4632863938393599,1.750767945231132,-0.0747847787897768,0.0895819756122937,0.0016683317623594,0.4284486528949254,-0.8007474931842007,-0.5756684887010767,-0.5885688917510449,0.4540108342299018,1.7439999196363032,0.4667579639144194,-0.8389832492081692,-0.5708898123918875,1.4807075377984205,0.2576373775378088,0.7834392757037068,1.2297726194192782,11.392871160934192,-0.8212077507949804,0.2222559166299874,-1.1310482699417583
1.84,-0.584121096475409,0.4474854763107768,1.7395142413247555,-0.0778162140869466,0.0898525127952535,0.0016942334161744,0.433088363650129,-0.7799010009578013,-0.5510027841551717,-0.5885688917510449,0.4540108342299018,1.7439999196363032,0.4667579639144194,-0.8389832492081692,-0.5708898123918875,1.6313339133843494,0.2319855377601792,1.042324611319967,1.23328522729525,12.183407745528712,-0.8225896767280622,0.2280507985943503,-1.124763064168562
1.86,-0.5758559909233645,0.4328962182752641,1.7292648189687376,-0.0802321519352551,0.0892014839936575,0.0018529756023491,0.4365931838173778,-0.7571738086553776,-0.5290823544375726,-0.5839013121119007,0.4456210017378201,1.7382910215123843,0.4755068506486666,-0.8388186740784218,-0.5624537509499892,1.5884853425199612,0.1752410083624395,1.1363596151211852,1.0960214858799555,12.119913858967266,-0.8245108220076904,0.2337658836839738,-1.117778768273058
1.88,-0.5670940328702244,0.4180198441513791,1.7189160227012306,-0.0814550431483272,0.0879699224306972,0.0021883582891991,0.4393284111634293,-0.7318739293772256,-0.5069610967247657,-0.5745661528336123,0.4288413367536567,1.7268732252645465,0.493004624117161,-0.838489523818927,-0.5455816280661925,1.6859088075279085,0.1367613673025736,1.264993963907601,1.106062885640341,12.02472694071912,-0.8270050739522224,0.2381023726865941,-1.1105888599864595
1.9,-0.5582869016980998,0.4036633767124369,1.7090005166743831,-0.0806361549543598,0.0865042764153447,0.0027133327345687,0.4411805074895313,-0.7052981886278478,-0.4856933297955275,-0.5652309935553239,0.4120616717694933,1.7154554290167088,0.5105023975856555,-0.8381603735594323,-0.5287095051823958,1.7044193786563369,0.0926048163051029,1.3287870374688926,1.0633883464619105,11.911284528599936,-0.8297529059296452,0.2402879250423839,-1.1036882755507698
1.92,-0.5494510829157858,0.3898454810766693,1.6995053550484989,-0.0770514425042349,0.0850467045555808,0.0034493177208267,0.442282976548135,-0.6787076582219124,-0.4647941830526295,-0.5550209456036108,0.3952984642983047,1.7048812389130608,0.52800017105415,-0.8378312232999375,-0.5118373822985991,1.691926475851817,0.0551234529301836,1.32952652029677,1.0449573371449028,11.911284528599936,-0.8318198464343348,0.2396697102305883,-1.0984098857088718
1.94,-0.5410415711587332,0.3771801516859008,1.690878914458565,-0.0718214318379129,0.0838103994503488,0.0042727583166301,0.4428661403985453,-0.6564099499615937,-0.4442373622213706,-0.5448108976518977,0.378535256827116,1.694307048809413,0.5454979445226443,-0.8375020730404428,-0.4949652594148024,1.5166663743447195,0.0291581925205147,1.1148854130159314,1.0278410415629406,11.881410959151252,-0.8339954012379482,0.2368272354911336,-1.0935962053664563
1.96,-0.5321793762978003,0.3642754069940401,1.6822289624161233,-0.0655361614736179,0.0826924506269497,0.005184733362177,0.4433044149944722,-0.6355955245842869,-0.4217775386213405,-0.5341634053634723,0.3617802781124147,1.68415466177786,0.5629957179911388,-0.8371729227809479,-0.4780931365310057,1.531238113874996,0.0219137297963467,1.040721268865341,1.122991180001509,11.907047832619355,-0.8364496860876761,0.2331074420900715,-1.0886867568242726
1.98,-0.523310264522809,0.3517643447445647,1.6740339777681716,-0.0589828475030111,0.0817143103690867,0.0061081725264491,0.4435633010652189,-0.6168358330226117,-0.3988031440649919,-0.5230784687383344,0.3450335281542008,1.674424077818402,0.5804934914596331,-0.8368437725214531,-0.461221013647209,1.4830845008946665,0.012944303537335,0.9379845780837616,1.1487197278174266,11.9405785288036,-0.8393951213591733,0.2292268065455087,-1.083124842657797
2.0,-0.5144381494076017,0.3396088558148507,1.6663016343746688,-0.0524209771609729,0.0808406036064272,0.0070267721264905,0.4436128405396553,-0.5999070482555907,-0.3755484889016175,-0.5011320994695481,0.3209225530934341,1.654093820564922,0.4513036854986375,-0.6024725338986688,-0.3632609688912325,1.4381978259397277,0.0024769737218183,0.8464392383510488,1.162732758168719,11.953992760979418,-0.8426905418588853,0.2258332162093766,-1.0768627319624071
2.02,-0.505931647944118,0.3282536955194978,1.6593733620338316,-0.0496881900794001,0.0774989974664565,0.0077845252546381,0.4514713475019924,-0.594314837306394,-0.3549861738879513,-0.5011320994695481,0.3209225530934341,1.654093820564922,0.4513036854986375,-0.6024725338986688,-0.3632609688912325,1.1356030927426437,0.3929253481168571,0.2796105474598354,1.0281157506833145,11.953992760979418,-0.8547222908509389,0.2269141905078185,-1.0591401309634545
2.04,-0.4968484461645711,0.3164795399727808,1.6524933144792946,-0.0508499369378301,0.0691837762658811,0.0085570100910175,0.4556190610939004,-0.5831108598083654,-0.3341065246689399,-0.5011320994695481,0.3209225530934341,1.654093820564922,0.4513036854986375,-0.6024725338986688,-0.3632609688912325,1.202801304586288,0.2073856795953954,0.5601988749014297,1.043982460950568,11.721861718898252,-0.8630100423325946,0.2308175950320164,-1.0485461010900894
2.06,-0.4877474677891233,0.3049637851865045,1.6460152256151086,-0.053901261808581,0.0582930598211982,0.0093757424457895,0.4537312525024101,-0.5686471381768493,-0.3147319426554112,-0.4966190626145617,0.3148978277544474,1.6504612108760095,0.4528517623853211,-0.5995998740738803,-0.3561525338564806,1.2125773098147612,-0.0943904295745146,0.7231860815758051,0.9687291006764354,11.721861718898252,-0.8745282488769296,0.2362056020050676,-1.0345419051052591
2.08,-0.4791914389601805,0.2943264960167513,1.640203909624168,-0.0568921090158804,0.047378993501856,0.0102363136230571,0.4467091999611381,-0.5519186164243784,-0.2979245782699838,-0.4875929889045889,0.302848377076474,1.643195991498185,0.4559479161586885,-0.5938545544243031,-0.3419356637869768,1.2365679919638544,-0.3511026270635958,0.836426087623543,0.8403682192713702,11.620213421940209,-0.8874060569947769,0.2417483812457427,-1.0190196304319503
2.1,-0.4703772380287033,0.2834874181050171,1.6344200831500009,-0.0592793807205121,0.0366811395816596,0.0112054676614574,0.4348199516044244,-0.5330483456917038,-0.2813640935103481,-0.4785669151946162,0.2907989263985006,1.6359307721203604,0.459044069932056,-0.588109234774726,-0.327718793717473,1.3889663418223852,-0.5944624178356867,0.9435135366337332,0.8280242379817837,11.523382495007354,-0.8998069069735454,0.2464169060923975,-1.003668454297309
2.12,-0.4618417028930803,0.2730354264222887,1.6289562680942498,-0.0605586153217046,0.0277743451560676,0.0121860069599791,0.4192080999595017,-0.513255666857135,-0.2658580736583991,-0.469386033795975,0.2790367417030061,1.629376396246011,0.4621402237054234,-0.5823639151251488,-0.3135019236479692,1.4797944949219326,-0.7805925822461368,0.9896339417284404,0.7753009925974524,11.460218018908565,-0.9108734008389664,0.2500262775874193,-0.9891849597135444
2.14,-0.4536549772682824,0.2629894871074443,1.6237929991072315,-0.0602707376971187,0.0215225694780243,0.0131364018728964,0.4001936943029384,-0.4926177171603941,-0.2512074575326925,-0.4602051523973339,0.2672745570075115,1.6228220203716617,0.4652363774787908,-0.5766185954755717,-0.2992850535784654,1.582808534710028,-0.950720282828163,1.031897484837041,0.7325308062853281,11.380891968336982,-0.9182904925644592,0.2519283026312774,-0.9788985438399788
2.16,-0.4462575096230391,0.253832246480156,1.6191554579410483,-0.0581500390886051,0.0189748368877968,0.0139699993920646,0.3796451073927777,-0.4726355721480087,-0.2376345854654276,-0.4509468671543586,0.2556560053032565,1.6166230662490495,0.4683325312521582,-0.5708732758259946,-0.2850681835089617,1.5856807681992375,-1.027429345508038,0.9991072506192716,0.678643603363245,11.371807986815838,-0.9235021257856368,0.251699507241577,-0.9713598989821924
2.18,-0.4388865180833476,0.2445852354243947,1.6145577979484884,-0.0541235339293665,0.0199552883133025,0.0147639877050335,0.3589234146443691,-0.4537081906282664,-0.2227457006756971,-0.4416111780670491,0.2441810865902408,1.6107795338781754,0.4714286850255256,-0.5651279561764174,-0.2708513134394579,1.5884845071916804,-1.0360846374204284,0.9463690759871136,0.744444239486526,11.371807986815838,-0.9265837474671232,0.2496288771588881,-0.9660816258824876
2.2,-0.4319093144323809,0.2356878154014419,1.6102666994368913,-0.0493982480153262,0.0237573225803114,0.0154679527260849,0.3401883249546435,-0.4372233780812843,-0.2070379451515465,-0.4209403473511292,0.2218998258929814,1.6034205129147037,0.3816809355435457,-0.4435151779734851,-0.2078249891583631,1.4743525816419238,-0.9367544844862796,0.8242406273491043,0.7853877762075273,11.387985127564209,-0.927527454561745,0.2468458200732075,-0.9631039826894436
2.22,-0.4252992870484927,0.2270876494530888,1.6062406154892916,-0.0449118434351599,0.0300242222033121,0.0160599575042631,0.322284243416619,-0.4235321436363843,-0.1963164037470713,-0.4209403473511292,0.2218998258929814,1.6034205129147037,0.3816809355435457,-0.4435151779734851,-0.2078249891583631,1.2479558149563252,-0.8952040769012237,0.6845617222450001,0.5360770702237629,11.387985127564209,-0.9237839257490124,0.2452743554861588,-0.9640478448921914
2.24,-0.4193219717546771,0.2191668338313563,1.6026140033747298,-0.0410600135272435,0.0378054072746129,0.0165427914339608,0.3081920035891415,-0.4109738116219363,-0.185928493220526,-0.4209403473511292,0.2218998258929814,1.6034205129147037,0.3816809355435457,-0.4435151779734851,-0.2078249891583631,1.0772785288027469,-0.7046119913738769,0.627916600722403,0.5193955263272612,11.053752932674795,-0.9196931501469522,0.2425766764828675,-0.9670248280957228
2.26,-0.4132838646555086,0.2110799309120425,1.5990155798659864,-0.0372987876016134,0.0469620849429441,0.0170271119089437,0.2967221002419307,-0.3984418283055361,-0.1744306162838649,-0.4171235379956938,0.2174646741132465,1.60134226302312,0.386232439723381,-0.4414765754425288,-0.2048408468548963,1.025683263351183,-0.573495167360541,0.6265991658200076,0.574893846833055,11.071130098928734,-0.9142731672566567,0.2404215448215695,-0.970878945426538
2.28,-0.4074401709081465,0.2032365309027352,1.5956512262938054,-0.033798164255363,0.0562800609805086,0.0175236231331031,0.2885110064806053,-0.3865870410864546,-0.1625689872485649,-0.4094899192848228,0.2085943705537769,1.5971857632399529,0.3953354480830516,-0.4373993703806163,-0.1988725622479627,0.9336170041002488,-0.4105546880662697,0.5927393609540782,0.5930814517650026,11.08164107417997,-0.9083639635248156,0.2388746440851084,-0.97463542178823
2.3000000000000003,-0.4017287019094062,0.1956233188816294,1.5925263064171584,-0.0305329267111121,0.0650967366506921,0.0180536081245416,0.2832314151804091,-0.3753803116340516,-0.1505249609555402,-0.4018563005739519,0.1997240669943071,1.5930292634567855,0.4044384564427223,-0.4333221653187037,-0.1929042776410291,0.8638915421850328,-0.2639795650098087,0.5603364726201487,0.602201314651235,11.08164107417997,-0.9028098041244872,0.2378648214099719,-0.9777880711846634
2.32,-0.3963765318161274,0.188592410709232,1.5897810881913688,-0.027636725876929,0.0725959671426099,0.0185955018584475,0.2805135222738423,-0.3653144110911981,-0.139057738301293,-0.3937675314450974,0.1910576236879331,1.589171177903965,0.4135414648023929,-0.4292449602567912,-0.1869359930340955,0.7749298210035928,-0.1358946453283382,0.503295027142675,0.5733611327123591,11.087072184903263,-0.8973866435350797,0.2372077614450936,-0.9804558331519404
2.34,-0.3907790550836983,0.1813918846413849,1.5871246624018145,-0.0248073327380059,0.0793259029362504,0.0192046045232516,0.2794772833632961,-0.3553094543726195,-0.1272065148344886,-0.385678762316243,0.182391180381559,1.5853130923511445,0.4226444731620636,-0.4251677551948787,-0.1809677084271619,0.7772136895354055,-0.0518119455273108,0.500247835928927,0.5925611733402197,11.0879264349187,-0.8926748178529453,0.2369428810384986,-0.982246743683676
2.36,-0.3851854084686592,0.1743864248283713,1.5847013094928666,-0.0221815477389719,0.0847193501613694,0.0198494350190958,0.2799805127203101,-0.3457826496869878,-0.1157416008136133,-0.3773624179783968,0.1738266672017327,1.5816042139134971,0.4317474815217342,-0.4210905501329661,-0.1749994238202283,0.7457504623029069,0.0251614678506983,0.4763402342815886,0.573245701043766,11.075165799548811,-0.889333034121895,0.2372253585696589,-0.982242555121958
2.38,-0.3795696645717167,0.1675664598643291,1.5825026496178296,-0.0197314212895601,0.088690849388478,0.0205250070314445,0.281514589295733,-0.336730259309369,-0.1046966006302145,-0.3688184984315588,0.1653640841484543,1.5780445425910232,0.4408504898814048,-0.4170133450710536,-0.1690311392132947,0.7181420325035728,0.0767038287711463,0.4526195188809367,0.5522500091699397,11.052407131402106,-0.887305904016984,0.2377915235261577,-0.981021530699068
2.4,-0.3742011215039407,0.1612508103847758,1.5806147023027468,-0.0175554511461068,0.0912186274097182,0.0211871909710273,0.283448639790268,-0.3285576290259368,-0.0945823921377762,-0.3654939351069301,0.1507299468988606,1.5772678195863188,0.3168417034605623,-0.3180591136467037,-0.1109714335084763,0.6573234563241981,0.0967025247267494,0.4086315141716118,0.5057104246219156,11.028342216049168,-0.886372005487428,0.2386247353406285,-0.9786543197131374
2.42,-0.3687867496547183,0.1550409809929703,1.578901803870291,-0.0169804528740721,0.0924110626883418,0.0217643375448886,0.2862064049255231,-0.3248869737711294,-0.0862597820480695,-0.3654939351069301,0.1507299468988606,1.5772678195863188,0.3168417034605623,-0.3180591136467037,-0.1109714335084763,0.475249453566653,0.1378882567627526,0.1835327627403682,0.4161305044853347,11.00299305595854,-0.8860611023876777,0.2405835300311158,-0.975892707245881
2.44,-0.3630429728823577,0.1485973227780753,1.5772565133667678,-0.0187245709027839,0.0924665053860676,0.0222321086330947,0.287914511326251,-0.3194830925886386,-0.0787523820513351,-0.3654939351069301,0.1507299468988606,1.5772678195863188,0.3168417034605623,-0.3180591136467037,-0.1109714335084763,0.4703206725779087,0.0854053200363996,0.2701940591245427,0.3753699998367207,10.88097545122764,-0.886704275678156,0.2449246001980731,-0.9715003000102388
2.46,-0.3572766214174557,0.1422835753540239,1.5757478756311496,-0.022027695787282,0.0919247949629099,0.0226104005916449,0.2885563288340562,-0.3117179739257139,-0.0725351670026518,-0.3623255180723245,0.1475493557623936,1.576158105251234,0.3239071262935281,-0.3143248845141706,-0.1122264000841286,0.4984043552282652,0.032090875390256,0.3882559331462365,0.3108607524341645,10.804818353354676,-0.8883800339531176,0.2506304414158451,-0.9655389838806592
2.48,-0.3515084306543966,0.1361592955391089,1.5743497109897446,-0.0254529524465288,0.0912354634208023,0.0229945236830788,0.2882198312210853,-0.3011401612500106,-0.0675718023544859,-0.3559886840031133,0.1411881734894595,1.5739386765810646,0.3380379719594598,-0.3068564262491045,-0.1147363332354334,0.5844620181766857,-0.0168248806485415,0.5288906337851618,0.2481682324082933,10.725101844461278,-0.8905336032073146,0.2570720009126095,-0.9583193781165712
2.5,-0.3460422213082209,0.1305524156049893,1.573104211207327,-0.0281291477591558,0.0907402021660915,0.0234054869682898,0.287215673217848,-0.2897552878725873,-0.0637649659879753,-0.349651849933902,0.1348269912165255,1.571719247910895,0.3521688176253915,-0.2993879679840383,-0.1172462663867381,0.6023198449262979,-0.0502079001618666,0.5692436688711666,0.1903418183255303,10.653858484592092,-0.8924558871860004,0.262771400018058,-0.9516812122010372
2.52,-0.3403135038985066,0.1248900201273068,1.571864530901781,-0.0301797694050786,0.0905849664682202,0.0238893468916916,0.2857387378098909,-0.2772136566466056,-0.060421500032951,-0.3426084735813942,0.1288392318568447,1.5693743225831602,0.3662996632913232,-0.2919195097189722,-0.1197561995380428,0.653170377084348,-0.0738467703978534,0.6270815612990865,0.1671732977512139,10.595467960095448,-0.8938715943927295,0.2674940019373768,-0.9460806110632632
2.54,-0.3346171732636365,0.1194858373724555,1.570684234103407,-0.0313423876738276,0.0909236322839052,0.0244260946451991,0.2840520772853341,-0.263993084590634,-0.0577579621349393,-0.3355650972288864,0.1228514724971639,1.5670293972554254,0.3804305089572549,-0.284451051453906,-0.1222661326893475,0.6795638000702736,-0.0843330262278424,0.6610286027985801,0.1331768949005864,10.551693595167308,-0.8947055959060456,0.2711761553857096,-0.9415460337295428
2.56,-0.3292349179365864,0.114604174782863,1.5696075640222424,-0.0313739254283611,0.0916612947439774,0.0250012170487767,0.2826529773263121,-0.2506990911793493,-0.0556949914461253,-0.3281684497347302,0.1170504245941098,1.5646217235989082,0.3945613546231866,-0.2769825931888399,-0.1247760658406522,0.6762832054278759,-0.0699549979510966,0.6646996705642338,0.103148534440697,10.479694316375571,-0.8951340052510479,0.2739773680613127,-0.93762811704107
2.58,-0.3235946049879057,0.1097406861859595,1.5685132737346243,-0.0300063742429321,0.0927494012714092,0.0256965022345224,0.2815123189454681,-0.236487997384558,-0.0538466184501016,-0.3204185310989259,0.1114360881476824,1.5621513016136082,0.4086922002891183,-0.2695141349237737,-0.127285998991957,0.7188059041190732,-0.0570329190422047,0.7105546897395648,0.0924186498011868,10.479694316375571,-0.8950773336486184,0.2754852724511685,-0.9346357993882464
2.6,-0.3179728236625863,0.1051585385613917,1.567453275491312,-0.027072650199881,0.0940342782189773,0.0264959825326246,0.2807861122327405,-0.22282170009797,-0.0522404091746314,-0.3095189890406323,0.0979162863167316,1.5658209428121193,0.2999717936133748,-0.2035919890420535,-0.0434101739067995,0.6889756272024775,-0.0363103356363775,0.6833148643293985,0.080310463773512,10.456155068414771,-0.8945005514633052,0.2754520572348445,-0.9328722811434934
2.62,-0.312283654422211,0.1007871178266228,1.5665458081230672,-0.0246094387202885,0.0933127783586776,0.0273131218751102,0.2878527144708913,-0.2143266876393979,-0.0385658136550265,-0.3095189890406323,0.0979162863167316,1.5658209428121193,0.2999717936133748,-0.2035919890420535,-0.0434101739067995,0.8790572599215707,0.3533301119075377,0.4247506229286032,0.6837297759802408,10.43603386446648,-0.902641486835696,0.2732551147786988,-0.9260082817070188
2.64,-0.3067577885232761,0.0968017009590608,1.5659355792134686,-0.0234503025165492,0.0890879173754252,0.0280884507083838,0.293034969664375,-0.2055076676596272,-0.0263438186084467,-0.3095189890406323,0.0979162863167316,1.5658209428121193,0.2999717936133748,-0.2035919890420535,-0.0434101739067995,0.7968814924639134,0.2591127596741849,0.4409509989885374,0.61109975232899,11.166176618962709,-0.9098762891478264,0.2789495551860098,-0.909759798402924
