t,x,y,z,roll,pitch,yaw,v_x,v_y,v_z,ref_x,ref_y,ref_z,ref_v_x,ref_v_y,ref_v_z,a_com,a_x,a_y,a_z,thrust,wind_x,wind_y,wind_z
0.0,0.8890577078068683,-1.1303883913360782,2.7052590298650245,0.0223644039883275,0.0998163015826844,0.0438515515651814,0.0128861417837687,-0.0008585744500579,0.0351879774881658,0.8894561123650937,-1.130503614881208,2.7063215508415954,-0.0868219412008326,0.0969338136098395,-0.0646420703232485,1.8741555164028856,0.6443070891884353,-0.0429287225028963,1.7593988744082911,10.218393338939675,-0.949560124720104,0.2712871813440193,-0.8555010923056154
0.02,0.8894635130991577,-1.1306476737876312,2.705730959164138,0.0133057913871754,0.0946009026894461,0.0431445803305407,0.0270044653889236,-0.020545326256537,0.0110184815982869,0.8894561123650937,-1.130503614881208,2.7063215508415954,-0.0868219412008326,0.0969338136098395,-0.0646420703232485,1.7110375431888238,0.705916180257747,-0.9843375903239572,-1.2084747944939456,10.217879036875274,-0.950772269260466,0.2734386442316819,-0.8581130067666426
0.04,0.8901052904828521,-1.131058455183892,2.7056343157148266,-0.003105460541405,0.0795422000490467,0.0419949518613098,0.0349133431054241,-0.0188052221780073,-0.0192932707502223,0.8894561123650937,-1.130503614881208,2.7063215508415954,-0.0868219412008326,0.0969338136098395,-0.0646420703232485,1.568742043307335,0.3954438858250272,0.0870052039264867,-1.515587617425461,8.85175516325944,-0.9522535879492624,0.2843101982843786,-0.8529980979610343
0.06,0.8907575214432693,-1.131342788732386,2.7049808853278,-0.0191150011804929,0.0597977922452613,0.0412270110011683,0.0325050265632767,-0.0109379479491132,-0.0479649562619613,0.8885878929530854,-1.1295342767451095,2.705675130138363,-0.1068219414988558,0.1169338139078627,-0.0846420706212718,1.4914418715155058,-0.1204158271073722,0.3933637114447037,-1.4335842755869532,8.57762874174341,-0.959349894028906,0.2944072066573648,-0.8442724452902263
0.08,0.8912971773551783,-1.13144634952987,2.7037083727388715,-0.0353167887543146,0.0371135663919643,0.0409213664747643,0.0208626490619882,0.0004705297899169,-0.0777952161962798,0.8868514541290687,-1.1275956004729129,2.704382288731898,-0.1468219420949023,0.1569338145039091,-0.1246420712173182,1.699663735826486,-0.5821188750644243,0.5704238869515097,-1.4915129967159213,8.573127600683165,-0.9710333704056632,0.303106257804254,-0.8323109042105423
0.1,0.8915176049059643,-1.131294459439315,2.701844849599,-0.0507258673750288,0.01530350247013,0.0410632960940715,0.0013097509443608,0.0144344133719517,-0.1070878466623764,0.8851150153050521,-1.125656924200716,2.703089447325433,-0.1868219426909487,0.1969338150999556,-0.1646420718133647,1.894309946335493,-0.9776449058813684,0.6981941791017432,-1.4646315233048324,8.671217583851558,-0.9841759799115548,0.3103891839257724,-0.8202371868047055
0.12,0.8912769532078987,-1.1308379394057333,2.69940190376247,-0.0653727218256209,-0.0036314811905618,0.0414854905167184,-0.0244580061519052,0.0308046828653291,-0.1358055078775673,0.8813785764512331,-1.1217182478987169,2.6997966058891656,-0.2268219432869952,0.236933815696002,-0.2046420724094111,2.0956306298632703,-1.2883878548133052,0.8185134746688697,-1.435883060759542,8.671217583851558,-0.9964300791498584,0.3166808234191077,-0.8092519310493422
0.14,0.8905277828555884,-1.1300680012308213,2.696544624353975,-0.0782604670657363,-0.018029767789428,0.042002457169955,-0.0529981004089049,0.0494076836165905,-0.1635564299758862,0.8776421375974142,-1.1177795715967176,2.696503764452898,-0.2668219438830417,0.2769338162920485,-0.2446420730054576,2.196999257201075,-1.427004712849988,0.9301500375630684,-1.3875461049159488,8.745907337362496,-1.0071508216452036,0.3222196504245297,-0.8011066552669563
0.16,0.8891225690036559,-1.1288386914871755,2.692959959543997,-0.0900371649204386,-0.0289781493902941,0.0425489613682017,-0.0859699795593338,0.0723226491248926,-0.1934677400346136,0.8729056987286941,-1.1128408952798174,2.69221092300173,-0.3068219444790881,0.3169338168880949,-0.284642073601504,2.503461068394356,-1.6485939575214423,1.1457482754151065,-1.4955655029363677,8.768171706331032,-1.0146808031976915,0.3264201978543887,-0.797653158789156
0.18,0.8870294647291255,-1.1271271972815224,2.688774083133717,-0.099503254704235,-0.0351441579248534,0.0429497844512393,-0.121735921384448,0.0973327945459358,-0.2236171891091014,0.8671692598450728,-1.106902218948016,2.6869180815356604,-0.3468219450751345,0.3569338174841414,-0.3246420741975505,2.6522157001808493,-1.7882970912557126,1.2505072710521583,-1.50747245372439,8.831492042576883,-1.017846778984951,0.329175068917665,-0.80045394046523
0.2,0.8842035301140676,-1.1249011861262117,2.68398647514988,-0.1066125936274602,-0.0358453274708075,0.0430186112435897,-0.1583174033386681,0.1235101983369787,-0.2535220560654975,0.8809426686599031,-1.1222605575542255,2.677593223678262,-0.2217359228745641,0.1973327960360519,-0.3236171905992175,2.700815783650372,-1.8290740977110025,1.308870189552145,-1.4952433478198066,8.864820711283755,-1.0185562841162143,0.3294740692627957,-0.8081400149146952
0.22,0.8808128631057975,-1.1221655914044846,2.6790189624541245,-0.1077653555111732,-0.0310132193757162,0.0428915371531749,-0.1957658694687034,0.1608378935255889,-0.2675049760832351,0.8809426686599031,-1.1222605575542255,2.677593223678262,-0.2217359228745641,0.1973327960360519,-0.3236171905992175,2.7346236010686367,-1.872423306501768,1.8663847594305067,-0.6991460008868772,8.864820711283755,-1.0204922369612268,0.3283742233748235,-0.8090784965584225
0.24,0.876535347722549,-1.1186131543123272,2.673517893517635,-0.1031931221567046,-0.0209125301520631,0.042638814144201,-0.2292587455414262,0.1913440125176055,-0.2818072575798959,0.8809426686599031,-1.1222605575542255,2.677593223678262,-0.2217359228745641,0.1973327960360519,-0.3236171905992175,2.375369076368747,-1.674643803636136,1.5253059496008303,-0.7151140748330426,9.828470416385244,-1.0170229710998857,0.3234900459363609,-0.8174820959481909
0.26,0.8716488975648873,-1.1145210639554122,2.667713004433857,-0.0969049713293259,-0.0080151292853883,0.0422759726588155,-0.2571298044142482,0.2160506539817751,-0.2980181993091327,0.8787253094311575,-1.1202872295938653,2.6743570517722697,-0.2417359231725873,0.2173327963340751,-0.3436171908972408,2.031014947557041,-1.3935529436411034,1.2353320732084838,-0.810547086461838,9.468043292771654,-1.009877159857331,0.317807780399573,-0.8300180522476494
0.28,0.8662611369352365,-1.1099715484774195,2.661556060982881,-0.0906725383912313,0.0059464565542046,0.0418850841859588,-0.279821726137768,0.2376555312604342,-0.3168381421012465,0.8742905909736662,-1.1163405736731442,2.667884707960285,-0.2817359237686338,0.2573327969301216,-0.3836171914932872,1.8274875378718063,-1.1345960861759874,1.0802438639329517,-0.9409971396056926,9.468043292771654,-1.0005856371335409,0.3123483844547742,-0.8449924967300589
0.3,0.8607667522581762,-1.105268295026316,2.655334776266859,-0.0853982739841876,0.0189937690252875,0.0415589212798718,-0.2971580503873424,0.2564480341286198,-0.3371103784644672,0.8698558725161749,-1.1123939177524231,2.661412364148301,-0.3217359243646803,0.2973327975261681,-0.4236171920893337,1.6314639665829536,-0.8668162124787215,0.9396251434092812,-1.0136118181610336,9.298305416199582,-0.9896902872437384,0.3074149833709277,-0.8609017843822983
0.32,0.8546660559882503,-1.0999448153010816,2.6483456929893925,-0.0807286052424738,0.0316217367722362,0.0413083847639542,-0.311771525710058,0.2750035053337095,-0.3608758842519166,0.8634211540288813,-1.1064472618018997,2.6529400203065148,-0.3617359249607267,0.3373327981222145,-0.4636171926853801,1.6753047767375169,-0.7306737661357782,0.9277735602544828,-1.1882752893724673,9.016487852299178,-0.9785172554302836,0.3033300524502561,-0.8762007150222537
0.34,0.848305217981571,-1.0942576113161933,2.6408637597072486,-0.0769575743852829,0.0425450999719129,0.04117594240616,-0.3234528649034805,0.2928840584525446,-0.3862196766039992,0.8569864355415877,-1.1005006058513764,2.644467676464728,-0.4017359255567732,0.377332798718261,-0.5036171932814266,1.6571629943768016,-0.5840669596711257,0.8940276559417565,-1.2671896176041308,9.016487852299178,-0.9679009036695958,0.299900590619468,-0.8903500894878434
0.36,0.8417308222393081,-1.0882094757869052,2.632861109564393,-0.073698638098912,0.051585626701921,0.0411801632476792,-0.3333682424945672,0.3109764396611024,-0.412803060279454,0.8495517170393929,-1.093553949885952,2.63499533260804,-0.4417359261528196,0.4173327993143074,-0.543617193877473,1.682502049186,-0.4957688795543341,0.9046190604278886,-1.3291691837727408,8.947123888467104,-0.9585006314726888,0.2969349380542934,-0.902804032008669
0.38,0.8353136388202111,-1.0821306568158986,2.624756854603155,-0.0707375128233789,0.0585794897742457,0.0413090569758476,-0.3416154894568697,0.3278949267429083,-0.4389655998432733,0.8411169985222969,-1.085607293905626,2.624522988736451,-0.481735926748866,0.4573327999103538,-0.5836171944735195,1.6114673158513435,-0.4123623481151278,0.8459243540902966,-1.3081269781909657,8.901014290119747,-0.9495633409244544,0.293791328017206,-0.914827125190048
0.4,0.8283985728535112,-1.0753912538575408,2.615678518700855,-0.0676948741061561,0.0644636437857404,0.0415552295153975,-0.3494246362332606,0.3450665790630298,-0.4675517119017755,0.8182328643473676,-1.0657359104787532,2.6028085746109912,-0.4356882635094897,0.4278949282330244,-0.5389656013333894,1.712464758323215,-0.3904573388195415,0.8585826160060761,-1.42930560292511,8.815618083735899,-0.9415603198525186,0.290582056991493,-0.92584425737922
0.42,0.8213475893682289,-1.068307254759105,2.6062258591475898,-0.0649418814986268,0.0690207211660157,0.041876751888835,-0.3552048947477868,0.3625745607006346,-0.4752366625222429,0.8182328643473676,-1.0657359104787532,2.6028085746109912,-0.4356882635094897,0.4278949282330244,-0.5389656013333894,0.9987483110830312,-0.2890129257263119,0.8753990818802404,-0.3842475310233711,8.815618083735899,-0.9419366241980242,0.2872939921936853,-0.9277288537948708
0.44,0.8145547937963015,-1.0612686888882583,2.5971045640437658,-0.0630838172693518,0.0720635008585212,0.0422128309078106,-0.3596484693630262,0.377714908634592,-0.4846635354146634,0.8182328643473676,-1.0657359104787532,2.6028085746109912,-0.4356882635094897,0.4278949282330244,-0.5389656013333894,0.91902315456731,-0.222178730761971,0.7570173966978705,-0.4713436446210223,10.04998776739194,-0.937789097033808,0.2864916004535693,-0.9317571612563053
0.46,0.8073132621867751,-1.0535491155604326,2.587265147820557,-0.0619762165053886,0.0738907775843131,0.0425895617464393,-0.3643568302479583,0.3934769987981535,-0.4989866628283106,0.8138759817122727,-1.0614569611964229,2.5974189185976573,-0.4545028183200136,0.4478949285310477,-0.5589656016314126,1.0906008979624182,-0.2354180442466047,0.7881045081780724,-0.7161563706823637,9.784206997288493,-0.9339250339121816,0.2860473575729145,-0.9358637498709494
0.48,0.7999744667876724,-1.0455173831933662,2.577100609548382,-0.0616405774202808,0.0744990311310498,0.0429813165246781,-0.3693832277463406,0.4089322529965485,-0.5168935939849539,0.805162216442083,-1.0528990626317625,2.58663960657099,-0.4921319279410616,0.4878949291270941,-0.5989656022274591,1.2091192430830722,-0.251319874919112,0.7727627099197526,-0.8953465578321634,9.543233120593868,-0.9310493692749096,0.2859169271158257,-0.9393594269380856
0.5,0.7925313629627769,-1.0371793336514987,2.5665463363859904,-0.0620832496041459,0.0740709448607922,0.04337626393937,-0.3747575325175145,0.4241646655690183,-0.537631027025422,0.7964484511718931,-1.044341164067102,2.575860294544322,-0.5297610375621096,0.5278949297231406,-0.6389656028235056,1.3142970304114032,-0.2687152385586949,0.7616206286234883,-1.0368716520234025,9.229777146520972,-0.9296192819734402,0.2863078959072074,-0.9413315051159452
0.52,0.785357651259423,-1.0289762213646534,2.5561165600784235,-0.0632354110624738,0.0727734304687141,0.0437518004594999,-0.3801721933801475,0.438627735343136,-0.5592017712848204,0.7858532304206509,-1.033783265472639,2.563080982487852,-0.5673901471831575,0.567894930319187,-0.678965603419552,1.3264576392149667,-0.2707330431316518,0.7231534887058855,-1.078537212969921,9.229777146520972,-0.9297371135548186,0.287438066671168,-0.9414296697186096
0.54,0.7776917673006235,-1.020043350458183,2.54468661562368,-0.0652569554757082,0.0704595472197634,0.0441504315459553,-0.3862120882258607,0.4540042117122135,-0.5826911629173142,0.7752580096694087,-1.023225366878176,2.5503016704313817,-0.6050192568042055,0.6078949309152335,-0.7189656040155985,1.435851554427492,-0.3019947422856606,0.7688238184538732,-1.1744695816246875,9.129753290001643,-0.93097982762037,0.2891401723731425,-0.9404267760525924
0.56,0.7698938566296475,-1.0107811072975097,2.5327833894183382,-0.0675493691718472,0.0673091333838249,0.0445890362349211,-0.3933965827196234,0.4714583797917718,-0.6064552247909624,0.7637220611776404,-1.011667468268812,2.5365223583600103,-0.6426483664252535,0.6478949315112799,-0.7589656046116449,1.5173954504470475,-0.3592247246881369,0.8727084039779148,-1.1882030936824106,9.086869958193349,-0.9329989114999648,0.2911358642993628,-0.9384857222267404
0.58,0.7619370435862775,-1.0011547191855474,2.520403222070484,-0.0692330257277056,0.0637480873216268,0.0451021773627766,-0.4020222759429451,0.4900882223751756,-0.6303533802870869,0.7512453849453458,-0.999109569644547,2.5217430462737376,-0.6802774760463014,0.6878949321073263,-0.7989656052076913,1.575274146285503,-0.4312846611660842,0.9314921291701888,-1.1949077748062251,9.085115807229158,-0.9358479587964564,0.2926661650042308,-0.9355548060860052
0.6,0.754203142009791,-0.9916572407107992,2.508197412714165,-0.0699267484905888,0.0604454835929204,0.0456473984822025,-0.411717827147441,0.5085362093584862,-0.6532578282558837,0.7418359297891302,-0.9766503080667888,2.4888855530561296,-0.4855228996459481,0.5900882238652917,-0.730353381777203,1.5483423988662222,-0.4847775602247944,0.9223993491655312,-1.1452223984398435,9.085115807229158,-0.9392146132185792,0.2934656673139624,-0.932251540824901
0.62,0.7457933179877742,-0.9812393683853396,2.4950859674891768,-0.068524389970105,0.0596651238522031,0.0461751158273839,-0.4286169851408457,0.5320157486093626,-0.655514222039809,0.7418359297891302,-0.9766503080667888,2.4888855530561296,-0.4855228996459481,0.5900882238652917,-0.730353381777203,1.4508287435356,-0.8449578996702317,1.1739769625438212,-0.112819689196264,10.469635147592273,-0.943168093161352,0.290775744426589,-0.93121243939874
0.64,0.7370616648668118,-0.9703777196202064,2.4819344320662022,-0.0647786871065854,0.063415224434701,0.0465494153287563,-0.44308844831716,0.5524268098761344,-0.6595725531362696,0.7418359297891302,-0.9766503080667888,2.4888855530561296,-0.4855228996459481,0.5900882238652917,-0.730353381777203,1.2673838406219218,-0.7235731588157157,1.0205530633385862,-0.2029165548230294,10.469635147592273,-0.942965541474739,0.2892348394001641,-0.9295631931196092
0.66,0.7280774602803645,-0.9591424943075636,2.468649040145027,-0.0603435746415432,0.0698433628601001,0.0468055910895838,-0.4541844180393294,0.5698908737889172,-0.6687269253219982,0.7369807007926706,-0.9707494258281356,2.481582019238357,-0.5022230243865486,0.6100882241633149,-0.7503533820752262,1.1312787040998205,-0.5547984861084737,0.873203195639144,-0.4577186092864282,10.159447939149686,-0.9385797151974246,0.2867772534430132,-0.9333965806079568
0.68,0.7193672825735589,-0.9481642038440068,2.4558144511558333,-0.0561916652292811,0.0771658786536843,0.0469872502558193,-0.4618515906680034,0.5848048555437367,-0.6818145891670111,0.7272702427997517,-0.95894766135083,2.466974951602813,-0.5356232738677499,0.6500882247593613,-0.7903533826712726,1.0636015852059388,-0.3833586314336973,0.7456990877409753,-0.654383192250646,9.843880269669173,-0.9314638095265154,0.2836599525553792,-0.9409154472524648
0.7000000000000001,0.7100698222009131,-0.9363159357947944,2.441996510167091,-0.0521955238891586,0.0851714149944792,0.0471545737875148,-0.4672637518445467,0.5992283898006544,-0.6994770979684783,0.7175597848068328,-0.947145896873524,2.4523678839672693,-0.569023523348951,0.6900882253554078,-0.8303533832673191,1.1718511490621033,-0.2706080588271681,0.7211767128458835,-0.8831254400733624,9.58244040536647,-0.9233740348300988,0.2805134864437534,-0.9497458559744574
0.72,0.7006886998572308,-0.9241884043628992,2.4277863028189186,-0.0486832388833925,0.0927605125615402,0.0473258147503904,-0.4704536707702625,0.6128408852466884,-0.720661816217763,0.7061793143398538,-0.933344132366416,2.435760816301923,-0.6024237728301521,0.7300882259514543,-0.8703533838633656,1.269121647363358,-0.1594959462857897,0.6806247723017023,-1.0592359124642348,9.196790596251049,-0.9166417024131756,0.2779418841490345,-0.9568129019984042
0.74,0.6917360718367606,-0.9124212368797052,2.4138772246253444,-0.0457845044743276,0.0991545580384078,0.0475072321610299,-0.4717253913792794,0.6251776957573726,-0.7424056215403145,0.6947988438728748,-0.9195423678593078,2.419153748636577,-0.6358240223113534,0.7700882265475008,-0.910353384459412,1.2516062048313592,-0.0635860304508406,0.6168405255342069,-1.0871902661275743,9.196790596251049,-0.9100272711174572,0.2754168263075792,-0.963913381855134
0.76,0.6822973262554631,-0.8997792568063836,2.398776143983308,-0.042944344557914,0.1048559597507271,0.0477351330463236,-0.4720201518148175,0.6382723677698738,-0.7666214429589395,0.6825833671688657,-0.9047406033372984,2.4015466809563293,-0.6692242717925545,0.8100882271435471,-0.9503533850554584,1.3765566877249182,-0.0147380217769055,0.6547336006250626,-1.2107910709312495,9.053818329733986,-0.9038976845888868,0.2729627456215341,-0.9706058853960472
0.78,0.6728618881152539,-0.8868774161499414,2.3831793546817543,-0.0400436877240493,0.1095260601993168,0.0480124075229367,-0.471469757653188,0.6511130028103266,-0.7918891370043087,0.6695328842278266,-0.8889388388003879,2.3829396132611804,-0.7026245212737556,0.8500882277395936,-0.9903533856515048,1.4174283088975308,0.0275197080814748,0.6420317520226371,-1.2633847022684608,9.053818329733986,-0.8985276246134766,0.2703207546051838,-0.9767082411679816
0.8,0.6634446790760311,-0.8737236251640209,2.367066410175966,-0.0369778306080664,0.1132085023328791,0.0483384615074973,-0.4702811184772257,0.6634374764502636,-0.8181418398069906,0.6492884002325945,-0.8543217660094251,2.343584897831539,-0.50690062860341,0.7511130043004427,-0.8668889835223484,1.4513010697629871,0.0594319587981118,0.6162236819968525,-1.312635140134094,8.96326824231619,-0.8941588614980112,0.2675841867564303,-0.9819150762265488
0.8200000000000001,0.65449215470156,-0.8609897925574271,2.351568942094333,-0.0336993695437541,0.1180188735215415,0.048624829318933,-0.4714698440347318,0.6760508946688134,-0.8118393013858177,0.6492884002325945,-0.8543217660094251,2.343584897831539,-0.50690062860341,0.7511130043004427,-0.8668889835223484,0.70751921909845,-0.0594362778753049,0.6306709109274888,0.3151269210586449,8.96326824231619,-0.8860631228548475,0.26021239949303,-0.9969082164873958
0.84,0.645081353789352,-0.8473514395211754,2.3353689744813284,-0.030300099792396,0.1256935044236912,0.0488407545165066,-0.4691231241367471,0.6871431242967151,-0.8088784759807297,0.6492884002325945,-0.8543217660094251,2.343584897831539,-0.50690062860341,0.7511130043004427,-0.8668889835223484,0.5858991796314279,0.1173359948992369,0.5546114813950842,0.1480412702544009,10.914821707700868,-0.8782814591299695,0.2585221565624966,-1.0026422587630837
0.86,0.6357487744440082,-0.833499914854029,2.31916680015905,-0.0273565012513071,0.1346078122753352,0.048998511466336,-0.4639270542311366,0.6974815672683112,-0.811738540678673,0.6442193939465604,-0.8468106359664207,2.3349160079963154,-0.5139868027934544,0.7711130045984659,-0.8818889528259564,0.5959499048102918,0.259803495280525,0.516922148579807,-0.1430032348971655,10.212146031481096,-0.8692353447066473,0.2572321065582046,-1.0092656956083443
0.88,0.626544371188363,-0.8194480431421318,2.30285198967158,-0.0248754563772208,0.1439497987510789,0.049122817252197,-0.456469734548469,0.7072656156134947,-0.8196072567803723,0.6340813813744922,-0.8317883758804118,2.317578228325868,-0.5281591511735432,0.8111130051945123,-0.9118888914331724,0.7301642143373116,0.3728659841333803,0.4892024172591713,-0.3934358050849629,10.212146031481096,-0.8598948558789873,0.2565598774230856,-1.0157506696367826
0.9,0.6179574318634283,-0.805921336134051,2.287171325486976,-0.0229203135558657,0.1528100401385803,0.0492202669091116,-0.4475632757353844,0.716183882506951,-0.830619145366221,0.623943368802424,-0.816766115794403,2.3002404486554213,-0.542331499553632,0.8511130057905588,-0.941888830040388,0.8368425526932107,0.4453229406542303,0.4459133446728158,-0.5505944292924336,9.961445348983034,-0.8493504138869132,0.2558685891714334,-1.023490098106489
0.92,0.6091221510513591,-0.7915037948673385,2.27040914561228,-0.0213053724746594,0.1618063996285228,0.0493031412053195,-0.436228570909874,0.7251494112733035,-0.8451738713182881,0.6130967388113513,-0.7997438556785917,2.2814026720546137,-0.5565038479337209,0.8911130063866053,-0.971888768647604,1.025544108122025,0.5667352412755178,0.4482764383176241,-0.7277362976033597,9.772432583475164,-0.8387860978877443,0.2553395638629993,-1.0313455932446
0.94,0.6005434252017563,-0.7769097654260193,2.253340601435029,-0.0202218082859946,0.1699118209508827,0.0493668764701753,-0.4220752743146004,0.7338321674284987,-0.861007940558364,0.6022501088202786,-0.7827215955627806,2.262564895453806,-0.5706761963138096,0.9311130069826518,-1.00188870725482,1.147196373407667,0.7076648297636795,0.4341378077597602,-0.7917034620037955,9.621709790411842,-0.8288926984420742,0.2548990541025161,-1.03895218656383
0.96,0.5922721690955727,-0.7621346626346323,2.235947699579649,-0.0194605378228285,0.1764812866258339,0.0494335538402284,-0.405784993159513,0.743167607180078,-0.8775079399870321,0.5910491701197038,-0.7646993354320683,2.2429771203878177,-0.5848485446938985,0.9711130075786982,-1.0318886458620358,1.2497736561205923,0.814514057754373,0.4667719875789677,-0.8249999714334044,9.58301969279637,-0.8208431637196465,0.2547660951403412,-1.0449127956539788
0.98,0.5847308119719028,-0.7479211347353795,2.219114222142832,-0.0186940128857148,0.1810297283605019,0.0495258101529432,-0.3889465438675383,0.7524225297500488,-0.8936180380550326,0.5794939227096267,-0.7456770752864548,2.222639346856649,-0.5990208930739872,1.0111130081747446,-1.0618885844692516,1.2537167005499577,0.841922464598735,0.4627461284985368,-0.8055049034000228,9.569492687353886,-0.8141751583284504,0.2546283955789058,-1.0496337779639908
1.0,0.5771456287453837,-0.7327688030944953,2.2010587661211845,-0.0176418933665389,0.1839539626942823,0.049666462600819,-0.3705421009926359,0.7622425998844214,-0.9110986493019648,0.5652834847785259,-0.710300008247877,2.1744333202400803,-0.4300118269872168,0.8474696683813926,-0.8951130015920029,1.3608169095674791,0.9202221437451196,0.4910035067186347,-0.874030562346606,9.539146366962996,-0.8093356491182072,0.2543250628606677,-1.0528384850371937
1.02,0.5700217301096067,-0.717366815875614,2.183002927451722,-0.0147721271692423,0.1842182631434777,0.0499682677904701,-0.3424172743906947,0.7766238551317772,-0.8917205881856047,0.5652834847785259,-0.710300008247877,2.1744333202400803,-0.4300118269872168,0.8474696683813926,-0.8951130015920029,1.85292716162039,1.4062413300970578,0.7190627623677892,0.968903055817999,12.021504581374757,-0.7995063422254123,0.2452500721602521,-1.0701958211885445
1.04,0.5634838596866665,-0.7017203021702234,2.165381827343088,-0.0102477654166686,0.1805514480716478,0.0504155794680004,-0.3131785266076817,0.7869324820118666,-0.8715054674040571,0.5652834847785259,-0.710300008247877,2.1744333202400803,-0.4300118269872168,0.8474696683813926,-0.8951130015920029,1.8505561787501283,1.4619373891506526,0.5154313440044689,1.0107560390773818,12.021504581374757,-0.8019945389168274,0.2450251649545612,-1.063976383682058
1.06,0.5577968829312356,-0.6866940815248863,2.148982795661716,-0.0058736796150345,0.1732633733309432,0.0508389697665399,-0.2875996331332147,0.7941899919814258,-0.8556228919009751,0.5609833665086537,-0.701825311564063,2.1654821902241603,-0.4382248836111524,0.8664790961076614,-0.895411994299397,1.5485537179473956,1.278944673723348,0.3628754984779603,0.7941287751541015,11.781997617730667,-0.8088809299405675,0.2446020619434774,-1.0543388790500117
1.08,0.5522945212420963,-0.6707476009710225,2.132022518351534,-0.001781524932417,0.1623655028638601,0.0512041882840739,-0.264636933160304,0.8000751478889802,-0.8412802748035733,0.5523831299689094,-0.6848759181964352,2.14757993019232,-0.4546509968590239,0.9044979515601989,-0.8960099797141851,1.3853080120543737,1.1481349986455336,0.294257795377717,0.7171308548700905,11.32698666370834,-0.8191183355003674,0.2438379154309954,-1.0430550238713066
1.1,0.547205924608225,-0.6546970883043203,2.115325380888589,0.0015553698095493,0.1489695877367386,0.0514525290989366,-0.2460869111456831,0.8047837963536074,-0.8290445506372892,0.543782893429165,-0.6679265248288073,2.12967767016048,-0.4710771101068953,0.9425168070127364,-0.8966079651289732,1.135768058385762,0.9275011007310472,0.2354324232313631,0.6117862083142023,11.32698666370834,-0.8315000593813057,0.2436067863550469,-1.0301128031516626
1.12,0.5426699316287642,-0.6393708121961357,2.099676384157573,0.0040001485936988,0.1347099222011833,0.0515767118191353,-0.2328920266680134,0.8084056605793334,-0.818754506028217,0.5343613512270271,-0.6490761886885525,2.1117455108579004,-0.4875032233547667,0.980535662465274,-0.8972059505437614,0.856019706118583,0.6597442238834835,0.1810932112862984,0.5145022304536118,11.16570002161916,-0.8464401116731336,0.243880957372696,-1.0146973111485484
1.14,0.5381174131526051,-0.6231716076861092,2.083419016097828,0.0057755259665178,0.1188730621742193,0.0515974302219145,-0.2236267124099839,0.811420249065064,-0.8074547406343288,0.5249398090248892,-0.6302258525482979,2.093813351555321,-0.5039293366026382,1.0185545179178117,-0.8978039359585495,0.7460202577598992,0.4632657129014755,0.1507294242865331,0.5649882696944108,11.042525152553935,-0.8620936169017098,0.244354465930655,-0.998850447424809
1.16,0.5336982459121312,-0.6069113656103736,2.06739340703704,0.0068959765046686,0.1029769968344522,0.0515341892542545,-0.219238518783611,0.8144559263323742,-0.7956203977710085,0.5151076139915545,-0.6104250450217297,2.075866242617372,-0.5203554498505095,1.056573373370349,-0.8984019213733376,0.6490825270726819,0.2194096813186455,0.1517838633655066,0.5917171431660151,11.050071174393452,-0.877726743933193,0.2456537966877769,-0.9820963571630926
1.18,0.5295367240811116,-0.5914106017694096,2.0523907566051287,0.0075258247563171,0.0884953987240554,0.0514231862732307,-0.2193629988294259,0.8170479586364091,-0.7841666795831427,0.504864766127023,-0.5896737661088481,2.057904184044053,-0.536781563098381,1.0945922288228866,-0.8989999067881257,0.587200534472709,-0.0062240022907472,0.1296016152017465,0.572685909393289,11.050071174393452,-0.8937466837252904,0.2471426931626404,-0.9646006194836264
1.2,0.5251112883131365,-0.5750448292942638,2.0368338676509765,0.0077072102896378,0.0744421848521468,0.0512652015545777,-0.2235080540110822,0.8193984312207474,-0.7721104770626928,0.5185685741396403,-0.5505582038375891,2.013182422625972,-0.3193630003195421,0.8457467066140235,-0.7522944108169779,0.6481863602444994,-0.2072527590828154,0.1175236292169146,0.6028101260224961,11.043694582133869,-0.9090026411697784,0.2488210528094488,-0.947491278806078
1.22,0.5205963370189047,-0.5584026491041735,2.021673827456034,0.0147815692375279,0.0609246707155659,0.0515392589030285,-0.2279608601935566,0.8408363497941385,-0.7436304046741732,0.5185685741396403,-0.5505582038375891,2.013182422625972,-0.3193630003195421,0.8457467066140235,-0.7522944108169779,1.79619483834114,-0.2226403091237158,1.0718959286695529,1.4240036194259786,12.157120390477758,-0.92504406293404,0.2423176196531529,-0.9343717108095798
1.24,0.516194752775476,-0.5423647436928509,2.0078076362571973,0.0280129296348073,0.0480161952230976,0.0520649901976196,-0.2354836267372705,0.8451817723797989,-0.717460502828675,0.5185685741396403,-0.5505582038375891,2.013182422625972,-0.3193630003195421,0.8457467066140235,-0.7522944108169779,1.3787117868885772,-0.376138327185696,0.2172711292830198,1.3084950922749083,12.157120390477758,-0.941796522331898,0.2359762704476044,-0.9125371798095052
1.26,0.5113687038545557,-0.5254985016673792,1.993714949402697,0.0426861560587051,0.0349899809144662,0.0524403113636434,-0.2470907958479975,0.8408443427042404,-0.6933479699498651,0.5153749441364449,-0.5421007367714489,2.005659478517802,-0.3393630006175653,0.8514864562095464,-0.7459199570637449,1.3555016716949462,-0.5803584555363491,-0.2168714837779251,1.205626643940494,11.919284501966104,-0.9569224072464249,0.2270602429568798,-0.8950049637293214
1.28,0.5062718928839778,-0.5087808743148339,1.9800672378005169,0.0560889966393233,0.0230176641274716,0.0525389112281062,-0.2623020683686957,0.831109746305065,-0.6727676392740587,0.508987684130054,-0.5251858026391685,1.9906135903014623,-0.3793630012136118,0.8629659554005922,-0.7331710495572791,1.369028112822494,-0.7605636260349116,-0.4867298199587699,1.0290165337903223,11.681942965134112,-0.9699593955720444,0.2183783213670691,-0.8809579219028516
1.3,0.5008363087497303,-0.4923009825256449,1.966798996622138,0.0673767334463515,0.0125382890438501,0.0523849646842802,-0.2806569093968881,0.8177026696736434,-0.6550575365578476,0.5026004241236632,-0.508270868506888,1.9755677020851228,-0.4193630018096582,0.8744454545916379,-0.7204221420508131,1.440744279174634,-0.9177420514096202,-0.67035383157108,0.8855051358105548,11.475727031665883,-0.9821440753934944,0.2095016335028307,-0.8691342991989681
1.32,0.4953077493587084,-0.4769192194862569,1.9545042482409485,0.0759515775849823,0.0042159385884279,0.0520692198345522,-0.3004494565111824,0.8025283177233835,-0.639982479473878,0.49421316408747,-0.4907819594150552,1.9611592592441065,-0.4593630024057046,0.8859249537826837,-0.7076732345443472,1.4571060569385934,-0.9896273557147116,-0.7587175975129923,0.7537528541984806,11.330805089052774,-0.9926593452913332,0.2011775612018209,-0.860270848677449
1.34,0.4890616446595175,-0.4610559989270166,1.941867492610091,0.0827673201894313,-0.0026742940079593,0.0516320642416824,-0.3232964845782324,0.7849086747055932,-0.6244735760605805,0.4858259040512769,-0.4732930503232224,1.9467508164030904,-0.4993630030017512,0.8974044529737294,-0.6949243270378813,1.6378069152481982,-1.142351403352501,-0.8809821508895144,0.7754451706648735,11.240353766024782,-1.001530737658273,0.1937766752276472,-0.8538801667908662
1.36,0.4823287352570468,-0.4455567043709805,1.929537432513484,0.0875065244918026,-0.0070545321579868,0.0511997835441215,-0.3490246636350228,0.7662296008543328,-0.6092984189827643,0.4764386440001826,-0.4555171537516135,1.932661096249736,-0.5393630035977975,0.9088839521647752,-0.6821754195314154,1.7614854454802538,-1.286408952839521,-0.933953692563022,0.7587578538908124,11.244859969521713,-1.0080282030963807,0.1882301530694329,-0.8496567476021938
1.38,0.4754350346826637,-0.4311875033607794,1.918103029765991,0.0902258746035944,-0.0080003439046093,0.0509187543595271,-0.3749422272519378,0.7477459884989877,-0.5950023725809336,0.4660513839341871,-0.4374542697002285,1.9188900987840427,-0.579363004193844,0.920363451355821,-0.6694265120249495,1.7448072760786495,-1.2958781808457498,-0.9241806177672562,0.7148023200915343,11.262872872975096,-1.012518188240643,0.1825799920466395,-0.8493464577982157
1.4,0.4676602849810259,-0.416444263083755,1.9063623197928747,0.09137456768883,-0.0059592474048433,0.0507648031454423,-0.4008503749291162,0.7277777736714849,-0.5797693287739771,0.4566879233200668,-0.39380020393583,1.888352911136944,-0.4017064412907867,0.7432703972603996,-0.5608863540174246,1.8041669428606384,-1.2954073838589208,-0.9984107413751386,0.7616521903478224,11.26405206518848,-1.0141997592922851,0.1781064252641432,-0.8522826236788815
1.42,0.4593056990611525,-0.4019927665542878,1.894938814727024,0.0942521897040623,0.0008099400929668,0.0511632879327451,-0.4325469047737026,0.7170693004453456,-0.5633298065485561,0.4566879233200668,-0.39380020393583,1.888352911136944,-0.4017064412907867,0.7432703972603996,-0.5608863540174246,1.863866474578992,-1.5848264922293187,-0.5354236613069663,0.82197611127105,11.263625898044666,-1.0118662084766306,0.1747714513026038,-0.8569895475133894
1.44,0.4503861770173075,-0.387833155687494,1.8838318078910077,0.0992698618692923,0.0127698667359579,0.052231357627674,-0.4569824191952746,0.6993231732473252,-0.5481457550379147,0.4566879233200668,-0.39380020393583,1.888352911136944,-0.4017064412907867,0.7432703972603996,-0.5608863540174246,1.690099712925973,-1.2217757210785996,-0.8873063599010189,0.7592025755320697,11.383806287045443,-1.006032028774222,0.1687433991115116,-0.8676628934925651
1.46,0.4415232959999894,-0.3747447863658841,1.873551477422136,0.1034879091354639,0.0263684397152102,0.0534762237622448,-0.4742061368158383,0.6795953278039198,-0.5346980729364583,0.4526708589071589,-0.386367499963226,1.8827440475967696,-0.4070592840985564,0.742375279012682,-0.5540631503047228,1.4719752786762723,-0.8611858810281842,-0.9863922721702668,0.6723841050728208,11.14851711916981,-0.9979788275807818,0.1646553097632168,-0.8785386275264021
1.48,0.4318943455329748,-0.3613838356447047,1.863001036312528,0.1066710627515861,0.0415304306282311,0.0548285975337247,-0.4872595165879178,0.6578369081283912,-0.5210472351894171,0.4446367300813432,-0.371502092018018,1.8715263205164208,-0.417764969714096,0.7405850425172467,-0.5404167428793192,1.440629134654901,-0.6526689886039772,-1.0879209837764303,0.6825418873520617,11.14851711916981,-0.9885025329163768,0.1615730350447317,-0.8905436532073314
1.5,0.4220519985897545,-0.3484652070714228,1.85271754262562,0.1083325085349359,0.0567219107962065,0.0561008230045303,-0.4958709553657912,0.6353907834085772,-0.5079939772689006,0.4366026012555275,-0.3566366840728101,1.8603085934360728,-0.4284706553296356,0.7387948060218115,-0.5267703354539156,1.3678202870827303,-0.4305719388936702,-1.1223062359907,0.6526628960258241,11.080091238946808,-0.9782375221490772,0.1595169564319746,-0.9030005046874742
1.52,0.4120795073072493,-0.3360045344342428,1.8426905118734955,0.1080334122998161,0.0714937642227594,0.0571864420679102,-0.5003982160892525,0.6133010664865365,-0.495979809207897,0.4280331881489348,-0.3418607879523738,1.8497731867269944,-0.4391763409451751,0.7370045695263763,-0.513123928028512,1.2774896453123676,-0.2263630361730634,-1.104485846102038,0.6007084030501791,11.080091238946808,-0.9667850897865602,0.1586177905292596,-0.9164129917653624
1.54,0.4025529582564772,-0.3245978695736782,1.8333992799517904,0.1055497027892025,0.0849327458249914,0.0579667550125071,-0.5017017783013117,0.5901168797250325,-0.4832909947890958,0.419463775042342,-0.3270848918319375,1.8392377800179165,-0.4498820265607147,0.735214333030941,-0.4994775206031084,1.3230757740845611,-0.0651781106029592,-1.159209338075201,0.6344407209400604,11.074899353177898,-0.9549831561089942,0.1595606433883276,-0.9295552056480836
1.56,0.3925332227754239,-0.3130176826162119,1.8238695903852444,0.1010077981186829,0.0983501605364279,0.0585125403848379,-0.4998847495343084,0.5696605061758374,-0.4702702248742933,0.4106267197953608,-0.3123537516238872,1.829043533494473,-0.4605877121762542,0.7334240965355058,-0.4858311131777048,1.2158384570930365,0.0908514383501618,-1.0228186774597523,0.651038495740125,11.09413900929576,-0.9442566887896692,0.1631121879558098,-0.9400746050748968
1.58,0.3825801940443952,-0.3018158733767494,1.814604233684734,0.09564382290332,0.110977100336743,0.058841533985268,-0.4951987377775387,0.5518763841748503,-0.4569081705418448,0.4015220224079912,-0.2976673673282228,1.819190447156665,-0.4712933977917938,0.7316338600400705,-0.4721847057523012,1.1366378023736086,0.2343005878384846,-0.8892061000493556,0.6681027166224235,11.113148040294618,-0.9333988205486676,0.1674623844383744,-0.9501476038660618
1.6,0.3727494410022681,-0.2909473401742285,1.805609021090685,0.0900271800820268,0.122813265041953,0.0589967314528484,-0.4878226226668135,0.5361406574564475,-0.4433012703778996,0.3578202571555182,-0.2742220541680069,1.7917588251576415,-0.4528054855240063,0.5302408946365383,-0.4216021862235884,1.103594016786176,0.3688057555362611,-0.7867863359201421,0.6803450081972612,11.136770328436796,-0.9231152005020318,0.1719128031963984,-0.9592324514816546
1.62,0.3635582373206785,-0.2807847038961707,1.7972763482024314,0.0882121855242431,0.1333503035517712,0.0592682631010107,-0.4797041566149863,0.5325544983581562,-0.4347220711690274,0.3578202571555182,-0.2742220541680069,1.7917588251576415,-0.4528054855240063,0.5302408946365383,-0.4216021862235884,0.6171966606731644,0.4059233025913628,-0.1793079549145648,0.4289599604436089,10.835170379431474,-0.9109695481047936,0.1742276951220525,-0.9692195869691074
1.64,0.3540774145727991,-0.2702201591210945,1.7886727138391394,0.0907273810186258,0.1437387539609863,0.0597928943170562,-0.4685111821827014,0.5236807261825517,-0.4261209480607528,0.3578202571555182,-0.2742220541680069,1.7917588251576415,-0.4528054855240063,0.5302408946365383,-0.4216021862235884,0.833675338471174,0.5596487216142421,-0.4436886087802238,0.4300561554137327,10.835170379431474,-0.8992481822887499,0.1711579875191581,-0.9807043341428971
1.66,0.3448481736332358,-0.2598836610749373,1.7802429377423068,0.0951382590160547,0.1534367943838747,0.0604076499205981,-0.4547045713693113,0.5100709012687824,-0.4173245863904885,0.3532922023002782,-0.2689196452216416,1.787542803295406,-0.4443268350732998,0.525913796728876,-0.4145409893599372,1.064455042463008,0.6903305406695037,-0.6804912456884638,0.4398180835132159,10.876334053583378,-0.8875331028462172,0.1659571564449607,-0.9925341609989288
1.68,0.3359205104577965,-0.2498551959205262,1.7719919018180943,0.0994562782474968,0.1624852636532831,0.0609778418051002,-0.438519111403509,0.493495638452663,-0.4082257178349598,0.344236092589798,-0.2583148273289107,1.779110759570934,-0.4273695341718869,0.5172596009135512,-0.4004185956326346,1.244485697706897,0.809272998290117,-0.8287631408059715,0.4549434277764302,10.936263281552783,-0.8766204088640543,0.160919715943871,-1.0033864407460698
1.7,0.3277602939507978,-0.240652518636963,1.7643276413830844,0.1027564531357525,0.17051624097678,0.0614213972550662,-0.4210858078231552,0.4762678558902016,-0.3990191910831739,0.3351799828793179,-0.24771000943618,1.7706787158464623,-0.4104122332704739,0.5086054050982264,-0.3862962019053321,1.3090804984564297,0.8716651790176888,-0.861389128123069,0.4603263375892952,10.99682077102807,-0.8651940642431357,0.156289903906877,-1.0143614536019594
1.72,0.3195494309652522,-0.2313257058421853,1.7564559063436989,0.1052507665392961,0.1784109755542892,0.0617669249972064,-0.4007124747717238,0.4574978769402955,-0.3886164955968883,0.3269717382139084,-0.2375379013342154,1.7629527918083556,-0.393454932369061,0.4999512092829016,-0.3721738081780295,1.479527697260896,1.0186666525715704,-0.9384989474953032,0.520134774314282,11.06557560620422,-0.8538451440497047,0.1525228184118309,-1.0248733103962362
1.74,0.3117751240680552,-0.222381175760948,1.74879689442533,0.106653612739212,0.1854899937701564,0.0619450129546384,-0.3775895821659141,0.4380337432682374,-0.3778018494216421,0.318763493548499,-0.2273657932322509,1.755226867770249,-0.376497631467648,0.4912970134675768,-0.3580514144507269,1.6050523620425332,1.156144630290487,-0.9732066836029064,0.5407323087623123,11.143235120114696,-0.8435841986765373,0.1497930807497907,-1.0341495381886772
1.76,0.3044980855012433,-0.2138362593273314,1.7413588698148936,0.1065462811488968,0.1910105887242363,0.0618356989148589,-0.3513653779478348,0.4176948489897746,-0.3665463133456183,0.3109791814056248,-0.2174100400256695,1.747854003575325,-0.359540330566235,0.482642817652252,-0.3439290207234244,1.752189059220412,1.3112102109039625,-1.0169447139231402,0.5627768038011877,11.262074876295628,-0.8341407894010471,0.1483122892337246,-1.0423967545219326
1.78,0.298091872106993,-0.2060999629385673,1.7345078999531272,0.1046425148902581,0.1942263038299516,0.061368513530812,-0.3244816625597624,0.3979412131771419,-0.3551504416936202,0.303618801785286,-0.2076706417144712,1.7408341992235834,-0.342583029664822,0.4739886218369272,-0.3298066269961219,1.7626728082615193,1.344185769403619,-0.9876817906316364,0.5697935825999062,11.262074876295628,-0.8266212489410212,0.1487340199318728,-1.048632398622913
1.8,0.2919112267112532,-0.1983495426438974,1.7275422606819235,0.1007660739022448,0.195185297504298,0.0604718625305644,-0.2951142595658707,0.3787545023487799,-0.3418915612400746,0.2818677889790049,-0.1862029022797102,1.716750377868446,-0.3110356174516229,0.3878196674227688,-0.3173108092122836,1.8750814261640976,1.468370149694587,-0.9593355414180964,0.6629440226772781,11.33667216510912,-0.822247893777395,0.1515185658519742,-1.0515910760605378
1.82,0.2863672554899379,-0.1909674311215012,1.720756392089074,0.0951988367589338,0.1914205815434353,0.0589807015993751,-0.261138525792307,0.3611311509125098,-0.3376961248477235,0.2818677889790049,-0.1862029022797102,1.716750377868446,-0.3110356174516229,0.3878196674227688,-0.3173108092122836,1.9251848533456608,1.6987866886781833,-0.8811675718135042,0.2097718196175546,11.421834212676004,-0.8223484541783965,0.1560006030969525,-1.0504305941693266
1.84,0.2814733911749295,-0.1839001831943209,1.7140740891402757,0.0886322304378854,0.1814159099936218,0.0568686284706819,-0.2309541974607555,0.3467215846706152,-0.3305434209623624,0.2818677889790049,-0.1862029022797102,1.716750377868446,-0.3110356174516229,0.3878196674227688,-0.3173108092122836,1.710183066939117,1.5092164165775772,-0.72047831209473,0.357635194268055,10.843792717327233,-0.8247083019138423,0.1606387469558847,-1.0480837049626504
1.86,0.2773289736293822,-0.1774339162742998,1.7078969729924027,0.0824879316523923,0.1682936584545175,0.0546292258804189,-0.2075008068889628,0.3347219327542594,-0.3199461170956377,0.2787574328044886,-0.1823247056054825,1.7135772697763232,-0.308346408429995,0.3857953582718942,-0.3097428827160163,1.4198204328985171,1.1726695285896316,-0.5999825958177912,0.5298651933362375,11.019980085675344,-0.834134852988985,0.1660647856975154,-1.039381839640472
1.88,0.2733866597559106,-0.1708609969369008,1.701644566697478,0.0765063290148566,0.1525976995780624,0.052255607611959,-0.1886021781696376,0.3232433076117353,-0.3056668043607201,0.2725367204554562,-0.1745683122570272,1.7072310535920776,-0.3029679903867392,0.3817467399701449,-0.2946070297234816,1.3160696930777194,0.9449314359662648,-0.5739312571262034,0.7139656367458808,11.34250534290186,-0.8484450402524429,0.1720054366162119,-1.0255744281786534
1.9,0.269936212706666,-0.1648205559738617,1.6959942541256532,0.0713948177567203,0.1373525744756034,0.0501146250623807,-0.1759698751103765,0.3131715155422838,-0.2897715814360829,0.2663160081064237,-0.1668119189085718,1.7008848374078318,-0.2975895723434834,0.3776981216683957,-0.279471176730947,1.1332190740267252,0.6316151529630526,-0.503589603472579,0.7947611462318593,11.34250534290186,-0.8632271792893432,0.1776223769567194,-1.010395210823333
1.92,0.2666766306170277,-0.1589641622544533,1.6906621317436787,0.0668342348583652,0.1228734767046003,0.0481544047052904,-0.1681060079002362,0.30382275548869,-0.2723034946694886,0.2603642166595541,-0.1592579564752039,1.6952954138732128,-0.2922111543002276,0.3736495033666465,-0.2643353237384124,1.0658022533796516,0.3931933605070145,-0.4674380026796904,0.8734043383297141,11.444667176352596,-0.880106465116096,0.183519438896714,-0.9924599713215636
1.94,0.2633601897487125,-0.1529839994118061,1.685415435220165,0.0625773179850081,0.1092566303570852,0.0463171496401639,-0.1642430225738574,0.2947162676927078,-0.2532372409967647,0.2544124252126844,-0.151703994041836,1.689705990338594,-0.2868327362569718,0.3696008850648972,-0.2491994707458777,1.0739795211302288,0.1931492663189413,-0.4553243897991083,0.9533126836361928,11.534697302398854,-0.8966791890725165,0.1895794498345352,-0.973469306163428
1.96,0.2600785999708542,-0.1471786037339376,1.6805524011778252,0.0588127598953473,0.097898458817663,0.0447213522030637,-0.1641814839456531,0.2863010427898775,-0.2339857997608555,0.2485950942168961,-0.1442512470660118,1.6844949631287884,-0.281454318213716,0.365552266763148,-0.234063617753343,1.0505210455146072,0.0030769314102133,-0.4207612451415154,0.9625720617954594,11.534697302398854,-0.9111488576207816,0.1952694394519847,-0.9557035887310582
1.98,0.2569335645192854,-0.1418128295358348,1.6762892012054411,0.0556244914516928,0.0894832819287072,0.0434196346231864,-0.1668940655574067,0.278953603573315,-0.2157081984825402,0.2429122236721893,-0.1368997155477314,1.6796623322437962,-0.2760759001704602,0.3615036484613988,-0.2189277647608084,0.9942505601338368,-0.1356290805876792,-0.3673719608281223,0.9138800639157688,11.523235885927534,-0.924144080608012,0.2006609724255997,-0.9390033927465686
2.0,0.2535424026927478,-0.1363089267372162,1.6721770830684792,0.0526384214208404,0.0834224515514299,0.0422679189859329,-0.1722314860688878,0.2718501804633068,-0.1964513198289819,0.248588861241415,-0.127865149357169,1.6655037912813144,-0.1921325254872306,0.2683631573917197,-0.1979674068190127,1.0603938573403335,-0.266871025574053,-0.3551711555004111,0.962843932677912,11.507077027325067,-0.934236999128532,0.2055844162402629,-0.925021069990386
2.02,0.2500432725074121,-0.1309060461114932,1.6683577323891603,0.0509276989804183,0.0797867709681164,0.0413593866580229,-0.1773799874698236,0.2684734835760956,-0.1869599808835372,0.248588861241415,-0.127865149357169,1.6655037912813144,-0.1921325254872306,0.2683631573917197,-0.1979674068190127,0.5656736327619838,-0.2574250700467906,-0.1688348443605603,0.4745669472722369,11.503467481132247,-0.9399182284757228,0.2096866489926044,-0.9150177143659116
2.04,0.2464346267686136,-0.125578942351875,1.664707946928645,0.0508127789279064,0.0776992059680823,0.0406543722893332,-0.1831690237977728,0.2642556054165222,-0.178431992868058,0.248588861241415,-0.127865149357169,1.6655037912813144,-0.1921325254872306,0.2683631573917197,-0.1979674068190127,0.5568438231844703,-0.2894518163974596,-0.2108939079786709,0.4263994007739607,10.795023019274597,-0.9445091229488298,0.2099225981311069,-0.909724601973976
2.06,0.2428997692668109,-0.1206027764223423,1.6614015767180306,0.0517120888064627,0.0770396568097267,0.0401296011986493,-0.188511010703134,0.2596956648177713,-0.170025510213812,0.2466675359865427,-0.1251815177832518,1.6635241172131243,-0.1971802174731954,0.2662450681554006,-0.1944192484863072,0.5477198941460076,-0.2670993452680598,-0.2279970299375461,0.4203241327122978,10.80056475389756,-0.948318717923482,0.2091072743794153,-0.9056593695532767
2.08,0.2390754879705071,-0.115465306666245,1.6580961839254171,0.0534742160185707,0.0773491538127979,0.03969261857021,-0.1935430088062801,0.2542300764780631,-0.1609411719256999,0.2428248854767981,-0.1198142546354174,1.659564769076744,-0.2072756014451249,0.2620088896827625,-0.1873229318208962,0.5867684018036405,-0.251599905157307,-0.2732794169854058,0.4542169144056057,10.812562603122387,-0.9511177209658084,0.2075842919208443,-0.9028304011101
2.1,0.23515749170288,-0.1104482361200104,1.654972717770641,0.0557564991548306,0.0783281003386487,0.0393350015894795,-0.1979202534519566,0.2475948710227616,-0.1518644078874422,0.2389822349670535,-0.114446991487583,1.655605420940364,-0.2173709854170545,0.2577727112101244,-0.1802266151554852,0.6032699800428818,-0.2188622322838229,-0.3317602727650789,0.4538382019128859,10.820354221036723,-0.9529074794487248,0.2054859626764027,-0.9013255504963634
2.12,0.2313610301252447,-0.1058208355023837,1.652172277387115,0.057809444303182,0.0796058945036421,0.0390143218481733,-0.201434314759693,0.23990450802416,-0.1433645756511704,0.2346348152587124,-0.1092915372633805,1.652000888637254,-0.227466369388984,0.2535365327374863,-0.1731302984900742,0.5994527879023394,-0.1757030653868202,-0.3845181499300798,0.4249916118135868,10.81575774301018,-0.9541130971154752,0.203558780255492,-0.900432443272059
2.14,0.2272990897488105,-0.1011150091667,1.649395116326535,0.0595126274774587,0.0810775935101731,0.0386609418238027,-0.2045298244078146,0.2311513482470068,-0.1348113552690267,0.2302873955503713,-0.104136083039178,1.6483963563341446,-0.2375617533609136,0.2493003542648481,-0.1660339818246632,0.6311845312020593,-0.1547754824060804,-0.4376579888576579,0.427661019107188,10.808621840175874,-0.954962107891252,0.201864202320255,-0.899887714082123
2.16,0.2231795661857575,-0.0965915102853757,1.6467839370731083,0.0605411523403201,0.0825375922661965,0.038269043666387,-0.2072340288457192,0.2216913415149464,-0.1267489076658409,0.225687591242732,-0.0990865332767915,1.64496923194767,-0.2476571373328431,0.24506417579221,-0.1589376651592522,0.6360179053429369,-0.1352102218952308,-0.4730003366030189,0.403122380159289,10.75532878550166,-0.9554381934025704,0.2005746002037069,-0.8997705545374037
2.18,0.2190097334151708,-0.0922643857047333,1.6443294792533971,0.0605681561379488,0.0839289943270328,0.037812597654194,-0.2095905013530368,0.2116419709275892,-0.1190878112792248,0.2208354023357944,-0.0941428879762209,1.641719515477831,-0.2577525213047726,0.2408279973195718,-0.1518413484938412,0.6427192422139065,-0.1178236253658787,-0.5024685293678623,0.3830548193308067,10.75532878550166,-0.9558100013951876,0.1999676647358765,-0.899752539660384
2.2,0.2150076640981421,-0.0883415930014801,1.6421374493788667,0.0594646418876014,0.0851498710548557,0.0373033323586447,-0.2115491016690578,0.2019365615333251,-0.1120239633022826,0.208530208347519,-0.0816822871583539,1.6383750886894362,-0.2160174438877815,0.2078117168496778,-0.1171302990514064,0.6081304032638433,-0.0979300158010523,-0.485270469713206,0.3531923988471082,10.73549042938339,-0.9562499418612416,0.2002595553390233,-0.8995262036846675
2.22,0.2107251110259356,-0.0844257107294106,1.6399446896577734,0.0564320867464513,0.0872904157286749,0.0366966271919902,-0.2164682127661353,0.1907689971205946,-0.1077349977310418,0.208530208347519,-0.0816822871583539,1.6383750886894362,-0.2160174438877815,0.2078117168496778,-0.1171302990514064,0.6467367597584857,-0.245955554853873,-0.5583782206365212,0.214448278562037,10.722979690647662,-0.953394562635208,0.2023264221565238,-0.90185917358431
2.24,0.2063566921407047,-0.0806945287687828,1.6378310409753871,0.0521060150379265,0.0908994905273464,0.0360877174152635,-0.2198957598419428,0.1831854719465885,-0.1038291194112096,0.208530208347519,-0.0816822871583539,1.6383750886894362,-0.2160174438877815,0.2078117168496778,-0.1171302990514064,0.4596569875216635,-0.1713773537903737,-0.3791762587003061,0.1952939159916109,10.516762936041232,-0.9522069097838892,0.2044024250293362,-0.9037619805753336
2.26,0.2019391885805667,-0.0770879038193366,1.6357937747694211,0.0477780916598209,0.0951913726496059,0.035514241151093,-0.2215126162224621,0.1778942901624594,-0.1001002183707633,0.2063700339086412,-0.0796041699898571,1.637203785698922,-0.2173028323947305,0.2070456660340955,-0.1167387966058427,0.3335998058953574,-0.0808428190259655,-0.2645590892064578,0.1864450520223173,10.499818042538209,-0.949759803780068,0.2069477554058597,-0.90652908254928
2.28,0.1977289798908825,-0.0737450505554612,1.633925151028384,0.0441081394934759,0.0993585792706231,0.0350038536155437,-0.2214886434153702,0.1741909328251542,-0.0967959381125183,0.2020496850308855,-0.0754479356528635,1.634861179717894,-0.2198736094086283,0.205513564402931,-0.1159557917147154,0.2481617329901998,0.001198640354591,-0.1851678668652601,0.1652140129122493,10.499818042538209,-0.9470671639455374,0.2096023316787296,-0.908998949477174
2.3000000000000003,0.1933121671024233,-0.0702931246457449,1.6320234962182407,0.0408356427479471,0.1034366656043774,0.0344957953831977,-0.2201040038484999,0.1711551021284197,-0.0935655721098628,0.1977293361531299,-0.07129170131587,1.632518573736866,-0.2224443864225262,0.2039814627717664,-0.115172786823588,0.2322108915430702,0.069231978343516,-0.1517915348367246,0.161518300132777,10.483897544479078,-0.9442360954942924,0.2120027189260061,-0.9113562317721524
2.32,0.18893534503768,-0.0668947586194145,1.6301835828882754,0.03817706732158,0.1069265362727343,0.0340116713486665,-0.2175995538718462,0.1687729822700717,-0.090608194156604,0.1932804484246794,-0.0672120720604347,1.630215118000394,-0.2250151634364242,0.2024493611406019,-0.1143897819324607,0.2274469666950805,0.1252224988326861,-0.1191059929173968,0.1478688976629366,10.4710312927391,-0.9416202472217164,0.2141008701952201,-0.9133014150927194
2.34,0.1846178213950947,-0.0635385743863315,1.6283990162906177,0.03610411530505,0.1096575819483562,0.0335480736036476,-0.2142930836471838,0.1668543605773608,-0.0880069531384096,0.1888315606962289,-0.0631324428049993,1.6279116622639225,-0.227585940450322,0.2009172595094373,-0.1136067770413333,0.2311942331734129,0.1653235112331189,-0.0959310846355462,0.1300620509097211,10.458371640638688,-0.9395154826548048,0.2157977274677102,-0.91462956853107
2.36,0.1803713120974573,-0.0602171769617559,1.6266634594456264,0.0345485911454927,0.111603899639874,0.0331036086140379,-0.2105569343955178,0.1653084812356503,-0.0856850908039752,0.1843184035424309,-0.0590911160903431,1.6256277816497289,-0.2301567174642199,0.1993851578782728,-0.112823772150206,0.2331287137501364,0.1868074625833021,-0.0772939670855232,0.1160931167217216,10.441489403283413,-0.937813011070312,0.2172882224624469,-0.9154228511494624
2.38,0.1764082860023842,-0.0570864297954117,1.62505569736269,0.0335878637164095,0.1127778845396408,0.0327061867450789,-0.2068314365505857,0.1642692305335445,-0.0836717301086102,0.1797409769632855,-0.055088091916466,1.6233634761578133,-0.2327274944781178,0.1978530562471082,-0.1120407672590786,0.2180194802309021,0.1862748922466017,-0.051962535105289,0.1006680347682482,10.428225773197482,-0.9367057401642463,0.2184206281785531,-0.9155800567747086
2.4,0.1723128529793025,-0.0538090093219324,1.6234032299569414,0.0332296509815942,0.1134075961081364,0.0323263581171255,-0.2029422688407973,0.1634922755796997,-0.0816874436347778,0.1660667141748549,-0.0488729682687344,1.6208721108572597,-0.188358481919734,0.1568803621643825,-0.0742376931980763,0.2217356381222897,0.1944583854894238,-0.038847747692243,0.0992143236916195,10.410432557032436,-0.9361255994706452,0.2190583404549822,-0.915251103434358
2.42,0.1682637739165015,-0.0505286573466062,1.6218329406998933,0.0342554650314216,0.1146502484373404,0.0320766917649974,-0.2018511747528197,0.1642606407591904,-0.0754459570783281,0.1660667141748549,-0.0488729682687344,1.6208721108572597,-0.188358481919734,0.1568803621643825,-0.0742376931980763,0.3191278184059464,0.0545547043988806,0.0384182589745374,0.3120743278224834,10.675642441879972,-0.9353531974402328,0.219256431198438,-0.9146157677910068
2.44,0.1644487073434869,-0.0474070609903846,1.6204558267820228,0.0367646814485844,0.1170450425706689,0.0320010873748417,-0.1996052113054417,0.1640411564545619,-0.0698457675688631,0.1660667141748549,-0.0488729682687344,1.6208721108572597,-0.188358481919734,0.1568803621643825,-0.0742376931980763,0.301888421891511,0.1122981723688992,-0.0109742152314254,0.2800094754732529,10.675642441879972,-0.9347960595541864,0.217831701750469,-0.9145567629225988
2.46,0.1604949791353717,-0.0441517593094691,1.6191152681298426,0.0401657888969042,0.1202360168447977,0.0320159216046266,-0.1957333910743749,0.1613225436153419,-0.064538642225907,0.1641831293556575,-0.0473041646470906,1.6201297339252787,-0.1846638909935636,0.15540258849055,-0.0723508858159695,0.355483568808449,0.1935910115533359,-0.1359306419610018,0.2653562671478052,10.635402484084809,-0.9329955715392064,0.2155145233655591,-0.9161559993014928
2.48,0.1566342577932855,-0.0409705049165139,1.617874662592889,0.0433947046011065,0.1236096158287653,0.0320446798315602,-0.1904255830727608,0.1569523697369713,-0.0598130242589933,0.1604159597172628,-0.044166557403803,1.6186449800613172,-0.1772747091412229,0.1524470411428852,-0.068577271051756,0.4171411951558146,0.2653904000807061,-0.2185086939185287,0.2362808983456827,10.60324090555332,-0.9307509452716188,0.2133899096772299,-0.9182100596874464
2.5,0.153077339562275,-0.0380391846907484,1.6167789774290566,0.0459559746899756,0.1266087324832863,0.0320438899375577,-0.1842176471677643,0.1519389252152293,-0.0557579647764567,0.1566487900788682,-0.0410289501605153,1.6171602261973557,-0.1698855272888823,0.1494914937952204,-0.0648036562875424,0.4475393881549431,0.3103967952498246,-0.2506722260871022,0.2027529741268324,10.556317689863135,-0.9282008715261104,0.2115630891678806,-0.9204440712161096
2.52,0.1494702021210936,-0.0350606646029449,1.6157063553445647,0.0480780517470932,0.1293065054673442,0.0319965311711882,-0.1767886711779897,0.1462532250518476,-0.0517260928215274,0.1532510795330905,-0.0380391202846109,1.615864153071605,-0.1624963454365416,0.1465359464475555,-0.0610300415233288,0.5093448293285002,0.3714487994887314,-0.2842850081690828,0.2015935977464654,10.556317689863135,-0.9258025745056164,0.2102676100986426,-0.922327347814915
2.54,0.1460196688487229,-0.0322001573520389,1.6147137984287072,0.0496126844040103,0.1313881274547328,0.0318912741649629,-0.1686326302901392,0.1401373928126523,-0.0477278576650118,0.1498533689873129,-0.0350492904087065,1.614568079945854,-0.1551071635842008,0.1435803990998907,-0.0572564267591153,0.5475177880879006,0.4078020443925245,-0.3057916119597673,0.1999117578257762,10.547769255579624,-0.9239067607392512,0.209531100448698,-0.92350695672181
2.56,0.1427386917320232,-0.0294680819382656,1.6138013849049824,0.0504198098439341,0.1327440666232734,0.0317103036666984,-0.1599329888833182,0.1334748144466872,-0.0437076806449711,0.1466403879878438,-0.0321333492164937,1.6133663471892086,-0.1477179817318601,0.1406248517522259,-0.0534828119949017,0.5835998936822292,0.4349820703410501,-0.3331289182982519,0.201008851002038,10.551720886966905,-0.9226905383571848,0.2094379411489174,-0.923868477983578
2.58,0.1397852761282806,-0.0269995350663396,1.6130096726024392,0.0503490919042442,0.1333407377372187,0.031454903229259,-0.1514581005121252,0.1268077742021747,-0.0398223809989503,0.1436121365346831,-0.0292912967079725,1.6122589548016684,-0.1403287998795195,0.1376693044045611,-0.0497091972306881,0.5730809538483649,0.4237444185596503,-0.3333520122256253,0.1942649823010366,10.556837062952582,-0.9220606211929956,0.2101711345806937,-0.9233266957371778
2.6,0.1368494920468173,-0.024537381918607,1.612257459694401,0.0492909832483522,0.1333060221628238,0.0310955755968246,-0.1426293129724721,0.1198450453266558,-0.0355866923141644,0.1322123711026744,-0.0206591463562309,1.6110185535524917,-0.1484437285489074,0.1063659626703926,-0.0435976162644437,0.6007664717857162,0.4414393769826552,-0.3481364437759475,0.2117844342392979,10.562887026047974,-0.9221527703275882,0.2118821520518741,-0.921740356285613
2.62,0.1341197946506404,-0.0221705554568579,1.6115533844363126,0.0484097823445959,0.1314597949673036,0.0306737488957523,-0.1307407545557335,0.116992573269675,-0.035240674809127,0.1322123711026744,-0.0206591463562309,1.6110185535524917,-0.1484437285489074,0.1063659626703926,-0.0435976162644437,0.6115434289113393,0.5944279208369319,-0.1426236028490367,0.0173008752518712,10.570688460165911,-0.9259077941530348,0.2138486857785465,-0.9163182566828396
2.64,0.1317460191078481,-0.019974929039239,1.6108842906679337,0.0486520021065817,0.1266492516807508,0.0302113099549848,-0.1201368834883431,0.1141045074876137,-0.0351595649454226,0.1322123711026744,-0.0206591463562309,1.6110185535524917,-0.1484437285489074,0.1063659626703926,-0.0435976162644437,0.5495215746113661,0.5301935533695179,-0.144403289103067,0.0040554931852197,10.308484303182013,-0.9285081351399076,0.2150253533859369,-0.9114528074771684
