t,x,y,z,roll,pitch,yaw,v_x,v_y,v_z,ref_x,ref_y,ref_z,ref_v_x,ref_v_y,ref_v_z,a_com,a_x,a_y,a_z,thrust,wind_x,wind_y,wind_z
0.0,0.8281999877105629,-1.4068525635929303,2.975397394525023,0.0236482953953525,0.0999990982146743,0.0428482994207609,0.0055706344075262,-0.0057469687836467,0.0200866343002787,0.8283711301390023,-1.4070792404163204,2.9760039099903355,-0.0943294439839432,0.0929185998215903,-0.0798162285597194,1.0811249874733018,0.2785317203763103,-0.2873484391823354,1.0043317150139368,10.236713932717976,-0.9454801514648394,0.2637320829378953,-0.8672403505202682
0.02,0.8284606526372615,-1.4071975564286971,2.975574429376795,0.0139641179124583,0.0947454841328404,0.0420830495412681,0.0198091334367838,-0.0243902579772359,-0.0033367378178812,0.8283711301390023,-1.4070792404163204,2.9760039099903355,-0.0943294439839432,0.0929185998215903,-0.0798162285597194,1.6575293722493762,0.7119249514628819,-0.9321644596794608,-1.171168605907998,10.236069276902526,-0.947249723791721,0.266816782754002,-0.8688181728089085
0.04,0.8289528250850754,-1.407684808550719,2.975255348136613,-0.0025766328458547,0.0800462989068231,0.0409076885790292,0.0272470127493571,-0.0226638596697952,-0.0272181074415417,0.8283711301390023,-1.4070792404163204,2.9760039099903355,-0.0943294439839432,0.0929185998215903,-0.0798162285597194,1.2536170815745893,0.3718939656286673,0.0863199153720351,-1.194068481183026,8.931460892320501,-0.95012613941068,0.2778246778044337,-0.8627731762240315
0.06,0.8294623734616511,-1.408043269521291,2.9745042144237046,-0.0186306428112653,0.0610341477858914,0.0401095184734319,0.0251819030867359,-0.014868718171858,-0.0506545020453365,0.8283711301390023,-1.4070792404163204,2.9760039099903355,-0.0943294439839432,0.0929185998215903,-0.0798162285597194,1.2392472522829086,-0.1032554831310638,0.3897570748968603,-1.171819730189739,8.931460892320501,-0.9587369128729578,0.2894659994011062,-0.8507332360201995
0.08,0.8298609872133551,-1.408225632341742,2.973225701001636,-0.03486375381745,0.0391671205301596,0.0397585743328938,0.0140711160698674,-0.0034644688902381,-0.0760232690819056,0.8274278356991629,-1.4061500544181045,2.9752057477047384,-0.1143294442819664,0.1129186001196135,-0.0998162288577426,1.497565383186369,-0.5555393508434223,0.5702124640809954,-1.2684383518284537,8.858811315320963,-0.9707359053677366,0.2994959036971649,-0.8366678986185239
0.1,0.8299500373501882,-1.4081519846876835,2.971435591274928,-0.0502987403568555,0.0182026687928131,0.0398418378000312,-0.004916444072244,0.0105585781306725,-0.1017710571343259,0.825541246819484,-1.404291682421673,2.973609423133544,-0.1543294448780129,0.15291860071566,-0.139816229453789,1.7465121510408477,-0.9493780071055746,0.7011523510455309,-1.2873894026210178,8.849199903177578,-0.9834114677598718,0.3074829520985851,-0.8233666816166337
0.12,0.8296225176469058,-1.4077856642764714,2.969254862726937,-0.0638258656232854,0.0008246850331299,0.0402055623891755,-0.0286482148418563,0.0272507890581306,-0.1265304482158003,0.8236546579398052,-1.4024333104252409,2.9720130985623494,-0.1943294454740593,0.1929186013117064,-0.1798162300498355,1.9071276151804653,-1.1865885384806163,0.8346105463729079,-1.237969554073718,8.88081159520425,-0.9963207389867942,0.3146582969043174,-0.810426507742647
0.14,0.8287492160343085,-1.4070291593960618,2.9664386070154416,-0.0764347106711374,-0.0139002882403185,0.0407451090052301,-0.0574860197115876,0.0474419438891618,-0.1538617143093399,0.819768069030324,-1.3985749383990067,2.9684167739613527,-0.2343294460701058,0.2329186019077529,-0.2198162306458819,2.2283961886249264,-1.4418902434865666,1.009557741551557,-1.3665633046769792,8.88081159520425,-1.0068321125107746,0.3200684727953872,-0.8016286371963042
0.16,0.8272683500902402,-1.405846255742609,2.963066559887002,-0.0871962023984469,-0.0246225448614789,0.0413006131064266,-0.0891077995911238,0.0696826521262809,-0.1819964257776794,0.8158814801208428,-1.3947165663727723,2.964820449360356,-0.2743294466661523,0.2729186025037994,-0.2598162312419284,2.3906840313209594,-1.581088993976808,1.1120354118559588,-1.4067355734169755,8.855488929807507,-1.0142912332272398,0.3237165023221489,-0.7980596523522691
0.18,0.8251229635164575,-1.4041926916755183,2.959127043246599,-0.0958132589646875,-0.0308266506825252,0.0417248188963562,-0.123734078748867,0.094051697123015,-0.2105364343002719,0.8109948911964604,-1.3898581943316373,2.960224124744458,-0.3143294472621987,0.3129186030998458,-0.2998162318379748,2.55311655082199,-1.7313139578871608,1.2184522498367052,-1.427000426129628,8.859875298726365,-1.0174198401627317,0.3261188887870944,-0.7999174940028864
0.2,0.8224270848810219,-1.4021606863052418,2.954854552852342,-0.1020192819018002,-0.0318793503828569,0.0418456511621322,-0.1576855403677947,0.1181921585986027,-0.237678780989217,0.8051083022571769,-1.383999822275601,2.954627800113659,-0.3543294478582451,0.3529186036958922,-0.3398162324340212,2.4860463642592934,-1.6975730809463858,1.2070230737793834,-1.3571173344472525,8.894909500565518,-1.0183406110744402,0.3263124906420938,-0.8071731541780947
0.22,0.8189167597154025,-1.3995242132843342,2.949802017967164,-0.1067918852853005,-0.0286744866775534,0.0416584046559829,-0.1910863408407563,0.1439327031342837,-0.2660752126624408,0.8145428078626321,-1.3962510783753117,2.9429706138028813,-0.2576855418579109,0.2181921600887189,-0.3376787824793331,2.5419217321743166,-1.670040023648077,1.287027226784048,-1.4198215836611905,8.916254479227973,-1.0163283956039455,0.3264546409753589,-0.8160332272096649
0.24,0.814729243625125,-1.3962509923436577,2.94432071452589,-0.1067663512702948,-0.0213681908045154,0.0413593513467047,-0.2254014454792122,0.1809858072409738,-0.2796288019877856,0.8145428078626321,-1.3962510783753117,2.9429706138028813,-0.2576855418579109,0.2181921600887189,-0.3376787824793331,2.614459176335279,-1.7157552319227969,1.852655205334507,-0.6776794662672392,8.916254479227973,-1.0179371024043151,0.3251508825579539,-0.8157847493733194
0.26,0.8101601128116201,-1.3925147817763888,2.938883731612972,-0.101717250445145,-0.0112055996981342,0.0411076702500394,-0.2532678144371898,0.2093600243035213,-0.29191442091783,0.8145428078626321,-1.3962510783753117,2.9429706138028813,-0.2576855418579109,0.2181921600887189,-0.3376787824793331,2.081205867585521,-1.393318447898878,1.4187108531273738,-0.6142809465022186,9.870733846179974,-1.0134504589735536,0.3203243358316323,-0.8245202928710511
0.28,0.8048310909219165,-1.388069123577353,2.93288650258091,-0.0951076890517604,0.0010477131537874,0.0408388627783401,-0.2776963277211577,0.2334745787005788,-0.3072717563227766,0.811965952444053,-1.3940691567744246,2.939593825978088,-0.2776855421559341,0.2381921603867421,-0.3576787827773564,1.880233858974511,-1.2214256641983972,1.2057277198528753,-0.767866770247333,9.488861136726882,-1.0058177653763314,0.3147045287199658,-0.8370947207915926
0.3,0.7990603507433216,-1.3831749832570062,2.9265520455378784,-0.0887184720491796,0.0135867358322684,0.0406033243433102,-0.2978039423338346,0.254687386987256,-0.325536581617978,0.8068122416068948,-1.38970531357265,2.932840250328501,-0.3176855427519806,0.2781921609827885,-0.3976787833734028,1.723298613040905,-1.0053807306338425,1.060640414333859,-0.9132412647600674,9.309349020910304,-0.9963772625612431,0.3094042608505043,-0.8512781418415203
0.32,0.7929280197409512,-1.3778776852124874,2.9198203204859565,-0.0830993167258425,0.0254469509516323,0.0404421083012194,-0.3142277243609118,0.2740941916926073,-0.3467377258325247,0.8016585307697366,-1.3853414703708755,2.9260866746789147,-0.357685543348027,0.318192161578835,-0.4376787839694492,1.6551836763261365,-0.8211891013538614,0.9703402352675666,-1.0600572107273387,9.156002042484031,-0.987035007849672,0.3049066881058083,-0.8646671633487119
0.34,0.7868269332553778,-1.3724974351255712,2.9130089465006965,-0.0785882953237789,0.0355187340607782,0.0403790857754399,-0.3270864336345034,0.2914133234671313,-0.3692204784287608,0.794504819902776,-1.378977627139299,2.9173330989995256,-0.3976855439440734,0.3581921621748814,-0.4776787845654957,1.5578614299012898,-0.6429354636795809,0.8659565887261994,-1.1241376298118029,9.156002042484031,-0.9772213686958516,0.3009093947462772,-0.8780677409040039
0.36,0.780164412874318,-1.3664874188311051,2.905360982715501,-0.0747274125203636,0.0445152564071606,0.0404115501396684,-0.3384001521860367,0.308785231713249,-0.3944949387839639,0.7873511090358155,-1.3726137839077224,2.9085795233201366,-0.43768554454012,0.3981921627709279,-0.5176787851615422,1.6344584499319423,-0.5656859275766618,0.8685954123058837,-1.2637230177601544,9.029224316819636,-0.9681184774665228,0.2974113195425656,-0.8905280951703629
0.38,0.7732891343734489,-1.3601263343856052,2.897194408872159,-0.0714244914433874,0.0518438277694463,0.0405514106129018,-0.3485094571192639,0.326400827301365,-0.4209546923012799,0.7791973981539538,-1.3652499406612444,2.8988259476258462,-0.4776855451361664,0.4381921633669743,-0.5576787857575886,1.667802304197158,-0.5054652466613602,0.8807797794057992,-1.3229876758658,8.904864681408071,-0.9597654843928036,0.2942369316131498,-0.902004992031808
0.4,0.7662214744070532,-1.3534153722486082,2.8884880278363743,-0.0682878687988584,0.0577285697473043,0.0407959525024082,-0.3577374620973605,0.3437091514998523,-0.4483742086537897,0.770043687257191,-1.356886097399865,2.888072371916655,-0.5176855457322128,0.4781921639630208,-0.597678786353635,1.6856482725062112,-0.4614002489048335,0.8654162099243662,-1.3709758176254887,8.904864681408071,-0.9526909205253282,0.291222600517989,-0.9119539636271896
0.42,0.7593421950008769,-1.3467240294318688,2.8797012774207453,-0.0653521721454735,0.0622109408588741,0.0411079779966527,-0.3659253933307356,0.3596713389145884,-0.4751862882522429,0.7483346013021852,-1.3362299146736156,2.8660693174036846,-0.4032345181941528,0.4437091529899684,-0.5483742101439057,1.6130105837683086,-0.4093965616687511,0.7981093707368048,-1.3406039799226637,8.867625067989138,-0.9460536506812972,0.2879675565211158,-0.9215834667624184
0.44,0.7518652287154821,-1.3393502742011851,2.8700973977171897,-0.0623147525466405,0.0686933308645491,0.0413265802931149,-0.3808472802714505,0.376857410099488,-0.4826882094099104,0.7483346013021852,-1.3362299146736156,2.8660693174036846,-0.4032345181941528,0.4437091529899684,-0.5483742101439057,1.1982305430297784,-0.7460943470357473,0.859303559244981,-0.3750960578833728,8.834121816779316,-0.9424951334856212,0.284347458013349,-0.9279699417232654
0.46,0.7441316081129069,-1.331651770381256,2.860350667385227,-0.0598226394376245,0.078730798977163,0.0412996078669654,-0.3911836261265304,0.392303373142025,-0.4919492198376742,0.7483346013021852,-1.3362299146736156,2.8660693174036846,-0.4032345181941528,0.4437091529899684,-0.5483742101439057,1.0382486865996945,-0.5168172927539932,0.7722981521268518,-0.4630505213881891,9.820202615994276,-0.9347427815615436,0.2829086539110713,-0.9355702681542892
0.48,0.7362361116289463,-1.3236453664748768,2.85036354716596,-0.0580275866558094,0.0903793982630816,0.0411426542659111,-0.397402895938297,0.407687037145164,-0.5062995700488677,0.7443022561202437,-1.331792823143716,2.8605855753022458,-0.4123339294135112,0.4637091532879916,-0.5683742104419289,1.0968921851496238,-0.3109634905883313,0.7691832001569476,-0.7175175105596759,9.554364489016734,-0.9233707871340684,0.2817115264508238,-0.9472898491621704
0.5,0.7286526239411849,-1.3157565778390716,2.840571492903761,-0.0567730731729002,0.1019496380286541,0.040943492533228,-0.400219801453268,0.421989187178843,-0.5237448449528237,0.7362375657563606,-1.3229186400839166,2.849618091099368,-0.4305327518522281,0.503709153884038,-0.6083742110379754,1.1366882474327926,-0.1408452757485495,0.7151075016839481,-0.8722637451977988,9.351575508188944,-0.9092808281726898,0.280451000761036,-0.9619713994273802
0.52,0.7206414909417309,-1.3071645171923427,2.8298727084329585,-0.0560161111959757,0.114088709133118,0.0407028839352301,-0.4004277305503179,0.4364955576647448,-0.5453887645601018,0.7281728753924775,-1.3140444570241172,2.8386506068964894,-0.448731574290945,0.5437091544800845,-0.6483742116340219,1.3028212417192553,-0.0103964548524931,0.7253185242950932,-1.0821959803639036,9.187551097642428,-0.8942593306794674,0.2795668196902482,-0.9772020014964132
0.54,0.71266142098429,-1.2982850984640255,2.818711310508065,-0.0559704554183479,0.125587259050361,0.0404473698442132,-0.3973316922880814,0.4507638459395306,-0.56980965800756,0.7191982439066587,-1.3031702739345157,2.825683122663809,-0.4669303967296619,0.583709155076131,-0.6883742122300683,1.4226292032586438,0.1548019131118211,0.7134144137392884,-1.2210446723729118,9.187551097642428,-0.8796118918506982,0.2792764651823086,-0.9915437180350984
0.56,0.7047761738751411,-1.2891205041436014,2.8070448924513496,-0.056703443629103,0.1357163395614064,0.040205464781361,-0.3912717540393229,0.4650590392215203,-0.5956477640599206,0.7102236124208398,-1.2922960908449137,2.8127156384311283,-0.4851292191683788,0.6237091556721774,-0.7283742128261148,1.5072185698508056,0.3029969124379278,0.7147596640994847,-1.2919053026180294,9.06502959196223,-0.8669115757110727,0.2796516349778555,-1.003580862355161
0.58,0.6974178827999917,-1.280136623964114,2.7954757722643038,-0.057794196797815,0.1437256430708446,0.0400272637247899,-0.3835792492347079,0.4798328101324047,-0.6208889183758409,0.7007940103740529,-1.2804219077404109,2.7987481541835466,-0.5033280416070957,0.6637091562682238,-0.7683742134221612,1.5120803618660803,0.3846252402307515,0.7386885455442194,-1.2620577157960169,9.023382404067888,-0.8551534282643741,0.2806300323732404,-1.0142190501341573
0.6,0.6898444175917379,-1.2703680909918544,2.782771811163634,-0.0588730153368378,0.1503716434574454,0.0399360373348752,-0.3741500375982979,0.4962047094273104,-0.6482264853478965,0.6909094377662982,-1.267547724621007,2.783780669921064,-0.5215268640458126,0.7037091568642703,-0.8083742140182076,1.661544226433926,0.4714605818204959,0.8185949647452839,-1.3668783486027791,9.009848754176346,-0.8447402930617419,0.281641939423381,-1.0234711525322884
0.62,0.682470582478956,-1.2602615290879071,2.769516016937963,-0.0594293097454251,0.1552156805856686,0.0399793394399702,-0.3637275597659845,0.5135500354369608,-0.6760029060093885,0.671136915711823,-1.245557855520489,2.750360486896239,-0.3868961155605177,0.5962047109174264,-0.7482264868380126,1.718297066364166,0.5211238916156741,0.8672663004825193,-1.3888210330745998,8.98807773050612,-0.8365297590050292,0.2823185619097038,-1.03063090069939
0.64,0.6752851347075053,-1.249751976994855,2.755931709097178,-0.0578401652551352,0.1603128151761999,0.0401548875401972,-0.3547922596077298,0.535895194202014,-0.6810205229328864,0.671136915711823,-1.245557855520489,2.750360486896239,-0.3868961155605177,0.5962047109174264,-0.7482264868380126,1.2291482709019632,0.4467650079127305,1.1172579382526635,-0.2508808461748946,8.984598894646297,-0.8267746751454326,0.2789867339664688,-1.0427633914235237
0.66,0.6686470105308713,-1.2393850642655346,2.74291599599491,-0.0542335004003641,0.1665499840831414,0.0403961985352396,-0.3441041575810004,0.5537434883891906,-0.6888622801728511,0.671136915711823,-1.245557855520489,2.750360486896239,-0.3868961155605177,0.5962047109174264,-0.7482264868380126,1.1116320062596252,0.5344051013364742,0.8924147093588297,-0.392087861998236,10.035344746966077,-0.819358316929695,0.2774122737302807,-1.0468650610560957
0.68,0.6618990029267611,-1.2281399203093055,2.729010565705837,-0.0499253372717168,0.1737365844576375,0.0406714177451533,-0.3310263477530843,0.5696868238451107,-0.7014850010727801,0.6672679545562178,-1.2395958084113146,2.742878222027859,-0.3894453311529616,0.6162047112154496,-0.7682264871360358,1.2088756535233878,0.6538904913958005,0.7971667727960041,-0.6311360449964498,10.035344746966077,-0.8102677939235091,0.2747853086096288,-1.0531792851207051
0.7000000000000001,0.6554377429354518,-1.2165930987486144,2.714807293211174,-0.0457319802090401,0.1807704376025714,0.0409672936962076,-0.3156257713031277,0.5841423560437908,-0.718215549702285,0.6595300322450075,-1.227671714192966,2.7279136922910987,-0.3945437623378495,0.6562047118114961,-0.8082264877320823,1.3472670703894092,0.7700288224978341,0.722776609934006,-0.8365274314752424,9.78514385676226,-0.802597196383041,0.272311374383981,-1.0582925629567366
0.72,0.6493056322063844,-1.204768534471996,2.7002367401087284,-0.0418543218651975,0.1868667744827757,0.0413010860077624,-0.2983398887027084,0.5975762937728512,-0.738015803632524,0.6517921099337971,-1.2157476199746176,2.7129491625543385,-0.3996421935227374,0.6962047124075426,-0.8482264883281287,1.4759085980216504,0.864294130020965,0.671696886453016,-0.9900126965119492,9.438817332740657,-0.7949523908492275,0.2699373467435922,-1.0633278684105585
0.74,0.6438135167089692,-1.19329431052069,2.6860051609164084,-0.0385298838210962,0.1913452504907753,0.0416576194175375,-0.2807046217285019,0.6095775464479455,-0.7590591632179992,0.6437992660633424,-1.201823525726467,2.695984632787776,-0.4047406247076253,0.736204713003589,-0.8882264889241752,1.4982120090850009,0.881763348710321,0.6000626337547166,-1.0521679792737604,9.438817332740657,-0.7880973110621177,0.2676610373321362,-1.06806739247508
0.76,0.6384024800119278,-1.180977639321575,2.670581416577859,-0.0354724340099353,0.1944856004768043,0.0420652881888517,-0.2613907674295363,0.6214816789921851,-0.7822478392085321,0.6358064221928876,-1.1878994314783158,2.6790201030212133,-0.4098390558925132,0.7762047135996355,-0.9282264895202216,1.6220727740351382,0.9656927149482823,0.5952066272119805,-1.159433799526649,9.32719958931466,-0.782712009144579,0.2654427844678022,-1.0721221772284182
0.78,0.6333846688043215,-1.168418988941361,2.6546885435612104,-0.0325960584035221,0.1959055225066902,0.0425172850966187,-0.241517103920495,0.6336370112276358,-0.8058611248024355,0.6276861175428107,-1.1729753372152638,2.6610555732397496,-0.414937487077401,0.8162047141956819,-0.968226490116268,1.6585399147774786,0.993683175452066,0.6077666117725367,-1.1806642796951703,9.28215420889319,-0.7792547604834156,0.2634202731712268,-1.0748059176315867
0.8,0.628989507891894,-1.1562653717136466,2.639150175845275,-0.0297632019490288,0.1955762556278948,0.0429989026718135,-0.2222184429707319,0.6449162747098864,-0.8285601218500724,0.6194383521131115,-1.1570512429373103,2.6420910434433846,-0.4200359182622889,0.8562047147917283,-1.0082264907123144,1.592878342909911,0.964933047488152,0.5639631741125306,-1.1349498523818446,9.270645243652323,-0.7776845907342645,0.2611711044364009,-1.076141310819466
0.8200000000000001,0.6247614309814503,-1.1432474779744817,2.622323196982626,-0.0266612233217921,0.1931840978724382,0.0435578414212675,-0.2016823023732386,0.6561424074317049,-0.8529482024516758,0.6178785857433574,-1.1240195579781522,2.5977221697527715,-0.2846981773915083,0.7449162762000026,-0.9285601233401886,1.6900721892556847,1.0268070298746683,0.5613066360909247,-1.2194040300801678,9.2582256749738,-0.7784342909474559,0.2588255163465687,-1.0757710770792883
0.84,0.6210335914342511,-1.130000195281099,2.6052195937470484,-0.0233766792891019,0.1868162612991109,0.0442050752507779,-0.1725258343294823,0.6678470897980162,-0.8549573826091466,0.6178785857433574,-1.1240195579781522,2.5977221697527715,-0.2846981773915083,0.7449162762000026,-0.9285601233401886,1.5741156429786174,1.4578234021878147,0.585234118315564,-0.1004590078735379,9.2279427452213,-0.7771451206042785,0.2520135743408549,-1.0834843492653792
0.86,0.6178619040465115,-1.116544435636655,2.5880799295117645,-0.0204318230946141,0.1753966791116064,0.0449006195612001,-0.1470735683313734,0.6772818010650455,-0.8589049521701284,0.6178785857433574,-1.1240195579781522,2.5977221697527715,-0.2846981773915083,0.7449162762000026,-0.9285601233401886,1.3715091382939189,1.2726132999054451,0.4717355633514664,-0.1973784780490928,10.644754675741751,-0.7877012822498008,0.2526423710761035,-1.07211194689043
0.88,0.6152656598737553,-1.1035920686625813,2.5716863207700293,-0.0181956797308367,0.1611267986480873,0.045543419705169,-0.1282220819930484,0.6857042314821814,-0.8664240357109121,0.6150316039694423,-1.1165703952161523,2.588436568519369,-0.2971941242756636,0.7649162764980257,-0.9485601236382116,1.0986952359376447,0.9425743169162462,0.4211215208567931,-0.3759541770391839,10.321089291450336,-0.8027672886062195,0.2534806718452623,-1.0573665602687763
0.9,0.6128587636095291,-1.0897924495399516,2.554244959571184,-0.0163751547434875,0.1437741726179905,0.0461754801664664,-0.1141879793451792,0.6938440839321307,-0.877391965028787,0.6093376404216121,-1.1016720696921525,2.569865366052566,-0.3221860180439741,0.8049162770940722,-0.9885601242342582,0.979168918726202,0.7017051323934604,0.4069926224974651,-0.5483964658937468,10.04506147632037,-0.8203797177720294,0.2541703464659712,-1.0410432325777117
0.92,0.6106717812890625,-1.075837604349973,2.536556780022389,-0.0151637749905013,0.125129501478056,0.0467433449201993,-0.1058603426047262,0.7012345580400068,-0.8909309476332459,0.603643676873782,-1.0867737441681522,2.551294163585762,-0.3471779118122847,0.8449162776901187,-1.028560124830305,0.8764597697327129,0.4163818370226481,0.3695237053938038,-0.6769491302229425,9.819957507434085,-0.839321580867954,0.2547581768917106,-1.0238980792085224
0.94,0.6085934969496424,-1.061744668230577,2.518572839279456,-0.0147824768199153,0.1061044142793951,0.0472310308801885,-0.1029542215179104,0.7077728700910358,-0.9067209057164844,0.5967001186375362,-1.0698754186143498,2.530722961089156,-0.3721698055805952,0.8849162782861651,-1.068560125426351,0.8667725199241992,0.1453060543407901,0.326915602551453,-0.7894979041619288,9.645031202562675,-0.8577057128995974,0.2554793021839108,-1.0072859865720638
0.96,0.6066251366675138,-1.0482419920006665,2.501188054713096,-0.0154276364713172,0.0883789119891097,0.047612818392219,-0.1047989068236957,0.7133541802821368,-0.9224333540939378,0.5897565604012905,-1.0529770930605475,2.51015175859255,-0.3971616993489058,0.9249162788822116,-1.1085601260223976,0.838801110724115,-0.0922342652892628,0.2790655095550487,-0.7856224188726668,9.504991098136998,-0.8765491527896936,0.2565863896628662,-0.9902326171271026
0.98,0.6044667787399185,-1.0339085417974945,2.4825601916897764,-0.0171117929780641,0.0707168155993491,0.0479462482385182,-0.1113480276302975,0.7197443201211873,-0.9395417712808376,0.5821882048208371,-1.035078767491844,2.488580556081043,-0.4221535931172163,0.964916279478258,-1.148560126618444,0.9700809362407564,-0.3274560403300895,0.3195069919525228,-0.8554208593449963,9.449831464700765,-0.8945613285841849,0.2582135074213638,-0.973595210662642
1.0,0.6021321419650041,-1.0194394133931617,2.463585286261045,-0.0194937801024146,0.0546161936619753,0.048237792545511,-0.1221037369921423,0.7270268268732591,-0.9571061107571136,0.573995051896176,-1.0161804419082392,2.466009353554634,-0.4471454868855268,1.0049162800743043,-1.1885601272144903,1.0922753884761809,-0.5377854680922417,0.3641253376035935,-0.8782169738138002,9.381225503398127,-0.9113329313997514,0.2601258181452523,-0.957756835128718
1.02,0.5996786099828149,-1.0055449631853186,2.445228626519503,-0.021813254632046,0.0411551424037823,0.0485094886776411,-0.1357508801955865,0.7351648388974424,-0.9742836208539024,0.5960269551153969,-0.9830880720494986,2.415729980723189,-0.2221037384822585,0.8270268283633753,-1.0306657749469292,1.1699771476895804,-0.6823571601722096,0.4069006012091647,-0.8588755048394292,9.381225503398127,-0.9257362349202716,0.261913475524575,-0.9436908956189992
1.04,0.5967864023475482,-0.9906963712524524,2.4258657850782903,-0.0225666478352684,0.0294434407449356,0.048879966926371,-0.1528186511656379,0.7488510683077931,-0.9594124304921292,0.5960269551153969,-0.9830880720494986,2.415729980723189,-0.2221037384822585,0.8270268283633753,-1.0306657749469292,1.3226620733722652,-0.8533885485025663,0.6843114705175346,0.7435595180886545,9.356152890833071,-0.9327762946826106,0.2556596283384899,-0.9484078648544793
1.06,0.5935364262634891,-0.9755976808532766,2.4068133334069794,-0.0211427934277121,0.0203420428497422,0.0493278575095535,-0.1713521225171005,0.7601981604309647,-0.9467327255520044,0.5960269551153969,-0.9830880720494986,2.415729980723189,-0.2221037384822585,0.8270268283633753,-1.0306657749469292,1.2579954067442485,-0.9266735675731316,0.5673546061585766,0.6339852470062357,11.088402004445925,-0.9450557254485916,0.257674047839284,-0.9309211027535776
1.08,0.5900896896374291,-0.9610585527535844,2.388889795420077,-0.0186572328698825,0.0137088557442972,0.0497600856899148,-0.1905944635667716,0.7695099877664251,-0.9405597612521508,0.5938059177305743,-0.9748178037658648,2.40542332297372,-0.2421037387802817,0.8470268286613984,-1.0453777077848925,1.112523376883104,-0.9621170524835534,0.4655913667730216,0.3086482149926906,11.088402004445925,-0.9548920181301715,0.2577413434285218,-0.9174438349436036
1.1,0.5860507220275618,-0.9455893203298408,2.3700991123454744,-0.0156947800250529,0.0089005362755962,0.0501651968391571,-0.2123927957560913,0.7768449895480422,-0.9390490090029688,0.5893638429609293,-0.9582772671985972,2.384810007474781,-0.2821037393763281,0.8870268292574449,-1.0748015734608185,1.152445128553487,-1.0899166094659851,0.3667500890808528,0.0755376124590978,10.40977488990302,-0.9621462125171776,0.2565388304705689,-0.9082179871483852
1.12,0.5815594920630662,-0.9299898837332764,2.351291100835621,-0.0131237267749258,0.0066498844311174,0.0504759861807918,-0.2356023235121141,0.782794502832342,-0.9419868246403054,0.584921768191284,-0.9417367306313298,2.3641966919758426,-0.3221037399723746,0.9270268298534914,-1.1042254391367448,1.206968980231716,-1.160476387801143,0.2974756642149911,-0.1468907818668319,10.40977488990302,-0.9673777140753274,0.2548443736050569,-0.9022850724858552
1.14,0.5766061655270638,-0.9142805026880256,2.3323837161637133,-0.0111896670429345,0.0069365774611421,0.0506911726881851,-0.2582813460249715,0.7880315230267669,-0.9485502574541188,0.5784796933918366,-0.92319619403426,2.3421121831931075,-0.362103740568421,0.967026830449538,-1.133649304812671,1.2091764686729431,-1.1339511256428667,0.2618510097212478,-0.328171640690672,9.962350841686202,-0.9705016127801348,0.2535255134059664,-0.8987823912098111
1.16,0.5714925778283849,-0.8992652699993277,2.3142866771753976,-0.0100524355495798,0.0089142449059851,0.050816468224835,-0.2786495975844104,0.7923861958461905,-0.9560449957829692,0.5720376185923891,-0.90465565743719,2.3200276744103725,-0.4021037411644675,1.0070268310455843,-1.1630731704885973,1.1067971241048995,-1.0184125779719444,0.2177336409711794,-0.3747369164425196,9.962350841686202,-0.9713450224906092,0.2519806298504879,-0.8988667517246486
1.18,0.5657023249634483,-0.8833671825150945,2.295072848560608,-0.0095724113549766,0.0123208460576086,0.0508752138868301,-0.2990937449758801,0.7972190087597841,-0.9649757239705364,0.5645955437780404,-0.8851151208252191,2.29720756898574,-0.442103741760514,1.047026831641631,-1.1924970361645233,1.141355717099344,-1.0222073695734857,0.2416406456796804,-0.4465364093783619,9.882660293517802,-0.9705984672010668,0.2508973074427613,-0.9007676414496204
1.2,0.559513724288759,-0.8673703540312179,2.2756683144412686,-0.009660616207359,0.0168571805914602,0.0508730703290437,-0.3184763657435852,0.8022446327544084,-0.9750067678245792,0.5561534689487906,-0.864574584198347,2.2736518669192085,-0.4821037423565604,1.087026832237677,-1.2219209018404495,1.1197820381236545,-0.9691310383852568,0.2512811997312125,-0.5015521927021371,9.816808703839342,-0.9687494693701582,0.2502471252941812,-0.9037749809459098
1.22,0.5532875526192218,-0.8520778208699227,2.2570380995278496,-0.0101693870220467,0.0220076206860741,0.050822292074559,-0.33570817827073,0.8072619382369127,-0.9855516492923992,0.5435899060015797,-0.8272581223934975,2.22691797605004,-0.3708231131121594,0.9022446342445244,-0.9718027245684604,1.0407968611186902,-0.8615906263572393,0.2508652741252171,-0.5272440733910033,9.755806140260574,-0.9658485838107492,0.2499092857611021,-0.9078894095623148
1.24,0.5463408082334339,-0.8358286361408332,2.237621052569106,-0.0095950744786498,0.030130150280849,0.0508071927762894,-0.3574032840389683,0.8170846700343634,-0.9533372052294729,0.5435899060015797,-0.8272581223934975,2.22691797605004,-0.3708231131121594,0.9022446342445244,-0.9718027245684604,2.003081426542065,-1.0847552884119176,0.4911365898725317,1.6107222031463253,9.693677287257742,-0.9552477458373372,0.239099348216775,-0.9355353216102944
1.26,0.539015200243679,-0.8193975863451932,2.2188993811879296,-0.0070834172852065,0.0418162459169273,0.0508975137940697,-0.3733659960261074,0.8252558162522131,-0.9208973740585604,0.5435899060015797,-0.8272581223934975,2.22691797605004,-0.3708231131121594,0.9022446342445244,-0.9718027245684604,1.8533202980698773,-0.7981355993569528,0.4085573108924878,1.6219915585456155,12.733292170982168,-0.9487043018302748,0.2401515953855065,-0.9374004528462796
1.28,0.5314266911211626,-0.802834169519181,2.2007560371950894,-0.0040215308995828,0.0550774826018939,0.0510387289945086,-0.3841353713181839,0.8306693065918941,-0.895025461115771,0.5398816748704581,-0.8182356760510523,2.217199948804355,-0.3812924625858742,0.9222446345425476,-0.9711619159172366,1.427096003391751,-0.538468764603825,0.2706745169840485,1.2935956471394727,11.84849798709456,-0.9392883452002342,0.2406273535921413,-0.9427782562369876
1.3,0.5240592018158683,-0.7870139276191177,2.183946614296273,-0.0015319404828435,0.0681303214126535,0.0511669165099159,-0.3904479433286371,0.8345201773152726,-0.8756781114622834,0.532465212608215,-0.8001907833661618,2.197763894312986,-0.4022311615333038,0.9622446351385942,-0.969880298614789,1.0356129939915275,-0.3156286005226605,0.1925435361689265,0.9673674826743806,11.84849798709456,-0.9282622666481062,0.2410769298268015,-0.950022337655622
1.32,0.5162117403079349,-0.7702885092884071,2.166607334731702,0.0003375089566619,0.0817690488133395,0.0512689518886877,-0.3935664877044427,0.8379761188923859,-0.8594653861748073,0.5250487503459718,-0.7821458906812713,2.1783278398216166,-0.4231698604807335,1.0022446357346406,-0.9685986813123414,0.8433879778243453,-0.1559272187902805,0.1727970788556632,0.8106362643738041,11.493089947820408,-0.9172053735980068,0.2416344425924147,-0.9578121179516018
1.34,0.5083394305752248,-0.753498222770812,2.149552116278695,0.0012599411523599,0.0948655048301514,0.0513131953799714,-0.3931723131206571,0.8409853071017467,-0.8470379816437699,0.5165853531363571,-0.7621009979665785,2.15895586619537,-0.4441085594281632,1.042244636330687,-0.9673170640098938,0.6396306955187263,0.01970872918928,0.1504594104680401,0.6213702265518706,11.232602316946211,-0.9059484268877483,0.2426895560045885,-0.9659179820909324
1.36,0.5005189593864782,-0.7366529370402819,2.132728040804292,0.000901742487754,0.1067429251605477,0.0512609780362665,-0.3887286179815648,0.8436035865197722,-0.8360153051236575,0.5081219559267424,-0.7420561052518856,2.139583892569123,-0.4650472583755928,1.0822446369267336,-0.9660354467074462,0.6084842053559911,0.2221847569546159,0.1309139709012752,0.5511338260056176,11.017508554723465,-0.8955574042704627,0.2441146529929362,-0.973815840374361
1.38,0.49320193860961,-0.720591593908519,2.1169425412048093,-0.0005545689481225,0.1163507797163939,0.0511144801454327,-0.38165212239264,0.8470120730116644,-0.8261986760622119,0.4991350912434419,-0.7210112125222916,2.1202439593754376,-0.4859859573230224,1.12224463752278,-0.9647538294049988,0.628611120080418,0.3538247794462407,0.1704243245946091,0.4908314530722824,10.96737866274998,-0.8855859585817597,0.2465166668175665,-0.9810469595646528
1.4,0.4856687253768127,-0.7036048084261253,2.1005230235096963,-0.0029701918943902,0.1244327651964442,0.0508756201381313,-0.3719876757887639,0.8516704291542283,-0.8163055671215883,0.4896247590864558,-0.6989663197777966,2.100936066614313,-0.5069246562704521,1.1622446381188265,-0.9634722121025512,0.7296838606910212,0.4832223301938054,0.2329178071281967,0.4946554470311781,10.945844746341209,-0.8773559347243217,0.249866750610078,-0.9862062326831345
1.42,0.4783469509477939,-0.6865028018486034,2.0842970062586383,-0.0056472509331348,0.1302861766558256,0.0506016624571746,-0.3606991953384893,0.8583577693334088,-0.8068176226161671,0.4670693415873745,-0.6610212869684139,2.059707745153617,-0.3753774159186966,0.9442124441703073,-0.768467456644856,0.8095853884647779,0.5644240225137293,0.3343670089590245,0.4743972252710615,10.937122587507474,-0.8712443213771491,0.2537273443033355,-0.9889619447392478
1.44,0.4712181633504646,-0.6691575875062789,2.068481615391742,-0.0048446875983322,0.136096804238474,0.0505556245321968,-0.3521175222136479,0.8743938226313078,-0.7751847766498318,0.4670693415873745,-0.6610212869684139,2.059707745153617,-0.3753774159186966,0.9442124441703073,-0.768467456644856,1.824443108817441,0.4290836562420713,0.8018026648949517,1.5816422983167655,12.472508368978197,-0.8645227971999682,0.2509100268268885,-0.998044015128082
1.46,0.4646435050572123,-0.6524326147285552,2.054044977826045,-0.0001184708625349,0.1426312100996857,0.0507923699138328,-0.3401145927392942,0.884382972760195,-0.7461104047938286,0.4670693415873745,-0.6610212869684139,2.059707745153617,-0.3753774159186966,0.9442124441703073,-0.768467456644856,1.6501307032208854,0.6001464737176831,0.4994575064443562,1.4537185928001572,12.472508368978197,-0.8597282233100435,0.2501642889240655,-0.997950738176564
1.48,0.4580046700877431,-0.634685089661425,2.039418000078909,0.0058245661036397,0.1492157489566989,0.0511331578706933,-0.3242352000991507,0.8896863354501041,-0.7182581646253777,0.4633155674281875,-0.6515791625267108,2.0520230705871683,-0.3760553639446832,0.962720847173523,-0.7588998345495096,1.6248292593697615,0.7939696320071771,0.2651681344954582,1.3926120084225446,12.287292316326784,-0.8540108086791494,0.2485444569024663,-0.9988371240292064
1.5,0.4517108057433295,-0.6168612375611364,2.0253179148316107,0.0112832895940448,0.1545733053821538,0.051453759426221,-0.3059159093717019,0.8924687128263754,-0.6932631374340092,0.4558080191098136,-0.6326949136433047,2.0366537214542717,-0.3774112599966563,0.9997376531799548,-0.7397645903588167,1.5557067693801008,0.9159645363724406,0.1391188688135647,1.249751359568424,12.096575871427376,-0.8492422638817293,0.2476941036998423,-0.9984257248088564
1.52,0.445802772831258,-0.5989991859060021,2.0116920485253056,0.0157327534200643,0.1580417337256868,0.0516912041590894,-0.2859781957337666,0.893804065906883,-0.6705580740011583,0.4483004707914397,-0.6138106647598985,2.0212843723213743,-0.3787671560486294,1.0367544591863862,-0.7206293461681238,1.512295852708488,0.9968856818967642,0.0667676540253792,1.1352531716425474,11.793204118383985,-0.8459277219216005,0.2473677153954984,-0.9973442080180204
1.54,0.4405679947476051,-0.5820142447568682,1.9991543480883969,0.0189278544337252,0.1593022843943043,0.0518097504126507,-0.2662661888402753,0.8942493187809181,-0.6503150321792989,0.4407251276704671,-0.5930755755761709,2.006871785398012,-0.3801230521006025,1.0737712651928175,-0.7014941019774309,1.4129244566611077,0.9856003446745644,0.0222626437017536,1.0121520910929716,11.710651370463893,-0.8443394866149457,0.2476807680557905,-0.994823086132612
1.56,0.4354667204490671,-0.5641311635032854,1.9863734700491875,0.0212224635800768,0.1582935642075214,0.0518045874974974,-0.2449949908088575,0.8942318057278541,-0.6288008698985252,0.4331497845494945,-0.5723404863924431,1.9924591984746491,-0.3814789481525756,1.1107880711992495,-0.682358857786738,1.512715564012517,1.06355990157089,-0.0008756526531983,1.0757081140386815,11.710651370463893,-0.845407332779162,0.2485362704000775,-0.9904381103022312
1.58,0.4307953097638011,-0.5462439043421612,1.974026621649948,0.0227080267548967,0.1544375526082282,0.0516677195498253,-0.2233656470752201,0.8945297880326442,-0.6069121548577472,0.4255405440272226,-0.5506799770585545,1.9785249926560544,-0.3828348442045487,1.147804877205681,-0.6632236135960451,1.5386951858134463,1.0814671866818697,0.0148991152395028,1.0944357520389023,11.729238922246624,-0.8496887749348263,0.2505940519201642,-0.9825231826335796
1.6,0.4265436278951354,-0.5283529328352949,1.9621235953266023,0.0235760743438047,0.1475040673048623,0.0514029775916697,-0.2035281717630526,0.8945760767530887,-0.584401604787123,0.4178974061036513,-0.5280940475745053,1.9650691679422263,-0.3841907402565218,1.1848216832121126,-0.6440883694053522,1.5002103468252137,0.9918737656083711,0.0023144360222271,1.1255275035312096,11.744450917558424,-0.8569195923025391,0.2545406894907859,-0.970153880889179
1.62,0.4228392328038,-0.5113587644324916,1.9512394467348677,0.0238116847170431,0.138873389654263,0.051052252440192,-0.1878656491543933,0.8943158534842172,-0.5623549468762647,0.4163672193069828,-0.4836241289976405,1.9329035150872464,-0.2581797264369628,0.913855688981363,-0.5532633634960769,1.3522550200080947,0.7831261304329692,-0.013011163443577,1.1023328955429124,11.7580488589374,-0.8675604369118615,0.2594981364627403,-0.9538068159149348
1.64,0.41924722396353,-0.4932263168727817,1.9401963124177424,0.0313814089490238,0.1271282355870131,0.0510836422390163,-0.1726438539139934,0.914831295570082,-0.5433035445695906,0.4163672193069828,-0.4836241289976405,1.9329035150872464,-0.2581797264369628,0.913855688981363,-0.5532633634960769,1.5933787561106425,0.7610897620199938,1.0257721042932375,0.9525701153337064,11.767877237173709,-0.8837532431949724,0.2617232086933447,-0.929224261085204
1.66,0.4159163087639741,-0.4749012676761833,1.929515739995808,0.0456294152390062,0.1123865758012291,0.0512804153147578,-0.1619534457762798,0.9157627480669688,-0.5256144520901826,0.4163672193069828,-0.4836241289976405,1.9329035150872464,-0.2581797264369628,0.913855688981363,-0.5532633634960769,1.034476223324994,0.5345204068856787,0.0465726248443432,0.8844546239703988,11.405959513651396,-0.8984772909572514,0.2564236660243831,-0.9101487329841056
1.68,0.4127368809125743,-0.4566443569637387,1.919171772307001,0.0603431232241569,0.0962478269999656,0.051163997478946,-0.1571200930459297,0.909447797203752,-0.5096304206076101,0.4137854220426132,-0.4744855721078269,1.9273708814522852,-0.2691100373717449,0.917711611427018,-0.5470357152378676,0.8926493788950617,0.2416676365175077,-0.3157475431608381,0.7992015741286274,11.167768343488206,-0.9146247142112292,0.2487183109459538,-0.891444235234262
1.7,0.409752283223572,-0.4394692582643473,1.9096268953016404,0.0734018839666453,0.0808430358436502,0.0507187944176724,-0.1576944562873647,0.8987221317544557,-0.495868356177074,0.408621827513874,-0.4562084583281996,1.916305614182364,-0.2909706592413089,0.9254234563183276,-0.5345804187214491,0.8728748619555478,-0.0287181620717516,-0.5362832724648159,0.6881032215268035,11.167768343488206,-0.9306527962090182,0.2403404844691168,-0.8741292845665535
1.72,0.4065488878185969,-0.421656877737974,1.8998512181917535,0.0853435839849003,0.0655097390203327,0.0499413395286205,-0.1630223270964971,0.8832002782225227,-0.4824485351848132,0.4034582329851347,-0.4379313445485723,1.9052403469124424,-0.312831281110873,0.9331353012096374,-0.5221251222050307,1.059959598156826,-0.2663935404566192,-0.7760926765966514,0.6709910496130428,11.075521492582991,-0.9455091866562774,0.2317617175626787,-0.8593258490123201
1.74,0.4031927117361042,-0.4041888356205488,1.8903335471374445,0.0949558986220425,0.0517996831474562,0.0489410187235039,-0.1726198122397721,0.864661764761848,-0.4699971494975018,0.3972016073629172,-0.4192686385243796,1.8947978444683415,-0.334691902980437,0.9408471461009472,-0.5096698256886123,1.2153448152079978,-0.4798742571637537,-0.926925673033735,0.6225692843655678,11.022882067372848,-0.9580827705516036,0.2241148247653289,-0.8476159847437188
1.76,0.3996054648911346,-0.3871162380365442,1.8810566042247627,0.1020745223535903,0.040258267504472,0.0478355132764582,-0.1857304513559249,0.8440976968419558,-0.4582645916815565,0.3909449817406998,-0.4006059325001868,1.8843553420242407,-0.3565525248500011,0.9485589909922568,-0.4972145291721938,1.3531654188904934,-0.655531955807638,-1.028203395994609,0.5866278907972672,10.985453917922314,-0.9695054531791792,0.2167840905353769,-0.8379817796751963
1.78,0.3959258571632322,-0.3712880531442075,1.872458190161887,0.1067610121802736,0.031624809467771,0.0468008622084778,-0.2009500771988096,0.8235514027483072,-0.4473666688481171,0.3841418405717433,-0.3817504303537113,1.874224221993051,-0.3784131467195651,0.9562708358835668,-0.4847592326557753,1.3897409235750582,-0.760981292144236,-1.0273147046824305,0.5448961416719661,10.964411586781353,-0.9789238386693928,0.2105785700144625,-0.8307553426814537
1.8,0.3917159270147704,-0.3550520958519421,1.8636317451858624,0.1098358227208357,0.025338745851406,0.0458394127735453,-0.2194024470459925,0.8014680148193443,-0.4358134894088268,0.3767921838560476,-0.3627021320849531,1.8644044843747711,-0.4002737685891292,0.9639826807748764,-0.4723039361393569,1.5505175995088956,-0.9226184923591452,-1.1041693964481458,0.5776589719645175,10.967874357807888,-0.985881083518996,0.205384976961813,-0.826456755238147
1.82,0.3871094181717727,-0.3392684321828094,1.855036346866824,0.1110236005898953,0.0226739265399495,0.0451286954807218,-0.2401132809932003,0.7784292065021794,-0.4242531404686323,0.3807458046624708,-0.3149786951109748,1.8418410707154207,-0.2981167507183062,0.7686847076842391,-0.4151233407125234,1.6533050225857726,-1.0355416973603897,-1.1519404158582436,0.5780174470097266,10.996798258467608,-0.9896853511187018,0.2006283720053486,-0.826721239289383
1.84,0.3823565124351307,-0.3245472612584692,1.8470681366093933,0.1151641093037606,0.0231490015947142,0.0449966440509933,-0.2587428181834699,0.7695916635443198,-0.4153533645505151,0.3807458046624708,-0.3149786951109748,1.8418410707154207,-0.2981167507183062,0.7686847076842391,-0.4151233407125234,1.1229067557552883,-0.931476859513476,-0.4418771478929773,0.4449887959058596,11.018011969325016,-0.9919863426232928,0.195830753125251,-0.8268469085996464
1.86,0.3769990361105387,-0.309349873858064,1.8388459522595253,0.1227396272145809,0.0254904991711955,0.0452959652035388,-0.2757793444648511,0.7501834722328166,-0.4073845761900326,0.3807458046624708,-0.3149786951109748,1.8418410707154207,-0.2981167507183062,0.7686847076842391,-0.4151233407125234,1.3513166779610422,-0.8518263140690624,-0.9704095655751644,0.3984394180241241,10.760120906216798,-0.9908705473126184,0.1853876571390577,-0.8348040042543579
1.88,0.3713220966836673,-0.2946006224544958,1.8307725086083504,0.1300870627549016,0.0288519436151197,0.0457143692389357,-0.2908827763335584,0.7257768322803476,-0.4003837991406722,0.3777646371552877,-0.3072918480341324,1.837689837308296,-0.3138596114527689,0.7621280462572181,-0.4109853109732627,1.4771667198364815,-0.7551715934353664,-1.2203319976234472,0.3500388524680181,10.734835419189949,-0.9879744448773068,0.173683593673926,-0.8460036164008571
1.9,0.3653622954008012,-0.2803717980539462,1.8228323367719208,0.1359113708885916,0.0326509829885821,0.0460948004553979,-0.3042213661267541,0.6987454051388807,-0.3939518731356613,0.3718023021409216,-0.2919181538804477,1.829387370494045,-0.3453453329216944,0.7490147234031761,-0.4027092514947414,1.5410919043891504,-0.6669294896597816,-1.3515713570733443,0.3215963002505456,10.712951761567638,-0.9846245036135832,0.1630097311574419,-0.8574936388167457
1.92,0.359468833299466,-0.267369131356351,1.8154072304570052,0.1397572213683811,0.0362405630052204,0.0463422216596547,-0.3154244144056054,0.6717666671623974,-0.3879160560695081,0.3658399671265555,-0.2765444597267629,1.821084903679795,-0.3768310543906199,0.735901400549134,-0.39443319201622,1.4914688072484816,-0.5601524139425662,-1.3489368988241657,0.3017908533076624,10.70853565233665,-0.9818402507403232,0.1534505397376532,-0.8680319533235141
1.94,0.3530489949339873,-0.254239589731046,1.807718443216057,0.1421276274328068,0.0396543730560116,0.0464349724059523,-0.3259182605824351,0.6429183249996414,-0.3812324277828003,0.3583033460387431,-0.2618264317157802,1.8131962398394703,-0.4083167758595454,0.7227880776950919,-0.3861571325376987,1.570842560695764,-0.5246923088414873,-1.4424171081378,0.3341814143353883,10.724262592860214,-0.9793413519570008,0.1454159172478203,-0.8776444386514045
1.96,0.3464304018844155,-0.2416963533107604,1.8001656886496429,0.1427071266343264,0.0424603854680697,0.0463110437786553,-0.3354028761593728,0.6130516218472534,-0.3743461512624618,0.3507667249509307,-0.2471084037047975,1.8053075759991464,-0.4398024973284709,0.7096747548410499,-0.3778810730591773,1.604212185271729,-0.4742307788468819,-1.493335157619402,0.3443138260169232,10.75778182891736,-0.9778173425560752,0.139820120232819,-0.8847929170289676
1.98,0.3396266985090336,-0.2297659997894997,1.7927539803476225,0.1408007603838495,0.0446604145532438,0.0459180540110746,-0.3445168579689534,0.5819372322683348,-0.3671104797351832,0.3424429608263952,-0.2327182087651659,1.7976258136457848,-0.4712882187973963,0.6965614319870078,-0.369605013580656,1.6609672225429015,-0.4556990904790309,-1.5557194789459272,0.3617835763639332,10.78712988387997,-0.9772707581141212,0.1369408086457774,-0.8897244045186785
2.0,0.3329958850711685,-0.219000413173613,1.785855359348426,0.1365140633884069,0.0463275872730471,0.0453036692857936,-0.3530480942869771,0.553755278722967,-0.3592911748041469,0.3333320536651366,-0.2186558468968853,1.7901509527793864,-0.5027739402663218,0.6834481091329658,-0.3613289541021346,1.5232744568459775,-0.4265618159011858,-1.4090976772683894,0.3909652465518137,10.826433643893324,-0.978854407486459,0.1374634181556021,-0.890975677366536
2.02,0.3258411037959693,-0.2082100872609871,1.7787677165870333,0.1306989660806884,0.0477254824758036,0.044511141056397,-0.3619942003088106,0.5271686297607449,-0.349791617943874,0.3224008556105859,-0.200669138176083,1.7743984563608632,-0.3415884689608801,0.5274756318196906,-0.3462997846131283,1.4808142156731483,-0.4473053010916716,-1.329332448111109,0.4749778430136464,10.87274731555317,-0.9810227500843144,0.1396914115933528,-0.8908089733469999
2.04,0.3184008612362579,-0.1978934315926984,1.771826519766292,0.1253440287081709,0.0521042916232681,0.0441264980835626,-0.3810838510787264,0.505645401506932,-0.3450740170867085,0.3224008556105859,-0.200669138176083,1.7743984563608632,-0.3415884689608801,0.5274756318196906,-0.3462997846131283,1.4576692687562929,-0.9544825384957906,-1.0761614126906405,0.2358800428582746,10.92416795877216,-0.976394820018954,0.1440298678719975,-0.8945237443169255
2.06,0.3106273033858537,-0.1880103300203583,1.76496914863095,0.12078986633383,0.0614227539095419,0.0443887206650733,-0.3945903697128264,0.4838707461605889,-0.340838559146338,0.3224008556105859,-0.200669138176083,1.7743984563608632,-0.3415884689608801,0.5274756318196906,-0.3462997846131283,1.2985576277450772,-0.6753259317050009,-1.0887327673171576,0.211772897018525,10.614538700829144,-0.9724188230982662,0.1429516514476522,-0.9038284881053876
2.08,0.3030452632054636,-0.17902052453561,1.7585410829136368,0.1166346578203853,0.0724498451719293,0.0448693006391926,-0.4023992884119967,0.463693528463528,-0.335991098081928,0.3189849709209771,-0.1953943818578861,1.770935458514732,-0.3392965438956607,0.5222197024390353,-0.3437015065749246,1.1085995715494013,-0.3904459349585137,-1.0088608848530412,0.2423730532204987,10.614538700829144,-0.9661426260543556,0.1444316361588238,-0.9127070265492496
2.1,0.2949489650648284,-0.1699614228977208,1.751881960058553,0.1123277955036438,0.0849319318226241,0.0454287377639856,-0.406377308705416,0.443447362268182,-0.3301472591462375,0.3121532015417595,-0.1848448692214923,1.7640094628224694,-0.3347126937652219,0.5117078436777247,-0.3385049504985172,1.0722433778889964,-0.1989010146709657,-1.012308309767304,0.292191946784523,10.644698250500369,-0.9576908264167144,0.1469189207699371,-0.9223518236149608
2.12,0.2868127086489275,-0.161296641816617,1.7453452569779748,0.1080714948012799,0.0975208557755,0.0459473217055582,-0.4066704931694474,0.424211814647674,-0.3238078352982862,0.3053214321625419,-0.1742953565850984,1.757083467130207,-0.3301288436347831,0.5011959849164142,-0.3333083944221097,1.0127691544902424,-0.0146592232015713,-0.9617773810253972,0.3169711923975665,10.680669324941846,-0.9482093157762111,0.1492010166759719,-0.9327000833570478
2.14,0.2787051646687346,-0.1530052283147471,1.7389398414987258,0.1038763900535291,0.109789770970047,0.0463801370662283,-0.4037331606703233,0.4060581669057546,-0.3170765938184092,0.2987188552898462,-0.1642714368867702,1.7504172992417646,-0.3255449935043443,0.4906841261551036,-0.3281118383457023,0.9791481762334582,0.1468666249562072,-0.9076823870959704,0.3365620739938485,10.7117354520733,-0.9373619730921372,0.1516384143409791,-0.9440066259641626
2.16,0.2710848122320801,-0.1454539571226704,1.7329791898140452,0.0999943955436521,0.1209540568361693,0.0466987761261437,-0.3982894049826551,0.3898430632979386,-0.3107251871440744,0.2921162784171506,-0.1542475171884419,1.7437511313533225,-0.3209611433739055,0.480172267393793,-0.3229152822692949,0.9122834369619076,0.2721877843834069,-0.8107551803908014,0.3175703337167407,10.742420086714446,-0.925964292906482,0.1540110937249647,-0.955465148997692
2.18,0.2632019686350518,-0.1378281410926366,1.7268349192973949,0.0960285608011872,0.1320966995345658,0.0469343297368959,-0.3899935368146519,0.3737256699247236,-0.304058458665467,0.2856282977977159,-0.1444863939591464,1.7372148773667904,-0.3163772932434667,0.4696604086324824,-0.3177187261928874,0.9657083752553354,0.4147934084001631,-0.8058696686607497,0.3333364239303721,10.752045369158624,-0.9143694266675318,0.156295191062419,-0.9667795182919864
2.2,0.2555108404695801,-0.1305147503661638,1.7208233095086012,0.0921734465399834,0.1425821499527733,0.0470699829015216,-0.3792710756526481,0.358549596620596,-0.2974628480236592,0.2792549134315422,-0.1349880671988836,1.7308085372821689,-0.3117934431130279,0.4591485498711718,-0.31252217011648,0.9858834287597836,0.5361230581001852,-0.7588036652063784,0.3297805320903874,10.768680816196138,-0.9032563957927552,0.1584097817177657,-0.9773070963386792
2.22,0.2480581719934063,-0.1234946996633397,1.7149434414102978,0.0884386710069989,0.1524117559873392,0.0471131173428171,-0.3662887857130329,0.344335298284383,-0.2908936407584082,0.2437022917943192,-0.1191418575964004,1.7116319963641216,-0.3154031220521549,0.3532745135022277,-0.2590956240986354,1.0170307435875907,0.64911449698076,-0.7107149168106536,0.3284603632625532,10.783011985509802,-0.8915512976161991,0.1605852793585307,-0.988074964498604
2.24,0.2412443309319888,-0.1170837610926369,1.7095115736128177,0.0849952193872098,0.1611443255344935,0.0470740124044526,-0.3514114028691976,0.3313276040642837,-0.2812425674141767,0.2437022917943192,-0.1191418575964004,1.7116319963641216,-0.3154031220521549,0.3532745135022277,-0.2590956240986354,1.099636128341308,0.7438691421917665,-0.6503847110049643,0.4825536672115715,11.0479133453955,-0.8812903785446146,0.1629162131620005,-0.997199651764236
2.26,0.2343992802233664,-0.1105912963713992,1.704003836258252,0.0815691338296968,0.1697146831337221,0.0469622370279588,-0.3336524632061761,0.318666033678352,-0.270036075128669,0.2437022917943192,-0.1191418575964004,1.7116319963641216,-0.3154031220521549,0.3532745135022277,-0.2590956240986354,1.2260513569360405,0.887946983151075,-0.6330785192965815,0.5603246142753843,11.0479133453955,-0.8706075282351168,0.1653948256213029,-1.0060768909374156
2.28,0.2279313761670096,-0.1043443380414624,1.6987323740901514,0.0784111236109403,0.1776847286422072,0.0467923718089798,-0.3138143514213113,0.3067194724111922,-0.2576484229301575,0.2405482605737977,-0.1156091124613781,1.7090410401231353,-0.3004850390996555,0.3491842822177286,-0.2501030571852691,1.313130736341667,0.9919055892432388,-0.5973280633579936,0.6193826099255784,11.124892653820098,-0.8602983775654057,0.167880175921249,-1.0142168100699671
2.3000000000000003,0.2218812137648311,-0.0983290547708586,1.6937213754511504,0.0755194944209988,0.1850899048135994,0.0465733931681235,-0.2920083322114029,0.2954469537126678,-0.2441188471067301,0.2342401981327546,-0.1085436221913336,1.7038591276411623,-0.2706488731946567,0.3410038196487303,-0.2321179233585364,1.401447085652314,1.0903009604954217,-0.5636259349262179,0.6764787911713657,11.220178777590265,-0.8508767983300016,0.170496826099999,-1.0209886557106902
2.32,0.2165674300911901,-0.0928168049783545,1.6892192973196825,0.0730078279996477,0.191225517901503,0.0462963464443586,-0.2684035865400446,0.2853736921174584,-0.2304920741502,0.2279321356917115,-0.101478131921289,1.6986772151591898,-0.2408127072896579,0.3328233570797319,-0.2141327895318038,1.452879518907066,1.180237283567917,-0.5036630797604691,0.6813386478265057,11.3792618364796,-0.8422496894462241,0.1732639605225662,-1.0267297647955376
2.34,0.2114813306061064,-0.0872148636083527,1.6847682104760948,0.070608424696677,0.1961687511078752,0.0458977508158291,-0.2414212208760836,0.275371314936884,-0.2153066163548084,0.2231158815459183,-0.0948216647796944,1.6943945593685537,-0.2109765413846592,0.3246428945107336,-0.1961476557050711,1.626878709785858,1.3491182831980502,-0.5001188590287226,0.7592728897695827,11.3792618364796,-0.834424305959842,0.1759669981620842,-1.0314935435857455
2.36,0.206952817168312,-0.0818076182060246,1.6806305591309465,0.0684532026373402,0.1992424039616791,0.0453761733079709,-0.2128407776830365,0.265864832322007,-0.1991799383267309,0.2182996274001252,-0.0881651976380997,1.6901119035779175,-0.1811403754796604,0.3164624319417352,-0.1781625218783385,1.7082774138289318,1.4290221596523531,-0.4753241307438482,0.8063339014038745,11.45655729005739,-0.828229717973568,0.1786266010865618,-1.0346716136169418
2.38,0.2030112890819353,-0.0765873034498779,1.676825431562758,0.0664757354907874,0.2001284607531184,0.0447151202482781,-0.182957865561965,0.2566693265576457,-0.1821286591865631,0.214229277401957,-0.08171324206073,1.68627887613295,-0.1513042095746616,0.3082819693727369,-0.1601773880516059,1.7806542922574853,1.4941456060535734,-0.4597752882180644,0.8525639570083884,11.532484492660842,-0.8252005419484045,0.1814700421746446,-1.0349128205534617
2.4,0.1998281590307177,-0.07179495836095,1.6735351073143103,0.0647021115582755,0.198638053666485,0.0439428164530665,-0.1537664968391996,0.2482756413123304,-0.1650515258714172,0.2109048315514138,-0.0754657980475853,1.6828954770336504,-0.1214680436696628,0.3001015068037386,-0.1421922542248732,1.7422818673862304,1.4595684361382713,-0.4196842622657667,0.8538566657572979,11.59795481612946,-0.8251739701036276,0.1849064949696649,-1.0320511791993054
2.42,0.1970782802238278,-0.0669187710344201,1.670432754475419,0.0629349092501,0.1942021099388372,0.0429612476823365,-0.1230048078561907,0.2398137662236903,-0.1459816033744926,0.193863395803837,-0.0637538371219956,1.6677189986034298,-0.1460552022663992,0.2306110784015352,-0.1533704804658505,1.8584582206373563,1.5380844491504446,-0.4230937544320051,0.9534961248462273,11.65892597246784,-0.829169022820473,0.1903126852772247,-1.0236297362683184
2.44,0.194983472289737,-0.0621883945653165,1.6675361817846028,0.0614506327301595,0.1838733459808846,0.0416471356012866,-0.0891253116027351,0.2336557315667356,-0.1454038189855246,0.193863395803837,-0.0637538371219956,1.6677189986034298,-0.1460552022663992,0.2306110784015352,-0.1533704804658505,1.7219723371938207,1.6939748126727785,-0.3079017328477318,0.0288892194483997,11.720895654086236,-0.8356527431543669,0.1966988093471146,-1.011371086832596
2.46,0.1934903269038445,-0.0575777362401787,1.6646426092029627,0.0605053131361959,0.1666109824808437,0.0399687645197454,-0.063058898121806,0.2276346637608873,-0.1436938976803282,0.193863395803837,-0.0637538371219956,1.6677189986034298,-0.1460552022663992,0.2306110784015352,-0.1533704804658505,1.340368419643786,1.303320674046457,-0.3010533902924162,0.0854960652598213,10.484055743406316,-0.8471204915852181,0.2009835499644228,-0.996576621387817
2.48,0.1924674020138291,-0.0533106757936264,1.66195761419582,0.0602269517676714,0.1470710161147704,0.0382478013632095,-0.0466559978651394,0.2217647113789013,-0.138915519063716,0.192402843781173,-0.0614477263379803,1.6661852937987711,-0.1445129433518391,0.2270781658193761,-0.1510342713847371,0.9032502145040328,0.8201450128333297,-0.2934976190992991,0.2389189308306089,10.575746337240162,-0.8667112546045018,0.2055014357538544,-0.9737164619544032
2.5,0.191640756690293,-0.0489434157360794,1.6592535091409657,0.0606437306423896,0.1259362640501966,0.0364601049656269,-0.0375415645066403,0.2152084272275407,-0.1316137381084349,0.189481739735845,-0.0568355047699496,1.6631178841894545,-0.141428425522719,0.220012340655058,-0.1463618532225105,0.6696524517218075,0.4557216679249562,-0.3278142075680335,0.365089047764057,10.771583195706626,-0.8890422409042384,0.2086777260571821,-0.9486061148771492
2.52,0.190914844199594,-0.0447143953282855,1.65671148097835,0.0617096689280256,0.1063490713878674,0.0348050440047206,-0.0358164793618992,0.2079792997237947,-0.1229218201421915,0.1865606356905171,-0.0522232832019189,1.6600504745801372,-0.1383439076935988,0.2129465154907399,-0.1416894350602838,0.5718077499342031,0.0862542572370537,-0.3614563751872982,0.4345958983121671,10.822782152859872,-0.9095019953028494,0.2104565073759829,-0.9255843536110708
2.54,0.1901594563004545,-0.0406394258510058,1.6543498880529244,0.0632032859329403,0.0897027475218986,0.033345672691189,-0.0399024224541384,0.1998690959627608,-0.1136515049510777,0.1837937575366451,-0.0479643528921041,1.6572166858789317,-0.1352593898644786,0.2058806903264219,-0.1370170168980571,0.6488626197838452,-0.2042971546119605,-0.4055101880516942,0.4635157595556931,10.822782152859872,-0.9286673427018016,0.2109947914712723,-0.904181614805155
2.56,0.1893234463646598,-0.0369277443977028,1.652272703456026,0.0647320764501197,0.077323224602859,0.0321697892437524,-0.0478121430349975,0.1912677061291087,-0.1054484005659838,0.1810268793827731,-0.0437054225822893,1.6543828971777257,-0.1321748720353585,0.1988148651621038,-0.1323445987358304,0.7138601198597422,-0.3954860290429542,-0.4300694916826067,0.4101552192546931,10.847467378071087,-0.944203805215898,0.2104656563466466,-0.887105559860966
2.58,0.1882517496939281,-0.0332074248494004,1.650248020071873,0.0660932817288886,0.068208772095207,0.0311614044208746,-0.0590378785973245,0.181236815601755,-0.0974720429483528,0.1783371141746291,-0.0396231379015824,1.6516659189305758,-0.1290903542062383,0.1917490399977857,-0.1276721805736037,0.8518482619155058,-0.561286778116352,-0.5015445263676823,0.3988178808815502,10.8047216212899,-0.955461106369007,0.2092104954886995,-0.8752792934501038
2.6,0.1869261052483207,-0.0296982135045696,1.648375538822533,0.0667790396607015,0.0636279580467314,0.0304102045264282,-0.0729696945002397,0.1702512356628003,-0.0901914775594934,0.1757244619122132,-0.0357174988499835,1.649065751137481,-0.1260058363771182,0.1846832148334676,-0.1229997624113771,0.9588861941457674,-0.6965907951457586,-0.5492789969477357,0.3640282694429695,10.772856188968944,-0.9623834290186736,0.2074253734413458,-0.8692255596682489
2.62,0.1853192904757361,-0.0264163170367356,1.6466429739005466,0.0663734077242597,0.0637544697997318,0.0299112572343503,-0.0864466943004248,0.1586674606025399,-0.0833903195947399,0.1852998557640619,-0.0241455840693127,1.6453744179244554,-0.0931999827271158,0.1684888153897413,-0.0817141059640522,0.9514056941211132,-0.6738499900092544,-0.5791887530130226,0.340057898237675,10.747321495204233,-0.9657502429095356,0.2052990300042388,-0.8684713613992455
2.64,0.1836174413137611,-0.0235484563889925,1.6451379900594274,0.0636496987855248,0.0655314847707851,0.0293997644482692,-0.0921436783673331,0.1446138521951183,-0.0753079334831962,0.1852998557640619,-0.0241455840693127,1.6453744179244554,-0.0931999827271158,0.1684888153897413,-0.0817141059640522,0.8591922107186392,-0.2848492033454164,-0.7026804203710796,0.4041193055771858,10.702688575002869,-0.9691243008144614,0.2038114894591731,-0.8691172648888311
