t,x,y,z,roll,pitch,yaw,v_x,v_y,v_z,ref_x,ref_y,ref_z,ref_v_x,ref_v_y,ref_v_z,a_com,a_x,a_y,a_z,thrust,wind_x,wind_y,wind_z
0.0,-0.4268904292394593,-1.4800449016747372,2.258704155555586,0.032211679247298,0.1000601395801219,0.0430293225896177,0.0044229348227636,-0.0047936879805953,0.0116299594751996,-0.4267647368458342,-1.4800870958269707,2.259060052798049,0.104251575413349,0.0976959812095611,-0.0881979636234052,0.6667041215871289,0.2211467411381827,-0.2396843990297662,0.5814979737599837,10.244046078423708,-0.9425833396893912,0.2541672348417788,-0.8751533020513628
0.02,-0.4268997560788147,-1.4804056868380056,2.2587074998008254,0.0223498605733922,0.1028829467202719,0.0424087598358315,-0.0052279680249599,-0.0265878881730273,-0.0122533752918572,-0.4267647368458342,-1.4800870958269707,2.259060052798049,0.104251575413349,0.0976959812095611,-0.0881979636234052,1.6871134871425462,-0.4825451423861787,-1.089710009621599,-1.1941667383528478,10.245189675800248,-0.9261282535876024,0.2591385825303675,-0.892404144052024
0.04,-0.4270835570848096,-1.4809613553686698,2.2581219727667303,0.0054109547227991,0.1101788443698464,0.0413364413476615,-0.012078004760622,-0.0270827141190058,-0.0450229450809983,-0.4267647368458342,-1.4800870958269707,2.259060052798049,0.104251575413349,0.0976959812095611,-0.0881979636234052,1.6740762827318525,-0.342501836783104,-0.0247412972989262,-1.638478489457052,8.9081568152219,-0.9145051501450384,0.2665318554377444,-0.9079829320895862
0.06,-0.4273436908630938,-1.4814206122073914,2.256961463418357,-0.0111259808908758,0.119106417786685,0.0401813866848091,-0.014611058867461,-0.0209083011528544,-0.0755457283803531,-0.4257222210917007,-1.479110136014875,2.258178073161815,0.1242515757113722,0.1176959815075843,-0.1081979639214285,1.5621940011760105,-0.1266527053419504,0.3087206483075712,-1.52613916496774,8.578093452722896,-0.8986668781495522,0.2740065905846314,-0.9291546006660184
0.08,-0.4276324828840388,-1.4817373810631314,2.255126192412439,-0.0279257774453651,0.1293213213294028,0.0388500896413164,-0.0137892892455019,-0.010735451573375,-0.1063727450435155,-0.4236371895834338,-1.477156216390684,2.2564141138893468,0.1642515763074186,0.1576959821036308,-0.1481979645174749,1.6236279825049058,0.0410884810979509,0.5086424789739699,-1.5413508331581192,8.578093452722896,-0.8807193249859221,0.282291260247359,-0.9509358088380168
0.1,-0.427871594797122,-1.4818173285780052,2.252693069728621,-0.0439487168504719,0.1396541700096351,0.0374160926994421,-0.0098855520202886,0.002565571234011,-0.1355000799114194,-0.4215521580751668,-1.4752022967664926,2.2546501546168787,0.2042515769034651,0.1976959826996772,-0.1881979651135214,1.6128840694181423,0.1951868612606681,0.6650511403693007,-1.456366743395196,8.682322070891587,-0.862897529510494,0.2910186979607458,-0.9705869311631528
0.12,-0.4280013236048294,-1.4816046726820886,2.249855054699621,-0.0579962901970552,0.1492254291922053,0.0360147673805367,-0.0037386046480545,0.0191105685129331,-0.1618620733469943,-0.4174671265370975,-1.4712483771124991,2.250886195314608,0.2442515774995115,0.2376959832957237,-0.2281979657095678,1.586250764266049,0.3073473686117015,0.8272498639461082,-1.318099671778744,8.803134640934331,-0.8439256793255941,0.3007537896566867,-0.9894894059770818
0.14,-0.4279892962358941,-1.4810083534331688,2.246326590280605,-0.071070199534685,0.1588658272948277,0.0345672466988574,0.004865498122181,0.03958828806716,-0.1896495439968876,-0.4133820949990282,-1.4672944574585054,2.2471222360123377,0.284251578095558,0.2776959838917702,-0.2681979663056143,1.7787011467226757,0.4302051385117843,1.023885977711343,-1.3893735324946657,8.959393716888371,-0.824721353073131,0.3103518896437034,-1.006921839078278
0.16,-0.4277838151461607,-1.4799667515061512,2.2422437061932,-0.0819186218331895,0.1679877888190725,0.0332181896025201,0.0154894522276415,0.0632515425363375,-0.2172613780127217,-0.4082970634460577,-1.4623405377896108,2.242358276695166,0.3242515786916045,0.3176959844878166,-0.3081979669016607,1.8942223936393765,0.5311977052730235,1.1831627234588775,-1.3805917007917057,8.959393716888371,-0.808239218553545,0.3187838556135454,-1.0204646265558015
0.18,-0.427345241872349,-1.4784287864256704,2.2376132223864045,-0.090252946161046,0.176569407217018,0.0320246701700936,0.0280640096579265,0.0888043884634638,-0.2444417827657639,-0.4022120318781861,-1.456386618105815,2.2365943173630933,0.3642515792876509,0.357695985083863,-0.3481979674977071,1.9684015292123376,0.6287278715142518,1.2776422963563134,-1.3590202376521088,9.017053713120731,-0.7907924759252668,0.325882566502698,-1.0346420222336852
0.2,-0.4266777933602826,-1.4764841392668402,2.2327156048630723,-0.096051522269978,0.1842247747435585,0.0310479853352514,0.0417524516762346,0.1141292478879516,-0.2697568861914751,-0.4259420413894527,-1.4739885670024973,2.225391133248116,0.1280640111480427,0.1888043899535799,-0.34444178425588,1.9167527300183425,0.6844221009154036,1.2662429712243906,-1.265755171285561,9.141518120855835,-0.7736846952685564,0.3313531359061946,-1.0482125242818148
0.22,-0.4256621367951238,-1.4737869171028812,2.227135432418497,-0.0964655150649349,0.1917525753059615,0.0304607768315252,0.0594574969840396,0.1528437298657037,-0.2862725165009276,-0.4259420413894527,-1.4739885670024973,2.225391133248116,0.1280640111480427,0.1888043899535799,-0.34444178425588,2.283115080693272,0.8852522653902483,1.9357240988876008,-0.8257815154726234,9.141518120855835,-0.7606440023368467,0.3321642177450722,-1.0580475784330472
0.24,-0.4242698311503442,-1.4703966673039168,2.221243617919793,-0.0906826957253864,0.1987446595731394,0.0303984503462647,0.0790917908338256,0.1829844333204322,-0.3021222344401423,-0.4259420413894527,-1.4739885670024973,2.225391133248116,0.1280640111480427,0.1888043899535799,-0.34444178425588,1.965439555467361,0.9817146924893012,1.5070351727364262,-0.7924858969607373,9.77055357251902,-0.7461265414667203,0.328098526020027,-1.0689991288332312
0.26,-0.4224702649966476,-1.466477313746268,2.2150215043248966,-0.083213476528034,0.2052489824265849,0.030556060990034,0.1000534170037089,0.2070875341099528,-0.31929676622688,-0.4246614012779723,-1.4721005231029614,2.221946715405557,0.1480640114460659,0.2088043902516031,-0.3644417845539032,1.8133627473904568,1.0480813084941636,1.2051550394760302,-0.8587265893368834,9.77055357251902,-0.7346935960243951,0.3231697981446003,-1.0767190012305312
0.28,-0.4203613318678617,-1.4623426179494423,2.2087798446037006,-0.0761884000896441,0.2110174896260535,0.030787031510395,0.1210148381064985,0.2269000209842063,-0.3368849579559854,-0.4221001210550115,-1.4683244353038898,2.21505787972044,0.1880640120421124,0.2488043908476496,-0.4044417851499496,1.6891272147848375,1.048071055139481,0.9906243437126746,-0.8794095864552709,9.686497353405684,-0.7242326993583463,0.3177722122712129,-1.083693352624002
0.3,-0.4177009403954659,-1.4576064974368514,2.201835587001874,-0.0695210360932492,0.2166948600005361,0.0310570705783407,0.1440368437789554,0.2456901967030833,-0.3566992992847865,-0.4195388408320506,-1.4645483475048182,2.2081690440353223,0.2280640126381588,0.2888043914436961,-0.4444417857459961,1.7858412380606143,1.1511002836228426,0.9395087859438516,-0.9907170664400556,9.615433046252292,-0.7157487404226838,0.3129732709128455,-1.088884288351632
0.32,-0.4145700891685335,-1.452508519972382,2.194484520655416,-0.063780941550796,0.2219988023866902,0.0313292136029325,0.1680068653754567,0.263220510715792,-0.3774745251421451,-0.4149775605792875,-1.4587722596759445,2.199280208320402,0.2680640132342052,0.3288043920397425,-0.4844417863420425,1.812100889951475,1.1985010798250677,0.8765157006354357,-1.0387612928679262,9.507601615370731,-0.7082514946299784,0.309178646824368,-1.0932295906795415
0.34,-0.4111421021565857,-1.4473504300138371,2.187112838823553,-0.0591899307698985,0.2267129104778884,0.0315794981903801,0.1917257398708298,0.2789875816181257,-0.397478366744957,-0.4104162803265243,-1.4529961718470703,2.1903913726054824,0.3080640138302518,0.368804392635789,-0.5244417869380891,1.740214937182234,1.1859437247686553,0.7883535451166823,-1.0001920801405966,9.505750246127718,-0.7009247598479119,0.3058194335564605,-1.0974776767102203
0.36,-0.4070373057566067,-1.441596502456822,2.178940618811771,-0.0549460149508433,0.2313527605398143,0.0318483281107699,0.2176130403139023,0.2955290682612812,-0.4187112001734892,-0.4048550000588599,-1.4462200840032953,2.180502536875661,0.3480640144262982,0.4088043932318354,-0.5644417875341354,1.867221411616328,1.294365022153625,0.8270743321577761,-1.0616416714266108,9.505750246127718,-0.6937673328211109,0.3029549607632547,-1.1016000327401887
0.38,-0.4024047369580702,-1.4355149295331875,2.170343921469526,-0.0509795627943577,0.2356808877227212,0.0321394387101362,0.2444537726368892,0.311708531191294,-0.4399052473174967,-0.3982937197762944,-1.438443996144619,2.169613701130939,0.3880640150223446,0.4488043938278818,-0.6044417881301819,1.89168414823954,1.3420366161493418,0.8089731465006383,-1.059702357200376,9.507543281655671,-0.6865834891473996,0.3001225049983101,-1.1060077382431783
0.4,-0.3972129260025325,-1.4291150842815292,2.1613221693996776,-0.0471396900588404,0.2392976759824485,0.0324788767908396,0.2733504029774925,0.3273484362144672,-0.4612101242196922,-0.3901820483262257,-1.419929502973623,2.148348659103651,0.3285931569662081,0.4117085326814101,-0.5277554380165972,1.9580089721404883,1.4448315170301664,0.7819952511586625,-1.0652438451097757,9.521484721240084,-0.6809959093816942,0.2974077420669484,-1.1094512436780322
0.42,-0.3916302803007045,-1.422738831559226,2.152551292002157,-0.0435348855112047,0.2398847592520152,0.0329439362328962,0.3125529391617966,0.3429310729126514,-0.4609057041378238,-0.3901820483262257,-1.419929502973623,2.148348659103651,0.3285931569662081,0.4117085326814101,-0.5277554380165972,2.109354214763083,1.960126809215204,0.7791318349092108,0.0152210040934241,9.53165323819394,-0.6771948611881184,0.2920473690565511,-1.1154454448957931
0.44,-0.3849546553551964,-1.4157284638836152,2.143321532419437,-0.0402079328563114,0.2356625391017466,0.033608519163741,0.3522802027674926,0.35738534936025,-0.4621923214009188,-0.3901820483262257,-1.419929502973623,2.148348659103651,0.3285931569662081,0.4117085326814101,-0.5277554380165972,2.1147322319869217,1.9863631802848003,0.7227138223799279,-0.0643308631547545,10.919291406473349,-0.682491963534344,0.2952004521759181,-1.1042956918001443
0.46,-0.3775288731372666,-1.408434128675783,2.134031865563186,-0.0375590502190186,0.2275694305243802,0.0343654681971214,0.3876606268051086,0.3714100545723196,-0.4665495315103881,-0.3868961167565637,-1.4158124176468088,2.143071104723485,0.3454210338320719,0.4317085329794333,-0.5453254761564172,1.915366832557821,1.769021201880802,0.7012352606034805,-0.2178605054734606,10.68898687357978,-0.6929139125678166,0.2989733021285233,-1.089785275614642
0.48,-0.3698653936585938,-1.4012488944468728,2.1251021377290544,-0.0355074863773714,0.2175636911675988,0.0351198294225459,0.4167715635122465,0.3842913565911742,-0.4730896508224512,-0.3803242536172395,-1.4075782469931806,2.132515995963153,0.3790767875637996,0.4717085335754797,-0.5804655524360575,1.624921335237457,1.4555468353568912,0.6440651009427284,-0.3270059656031554,10.462616940484622,-0.7061883382048485,0.3027312485144097,-1.0737362388961953
0.5,-0.361251685300922,-1.3934273383172584,2.115545645851749,-0.0338269777457087,0.2057982910703613,0.035904576375969,0.4425945931897377,0.3972053953152952,-0.4822643395798022,-0.3737523904779153,-1.3993440763395524,2.121960887202821,0.4127325412955271,0.5117085341715262,-0.6156056287156977,1.5147410436168234,1.2911514838745612,0.6457019362060501,-0.4587344378675528,10.258351531183507,-0.719942871873335,0.3060265571999849,-1.0583663569805388
0.52,-0.3521698159543258,-1.3853538268112475,2.1057808042471726,-0.0327362389699773,0.1937815614560911,0.036642376461884,0.4639240873480997,0.4095116236058652,-0.4938165996347833,-0.3654977396520048,-1.3891099056561218,2.109648774628507,0.4463882950272547,0.5517085347675726,-0.6507457049953379,1.3600048604408903,1.0664747079181025,0.6153114145284994,-0.5776130027490556,10.066658010173342,-0.7333226187502561,0.3089051079852118,-1.044210456108715
0.54,-0.342703958003753,-1.3770404071769995,2.095767782652398,-0.0323887892054231,0.1822989573303592,0.0373061995745001,0.4813621630301842,0.4212874222093379,-0.506844140942127,-0.3572430888260942,-1.3788757349726914,2.097336662054193,0.4800440487589824,0.5917085353636191,-0.6858857812749781,1.237409338859014,0.8719037841042221,0.588789930173636,-0.6513770653671841,9.786797107463826,-0.7462318892940368,0.31156021286966,-1.0310458081337612
0.56,-0.3334160455821484,-1.3689179575072346,2.0860029503403426,-0.0325618782754324,0.1722470845724362,0.0378791245302228,0.495275364016069,0.4330752213963829,-0.520339759280347,-0.3481470441568905,-1.3676415642743598,2.0841460475728883,0.51369980249071,0.6317085359596655,-0.7210258575546182,1.1343071516113108,0.6956600492942416,0.5893899593522517,-0.6747809169109997,9.786797107463826,-0.7586039349133696,0.3141102549624471,-1.018697258639142
0.58,-0.3233795707701014,-1.3601225085525064,2.0754355390314974,-0.0329492888447511,0.1626978550930342,0.0384441694549468,0.5074517916271833,0.445821738926076,-0.5357249284957367,-0.3382096056443936,-1.3554073935611268,2.0700769311845924,0.5473555562224376,0.6717085365557119,-0.7561659338342585,1.1698744914409152,0.6088213805557158,0.6373258764846568,-0.7692584607694841,9.697985032851648,-0.7695000248315331,0.3164545787059292,-1.007735205818007
0.6,-0.3131227106845526,-1.3510667094134694,2.064548115834893,-0.0332628807300942,0.1542905892418934,0.0389871947298102,0.5174847674343672,0.4590705971580721,-0.552277112741432,-0.2980069811887422,-1.3378314216062026,2.0486492926067106,0.4921509002650527,0.5458217404161922,-0.5703160594080406,1.1727826432277524,0.5016487903591937,0.6624429115998032,-0.8276092122847634,9.609035233741452,-0.7788986974566083,0.3182860854485331,-0.9983952072213004
0.62,-0.3024683760310666,-1.3416793002180063,2.0536755508761075,-0.0317813646827736,0.1418566993474984,0.0397872404676377,0.5468100698595025,0.4786429999029072,-0.53203740495808,-0.2980069811887422,-1.3378314216062026,2.0486492926067106,0.4921509002650527,0.5458217404161922,-0.5703160594080406,2.0326694779815724,1.4662651212567657,0.9786201372417536,1.0119853891675967,9.530527270525454,-0.7898435576250541,0.3121429960496773,-0.9976714541687725
0.64,-0.2918657515181877,-1.332424313750164,2.043754688017574,-0.0281582447540011,0.1229013728488781,0.0408768529691359,0.5664980197986077,0.4939782858371087,-0.5132778820287791,-0.2980069811887422,-1.3378314216062026,2.0486492926067106,0.4921509002650527,0.5458217404161922,-0.5703160594080406,1.5610141479366852,0.9843974969552582,0.7667642967100763,0.9379761464650472,12.042586079910508,-0.8157981037586428,0.3209163181874727,-0.9592340208473612
0.66,-0.2804150602783205,-1.3224112166045698,2.033644281876694,-0.0239607505296136,0.098980708022308,0.0420601682374281,0.5764106700267568,0.5064092465690992,-0.4989225478954533,-0.2930854721860917,-1.3323732042020406,2.0429461320126303,0.4890907219926266,0.5658217407142154,-0.5772342855905014,1.071056764771763,0.4956325114074567,0.6215480365995257,0.7177667066662868,11.556641305454832,-0.845425287504643,0.3270731473578977,-0.9194428077476668
0.68,-0.2688771510520406,-1.312173315589353,2.023757403409487,-0.0202254429838829,0.0737654254519747,0.0431305828421885,0.576004611432035,0.5167651925982845,-0.490702139993626,-0.2832424541807907,-1.321456769393717,2.0315398108244693,0.4829703654477743,0.6058217413102619,-0.591070737955423,0.6614106285322484,-0.0203029297360934,0.5177973014592607,0.411020395091366,10.668703616060156,-0.8736046170568511,0.3312909471843843,-0.882612899846643
0.7000000000000001,-0.2574470880973072,-1.3017447976622705,2.013968808326817,-0.0172519524171545,0.0495155659921931,0.0440348575436306,0.5665161293486812,0.5257177031598729,-0.4885177870795739,-0.2733994361754896,-1.310540334585393,2.0201334896363083,0.476850008902922,0.6458217419063084,-0.6049071903203446,0.6613435855412163,-0.4744241041676866,0.4476255280794206,0.1092176457026056,10.668703616060156,-0.8972453993162182,0.3336539086330132,-0.8523570681162015
0.72,-0.2468366598426945,-1.2916812565220532,2.0046643342998567,-0.0151810008340901,0.0288521143497169,0.044739180718621,0.550633088068419,0.5333296131897665,-0.491003288746552,-0.2638624359974312,-1.2976238997472669,2.0080353458299016,0.4707296523580698,0.6858217425023548,-0.6187436426852662,0.8893676027805631,-0.7941520640131094,0.3805955014946793,-0.1242750833489042,10.327068540646906,-0.91800907759069,0.334498489428534,-0.8268059044808431
0.74,-0.2360496498070634,-1.2809403032978766,1.9947968014345423,-0.0138609438106919,0.0105598282125871,0.0453307293900527,0.5286910268689964,0.5404429466132121,-0.4957065524323384,-0.2543254358193727,-1.2847074649091406,1.9959372020234945,0.4646092958132175,0.7258217430984013,-0.6325800950501878,1.1770452958259034,-1.0971030599711329,0.3556666711722833,-0.2351631842893192,10.06695673402919,-0.9340829134715816,0.3338652429907043,-0.808676560654065
0.76,-0.22574639320733,-1.2700564184225254,1.9848185512943597,-0.0133693213836795,-0.003641988350096,0.045793550041671,0.5026997412238393,0.5476079784100957,-0.5019371082916269,-0.2449414445549356,-1.2707910300561132,1.9834931469079649,0.4584889392683653,0.7658217436944477,-0.6464165474151092,1.383568245926284,-1.2995642822578537,0.3582515898441774,-0.3115277929644222,9.971870830790069,-0.9462674923361608,0.3326445912713782,-0.7961898934068825
0.78,-0.2159975253168238,-1.2590299909704523,1.974703586155716,-0.013518124488132,-0.0133720612502324,0.0461518126753725,0.4736215153105441,0.554701801789764,-0.5092424863034436,-0.2357104622041197,-1.255874595188185,1.9707031804833115,0.452368582723513,0.8058217442904941,-0.6602529997800308,1.5404821487947362,-1.4539112956647615,0.3546911689834175,-0.3652689005908371,9.91243559355189,-0.953933080488628,0.3312725696683289,-0.7896203047216426
0.8,-0.2072997878008575,-1.2484232833396514,1.9649525526990288,-0.0141743733013849,-0.0180325617789119,0.0463995951331698,0.4435181568172542,0.5614619590522137,-0.5168157036573002,-0.1923164495512966,-1.2312949008809644,1.9492414618405436,0.4221954957909766,0.6547018032798801,-0.5028137565606782,1.5884469930385867,-1.5051679246644911,0.3380078631224859,-0.3786608676928316,9.8826616865108,-0.9578723107405122,0.3294749264046487,-0.7887116502496607
0.8200000000000001,-0.1987354201814044,-1.2370665489221375,1.9547759134614489,-0.0138318324416397,-0.0190000731952586,0.0466805616770645,0.4148468093648369,0.5735377909706602,-0.4991104260466914,-0.1923164495512966,-1.2312949008809644,1.9492414618405436,0.4221954957909766,0.6547018032798801,-0.5028137565606782,1.78979659216385,-1.4335673726208669,0.6037915959223206,0.8852638805304403,11.511233875554352,-0.9574074511489435,0.3225590119820363,-0.8007932738440479
0.84,-0.1907313404267476,-1.2254904139918392,1.9449886026323808,-0.0118033402423577,-0.0177448023217357,0.047046834091237,0.3872145903076459,0.5833668508102703,-0.4807313644571348,-0.1923164495512966,-1.2312949008809644,1.9492414618405436,0.4221954957909766,0.6547018032798801,-0.5028137565606782,1.7305633853372313,-1.3816109528595522,0.4914529919805066,0.91895307947783,11.511233875554352,-0.9597709024195455,0.3234736265263562,-0.794722521641047
0.86,-0.1832684276058144,-1.2137418766046868,1.9355379862946065,-0.0093173543795802,-0.0146391681810167,0.0474242377465291,0.3607714256403361,0.5909474458474336,-0.4651985808510214,-0.1880944945933868,-1.2247478828481655,1.9442133242749369,0.4119102918870631,0.6747018035779033,-0.501528010612125,1.579536122801779,-1.322158233365489,0.3790297518581675,0.7766391803056688,11.14924015336146,-0.9602189104199658,0.3234302855269811,-0.7923251459558435
0.88,-0.1766532457507664,-1.2024575568859417,1.9268264952362324,-0.0074015714758403,-0.0103750946075215,0.0477435372583715,0.3371358954370411,0.596705584914753,-0.4525481279080833,-0.1796505846775673,-1.211653846782568,1.934157049143723,0.3913398840792361,0.7147018041739498,-0.4989565187150189,1.370974482959979,-1.1817765101647504,0.2879069533659684,0.6325226471469075,11.000923822401091,-0.9590834285950692,0.3229308486189266,-0.7929601389638492
0.9,-0.1701555655463412,-1.190469945448408,1.9179003989842256,-0.006267980502589,-0.0049497621989624,0.0480156716201734,0.3141185390924342,0.6018626345020097,-0.4407847935654564,-0.1712066747617477,-1.1985598107169704,1.9241007740125096,0.3707694762714091,0.7547018047699963,-0.4963850268179127,1.3179243988147278,-1.1508678172303444,0.2578524793628356,0.5881667171313443,11.000923822401091,-0.9567014619932276,0.3226532914989552,-0.7955593217974698
0.92,-0.1640982509541915,-1.178386806384024,1.9091950265886264,-0.0064648871306193,0.0010210616190051,0.0481924641809742,0.2929821054555435,0.606341236299129,-0.4303884118544566,-0.1637912852363195,-1.1834657746215704,1.9141730734761515,0.3501990684635821,0.7947018053660427,-0.4938135349208066,1.1988447080675788,-1.0568216818445355,0.2239300898559615,0.5198190855499885,10.892490813570475,-0.9535761453488784,0.3229191995896131,-0.7993311143334206
0.94,-0.1584432471248716,-1.1662181498868212,1.9006958921769543,-0.0083908117580096,0.007171119667901,0.0482411323210974,0.2737590547847771,0.6105798477155541,-0.4200334592646108,-0.1563758957108914,-1.1683717385261705,1.904245372939793,0.3296286606557551,0.8347018059620892,-0.4912420430237004,1.11211122079612,-0.9611525335383176,0.211930570821256,0.5177476294922906,10.805609179623389,-0.9501695622992036,0.3238127049969621,-0.8037846314785209
0.96,-0.1534124427035041,-1.1545597896266422,1.8928153839237063,-0.0115070239260626,0.0129357574582776,0.0481849175234121,0.256893339599387,0.6167903065671398,-0.4100103526359765,-0.1494747663806589,-1.1522777024158697,1.8943819597008624,0.3090582528479281,0.8747018065581356,-0.4886705511265942,1.0289373333091183,-0.8432857592695076,0.3105229425792888,0.501155331431713,10.805609179623389,-0.9472426047940103,0.3262028224456764,-0.8065740868404043
0.98,-0.1484483924005844,-1.1421319401945769,1.884727816999244,-0.0149519287962572,0.0187585929898369,0.0481001490949256,0.2405503815206933,0.6257277996825679,-0.3992634497672512,-0.143087897245622,-1.1351836662906671,1.8845828337593595,0.2884878450401011,0.914701807154182,-0.486099059229488,1.0752522764682668,-0.8171479039346798,0.4468746557714009,0.5373451434362658,10.8238282319644,-0.9446125778283656,0.3293980841720668,-0.8078887034480648
1.0,-0.1437971775608724,-1.129508362416508,1.876855523936499,-0.0179530645219607,0.0241989757051156,0.0480369846177466,0.2255188889883868,0.6361315096320661,-0.3885009634639846,-0.1364208733245498,-1.1108455502104484,1.864764644510881,0.2520020058545519,0.725727801172684,-0.3980443659793778,1.06067674138976,-0.7515746266153297,0.520185497474912,0.5381243151633325,10.8238282319644,-0.9424921594053376,0.3328099133448384,-0.807867597064529
1.02,-0.1395227455404516,-1.1165891304986515,1.8692262450317536,-0.0176903266053321,0.0319288046931595,0.0481514465496749,0.2032485770022373,0.6544640187080158,-0.3747170420902734,-0.1364208733245498,-1.1108455502104484,1.864764644510881,0.2520020058545519,0.725727801172684,-0.3980443659793778,1.5984712801743288,-1.1135155993074712,0.9166254537974872,0.6891960686855603,10.821828782087325,-0.939409729332382,0.3352483910484986,-0.8077991580427203
1.04,-0.1358280418554672,-1.1040179472651082,1.86223211085566,-0.0136273989022795,0.042898329855204,0.0484855300664851,0.1874478115554606,0.6671520726100124,-0.3621710319036271,-0.1364208733245498,-1.1108455502104484,1.864764644510881,0.2520020058545519,0.725727801172684,-0.3980443659793778,1.1916934086914448,-0.7900382723388346,0.6344026950998283,0.6273005093323125,11.12283402518915,-0.9324375717822492,0.3330775555508969,-0.815985719209695
1.06,-0.1322050483011659,-1.0905818608940938,1.8551160959370503,-0.0084485267651017,0.0561480694954175,0.0489339697376522,0.1762285904244875,0.6756970256115162,-0.3501525691721862,-0.1339008532660043,-1.1035882721987216,1.860784200851087,0.2542923307213236,0.7457278014707072,-0.3978005492218032,0.9264591073148046,-0.5609610565486547,0.4272476500751909,0.6009231365720485,10.878707550238689,-0.9237551799391956,0.3304827777281522,-0.8257596901369666
1.08,-0.1287581115445489,-1.077001660523448,1.8482261395075008,-0.0038231861339972,0.0699433734037965,0.0494036913199647,0.1694733144291843,0.6820072527565031,-0.3395153331586791,-0.1288608131489132,-1.089073716175268,1.8528233135314995,0.258872980454867,0.7857278020667536,-0.3973129157066538,0.7046337885758478,-0.3377637997651617,0.3155113572493428,0.5318618006753539,10.79309503057084,-0.9145575440582197,0.3284979807046689,-0.8355634141403347
1.1,-0.1254031305121465,-1.063308766133692,1.841535338706091,-0.0002410230518322,0.0835411525318101,0.049855160270804,0.166723138924153,0.6872494249315351,-0.3301176269898315,-0.1238207730318222,-1.0745591601518143,1.844862426211912,0.2634536301884104,0.8257278026628001,-0.3968252821915045,0.5553393459344247,-0.137508775251563,0.2621086087515989,0.4698853084423804,10.731357782218764,-0.9045853572242564,0.3271747333367797,-0.8456387012022595
1.12,-0.1222243470872892,-1.0502074324823223,1.83534409865136,0.0021613208951236,0.0955448479092883,0.050249052871747,0.16818686232482,0.6918450520409323,-0.3220899522436874,-0.1185517004280539,-1.0580446040985585,1.836925920568082,0.2680342799219538,0.8657278032588466,-0.3963376486763551,0.4682569715235561,0.0731861700333472,0.2297813554698602,0.401383737307201,10.687122925871336,-0.8952753601668516,0.3268220233671946,-0.8542675981531603
1.14,-0.118812244520706,-1.0363242874705636,1.8289859398433777,0.0036544390328044,0.1065023688911027,0.0506081706283204,0.1731092841832005,0.6963697652393301,-0.3141902188672208,-0.1132826278242857,-1.0415300480453022,1.828989414924252,0.2726149296554971,0.905727803854893,-0.3958500151612057,0.5174675204756326,0.2461210929190271,0.2262356599198933,0.3949866688233328,10.687122925871336,-0.8873088915518795,0.3275351628111833,-0.8606934512781163
1.16,-0.1152715547222926,-1.0223444203613834,1.822780615616208,0.004230654045023,0.1152727148499322,0.0509025560991382,0.1807677635013355,0.7014352494335191,-0.3067673822660527,-0.107899038977179,-1.0240154919771451,1.8210651001183005,0.2771955793890406,0.9457278044509394,-0.3953623816460564,0.5903599300331974,0.3829239659067507,0.2532742097094476,0.3711418300584052,10.671049668160776,-0.8814036100520618,0.3294130997385127,-0.8640532206937904
1.18,-0.1115557911802016,-1.0082590895017658,1.816719771168914,0.0041410111624604,0.1215563196292425,0.0511394479178545,0.1902903541377614,0.706869402269359,-0.2996935226015963,-0.1024009338867336,-1.005500935894087,1.813152976150228,0.281776229122584,0.985727805046986,-0.394874748130907,0.6523979614174064,0.4761295318212913,0.2717076417919961,0.3536929832228197,10.658082455718612,-0.8779309787027347,0.3321020334131877,-0.8643094558519284
1.2,-0.1078401178282975,-0.9947729160083484,1.8110903917535928,0.0035915062953551,0.1252366972262102,0.0513195967772041,0.2001854198295309,0.7124595523518447,-0.293218840461619,-0.1020412734733135,-0.9729156193882978,1.8017350950388344,0.1966096981814931,0.8068694037594751,-0.3065491980865814,0.6539946708553711,0.4947532845884769,0.2795075041242822,0.3237341069988658,10.649144892491677,-0.8766447051696927,0.3356559150373908,-0.8616105199016395
1.22,-0.1036854308881555,-0.9804060796574176,1.8053437709822011,0.0042745846255473,0.1257407597745348,0.0515816144686986,0.2147842802979542,0.7235437722295845,-0.2815164850099028,-0.1020412734733135,-0.9729156193882978,1.8017350950388344,0.1966096981814931,0.8068694037594751,-0.3065491980865814,1.0873497371969238,0.7299430234211631,0.5542109938869944,0.5851177725858109,10.638155525449292,-0.880828262929627,0.3376011819307826,-0.8549015632464284
1.24,-0.0992390985439597,-0.9658463196619744,1.7998276765518035,0.0068066610909832,0.1216223827166671,0.0519417597266259,0.2285774835274059,0.7316510846453876,-0.2707347284583082,-0.1020412734733135,-0.9729156193882978,1.8017350950388344,0.1966096981814931,0.8068694037594751,-0.3065491980865814,0.9646595827988296,0.6896601614725856,0.4053656207901546,0.539087827579729,10.967933207492024,-0.8866008235074591,0.3406585428785667,-0.8432845952539156
1.26,-0.0945585783969506,-0.9511549004356944,1.7945057243562907,0.0095954752273671,0.1140402621402567,0.0522717918942899,0.23821279921743,0.7370932423121643,-0.2619292351996653,-0.1000751764914986,-0.964846925350703,1.7986696030579683,0.1978735669902394,0.8268694040574983,-0.3079203331835785,0.7070945835680076,0.4817657845012035,0.2721078833388346,0.4402746629321441,10.84624389396231,-0.8949586152844986,0.3432254465077927,-0.8294448693788841
1.28,-0.0899779084896283,-0.9371137043292996,1.7895964099070172,0.0117041021122919,0.1051888107554526,0.0525048807522994,0.2431134251702612,0.740837053618419,-0.255233784183128,-0.0961429825278687,-0.9487095372755135,1.792538619096237,0.2004013046077321,0.8668694046535448,-0.3106626033775725,0.4551409730546514,0.2450312976415597,0.1871905653127337,0.3347725508268673,10.705304821039135,-0.9052415504415514,0.3454460317936527,-0.8141542687108967
1.3,-0.0850988743453685,-0.9222665917279984,1.7845519895947808,0.0130337195524102,0.0954462329055738,0.0526609347914382,0.2441962883160021,0.7437759579746062,-0.2496034381697672,-0.0922107885642389,-0.932572149200324,1.786407635134505,0.2029290422252248,0.9068694052495913,-0.3134048735715665,0.3221433983391063,0.0541431572870468,0.1469452178093577,0.2815173006680382,10.579077582890022,-0.91535722136933,0.3473857813353453,-0.7997321363054538
1.32,-0.080237394884809,-0.90736986935478,1.7796055075617143,0.0131029064049324,0.0862747692610527,0.0527271555550034,0.2416760152286412,0.7458690247689039,-0.2453672656013493,-0.0881522077197344,-0.9144347610953324,1.7801395376630738,0.2054567798427174,0.9468694058456376,-0.3161471437655606,0.2677585809534579,-0.1260136543680456,0.1046533397148885,0.2118086284208939,10.47685672429634,-0.9243810520004287,0.3494329159191159,-0.7869012896895509
1.34,-0.0754586527626814,-0.8924379516601161,1.7747330129696326,0.0115350599593298,0.0784185299449774,0.0527042786426718,0.23627532291855,0.7474696425737657,-0.2420669245912008,-0.0840936268752299,-0.8962973729903404,1.7738714401916424,0.2079845174602101,0.986869406441684,-0.3188894139595546,0.3264265061571515,-0.270034615504558,0.0800308902430879,0.1650170505074225,10.334887950865776,-0.9314295626874088,0.3516723796183215,-0.7767970491033408
1.36,-0.07104205352027,-0.8782098278068088,1.770160776633164,0.0087254578032433,0.0726089630738572,0.0526300959262241,0.2288120748335901,0.7504779491938427,-0.2393721611079439,-0.079971852590288,-0.8771599848704474,1.7675347859653612,0.2105122550777028,1.0268694070377304,-0.3216316841535487,0.4242986298845193,-0.3731624042479953,0.1504153310038503,0.1347381741628489,10.334887950865776,-0.9374507778604364,0.3544473912107706,-0.7680115390031863
1.38,-0.0665695777816891,-0.863144996907208,1.7654010175605706,0.0054327496240763,0.0688254959560803,0.0525720878677271,0.21871111481142,0.7559160636292935,-0.2367531163573789,-0.0757868848649089,-0.8570225967356533,1.7611295749842302,0.2130399926951955,1.0668694076337768,-0.3243739543475427,0.5883491254943765,-0.5050480011085046,0.2719057217725418,0.1309522375282479,10.307977379760814,-0.9415122961685451,0.3574068499678716,-0.7614477209257647
1.4,-0.0623136874857186,-0.8479556065115551,1.7606917810826035,0.0025097535659176,0.0679829786322218,0.0525706303381864,0.2077037488163945,0.7627148510755639,-0.2342968585118797,-0.0556340220411181,-0.8253491937257433,1.7535633617427016,0.1997640946383472,0.8559160651194097,-0.2194657595783996,0.6584428970905227,-0.5503682997512762,0.3399393723135191,0.1228128922749594,10.284473432599045,-0.9435028742865428,0.3595846232265081,-0.7582052268551027
1.42,-0.0582228447476186,-0.832556848703079,1.756170912388313,0.0022149252809063,0.0684538513836987,0.0527609031823556,0.2020951774432638,0.7761582616394449,-0.2171655983012415,-0.0556340220411181,-0.8253491937257433,1.7535633617427016,0.1997640946383472,0.8559160651194097,-0.2194657595783996,1.1243458507518564,-0.2804285686565363,0.6721705281940493,0.8565630105319133,10.284473432599045,-0.9464431810808296,0.3581512115266616,-0.7579903880530172
1.44,-0.054433808035679,-0.8177086584672301,1.7522072261839248,0.0050605563878313,0.0686583195017467,0.0531563899294978,0.1970067844467834,0.7857898997614685,-0.2009798048053889,-0.0556340220411181,-0.8253491937257433,1.7535633617427016,0.1997640946383472,0.8559160651194097,-0.2194657595783996,0.9755000093421716,-0.254419649824017,0.4815819061011805,0.8092896747926265,11.219714912975178,-0.9505147759747306,0.3601053048536311,-0.7493548498509016
1.46,-0.0505506999213934,-0.801927728842638,1.7483459308935887,0.0091647571829138,0.0687387946009629,0.0536433544764934,0.191557164896228,0.7916230723183646,-0.1860909075653464,-0.0536363810947346,-0.8167900330745492,1.7513687041469177,0.1959746906037326,0.8759160654174328,-0.2160082882226038,0.8446944955853375,-0.2724809775277698,0.2916586278448041,0.7444448620021262,11.093737792272805,-0.954431332664001,0.3609213168351565,-0.7418377029776623
1.48,-0.0467787868813112,-0.7860604532076698,1.7447560460256626,0.0127338650745349,0.068753662086372,0.0540859252999348,0.1858877445021405,0.7950381519426014,-0.1736176208991649,-0.0496410992019677,-0.799671711772161,1.7469793889553495,0.1883958825345035,0.9159160660134792,-0.209093345511012,0.7060240376600386,-0.283471019704376,0.1707539812118408,0.6236643333090736,10.944412889543855,-0.9576126652307676,0.3612879249306147,-0.7361200168256106
1.5,-0.0431225511173639,-0.7701371334628523,1.7413961739741255,0.0152652847078023,0.0687676826538608,0.0544509535586444,0.1800028147096164,0.7974381450915875,-0.162975053919231,-0.0456458173092007,-0.7825533904697728,1.7425900737637816,0.1808170744652744,0.9559160666095258,-0.2021784027994203,0.619791492561203,-0.2942464896262056,0.1199996574493045,0.5321283489966951,10.80145367102068,-0.9601313524176628,0.361758354348804,-0.731662160881574
1.52,-0.0397597358075478,-0.7549716694285471,1.7383883427726423,0.0165702874721801,0.0688211263990216,0.0547186126863752,0.1742653774986995,0.7990423579957162,-0.1541564339906026,-0.0420294758198953,-0.7634350691375823,1.7385465057077931,0.1732382663960453,0.995916067205572,-0.1952634600878286,0.5321178023628547,-0.2868718605458439,0.0802106452064355,0.4409309964314226,10.690357735024918,-0.96240117132618,0.362637949131421,-0.7275318863089534
1.54,-0.0363378614922758,-0.7389809387711879,1.7353999980156825,0.0165224176581306,0.0689350073071126,0.0549012732869211,0.1682198652114419,0.8001002524637585,-0.1451407561845753,-0.0384131343305898,-0.7443167478053917,1.7345029376518046,0.1656594583268161,1.0359160678016186,-0.1883485173762369,0.5453205612825144,-0.3022756143628832,0.0528947234021137,0.4507838903013636,10.608456960751028,-0.9644378965628678,0.3640901030067527,-0.7237144689077875
1.56,-0.0330382071332474,-0.7229624119712939,1.732590559777807,0.0149918238492652,0.069129808387118,0.0549835516628145,0.1620563830840396,0.8018394127194736,-0.1362400336280519,-0.034986263043015,-0.7241984264583001,1.730632243163606,0.158080650257587,1.075916068397665,-0.1814335746646452,0.5482610061778735,-0.3081741063701113,0.0869580127857538,0.4450361278261691,10.58175775746895,-0.9664860278937768,0.3664177005600928,-0.7195301172897056
1.58,-0.029862710698221,-0.7068971689255076,1.7299598450537574,0.0123571887264287,0.0694314307120936,0.0549941854516752,0.1558065755651922,0.8048603203684757,-0.1272590273197115,-0.031748861957171,-0.7030801050963073,1.7269344222431973,0.1505018421883579,1.115916068993711,-0.1745186319530534,0.5675483489467928,-0.3124903759423716,0.1510453824501045,0.4490503154170225,10.579732819952367,-0.9689120512577272,0.3694895519954437,-0.7144586101966505
1.6,-0.026962814549528,-0.6915565512405075,1.7276285459219145,0.0096168978303206,0.0698224180746728,0.0549933806089543,0.14977776999328,0.8098038833176033,-0.1185797858728765,-0.0220723819199614,-0.6666541529070837,1.723596893687772,0.1344181472794742,0.8943785992056796,-0.1199898013050974,0.5833406880810821,-0.3014402785956077,0.2471781474563839,0.433962072341746,10.58129411646314,-0.971536881321628,0.3730739235299238,-0.7086906081787394
1.62,-0.0240389604664912,-0.6751977551059931,1.7253603453358688,0.0101814726423855,0.0703200485923761,0.0552361624147104,0.142995214852563,0.8248739138548201,-0.10866117656001,-0.0220723819199614,-0.6666541529070837,1.723596893687772,0.1344181472794742,0.8943785992056796,-0.1199898013050974,0.9637007903529964,-0.3391277570358508,0.7535015268608392,0.4959304656433266,10.58129411646314,-0.976530400446392,0.3755331530129565,-0.7002309418347721
1.64,-0.0212468819110414,-0.6585973141969673,1.723283660734797,0.0151522143006003,0.070868714275744,0.0557827253155007,0.1366184149213248,0.8334693392374012,-0.099550183993187,-0.0220723819199614,-0.6666541529070837,1.723596893687772,0.1344181472794742,0.8943785992056796,-0.1199898013050974,0.7027714785463043,-0.3188399965619121,0.4297712691290534,0.4555496283411515,10.625638891026028,-0.9780746540998684,0.3747490067373075,-0.6974619121127018
1.66,-0.0185793987052966,-0.6418910444869069,1.721369871991437,0.0208187897863491,0.0714646809278178,0.0563723735854897,0.1304716907237793,0.8367301350028664,-0.0922728925503334,-0.0207282004471667,-0.6577103669150269,1.722396995674721,0.1301404616223306,0.9122822549731204,-0.1185359561021745,0.5034232268404936,-0.3073362098772764,0.1630397882732615,0.3638645721426803,10.553113193589525,-0.97933638312354,0.3730426980836296,-0.696100015559431
1.68,-0.0161576031583033,-0.6259877336007426,1.719671274727636,0.0254190721366785,0.0720790599515094,0.0568735393802522,0.124767495175481,0.8374013362831318,-0.086877882575271,-0.0180398375015772,-0.6398227949309134,1.719997199648619,0.1215850903080434,0.948089566508002,-0.1156282656963289,0.394000287572476,-0.285209777414911,0.0335600640132716,0.2697504987531178,10.357564826897033,-0.9802727393757844,0.3711960620972439,-0.6955868924186961
1.7,-0.0137238292521622,-0.6092458257569937,1.717982913075171,0.0289998149715025,0.0727584202521019,0.0573092369004469,0.1189131781544803,0.8369972897221353,-0.0822793085528559,-0.0153514745559877,-0.6219352229467998,1.717597403622517,0.1130297189937563,0.9838968780428836,-0.1127205752904833,0.3727705877797455,-0.2927158510500363,-0.0202023280498286,0.2299287011207539,10.357564826897033,-0.9809116470224852,0.3697452229007979,-0.6955101547448278
1.72,-0.0114057986084321,-0.5925174714157927,1.716377321285701,0.0312495263381325,0.073447165122761,0.0576486349638275,0.1131844056112054,0.836110944481033,-0.0785320056205257,-0.0130908801761126,-0.6022572853859421,1.7153429921167074,0.1044743476794691,1.0197041895777652,-0.1098128848846376,0.3451330250992189,-0.2864386271637431,-0.0443172620551157,0.1873651466165103,10.295627505683116,-0.9813094870581184,0.3688560729912974,-0.6955836291205661
1.74,-0.0093082548723095,-0.5766477737086994,1.7149160094651872,0.0321026156007283,0.0740918158960911,0.0578787194092523,0.1078974953824235,0.8346592087827762,-0.0754653348083247,-0.0108302857962374,-0.5825793478250845,1.7130885806108975,0.0959189763651819,1.0555115011126468,-0.106905194478792,0.3140996106937955,-0.2643455114390944,-0.0725867849128369,0.1533335406100539,10.249639469278009,-0.9813741262834632,0.3685730389716862,-0.695836907946204
1.76,-0.0072080441972757,-0.5599682648879222,1.7134392115154735,0.0316878317905691,0.0747552455116572,0.0580274934228072,0.1024129181061126,0.8334638254913649,-0.0723768750594933,-0.0087835756992195,-0.5620062274758548,1.7109068613652345,0.0873636050508947,1.0913188126475284,-0.1039975040729463,0.320344005458831,-0.2742288638155454,-0.0597691645705666,0.1544229874415693,10.22508693013424,-0.9815766025007884,0.3690323331835683,-0.6956050413407197
1.78,-0.0052167502225407,-0.5433080671204434,1.712023952222378,0.0300789875656569,0.0754165284600529,0.0580927822223618,0.097004842932431,0.8327295022988359,-0.0692969519067921,-0.0069507498850587,-0.5405379243382531,1.7087978343797168,0.0788082337366075,1.12712612418241,-0.1010898136671007,0.3133386118156452,-0.2704037586840818,-0.0367161596264487,0.1539961576350577,10.215776691165956,-0.981826343157004,0.3701597729250364,-0.6949486628443481
1.8,-0.0034245103262974,-0.5274854604907064,1.7107377788525937,0.0276695253694906,0.0760486862944547,0.0580944767766345,0.0919275152827398,0.8330620814879727,-0.066234403207837,-0.0003665080759191,-0.5016715920055016,1.7085591046270383,0.0750699145599287,0.8626682429546157,-0.0796236941013851,0.2969388384534662,-0.2538663824845605,0.016628959456838,0.1531274349477564,10.215776691165956,-0.9824563146198632,0.3720380073885416,-0.6934326365314705
1.82,-0.0016578709015198,-0.510560189504974,1.7094465869244222,0.0326807689724319,0.0767094738320047,0.0586195678079061,0.0852252806352296,0.8559654388655641,-0.0631576304738145,-0.0003665080759191,-0.5016715920055016,1.7085591046270383,0.0750699145599287,0.8626682429546157,-0.0796236941013851,1.2030692611948626,-0.3351117323755085,1.1451678688795708,0.1538386367011236,10.220838459566949,-0.9870528270968356,0.3718144388475506,-0.6872448833982719
1.84,-1.4391181587344055e-05,-0.4933610645712954,1.7081990204867794,0.0459636901322908,0.0773593377864625,0.0597067020261187,0.0795499414453526,0.8614967672506734,-0.0618507028729063,-0.0003665080759191,-0.5016715920055016,1.7085591046270383,0.0750699145599287,0.8626682429546157,-0.0796236941013851,0.4016003248818563,-0.2837669594938495,0.276566419255464,0.0653463800454119,10.174872609886734,-0.9859844277879584,0.3646618892386933,-0.6917559645179477
1.86,0.0015210665177437,-0.476167530007278,1.7069447844363963,0.0602595312679547,0.0780242719307165,0.0608470022992709,0.0743180969885367,0.8574243562129815,-0.0636584720484127,0.0003841910696801,-0.4930449095759554,1.7077628676860244,0.0706829288854282,0.8686559910857717,-0.0816890425403037,0.343601358670704,-0.2615922228407979,-0.2036205518845923,-0.0903884587753221,10.070005940936426,-0.9842518567865948,0.3559457811783466,-0.6985682555208332
1.88,0.0028861929338605,-0.4599658639965333,1.70569475865256,0.0723515911051138,0.0786880824558252,0.0618112549297235,0.0696481595524147,0.8485655482612295,-0.0678336744055949,0.0018855893608787,-0.4757915447168631,1.7061703938039967,0.0619089575364273,0.8806314873480836,-0.0858197394181408,0.5424921859039471,-0.2334968718060964,-0.4429403975875989,-0.2087601178591108,9.920041947337268,-0.9817109803939664,0.3464227053627803,-0.7072401580720559
1.9,0.0042305479096255,-0.4431217379204627,1.7042757396435284,0.0827643903027737,0.0794001235691339,0.0626483575793873,0.0650389131864596,0.8366085219928584,-0.0739108744658621,0.0033869876520772,-0.4585381798577708,1.704577919921969,0.0531349861874263,0.8926069836103956,-0.089950436295978,0.7091332558431795,-0.2304623182977555,-0.597851313418557,-0.3038600030133592,9.80620026694487,-0.9786997800874176,0.3374053471540293,-0.716478487754872
1.92,0.0054860118093903,-0.4265359468285437,1.702722683242227,0.0907187952362453,0.0800854224327213,0.063294586966843,0.0607371354964006,0.8229285502300484,-0.0811130493947936,0.0044496873758258,-0.4406860401855629,1.7027789111960494,0.0443610148384254,0.9045824798727076,-0.0940811331738152,0.8023687469500819,-0.2150888845029508,-0.6839985881404997,-0.3601087464465753,9.699903487376105,-0.9752889617928484,0.3292505569987414,-0.7258662754463777
1.94,0.0066588345381133,-0.4102364546789369,1.7010192317692536,0.0963350155489914,0.080699983941176,0.0637546126871591,0.0567389640577808,0.808249061326145,-0.088841154838259,0.0055123870995743,-0.4228339005133549,1.70097990247013,0.0355870434894245,0.9165579761350194,-0.0982118300516524,0.8532238614187622,-0.1999085719309928,-0.733974445195168,-0.3864052721732708,9.691578998913428,-0.9719348271123012,0.3224965106827823,-0.7344936995308445
1.96,0.0077006962500027,-0.3950250904747208,1.6992577741517565,0.0999355321710802,0.081204781417693,0.0640481427137634,0.0531170672598399,0.7940642017188002,-0.0961677631406639,0.0063557375395978,-0.4046823734345892,1.6990776263222644,0.0268130721404235,0.9285334723973314,-0.1023425269294896,0.8185468338951132,-0.1810948398970429,-0.7092429803672418,-0.3663304151202445,9.691578998913428,-0.9684844835761912,0.3164094452601022,-0.7429850916288131
1.98,0.008724829472882,-0.3793028819000807,1.6972547422403503,0.1023405544027975,0.0816552667547044,0.0642374731429997,0.0494849704472762,0.7791359521621811,-0.1037299869425911,0.0069797386958963,-0.3862314589492657,1.697072082752453,0.0180391007914226,0.9405089686596432,-0.1064732238073267,0.8562008977321959,-0.1816048406281838,-0.7464124778309544,-0.3781111900963592,9.705062139987604,-0.9651182737704312,0.3112347637168784,-0.7509004951770717
2.0,0.0096785778155783,-0.3638848872042413,1.695103292615815,0.1034552024590062,0.082019009754938,0.0643134353188554,0.0460623188675203,0.7636381871533134,-0.1110325355202609,0.0111990779952458,-0.3403460842919717,1.6920682428932208,0.0190860055653792,0.7648362698206651,-0.0953564703308362,0.8735308807302058,-0.171132578987794,-0.774888250443384,-0.3651274288834882,9.723144482683892,-0.9618180630810316,0.3070138558139184,-0.7582063267637924
2.02,0.0105396031376804,-0.3494136525132268,1.6930003192720375,0.107079645763836,0.0816545099808889,0.0644758639851887,0.0447428954317721,0.758188555756436,-0.1102029578383268,0.0111990779952458,-0.3403460842919717,1.6920682428932208,0.0190860055653792,0.7648362698206651,-0.0953564703308362,0.2834058913246063,-0.0659711717874139,-0.2724815698438743,0.0414788840967059,9.748731430301632,-0.9641829031709228,0.3030312013596776,-0.758826002601914
2.04,0.0114227019080446,-0.334389734174973,1.6907982314700565,0.1135328004700368,0.0799492858050281,0.0646598710781925,0.0435609210829033,0.744126425899945,-0.1101278295124777,0.0111990779952458,-0.3403460842919717,1.6920682428932208,0.0190860055653792,0.7648362698206651,-0.0953564703308362,0.7055958540969853,-0.059098717443437,-0.7031064928245456,0.0037564162924504,10.156104098533431,-0.9638048215203808,0.2971401668721334,-0.7620163137237611
2.06,0.0122784687357925,-0.3196985570547054,1.6885862905568512,0.1197321377697614,0.0770097977092302,0.064643887009092,0.0419370547895813,0.7258437902558221,-0.1110568958905299,0.0113899380508996,-0.3326977215937651,1.6911146781899125,0.0130062125889998,0.7619763333523619,-0.0936817670084852,0.9189054251787396,-0.0811933146661027,-0.9141317822061455,-0.0464533189026082,10.134404212724805,-0.9641750125295914,0.2909820308652129,-0.7647254521328304
2.08,0.0130530208745689,-0.3061042299247038,1.6864626214330138,0.1244322515440621,0.0732444357796607,0.0643866602676348,0.0395305395934332,0.7063777390944281,-0.1124036089650792,0.0117716581622072,-0.3174009961973518,1.6892075487832956,0.0008466266362411,0.7562564604157554,-0.0903323603637833,0.9830209805905236,-0.1203257598074013,-0.9733025580696996,-0.0673356537274655,10.107875165178484,-0.9652284114686256,0.2848263680014825,-0.7668565224934967
2.1,0.0138057874102186,-0.2922034468877377,1.6841989518284797,0.1279477503198506,0.0685199219901558,0.0638795463641956,0.0356925979722126,0.68496502657371,-0.1138585829365343,0.0121533782735147,-0.3021042708009385,1.687300419376679,-0.0113129593165176,0.7505365874791491,-0.0869829537190813,1.0901272891736438,-0.1918970810610307,-1.0706356260359096,-0.0727486985727533,10.09988299068209,-0.9668832401407972,0.279316153633725,-0.7681983637329717
2.12,0.0144641132454668,-0.278739542294672,1.6819078770215032,0.1300145093942445,0.0634124286683897,0.0631874299923426,0.0301369416191778,0.6627437840223088,-0.1151365486170989,0.0119271190871844,-0.2870935390513555,1.6855607603022973,-0.0234725452692764,0.7448167145425427,-0.0836335470743794,1.1470419939151275,-0.2777828176517392,-1.111062127570056,-0.0638982840282326,10.109062655164962,-0.9684034144389032,0.2736929130505819,-0.7703923563092122
2.14,0.0149907667211089,-0.2657312578203989,1.679597063096244,0.1304760284702046,0.0584967953293665,0.0623844979489635,0.0226422628779164,0.639483055628573,-0.1158554572903344,0.011700859900854,-0.2720828073017725,1.6838211012279156,-0.0356321312220352,0.7390968416059363,-0.0802841404296774,1.2224448091041955,-0.3747339370630705,-1.1630364196867915,-0.0359454336617708,10.131725273771735,-0.9695072099212249,0.2686862220550098,-0.7732437570393597
2.16,0.0153320223644592,-0.2538136622832615,1.6773944008541204,0.1290817971550582,0.0546599567691961,0.0615925649644545,0.0135403076086623,0.6164584152186056,-0.1159409564987585,0.0111706110657047,-0.2572150723756047,1.6821651773196515,-0.047791717174794,0.7333769686693299,-0.0769347337849754,1.237928679131444,-0.4550977634627037,-1.1512320204983717,-0.0042749604212091,10.180731592341544,-0.9701971798666184,0.2646911644105394,-0.7765561962219973
2.18,0.0154856326262962,-0.2417376505728745,1.6750821992641756,0.1255136534420784,0.0522413694853493,0.0608219656737953,0.0021624196027555,0.5929868169422984,-0.1151638606440006,0.0103363725817364,-0.242490334272852,1.680592988577505,-0.0599513031275528,0.7276570957327234,-0.0735853271402735,1.3047759760652289,-0.5688944002953444,-1.173579913815359,0.0388547927378989,10.237951205728676,-0.9709567053601332,0.2621895805877541,-0.7798806360943537
2.2,0.0154012314408457,-0.2301033943588958,1.6727995743703432,0.1207522104837667,0.0519837361017245,0.0602419181611668,-0.0097509248564809,0.5720212335349282,-0.1130842124985087,0.015593753606434,-0.2120883097257595,1.6693240062319756,-0.0030669668982587,0.5429177716668486,-0.1124435381840644,1.2101739546702213,-0.5956672229618236,-1.04827917036851,0.1039824072745942,10.297248109002794,-0.9722223636272534,0.2611870248752664,-0.7822718215020296
2.22,0.0150426361960097,-0.2192689325469309,1.6706310236624713,0.1206108740742829,0.055062991148703,0.0603946614228101,-0.0265204841408895,0.5672543464479984,-0.1155602820458196,0.015593753606434,-0.2120883097257595,1.6693240062319756,-0.0030669668982587,0.5429177716668486,-0.1124435381840644,0.8804434273364077,-0.838477964220429,-0.2383443543464869,-0.1238034773655465,10.349507173125858,-0.9702998812376052,0.2614947726089648,-0.7845148207240701
2.24,0.0143674403906461,-0.2080503336729369,1.6682871002027664,0.126230049319613,0.0621654563718342,0.061433526942342,-0.039483578016038,0.5536373861290463,-0.1187979028371621,0.015593753606434,-0.2120883097257595,1.6693240062319756,-0.0030669668982587,0.5429177716668486,-0.1124435381840644,0.953867914771697,-0.6481546937574258,-0.6808480159476049,-0.1618810395671244,10.003913410189853,-0.9636123770244288,0.250742787768915,-0.8012197452176432
2.26,0.0134862517793382,-0.1971864252015376,1.665875894627402,0.1332010001004566,0.0713651521140997,0.062868377999178,-0.0475413600348974,0.5332917249605152,-0.1221771359792337,0.0155630839374514,-0.206659132009091,1.668199570850135,-0.0041128441984615,0.5329039626117587,-0.1118994736920772,1.10712803694582,-0.4028891009429668,-1.0172830584265546,-0.16896165710358,10.017644815365202,-0.9550288153455128,0.23871255095503,-0.8202350906620637
2.28,0.0124931307845497,-0.1867700134489716,1.663399679810022,0.139436846712113,0.081137453483697,0.064372043554416,-0.0511034391868018,0.5096146074578998,-0.1252909005157161,0.0155017445994862,-0.1958007765757541,1.6659507000864535,-0.0062045987988672,0.5128763445015788,-0.1108113447081027,1.207259117490678,-0.1781039575952245,-1.1838558751307735,-0.1556882268241202,10.051222032825535,-0.9459424797256916,0.2278000452167313,-0.8384707354498112
2.3000000000000003,0.0115216397025665,-0.1773311263366367,1.6609939889999772,0.1440648496615804,0.0898915728686101,0.0656651653990345,-0.0508819274792862,0.4854788430286791,-0.1277819822922723,0.015440405261521,-0.1849424211424171,1.6637018293227723,-0.0082963533992729,0.4928487263913989,-0.1097232157241283,1.2132494389416462,0.0110755853757832,-1.2067882214610304,-0.1245540888278107,10.159389271108012,-0.9361384203066392,0.217560690951557,-0.8566189921044058
2.32,0.0105343277143073,-0.1678971662249532,1.658416829996067,0.1475307947050489,0.0978077368335558,0.0667521974939826,-0.0477578670377132,0.4594187826244533,-0.1297654354175343,0.0152744781935356,-0.1750854466145891,1.6615073650082897,-0.0103881079996786,0.472821108281219,-0.1086350867401538,1.3160742648257104,0.1562030220786513,-1.3030030202112934,-0.0991726562630967,10.22597642637993,-0.926948008063826,0.2088444828374274,-0.8727501070108442
2.34,0.0096343139647807,-0.1589913188044374,1.65580523835277,0.1496029578791015,0.103939620523142,0.0674721384461004,-0.0423930359656286,0.4326982638640917,-0.1312639559135909,0.0151085511255501,-0.1652284720867611,1.6593129006938072,-0.0124798626000843,0.452793490171039,-0.1075469577561794,1.3647464040362414,0.268241553604228,-1.3360259380180788,-0.0749260248028335,10.22597642637993,-0.9186113928149112,0.201402750627385,-0.8869797034189197
2.36,0.0088578350504116,-0.1506319640951069,1.6531682889380026,0.1500188579222258,0.1080989132750817,0.0677611705159008,-0.0355845016118991,0.4047545962981522,-0.1323220622497835,0.0148903301925545,-0.1558721880116877,1.657145639603924,-0.01457161720049,0.4327658720608591,-0.1064588287722049,1.4390311724388936,0.3404267176864737,-1.3971833782969734,-0.0529053168096288,10.28000405264538,-0.9112665474033014,0.1950560717317513,-0.8997004901035913
2.38,0.0082274099978213,-0.1428445655242382,1.6505168765169522,0.1481065679650716,0.1102902739966462,0.0675648910458135,-0.0279998402928835,0.375772249871103,-0.1327306654444421,0.0146198153945488,-0.1470165943893687,1.6550055817386402,-0.0166633718008957,0.4127382539506792,-0.1053706997882304,1.4980574490922822,0.3792330659507823,-1.449117321352461,-0.0204301597329273,10.336768465311252,-0.9059556476852808,0.190968514877842,-0.9094375474855514
2.4,0.0077706459824563,-0.1359753301958248,1.6480001365309127,0.1440532643401034,0.1106940111575317,0.0669504863398713,-0.020636232741543,0.3495474771814406,-0.132057007879521,0.0068274179831771,-0.124055953030683,1.6438803432447302,-0.0172609766831523,0.3598561966653745,-0.1236080013355696,1.3623648862450517,0.368180377567026,-1.3112386344831195,0.0336828782460552,10.397020172937118,-0.90340223916026,0.1899635388542321,-0.9151716060342864
2.42,0.0074116453135108,-0.1293365912017189,1.645328469743761,0.1357621793915546,0.110330353784862,0.0658944905732212,-0.0159042665190083,0.3176283131046209,-0.1350081492903428,0.0068274179831771,-0.124055953030683,1.6438803432447302,-0.0172609766831523,0.3598561966653745,-0.1236080013355696,1.620134080347067,0.2365983111267334,-1.595958203840986,-0.1475570705410905,10.456170956961614,-0.8971560875770599,0.1907744370199386,-0.924695750418053
2.44,0.0071403898517769,-0.1232404851756398,1.642623307202965,0.1243718861361418,0.1101195662036051,0.0646431123419015,-0.0114572010869726,0.2942140727718988,-0.1351711977369486,0.0068274179831771,-0.124055953030683,1.6438803432447302,-0.0172609766831523,0.3598561966653745,-0.1236080013355696,1.19166860547639,0.2223532716017827,-1.1707120166361051,-0.0081524223302903,10.27570629816455,-0.8968830442803004,0.1961165683974719,-0.9272128823657948
2.46,0.0069597773619063,-0.1175552577688128,1.639942691051591,0.1127928741411552,0.1098221503647892,0.0633740165022952,-0.0068761006349383,0.2757142914252355,-0.1328759118038664,0.0066548082163456,-0.1204573910640292,1.6426442632313745,-0.015113203961206,0.3566729860242288,-0.1217834685137951,0.9598134307517576,0.2290550226017182,-0.9249890673331624,0.1147642966541073,10.393028330474408,-0.8972424055883449,0.202809720222254,-0.9275049001417828
2.48,0.0068728515677713,-0.1124636941419224,1.6374540684292611,0.102585645738735,0.1093559491216196,0.0622114704242993,-0.0025475955529545,0.2611786734530614,-0.1292107536987914,0.0063095886826826,-0.1132602671307217,1.6401721032046632,-0.0108176585173136,0.3503065647419374,-0.1181344028702462,0.7801498734425154,0.2164252540991867,-0.7267808986087088,0.1832579052537516,10.493098196018764,-0.8981888604597014,0.2103009427421254,-0.9261628609026658
2.5,0.0068682284069634,-0.1073783205680016,1.6349201008427086,0.0929915296112686,0.1086441261768616,0.0610560593874069,0.0018153286278265,0.2481494042294982,-0.124347410886372,0.0059643691490195,-0.1060631431974143,1.6376999431779518,-0.0065221130734211,0.3439401434596459,-0.1144853372266972,0.7287816326212648,0.218146209039054,-0.6514634611781602,0.2431671406209673,10.56434367394104,-0.8996931597289589,0.2176100744388406,-0.9235419058678762
2.52,0.0069479566471746,-0.1025333830483307,1.6324913594779094,0.0846342198848609,0.107722484068877,0.0599792484972181,0.0058930468622012,0.2369812962400611,-0.1187522312914746,0.0058339268875511,-0.0991843403282213,1.6354102364334178,-0.0022265676295286,0.3375737221773545,-0.1108362715831483,0.6570016300623539,0.2038859117187374,-0.5584053994718507,0.2797589797448728,10.612837032696916,-0.901601211378882,0.2241230776202554,-0.9201322422502524
2.54,0.0071052322632229,-0.0978945652007912,1.6301786407972894,0.0774845176518452,0.106630719383684,0.0589841379493894,0.0095801828989153,0.2273500919797075,-0.1128101440144337,0.0057034846260827,-0.0923055374590284,1.6331205296888838,0.0020689778143638,0.3312073008950631,-0.1071872059395993,0.5951123189488278,0.184356801835703,-0.481560213017683,0.2971043638520416,10.644683760784574,-0.9038900132613548,0.2303863703879447,-0.9159486844247026
2.56,0.0073191122138243,-0.0936552202417308,1.6280932609674417,0.0716643654726301,0.1054834763770596,0.0581084794595923,0.0127060873366005,0.2192959615841159,-0.1070040363255486,0.0056804310007115,-0.0855858951218928,1.6309220495854386,0.0063645232582563,0.3248408796127717,-0.1035381402960503,0.5204593679569602,0.1562952218842624,-0.402706519779579,0.290305384444256,10.65400721786864,-0.9064318746580624,0.2359662655023675,-0.9114157608777416
2.58,0.0076038687972795,-0.0893484283049562,1.626018811629096,0.0664138522693408,0.1042114412845657,0.0572533185511737,0.0155589643728043,0.2117844595088316,-0.1007405134264824,0.0057647660114378,-0.0790254133168145,1.628814796123082,0.0106600687021487,0.3184744583304803,-0.0998890746525014,0.5093949595299954,0.1426438518101913,-0.3755751037642141,0.3131761449533116,10.656475624258746,-0.909169180066314,0.2409394336480222,-0.9066289782926812
2.6,0.0079409028506564,-0.0851823924642176,1.624070513397173,0.0619562030631304,0.1029304733201483,0.0564621415227221,0.0179608454103238,0.2051655931762904,-0.0943997968784736,0.0083818170159197,-0.0787592053295146,1.620981785957772,0.0181338915463592,0.2036667176036788,-0.0921090791348812,0.4737697499541193,0.1200940518759752,-0.3309433166270609,0.3170358274004379,10.655322746770253,-0.9120126941279704,0.2453667347016792,-0.9017021068679472
2.62,0.008328339879874,-0.081109524579137,1.6222319112639525,0.0591459724022463,0.1013461173964198,0.0557747709443077,0.0206230744140507,0.201711511551987,-0.089822576530493,0.0083818170159197,-0.0787592053295146,1.620981785957772,0.0181338915463592,0.2036667176036788,-0.0921090791348812,0.3161055569331338,0.1331114501863442,-0.1727040812151692,0.2288610173990304,10.655322746770253,-0.9151193110844266,0.2488942568118452,-0.8961767400919057
2.64,0.0087413659566061,-0.0773206137252565,1.6205683756011784,0.0577864460086039,0.0993263250405594,0.0551859807686571,0.0226509763455676,0.1971831409892418,-0.085507426810349,0.0083818170159197,-0.0787592053295146,1.620981785957772,0.0181338915463592,0.2036667176036788,-0.0921090791348812,0.3287820072047984,0.1013950965758457,-0.2264185281372621,0.2157574860071995,10.528061899738532,-0.9180811610692254,0.250585110655503,-0.8919271268301746
