t,x,y,z,roll,pitch,yaw,v_x,v_y,v_z,ref_x,ref_y,ref_z,ref_v_x,ref_v_y,ref_v_z,a_com,a_x,a_y,a_z,thrust,wind_x,wind_y,wind_z
0.0,-0.3334260406589537,0.8790895984981906,1.9694601514034007,0.0217320506413244,0.0997595905469537,0.0420650747859606,0.004227904750107,-0.0041933599290235,0.009992855088657,-0.3332937432055491,0.878882541842241,1.969761454373944,0.0023575246563213,-0.1061910275561422,-0.0899694829757777,0.581628315363896,0.2113952375053533,-0.2096679964511795,0.4996427544328518,10.24667029099146,-0.9430187656871036,0.2621920073876226,-0.8724175856396454
0.02,-0.3333894666723786,0.8792753879762218,1.969440647924631,0.0288292653272584,0.1000473254895603,0.0425685026446027,-2.662933751540545e-05,0.0185548304029944,-0.0121771517000635,-0.3332937432055491,0.878882541842241,1.969761454373944,0.0023575246563213,-0.1061910275561422,-0.0899694829757777,1.602412575381555,-0.2127267043811236,1.137409516600903,-1.10850033943603,10.245937091795897,-0.9373787096991726,0.2632149655761945,-0.8705020897622958
0.04,-0.3334324274031316,0.8796950322444226,1.9688940831360504,0.043204362436663,0.1010212052869871,0.0435870038034763,-0.0039154353824331,0.0214299631113722,-0.0415252459560578,-0.3332937432055491,0.878882541842241,1.969761454373944,0.0023575246563213,-0.1061910275561422,-0.0899694829757777,1.4871952099543746,-0.1944403022458861,0.1437566354188912,-1.467404712799712,8.890601994639383,-0.92533717868846,0.2437454223858558,-0.8952333466808349
0.06,-0.3335427290381504,0.8800882283697107,1.9677516554413856,0.0581650970733458,0.1025977785955162,0.0446640562901662,-0.0067871947609913,0.0173903151458793,-0.0712712634433516,-0.3332701679589859,0.8778206315666796,1.9688617595441864,0.0019565288672255,-0.1261910278541654,-0.1099694832738009,1.507805784880664,-0.1435879689279101,-0.2019823982746467,-1.4873008743646912,8.656955167765318,-0.914025022476076,0.2218235514789516,-0.9206596869678052
0.08,-0.3336988005852433,0.8803616166083069,1.96602036603105,0.0725902348428944,0.1045665393798652,0.0457229927715741,-0.0085580996642454,0.0098360166711132,-0.1004481071480689,-0.3332230174658595,0.8756968110155567,1.9670623698846703,0.001154537289034,-0.1661910284502119,-0.1499694838698474,1.5095460726587004,-0.0885452451627043,-0.3777149237383034,-1.458842185235864,8.69863403819636,-0.9041175117380836,0.201738183522228,-0.94233904195888
0.1,-0.3338692435427304,0.8804541675020222,1.963840179164696,0.0856541156148477,0.1065967070228892,0.0466935174876015,-0.0092126045059101,2.414145267025673e-05,-0.1276569678814003,-0.333175866972733,0.8735729904644339,1.965262980225155,0.0003525457108425,-0.2061910290462583,-0.1899694844658938,1.4465678123543733,-0.0327252420832387,-0.4905937609221517,-1.360443036666574,8.761155238285482,-0.893717527029912,0.1808168174819498,-0.964267329926146
0.12,-0.3340517681809289,0.8803235705382352,1.9609880807268487,0.0987335090953854,0.1087180365949023,0.0476620298953826,-0.0089202907507921,-0.0128596621345761,-0.156168881309036,-0.3331688160585162,0.8694491698835087,1.9614635905358373,-0.0004494458673489,-0.2461910296423048,-0.2299694850619403,1.5644544172899113,0.0146156877559007,-0.6441901793623178,-1.4255956713817852,8.821212662080598,-0.8831221340671429,0.1598874921355018,-0.9858296834775584
0.14,-0.3342191760215542,0.8799093802329031,1.9575613037058064,0.1111499964351517,0.1106774906649523,0.0485584159404739,-0.0077720396184159,-0.0281881395516433,-0.1851630840700645,-0.3331617651442993,0.8653253493025835,1.9576642008465197,-0.0012514374455404,-0.2861910302383513,-0.2699694856579868,1.640841624240572,0.0574125566188094,-0.7664238708533622,-1.4497101380514243,8.862687873248433,-0.8725539945566244,0.1392367584441192,-1.0065650216682605
0.16,-0.3343550153993275,0.8791640331159539,1.9535504682585827,0.1229330813437825,0.1123516241890388,0.049362336796146,-0.0058427721644435,-0.0458367488002489,-0.2145454820422093,-0.3331747640195373,0.8602015287067573,1.9528648111423004,-0.0020534290237319,-0.3261910308343977,-0.3099694862540332,1.7164795308366043,0.0964633726986205,-0.8824304624302809,-1.4691198986072365,8.87038499751452,-0.8636965779959496,0.1212236120204717,-1.023166594513466
0.18,-0.3344417883027942,0.8781077199426542,1.9491952053529908,0.1335667053843168,0.1136029884216696,0.050023299871726,-0.0033812072821254,-0.0646852653957323,-0.2424988569547403,-0.33320781268423,0.8540777080960298,1.94706542142318,-0.0028554206019235,-0.3661910314304442,-0.3499694868500796,1.690204905122893,0.1230782441159084,-0.9424258297741704,-1.3976687456265513,8.88481165737312,-0.8547714126824876,0.1025876927783105,-1.039723941728654
0.2,-0.3344776425593592,0.8765873276119152,1.9440347043614956,0.1441972484366324,0.1145323109626916,0.0505975582664568,-0.0003197283560666,-0.0866010910527668,-0.2721368590194944,-0.3346108486669005,0.8748734566728676,1.9370702625052536,0.0148820488951807,-0.1646852668858485,-0.3424988584448564,1.8493831632699875,0.1530739463029398,-1.095791282851722,-1.481900103237707,8.916210175349988,-0.8462591211871605,0.084370477249882,-1.0553179133002937
0.22,-0.3344613370703237,0.8744630918472569,1.9384078406047995,0.1503740920806638,0.1162318141618845,0.0509403269910489,0.0019749039375513,-0.1229591556654503,-0.2880399241673302,-0.3346108486669005,0.8748734566728676,1.9370702625052536,0.0148820488951807,-0.1646852668858485,-0.3424988584448564,1.987512063384327,0.1147316146808988,-1.8179032306341747,-0.7951532573917869,9.899845101284882,-0.839777035772044,0.067585882960742,-1.0715527974068677
0.24,-0.3343875467018461,0.8716713022519739,1.932484125884528,0.1517623365430958,0.1195437615661659,0.0511620300985774,0.0055251301429302,-0.1538485721086259,-0.3035701854832918,-0.3346108486669005,0.8748734566728676,1.9370702625052536,0.0148820488951807,-0.1646852668858485,-0.3424988584448564,1.737778158203273,0.177511310268944,-1.5444708221587826,-0.7765130657980818,9.899845101284882,-0.8334671046030516,0.0614364659703062,-1.0811254220593456
0.26,-0.3342340932439161,0.868465010839904,1.9265475483631465,0.1506899498173139,0.1234009452397454,0.0512852966879066,0.0105759452191915,-0.1818205216360308,-0.3205295607000589,-0.3344620281779487,0.8732266040040092,1.9336452739208048,0.018534700130642,-0.1846852671838717,-0.3624988587428797,1.6549630668396846,0.2525407538130638,-1.3985974763702431,-0.8479687608383524,9.78093202420041,-0.826180836884513,0.0583659452846132,-1.0905833307934814
0.28,-0.3339536303971667,0.8645331114200281,1.91993034235841,0.147533297895838,0.1275443767618084,0.0512505022185202,0.0172985940569389,-0.2094242686370666,-0.3403452713770961,-0.3341643872000451,0.8699328986662922,1.926795296751908,0.0258400026015644,-0.2246852677799181,-0.4024988593389261,1.7319232413193937,0.3361324418873698,-1.3801873500517925,-0.9907855338518624,9.5405258476967,-0.8182609939035514,0.0576802877476171,-1.1000929277662044
0.3,-0.3335260153611669,0.8600821183290043,1.91290177043802,0.1433982264645374,0.1313046867122156,0.051051751441242,0.0251790130835009,-0.2340603648081786,-0.3615773909749802,-0.3338667462221414,0.8666391933285752,1.919945319583011,0.0331453050724869,-0.2646852683759646,-0.4424988599349725,1.6732013784997122,0.3940209513281032,-1.231804808555599,-1.061605979894206,9.5405258476967,-0.8107579362016176,0.0577268182095354,-1.1092888950979276
0.32,-0.3329313753729095,0.855160773656026,1.905433610382153,0.1391994710962003,0.1343649773046062,0.0507113272749467,0.0338775255051413,-0.256774424023077,-0.3841872513498363,-0.3332038401206917,0.8613454879610559,1.911095342384312,0.0404506075434094,-0.304685268972011,-0.482498860531019,1.6604204215633334,0.4349256210820162,-1.1357029607449165,-1.1304930187428008,9.458443682023244,-0.8040788917671735,0.0581314712939064,-1.1177554087330883
0.34,-0.3321995271635505,0.8500770615630598,1.897914662975986,0.13548891883398,0.1365040439309498,0.0502704741057487,0.0426875788699625,-0.2772310343627301,-0.4061699111844269,-0.3325409340192419,0.8560517825935366,1.902245365185612,0.0477559100143318,-0.3446852695680575,-0.5224988611270656,1.5647102609450796,0.440502668241061,-1.022830516982656,-1.0991329917295345,9.38894842132595,-0.7979102837315111,0.0581398684305759,-1.1259675549775212
0.36,-0.3312445675355138,0.8443071686856378,1.8895426050708453,0.1317586743957882,0.1379118495626458,0.0496775441456354,0.0523028016728267,-0.2985618118478572,-0.4298992436804486,-0.3316953953560191,0.8497580772111162,1.8923953879720117,0.0550612124852543,-0.384685270164104,-0.5624988617231119,1.6662351262467976,0.4807611401432088,-1.0665388742563535,-1.186466624801083,9.366709154519413,-0.7930919758868131,0.0581850942315476,-1.1329729578614427
0.38,-0.3300953999759935,0.8381144209326146,1.880692210728759,0.1279625641164989,0.1384560315023276,0.0489432836084761,0.0620654670594184,-0.3194814060249074,-0.4539496586274331,-0.3306672241310233,0.8424643718137946,1.8815454107435097,0.0623665149561768,-0.4246852707601504,-0.6024988623191584,1.6668544590824073,0.4881332693295867,-1.0459797088525096,-1.2025207473492228,9.34346999772697,-0.7899626413187798,0.0587547806252664,-1.13810595654769
0.4,-0.3287507812459205,0.8315098566868504,1.8713574053289967,0.1239996169811395,0.138146111871101,0.0480703338693713,0.0718256880733615,-0.3397234497647242,-0.4783090542532088,-0.3269921266230225,0.8221403506313691,1.8579947277973872,0.0783190855828969,-0.4194814075150235,-0.4959726915311043,1.6570926379194502,0.4880110506971561,-1.012102186990843,-1.2179697812887855,9.332741614336555,-0.7877321886890946,0.0596523232507636,-1.142640251708519
0.42,-0.32722231770634,0.8248231043706704,1.8623592428178368,0.1198633811812354,0.1362472237955078,0.0470066434776975,0.0884058595042329,-0.3627798368045333,-0.4675912206632325,-0.3269921266230225,0.8221403506313691,1.8579947277973872,0.0783190855828969,-0.4194814075150235,-0.4959726915311043,1.517704701901021,0.8290085715435713,-1.1528193519904557,0.535891679498815,9.317680410696994,-0.7937744162017946,0.0589569771222916,-1.1431067255315472
0.44,-0.3252762470427867,0.8173336897349881,1.8531131827569995,0.115391073306457,0.1315643325359466,0.0455598082904012,0.1050021574238673,-0.3848247581739564,-0.4578369281065762,-0.3269921266230225,0.8221403506313691,1.8579947277973872,0.0783190855828969,-0.4194814075150235,-0.4959726915311043,1.463353926859583,0.8298148959817182,-1.102246068471152,0.4877146278328137,11.489128564014209,-0.7959886888694603,0.0625711963193045,-1.1422387941316174
0.46,-0.3230300291888197,0.8094179842744683,1.8440169419589256,0.1110827379870933,0.1245024565810071,0.0438668312655953,0.1183043374570513,-0.4055475586150132,-0.4522099244824423,-0.3262089357671936,0.8179455365562189,1.853035000882076,0.0815698092875926,-0.4394814078130467,-0.5043772981118386,1.262978247577051,0.665109001659197,-1.036140022052842,0.2813501812066965,11.222658284243153,-0.8006759664038554,0.0658545173204726,-1.139570922014491
0.48,-0.3205590316752867,0.8011007360371911,1.8349994050932144,0.1069750202835457,0.1161116657169854,0.0420674180180044,0.1277574016912349,-0.4250632979751641,-0.4497727507359463,-0.3246425540555356,0.8095559084059184,1.843115547051454,0.088071256696984,-0.4794814084090931,-0.5211865112733071,1.0910594874473547,0.4726532117091828,-0.9757869680075444,0.1218586873247967,10.966697218287663,-0.8099746009447202,0.0701775709739655,-1.1321450535847233
0.5,-0.3180718088399714,0.7928484336770233,1.826452358821875,0.1033098713813338,0.1077462092965013,0.0403615501118468,0.1333414414497093,-0.4425785415432937,-0.4500037455484368,-0.3230761723438777,0.801166280255618,1.833196093220832,0.0945727041063754,-0.5194814090051396,-0.5379957244347756,0.91926412945155,0.2792019879237217,-0.8757621784064806,-0.0115497406245251,10.7581548680173,-0.8199196321874268,0.0738271987783285,-1.124529481831236
0.52,-0.3153724075304936,0.7838136148403325,1.8174288855670775,0.0997903908498247,0.0992178750264597,0.0386483105794006,0.1360654592375773,-0.4599518017069868,-0.4524186655815288,-0.3211847182617501,0.7907766520755152,1.8224361787321364,0.1010741515157668,-0.5594814096011861,-0.5548049375962442,0.8875278592672683,0.1362008893933966,-0.8686630081846558,-0.120746001654598,10.584769147015322,-0.8297051958384486,0.0767905467615009,-1.117232525084379
0.54,-0.3126471663358057,0.7744383334318313,1.8083480854402063,0.0966495099323438,0.0915006851947014,0.0370691218459068,0.1361673203606741,-0.4766876809797807,-0.4555455561001688,-0.3192932641796226,0.7803870238954124,1.811676264243441,0.1075755989251582,-0.5994814101972326,-0.5716141507577126,0.8512894264547901,0.0050930561548409,-0.8367939636396926,-0.1563445259320006,10.43980296104928,-0.8383010684147263,0.0787870521877199,-1.1112160243362048
0.56,-0.3100774413394976,0.7652193461675807,1.7996579708224212,0.0937406194249898,0.085275049354353,0.0357016424695812,0.1342539559455659,-0.4927193055884163,-0.4590162440860434,-0.3172392739122603,0.7689973957004084,1.8004961194257088,0.1140770463345496,-0.6394814107932789,-0.5884233639191812,0.8257112480651259,-0.0956682207554085,-0.8015812304317804,-0.1735343992937288,10.400572985744477,-0.8462432135922906,0.080668815805287,-1.1057461194688265
0.58,-0.3074313673842243,0.7551918528193339,1.7904341230313436,0.0905569093178954,0.0801999756427474,0.0344114218879655,0.1303053133821477,-0.509025217882631,-0.4631940218516021,-0.3150227474596632,0.7566077674905033,1.7888957442789395,0.120578493743941,-0.6794814113893254,-0.6052325770806496,0.8644772710989234,-0.1974321281709115,-0.8152956147107343,-0.208888888277936,10.370912356283045,-0.852540072018719,0.0826375411616962,-1.1015033744333838
0.6,-0.3048848487093226,0.7448443842507474,1.7811199607398474,0.0872054966586503,0.0771436028631746,0.0333083517688116,0.1244412830561242,-0.5247248839508626,-0.4680244458192384,-0.3009161017151169,0.7297405919252024,1.7672744219387635,0.1496033788359155,-0.6090252193727471,-0.4615199046803965,0.872065596766695,-0.2932015163011759,-0.7849833034115794,-0.2415211983818138,10.33703656610396,-0.8565012654738609,0.0846143187264802,-1.0990566947827192
0.62,-0.3024545265151262,0.7341504251930324,1.7719669152629929,0.0831246010393458,0.0768332471031247,0.0324034360800198,0.1192690584593154,-0.54325397078599,-0.4469418295137703,-0.3009161017151169,0.7297405919252024,1.7672744219387635,0.1496033788359155,-0.6090252193727471,-0.4615199046803965,1.4270210899870364,-0.2586112298404386,-0.926454341756372,1.0541308152734046,11.974524579491115,-0.8638799226646233,0.0852710699653032,-1.0956536483457269
0.64,-0.3002282077799211,0.7236775351425095,1.7636611604311097,0.0789041648718604,0.0787441683389149,0.0317052856123288,0.1155860996166731,-0.5581016421105129,-0.4284412774162383,-0.3009161017151169,0.7297405919252024,1.7672744219387635,0.1496033788359155,-0.6090252193727471,-0.4615199046803965,1.2002999182612182,-0.1841479421321172,-0.7423835662261458,0.925027604876602,11.974524579491115,-0.8673584652053715,0.0918975450765759,-1.0887308084691905
0.66,-0.2979437573021412,0.7123709368188249,1.755270637239875,0.0747624624358156,0.0822079051354267,0.031100793095104,0.1132665473224336,-0.5717300474276098,-0.4117034293900679,-0.2994200679267578,0.7236503397314749,1.7626592228919595,0.153462991926669,-0.6290252196707703,-0.4611850812461554,1.0854369061349929,-0.1159776147119748,-0.6814202658548429,0.8368924013085199,11.72948913734399,-0.8681863727011101,0.0977719975209638,-1.084564856467616
0.68,-0.2956886762747358,0.7008068032397065,1.747186878407838,0.0711564143059438,0.0864393082460994,0.030582857359024,0.1125339448849852,-0.5840013790191058,-0.3976165758907579,-0.2964280003500395,0.71146983534402,1.7534288247983516,0.1611822181081761,-0.6690252202668168,-0.4605154343776732,0.9348284961302048,-0.0366301218724204,-0.613566579574798,0.7043426749654996,11.522205892112652,-0.8672261238628141,0.1026989396404239,-1.0824645445879657
0.7000000000000001,-0.2934320447777733,0.6890093295323861,1.739359397010378,0.0681571336466282,0.0908671698878535,0.0301136516163625,0.1132993038922267,-0.5952186356993416,-0.3858313162476955,-0.2934359327733212,0.699289330956565,1.7441984267047437,0.1689014442896833,-0.7090252208628632,-0.459845787509191,0.8144092440147267,0.038267950362076,-0.5608628340117938,0.5892629821531159,11.344540316582425,-0.8652666523001437,0.1066468279211807,-1.0817485868554824
0.72,-0.2911456422954199,0.6769959913013908,1.7317492831473789,0.0657557244541348,0.0950744148521535,0.0296661442905641,0.1153865654370776,-0.6056610199117914,-0.3757772642196902,-0.2900579038875275,0.6851088265393077,1.7350015109545598,0.1766206704711904,-0.7490252214589097,-0.4591761406407087,0.7322636324761613,0.104363077242546,-0.5221192106224903,0.5027026014002678,11.205560676658024,-0.8630336615545057,0.1095850352602559,-1.081784749613246
0.74,-0.2889230534847165,0.6653950719205146,1.7247017061741174,0.0640115206468585,0.0985980211152408,0.0292456884731531,0.1184973353796881,-0.6150777016944174,-0.36658421352997,-0.2866798750017338,0.6709283221220504,1.725804595204376,0.1843398966526975,-0.7890252220549562,-0.4585064937722265,0.6761341701446065,0.155538497130523,-0.4708340891313001,0.4596525344860103,11.098668993447063,-0.8611168876948687,0.1118698120302137,-1.081835319248018
0.76,-0.2865096131367632,0.6529866239055341,1.7174694418910492,0.0624873339494391,0.1016222212840213,0.0287821179368381,0.1227071856687997,-0.6252292640627058,-0.3571349048548838,-0.2831088654614025,0.6557478176898921,1.7166244206259045,0.1920591228342046,-0.8290252226510025,-0.4578368469037442,0.724683538537756,0.2104925144555847,-0.5075781184144201,0.4724654337543071,11.079231406837607,-0.8597044058666372,0.1137587335174434,-1.081622151410467
0.78,-0.2840045467710282,0.6403751961452869,1.71042246433716,0.061004253498448,0.1038280079988106,0.0282735016416954,0.1275747284388042,-0.6353362494179505,-0.3480484931887508,-0.2793448752665335,0.6395673132428324,1.7074609872191446,0.1997783490157117,-0.869025223247049,-0.457167200035262,0.7218154240444555,0.2433771385002225,-0.505349267762234,0.4543205833066499,11.045650333971023,-0.8589087038001169,0.1155727086465426,-1.0809921328468957
0.8,-0.2813978900414644,0.627563594733662,1.7035522391775944,0.0594075851920328,0.1051646839052079,0.0277091647545035,0.1327732552542491,-0.6452079727444537,-0.339419749186969,-0.277625810349088,0.6086083836743894,1.6930200396777224,0.1454062011187769,-0.7172167443701524,-0.3464763930923686,0.7052141971312939,0.2599263407722457,-0.4935861663251606,0.4314372000890937,11.045650333971023,-0.8588156899814122,0.1173590432258717,-1.079929739955231
0.8200000000000001,-0.2787957173880466,0.6151310257817465,1.6972456392478408,0.0552094861433778,0.1050234644730685,0.0269123079214231,0.1406558563496274,-0.6610707984646914,-0.3247290781606585,-0.277625810349088,0.6086083836743894,1.6930200396777224,0.1454062011187769,-0.7172167443701524,-0.3464763930923686,1.1506307564361924,0.3941300547689139,-0.7931412860118836,0.7345335513155221,11.01854070688114,-0.8645240691281207,0.1218852144806515,-1.0735021818504984
0.84,-0.2761998509574551,0.6031486547643046,1.691527438968481,0.0494075699009893,0.1031652208877392,0.0259564732166281,0.1472340637779477,-0.669275364498828,-0.3114842187266847,-0.277625810349088,0.6086083836743894,1.6930200396777224,0.1454062011187769,-0.7172167443701524,-0.3464763930923686,0.8455974488553075,0.3289103714160149,-0.4102283017068275,0.6622429716986927,11.478570809219493,-0.8678724010656418,0.1283194909582458,-1.068358786665821
0.86,-0.2733443323165183,0.5903782407911635,1.685732546109591,0.0435191858883828,0.0996344636706716,0.0249228145474982,0.1528161880366304,-0.674525370969841,-0.2993147914561564,-0.2761717483379002,0.6014362162306879,1.6895552757467986,0.1489724956547714,-0.7335928433605927,-0.3461619730730922,0.7190577850175343,0.2791062129341368,-0.2625003235506518,0.6084713635264111,11.219072653253534,-0.8730448163630482,0.1355411396715831,-1.0614037757108965
0.88,-0.270243869031641,0.5768507965264777,1.6798621051299718,0.0383331611660924,0.0945445331384686,0.0238926855471765,0.1566860045284814,-0.6780711241203147,-0.2884417401260635,-0.2732636243155247,0.5870918813432848,1.6826257478849511,0.1561050847267605,-0.7663450413414735,-0.3455331330345393,0.6036784953755028,0.1934908245925487,-0.1772876575236837,0.5436525665046488,11.090485893335426,-0.8792327220127246,0.1415428528696914,-1.0538831144289298
0.9,-0.2670956690180744,0.5632651049294679,1.674190491754152,0.0343495471574326,0.0887396635446917,0.0229659444472537,0.1576925276177992,-0.6804951329554618,-0.2793285580114552,-0.2703555002931491,0.5727475464558818,1.675696220023104,0.1632376737987495,-0.7990972393223542,-0.3449042929959864,0.474180861634615,0.050326154465892,-0.1212004417573575,0.455659105730416,10.978861898669493,-0.8857829150993909,0.1459369416874954,-1.046453681512756
0.92,-0.2641137855037182,0.55032151389959,1.6689561449621055,0.0316856498831684,0.0833832416820427,0.0222059851231852,0.1560246756819896,-0.6821391407120935,-0.2720966830878084,-0.2670907468171741,0.5567656016694347,1.6687981341631843,0.1703702628707386,-0.8318494373032349,-0.3442754529574335,0.3800806049212469,-0.0833925967904825,-0.0822003878315824,0.3615937461823398,10.89251956111275,-0.8931827146808586,0.1493537228301034,-1.0383749554587975
0.94,-0.2610345048197989,0.5366661103832102,1.6635876652999153,0.029954191820216,0.078661283073528,0.021539160149964,0.1518084528082237,-0.6834704657820384,-0.2651568183821246,-0.2638259933411991,0.5407836568829876,1.6619000483032649,0.1775028519427276,-0.8646016352841157,-0.3436466129188807,0.4114325093387919,-0.210811143688297,-0.0665662534972466,0.3469932352841876,10.89251956111275,-0.8989875056827592,0.1512120736512595,-1.0321464877115416
0.96,-0.2580640265385087,0.5229809285278486,1.658351577277588,0.0291442257669201,0.0756943833945717,0.021010284624804,0.1453277920026375,-0.6850254583024322,-0.2588170298196453,-0.2603829251384244,0.5239829071470185,1.6550176834443089,0.1846354410147167,-0.8973538332649964,-0.3430177728803278,0.4599181591122606,-0.3240330402793062,-0.0777496260196908,0.3169894281239649,10.826308955400236,-0.9033094092205788,0.1521782202434484,-1.0273884049144195
0.98,-0.2553742983988528,0.5099508950501669,1.6534906263043194,0.0290781994936312,0.0750781178894245,0.0206355782650809,0.1383650645232201,-0.6865040633527233,-0.2531792193490366,-0.25676154220885,0.5063633524615273,1.6481510395863166,0.1917680300867057,-0.9301060312458772,-0.3423889328417749,0.454011987038576,-0.348136373970874,-0.0739302525145535,0.2818905235304342,10.794141045654214,-0.9070387343556148,0.1526839527909644,-1.0227453336191452
1.0,-0.2526752896687933,0.4962044554127177,1.6484874908395772,0.0297217625371713,0.0763871051787802,0.0203611058152451,0.132112578464632,-0.6881061389151718,-0.2474286264926926,-0.2484560451726918,0.4756256918825307,1.6408316653368675,0.1611040036743879,-0.7209959972349598,-0.2337710566657881,0.4322312639666041,-0.312624302929404,-0.0801037781224256,0.2875296428171983,10.794141045654214,-0.9086160651751554,0.1525049283976058,-1.020127280708542
1.02,-0.2500734108062172,0.4822266445541476,1.643700700888742,0.0248426131133966,0.0789971661538428,0.0197531491359299,0.1285536649451841,-0.7067702489659561,-0.2308450090642678,-0.2484560451726918,0.4756256918825307,1.6408316653368675,0.1611040036743879,-0.7209959972349598,-0.2337710566657881,1.2609829860460573,-0.1779456759723921,-0.933205502539214,0.8291808714212436,10.772299206574644,-0.9125424636362688,0.1565661371966226,-1.0156105412632654
1.04,-0.2475312863316511,0.4680251622589755,1.6392621074451208,0.0140628079170179,0.0823256326284124,0.0187544919435408,0.1259640357580451,-0.7115066278357546,-0.213948292365118,-0.2484560451726918,0.4756256918825307,1.6408316653368675,0.1611040036743879,-0.7209959972349598,-0.2337710566657881,0.886902614913954,-0.1294814593569518,-0.2368189434899248,0.8448358349574899,11.538765437732764,-0.913737447605378,0.1677074077548682,-1.0101659098466549
1.06,-0.245155969209294,0.4545295264380712,1.6353335667117104,0.0033536029648149,0.085811411012211,0.0177721182780117,0.1243203374643333,-0.708794019872129,-0.2004223939599913,-0.2468450051359479,0.4684157319101811,1.6384939547702095,0.1656517915046215,-0.727894384011407,-0.2298894241291384,0.694640039356509,-0.0821849146855908,0.1356303981812801,0.6762949202563345,11.408177450009134,-0.913315256853476,0.180104131487702,-1.0055741391250197
1.08,-0.2426797355181872,0.4404260770797333,1.6314544581118071,-0.0066200543929497,0.0895459153474266,0.0168229878408649,0.123501667631389,-0.7017982762586796,-0.188301461576572,-0.2436229250624601,0.4539958119654819,1.6338185336368938,0.1747473671650886,-0.7416911575643017,-0.222126159055839,0.7009416003561059,-0.0409334916472145,0.3497871806724673,0.606046619170962,11.229274677787544,-0.9119592193271592,0.1910394570233768,-1.0022651587874647
1.1,-0.2402102446817297,0.4264921680049699,1.627797026945961,-0.0146467472200399,0.0931382609158759,0.0160100821999955,0.1235807493663528,-0.6921972089819833,-0.1781279016608052,-0.2404008449889724,0.4395758920207827,1.629143112503578,0.1838429428255558,-0.7554879311171963,-0.2143628939825396,0.6994427570075877,0.0039540867481931,0.4800533638348148,0.5086779957883397,10.98460180181064,-0.9100217263084486,0.1999481680261077,-1.0000828428745394
1.12,-0.2377301111909532,0.4127695879047451,1.624326883087278,-0.0205570582231403,0.096421442820863,0.0153563760578067,0.1244958801654706,-0.6810295793060135,-0.1693876803620618,-0.2367239861324613,0.4244661333984388,1.6248558546239271,0.1929385184860229,-0.7692847046700908,-0.2065996289092402,0.710536567162635,0.0457565399558872,0.5583814837984924,0.4370110649371719,10.98460180181064,-0.9079731395169154,0.2063992705698416,-0.9988168232507776
1.14,-0.2353493083411683,0.39994795160197,1.6211883054944891,-0.0243866106947952,0.0991517191000141,0.0148807313515885,0.1261053616323846,-0.6696161985089473,-0.1614193584946263,-0.2330471272759501,0.4093563747760949,1.6205685967442764,0.2020340941464901,-0.7830814782229855,-0.1988363638359407,0.7006244450385485,0.0804740733456994,0.570669039853311,0.3984160933717728,10.897269090560258,-0.9060412076208442,0.2112920921225113,-0.9978785968035566
1.16,-0.2328029643438622,0.3866823072352294,1.618048116545331,-0.0269589750399416,0.1015417324227176,0.0145120682240292,0.1284947259839269,-0.6576879102468827,-0.15301106676183,-0.2291428790279274,0.3939016968149286,1.6164754204914582,0.2111296698069572,-0.79687825177588,-0.1910730987626414,0.7394127614721375,0.1194682175771136,0.5964144131032301,0.4204145866398182,10.897269090560258,-0.9045138494421764,0.2147632586889093,-0.9969104763108938
1.18,-0.230202395892645,0.3736601418929883,1.6150762445085094,-0.0281956650937318,0.1033510193772436,0.0142740108701536,0.1314455469216497,-0.6452756712734682,-0.1445928955604022,-0.2250112413883929,0.3781020995149399,1.6125763258654724,0.2202252454674244,-0.8106750253287747,-0.1833098336893419,0.7642588352714684,0.1475410468861418,0.620611948670724,0.4209085600713882,10.901344274100666,-0.9035018632232532,0.2169460140499116,-0.995821047632368
1.2,-0.2276735577577766,0.3615258811177,1.6124091260677016,-0.0279490280101397,0.1045025860992526,0.0141840472000013,0.134567935746673,-0.632862908413607,-0.1365698040057108,-0.2236301185465626,0.3413963583293149,1.6078465997304894,0.1591476344581039,-0.6413933159839345,-0.1523658623140937,0.7553078708128558,0.1561194412511651,0.6206381429930574,0.4011545777345721,10.903075535616154,-0.9028833658959154,0.2179108962277284,-0.9945569751574872
1.22,-0.2249490731635561,0.3488671994461301,1.6097146214443503,-0.03046674719716,0.1051281761200478,0.013935818908173,0.1376269368214144,-0.6322047138316046,-0.1336301605920321,-0.2236301185465626,0.3413963583293149,1.6078465997304894,0.1591476344581039,-0.6413933159839345,-0.1523658623140937,0.2146637549903949,0.1529500537370692,0.0329097291001223,0.1469821706839319,10.905929452842429,-0.9014865464607136,0.2216908138674848,-0.9932238870569162
1.24,-0.2227300992074045,0.3388034007243521,1.6075880653051378,-0.0353797199880192,0.1053015898484313,0.0135668824719878,0.1395714440092522,-0.6255117402882706,-0.1323368046731596,-0.2236301185465626,0.3413963583293149,1.6078465997304894,0.1591476344581039,-0.6413933159839345,-0.1523658623140937,0.3544353699484723,0.097225359391892,0.334648677166699,0.0646677959436251,10.52748342069026,-0.9007975009723628,0.2265709163200967,-0.9923679648799238
1.26,-0.2199176470949925,0.3264248458565711,1.6049511822894094,-0.0419205459267002,0.1053792749983452,0.0131137548211477,0.1415416472409576,-0.6126330854405346,-0.1314634589206512,-0.2220386422019815,0.3349824251694756,1.6063229411073483,0.1646880519653947,-0.6406168449260277,-0.1539204556648319,0.6528862539998076,0.0985101615852704,0.6439327423867991,0.0436672876254234,10.491737075105448,-0.8998490483327604,0.2329630144407825,-0.9910643263213116
1.28,-0.2172125084612086,0.3149357241314683,1.6024544172300357,-0.0472651954241758,0.1054724414837451,0.012775053443927,0.1431346759046763,-0.5976578755212162,-0.1313887764759546,-0.2188556895128194,0.3221545588497969,1.6032756238610666,0.1757688869799764,-0.6390639028102142,-0.1570296423663085,0.7529944055546307,0.0796514331859343,0.7487604959659222,0.0037341222348288,10.458916537621915,-0.8985906691445714,0.238933010663639,-0.9900603705213196
1.3,-0.2143336211655679,0.303162741153561,1.5998233269909914,-0.0515536898655749,0.1056890629638901,0.0125378349776016,0.1446947440848275,-0.5806536064325072,-0.1317316991792226,-0.2156727368236574,0.3093266925301182,1.6002283066147849,0.1868497219945581,-0.6375109606944007,-0.1601388290677851,0.8539563454128688,0.078003409007557,0.85021345443545,-0.0171461351634011,10.424116333635538,-0.8970744631612508,0.2435917745948261,-0.9896928152152226
1.32,-0.2114234449336718,0.2917383103698023,1.5971829173069083,-0.0544206808789636,0.1060774891463412,0.0124206698821353,0.1462804922752267,-0.5629100618007212,-0.1322864322757742,-0.2119357423837662,0.2965764733162301,1.597025530033429,0.1979305570091398,-0.6359580185785872,-0.1632480157692617,0.8911449127834714,0.0792874095199611,0.8871772315892978,-0.0277366548275773,10.406251653758773,-0.8953016391416343,0.2468980997344618,-0.989980916902701
1.34,-0.20848054471295,0.2806755393098167,1.59452881266834,-0.0558397302218644,0.1066464920635875,0.0124217739628598,0.1479802601220051,-0.5445754865434055,-0.1330830865385171,-0.208198747943875,0.2838262541023421,1.5938227534520732,0.2090113920237215,-0.6344050764627738,-0.1663572024707382,0.921521186155618,0.0849883923389194,0.9167287628657872,-0.0398327131371487,10.390924736448142,-0.8933554715061255,0.2488357170484576,-0.9907845450561268
1.36,-0.2056500140779851,0.2705092598697975,1.5919921014521272,-0.0557627995813205,0.1072884766900128,0.0125394365361282,0.1499152599146254,-0.5266094398589707,-0.1338938845121506,-0.2041847326286193,0.2711148584413494,1.5905422472031807,0.2200922270383031,-0.6328521343469602,-0.1694663891722148,0.90440650569694,0.0967499896310189,0.89830233422174,-0.0405398986816726,10.390924736448142,-0.891188779418279,0.2496181116247338,-0.991932049420744
1.38,-0.2026274271326884,0.2601798412959235,1.5893059942589691,-0.0538445891514275,0.107968576163423,0.012812730072469,0.1522686304990257,-0.5074815233375243,-0.1346589880827101,-0.1998936964379991,0.2584422863332521,1.587184011286751,0.2311730620528848,-0.6312991922311467,-0.1725755758736914,0.9643662777086122,0.1176685292200108,0.9563958260723204,-0.0382551785279766,10.39207358355452,-0.888831495608819,0.2487009902213429,-0.9936748783394432
1.4,-0.1995540841359511,0.2502223239025974,1.5866076745586062,-0.0501029615557849,0.1085700300859095,0.0132363262469061,0.1549732632762231,-0.4898385637878137,-0.1350928433957747,-0.1950139956077371,0.2348057651290473,1.5825730448548336,0.1711845165584291,-0.4989351551185659,-0.113355982566181,0.8927167671844279,0.1352316388598715,0.8821479774855256,-0.0216927656532278,10.399930178228717,-0.886621587350416,0.2461779604311974,-0.9958141777351752
1.42,-0.196530276307523,0.2410417165995834,1.584142816236351,-0.0466916455949605,0.1077098052525358,0.0137122630019042,0.1629831434775691,-0.4770497037225984,-0.1243554365118206,-0.1950139956077371,0.2348057651290473,1.5825730448548336,0.1711845165584291,-0.4989351551185659,-0.113355982566181,0.9260197476284704,0.400494010067301,0.6394430032607673,0.536870344197702,11.117440479989456,-0.8922318352443971,0.2428811426992209,-0.9910242850549486
1.44,-0.1931886122208176,0.2316467561477189,1.5817788136776865,-0.0437889602602009,0.104018143470804,0.0143014549586205,0.1705512458261406,-0.4631368516214755,-0.1126329979488882,-0.1950139956077371,0.2348057651290473,1.5825730448548336,0.1711845165584291,-0.4989351551185659,-0.113355982566181,0.9852146880349212,0.3784051174285721,0.695642605056146,0.5861219281466226,11.117440479989456,-0.8958782127886296,0.2422530354282392,-0.9855911575710938
1.46,-0.1897202249117134,0.2225297115467346,1.579644115342437,-0.0411111653346055,0.0980569859635845,0.0149736242288587,0.1754634901926869,-0.449354644169832,-0.1014256343377085,-0.1933021504421528,0.2298164135778616,1.5814394850291718,0.1749676937703098,-0.4972258814747742,-0.1090953814628752,0.9215264321629572,0.2456122183273165,0.6891103725821718,0.5603681805589823,11.09528861927356,-0.9007413643459696,0.2419309394848272,-0.9790012237030432
1.48,-0.1861928054057098,0.2136836949407158,1.5777268785652745,-0.0384725613508093,0.0910901353644519,0.0156786058042596,0.1767740401047575,-0.4360559163434995,-0.0908239735100617,-0.1898784601109842,0.2198377104754903,1.5791723653778482,0.1825340481940711,-0.4938073341871908,-0.1005741792562636,0.8528905486276668,0.0655274956035303,0.6649363913166256,0.5300830413823433,11.050857240565165,-0.9071631718357972,0.2415416948953987,-0.9710820422694132
1.5,-0.1828487782806128,0.2055204456610116,1.5760967753254878,-0.0359739185057235,0.0845607951904972,0.0163369332847165,0.1750450355825139,-0.4239984730073246,-0.0812685974248775,-0.1864547697798156,0.209859007373119,1.576905245726525,0.1901004026178325,-0.4903887868996075,-0.0920529770496519,0.7740746226500346,-0.0864502261121794,0.6028721668087461,0.4777688042592085,11.00734616182217,-0.914745944003304,0.241087940734157,-0.961849586339652
1.52,-0.1793918966442521,0.1971678567162188,1.5745733362353274,-0.0333817458385881,0.0785768364917614,0.0169881813036846,0.1705477934766955,-0.4119827910134699,-0.0715806777865465,-0.182652761727459,0.2000512316351268,1.5750641861855317,0.1976667570415939,-0.4869702396120242,-0.0835317748430403,0.8038308081532904,-0.2248621052909197,0.6007840996927333,0.4843959819165508,10.96751416108873,-0.921742604822304,0.2405101647235393,-0.9532830059889352
1.54,-0.1760547380838466,0.1890489683783545,1.5732427039832892,-0.0308554253009525,0.0743908460390411,0.0175708950493898,0.163311834918719,-0.4005897742239164,-0.0619434352045459,-0.1788507536751023,0.1902434558971347,1.573223126644539,0.2052331114653552,-0.4835516923244408,-0.0750105726364287,0.8292110292382256,-0.361797927898827,0.5696508394776756,0.4818621291000281,10.94113822888994,-0.9277797731884734,0.2401599501012055,-0.9452237850262468
1.56,-0.1728835018763063,0.1811517944562307,1.5721048992274724,-0.0284097298022424,0.0728552778083867,0.0180680516791097,0.1544027310661629,-0.3897680605756339,-0.0522921588244607,-0.1748595867621516,0.1805211438413321,1.571595097158711,0.2127994658891166,-0.4801331450368574,-0.066489370429817,0.8509241351405018,-0.4454551926278027,0.5410856824141275,0.48256381900426,10.944774592196154,-0.932389059522684,0.2397571828604575,-0.9387170436156752
1.58,-0.1700289350271035,0.1738448939966881,1.5712037492215445,-0.0261740885122803,0.0737519386150227,0.0184746330065239,0.1467916777338928,-0.3799700496633391,-0.0430262976363938,-0.1706792609886069,0.1708842954677191,1.5701800977280485,0.220365820312878,-0.4767145977492741,-0.0579681682232054,0.7742501763329328,-0.3805526666135039,0.4899005456147381,0.4632930594033444,10.938319543229229,-0.9353727738896964,0.2393355745642846,-0.933817485547528
1.6,-0.1671635216100284,0.1663494738928358,1.5704472367185376,-0.0239329279461147,0.0763991432200321,0.0188627890597612,0.1403736027315726,-0.3701336376028756,-0.0330948337514917,-0.1626893511404089,0.1548463915135212,1.5690524343397247,0.1579779161121792,-0.3581438550640683,-0.0473573010452729,0.7690589441904865,-0.3209037501160097,0.4918206030231742,0.4965731942451069,10.925977779201276,-0.9364124111141,0.2390832951535421,-0.9308353917669968
1.62,-0.1643955741537315,0.1589760212355458,1.5698197023056522,-0.0240220908962279,0.0795483032489268,0.0190904788543824,0.1368125511577244,-0.3671181951496441,-0.0305548048201598,-0.1626893511404089,0.1548463915135212,1.5690524343397247,0.1579779161121792,-0.3581438550640683,-0.0473573010452729,0.2656394571235674,-0.1780525786924142,0.1507721226615771,0.1270014465665946,10.921274621322482,-0.934064687559456,0.2404158837332931,-0.9315197673085164
1.64,-0.1618241820334162,0.1520474045452762,1.5692531746212723,-0.0274140018649824,0.0821650031068153,0.0190943550651059,0.1340499090086684,-0.3617043820043685,-0.0291758753092527,-0.1626893511404089,0.1548463915135212,1.5690524343397247,0.1579779161121792,-0.3581438550640683,-0.0473573010452729,0.3116208072792551,-0.1381321074527958,0.2706906572637807,0.0689464755453556,10.423352021620303,-0.932428117528002,0.2444618432753218,-0.9311570787963884
1.66,-0.1591703455503745,0.1449183719776533,1.5686823600560098,-0.032256077996163,0.0845498520890891,0.0190273422559333,0.1315120254079293,-0.351262576081089,-0.0279943013751874,-0.1611095719792871,0.1512649529628805,1.568578861329272,0.1602151637878365,-0.3537786161442141,-0.0482235017270487,0.5405281701077146,-0.1268941800369585,0.522090296163974,0.0590786967032644,10.407656059114744,-0.9308758493863796,0.2498628257861849,-0.9301242609016096
1.68,-0.1565637146718317,0.1380318165632773,1.5681317708156457,-0.0367014399032277,0.0865877947532798,0.019008193084017,0.1293057885293567,-0.3380650643558691,-0.0271232326913072,-0.1579500136570435,0.1441020758615991,1.5676317153083663,0.164689659139151,-0.3450481383045058,-0.0499559030906003,0.6704486511913645,-0.1103118439286288,0.6598755862609967,0.0435534341940078,10.396975948004185,-0.9294021314248332,0.254777187155937,-0.9290849066760236
1.7,-0.1541256292401802,0.1317488910969775,1.567622966610443,-0.0400172641570234,0.0882479577622298,0.0190736464098213,0.1274699156873029,-0.3241991522650588,-0.0264728506641167,-0.1547904553347999,0.1369391987603178,1.5666845692874611,0.1691641544904656,-0.3363176604647975,-0.0516883044541519,0.7001016783003029,-0.0917936421026888,0.6932956045405114,0.0325191013595262,10.385375558249509,-0.9279604039485672,0.2593189247983432,-0.9278324818616352
1.72,-0.1515944357793301,0.1254250561390941,1.5671001334186392,-0.0424919778911815,0.0897579830431535,0.0192350372477453,0.1257746115193455,-0.3090876603465417,-0.0258398620052776,-0.1514071722449906,0.1302128455510218,1.565650803198378,0.1736386498417801,-0.3275871826250892,-0.0534207058177035,0.7609729280130819,-0.0847652083978717,0.7555745959258564,0.0316494329419561,10.378967308994106,-0.9266451646399124,0.262993148548455,-0.9266574648410858
1.74,-0.1490951380887294,0.1194103904681674,1.5665868755162076,-0.0438907516763441,0.0910746366125391,0.0194926062683129,0.1242668247097695,-0.2933623749461455,-0.0255089922929729,-0.1480238891551813,0.1234864923417258,1.564617037109295,0.1781131451930946,-0.3188567047853808,-0.0551531071812551,0.7900435063234923,-0.0753893404787972,0.7862642700198125,0.0165434856152319,10.361937132354797,-0.925481774033966,0.2657908190269705,-0.9254560019103364
1.76,-0.1466236450740652,0.1137180812002704,1.5660778349824758,-0.0439990284797055,0.0922225959117137,0.0198601510277098,0.122978828674586,-0.2768789164604333,-0.0254008961873229,-0.1445287436815891,0.1169784010784226,1.5635399609861231,0.1825876405444092,-0.3101262269456725,-0.0568855085448068,0.8267028217638139,-0.0643998017591782,0.8241729242856072,0.0054048052825026,10.361937132354797,-0.9243765228516878,0.2677547112563796,-0.9242658511155756
1.78,-0.1442977460111765,0.1086199967411257,1.565595225282196,-0.0425873683487968,0.0931633132472616,0.0203320147564174,0.121932792656171,-0.2608160579222888,-0.0253930012336368,-0.1409217358242141,0.1106885717611121,1.5624195748288623,0.1870621358957237,-0.3013957491059642,-0.0586179099083584,0.8048442055742188,-0.0523018009207475,0.8031429269072271,0.0003947476843018,10.351068643447434,-0.9233063022283782,0.2683623695320919,-0.9234242113877827
1.8,-0.1418691102481996,0.1035770525318418,1.5650876288569011,-0.0394124985512887,0.0940098758055912,0.0209615112598258,0.1210104129573337,-0.2448010725319366,-0.0253456573861939,-0.1382011063783679,0.0955791938450113,1.564325575220514,0.1323943978101489,-0.2398350888509005,-0.0263325566998119,0.802079769726663,-0.0461189849418661,0.8007492695176074,0.0023671923721485,10.345787277873567,-0.92218452777403,0.2673178714466437,-0.9233542557626084
1.82,-0.1394353709047728,0.0988291317411662,1.564626729664033,-0.0353394764910518,0.0941613739097793,0.0216860018595631,0.1222545225571525,-0.2310667209270277,-0.0207279039968013,-0.1382011063783679,0.0955791938450113,1.564325575220514,0.1323943978101489,-0.2398350888509005,-0.0263325566998119,0.7271586296484294,0.0622054799909427,0.6867175802454467,0.2308876694696286,10.60626119092558,-0.9238016142101334,0.2649978172399835,-0.9216257435839984
1.84,-0.1371067780016909,0.0945529981415484,1.5642746753806678,-0.0314516816402477,0.0934392196534752,0.0224066727411151,0.1227130640331927,-0.2197846690944524,-0.0165602519535301,-0.1382011063783679,0.0955791938450113,1.564325575220514,0.1323943978101489,-0.2398350888509005,-0.0263325566998119,0.6017978842434291,0.0229270738020086,0.5641025916287651,0.2083826021635577,10.60626119092558,-0.9252157437556598,0.2645603406734595,-0.9171527749976794
1.86,-0.1346555098598573,0.0902713469726071,1.5639848275921675,-0.0276798738631957,0.0921934291552197,0.0231553664673984,0.1223043614777597,-0.2090033797060154,-0.012656909274147,-0.1368771624002664,0.0931808429565023,1.564062249653516,0.1344867188409445,-0.2356388950366229,-0.0265204677930469,0.5736709046324687,-0.0204351277716514,0.539064469421846,0.1951671339691571,10.533301768735328,-0.9273202356188536,0.2642930887532078,-0.9121063848120764
1.88,-0.1322229631052237,0.0861962322393874,1.5637669514601846,-0.0243324872239673,0.0908449914600067,0.0238736616646691,0.1209159887870119,-0.1990294072443267,-0.0093102164909112,-0.1342292744440635,0.0883841411794843,1.5635355985195198,0.1386713609025356,-0.2272465074080676,-0.026896289979517,0.5305847198617377,-0.0694186345373874,0.4986986230844398,0.1673346391617922,10.533301768735328,-0.9294866619177108,0.2641165271186692,-0.9073315842049772
1.9,-0.1299452462051802,0.0825037606283672,1.563617421081248,-0.0215309368960611,0.089771962993237,0.0245219084551605,0.1189244496693254,-0.1901295154393261,-0.0065855320628527,-0.1315813864878605,0.0835874394024663,1.5630089473855235,0.1428560029641268,-0.2188541197795123,-0.027272112165987,0.4759154531807488,-0.0995769558843284,0.4449945902500252,0.1362342214029215,10.497259446597129,-0.9314642073373882,0.2639683289542843,-0.9032522641246802
1.92,-0.1275928326598719,0.0787943046215622,1.5635121306253577,-0.0189532923634033,0.0890051999202399,0.0251691604812,0.1164292026850399,-0.1812793708067178,-0.0040976194595219,-0.1287242664285779,0.079210357006876,1.5624635051422038,0.1470406450257179,-0.210461732150957,-0.027647934352457,0.4762904225692696,-0.1247623492142739,0.4425072316304193,0.1243956301665433,10.46416181753193,-0.9332048369306548,0.2638733972346497,-0.8996100111841141
1.94,-0.125293236312849,0.0752573075992647,1.5634538142355328,-0.0167253539337111,0.0886859620591805,0.0257835090611568,0.1137040095803605,-0.1728384276507956,-0.001847151803965,-0.1258671463692954,0.0748332746112857,1.561918062898884,0.1512252870873091,-0.2020693445224017,-0.0280237565389271,0.4575500067970955,-0.1362596552339702,0.4220471577961071,0.1125233827778456,10.436075143928065,-0.9345346817086853,0.2638576992036833,-0.8966402604834195
1.96,-0.1230480116745959,0.0718872125758489,1.563438507817289,-0.0147369790570603,0.088795669397031,0.0263750305297559,0.1110077472139595,-0.1646113304538941,0.0002125709735224,-0.1229054102584731,0.0706660019064094,1.5613632251009026,0.1554099291489002,-0.1936769568938464,-0.0283995787253971,0.4449646529664909,-0.1348131183200492,0.4113548598450769,0.1029861388743708,10.419866059361084,-0.9354231588382438,0.2639375331855997,-0.8943061350516464
1.98,-0.1209636203832627,0.0688354129733713,1.5634603300226857,-0.0129934949574002,0.0892317893329207,0.0269234511677296,0.1085839112109761,-0.1570648645477564,0.0019887250224262,-0.119839058096111,0.0667085388922469,1.5607989917482594,0.1595945712104914,-0.1852845692652911,-0.0287754009118671,0.4061368360765078,-0.1211918001491722,0.3773232953068833,0.0888077024451918,10.404609111838,-0.936098669218541,0.2641771705778727,-0.8920630080670177
2.0,-0.1188167642042729,0.0657746352649134,1.5635181350987253,-0.0112851067765414,0.0899557200735611,0.0274903314427106,0.1062723350294759,-0.149436941706722,0.0036945773324044,-0.1155344248227139,0.0609821697459835,1.563559766273807,0.1071800564003433,-0.1485919348390968,0.0115868786657363,0.407549148616186,-0.1155788090750072,0.3813961420517209,0.0852926154989086,10.38975430265782,-0.936438009397959,0.2644588600689679,-0.890253599382083
2.02,-0.1166694482360169,0.0628921594385947,1.5636688725715582,-0.0088172787163186,0.0895901095290113,0.0281216993589648,0.1083811735198611,-0.1398381895258913,0.0113195099508079,-0.1155344248227139,0.0609821697459835,1.563559766273807,0.1071800564003433,-0.1485919348390968,0.0115868786657363,0.6219381814994267,0.1054419245192596,0.4799376090415336,0.3812466309201757,10.3762095434804,-0.9417396973316848,0.2637092405512912,-0.8842751641560698
2.04,-0.1145959148214267,0.0603071509493986,1.5639535308105823,-0.005913612162884,0.0872534949050206,0.0287713782398011,0.1096257663800412,-0.1328633926911319,0.0182697820892328,-0.1155344248227139,0.0609821697459835,1.563559766273807,0.1071800564003433,-0.1485919348390968,0.0115868786657363,0.4962436021551009,0.0622296430090062,0.348739841737973,0.3475136069212473,10.721363777019178,-0.9457820239402208,0.2649959542902912,-0.8759443930336566
2.06,-0.1124031532934704,0.057715003125261,1.564390247655671,-0.0029222098392881,0.0831418075020661,0.0294465883393501,0.1093928299229153,-0.1267640188483831,0.0250293205343075,-0.1144626242587104,0.0594962503975925,1.5636756350604644,0.1068992854382167,-0.1468973488973648,0.0135065093943983,0.4553789099670419,-0.0116468228562968,0.3049686921374361,0.3379769222537347,10.625432329161413,-0.9512692642088184,0.2660977006195716,-0.8663687743659769
2.08,-0.110238312671811,0.0552353768859193,1.5649549429875316,-0.0002267065046245,0.0779436210176697,0.0300867962945378,0.1068711997466361,-0.1214918898909022,0.0311311501943415,-0.1123190231307035,0.0565244117008106,1.563907372633779,0.1063377435139636,-0.143508177013901,0.0173457708517223,0.4224520318636794,-0.1260815088139577,0.2636064478740464,0.305091483001697,10.625432329161413,-0.9570815058715746,0.2671438915597446,-0.8567988175514452
2.1,-0.108154018354315,0.0528545469516407,1.565635495414322,0.0021185106831968,0.072569358846701,0.0306852948805492,0.1015302562066225,-0.1168265005872791,0.0366423404114553,-0.1101754220026967,0.0535525730040287,1.5641391102070938,0.1057762015897105,-0.1401190051304371,0.0211850323090463,0.4490677923799068,-0.2670471770006822,0.2332694651811531,0.2755595108556918,10.540806333470757,-0.9634597102924114,0.2680140994029384,-0.8470053640282167
2.12,-0.1062993328706808,0.0506744843948778,1.566378816228665,0.0040251054782733,0.0682017711537591,0.0312196711057435,0.0938526610851949,-0.112853434462564,0.041341062509353,-0.1080598979709025,0.0507501929014199,1.5645628108532748,0.1052146596654574,-0.1367298332469733,0.0250242937663704,0.4919570881520068,-0.38387975607138,0.198653306235759,0.2349361048948863,10.540806333470757,-0.9690724353420548,0.2686632525390875,-0.8386190391269096
2.14,-0.1045294308511923,0.0484572994559845,1.567255341731205,0.005717880046731,0.0653470103270207,0.0317577500384734,0.0834069242024653,-0.1090667263997969,0.0460615575963099,-0.1059443739391083,0.0479478127988112,1.5649865114994557,0.1046531177412043,-0.1333406613635094,0.0288635552236944,0.6036051085805764,-0.5222868441364819,0.1893354031383541,0.2360247543478452,10.509734234371535,-0.9733064235971574,0.2689387329641592,-0.8326107245992602
