t,x,y,z,roll,pitch,yaw,v_x,v_y,v_z,ref_x,ref_y,ref_z,ref_v_x,ref_v_y,ref_v_z,a_com,a_x,a_y,a_z,thrust,wind_x,wind_y,wind_z
0.0,-2.5009698639151807,-0.669178790230923,2.850573506310154,0.033098544869086,0.1010502984658812,0.0445420353862495,0.0045257866135073,0.0027882726290326,0.0421999468424348,-2.500838307238093,-0.6690305587285968,2.8518523867761374,0.1044218672756075,0.1043692692802774,-0.0574821463149928,2.12667153213016,0.2262893306753654,0.1394136314516318,2.10999734212174,10.20953518514034,-0.9513707204697182,0.2641158947370522,-0.8550038035522142
0.02,-2.5009841094263128,-0.6694525928074159,2.851160148569282,0.0241924230018293,0.1041998471185967,0.0440001955535189,-0.0052531585821872,-0.023379431916848,0.0167477394690571,-2.500838307238093,-0.6690305587285968,2.8518523867761374,0.1044218672756075,0.1043692692802774,-0.0574821463149928,1.8895709767817137,-0.4889472597847288,-1.308385227294033,-1.2726103686688814,8.884323724139904,-0.9341757342154924,0.266206180483085,-0.8749720350979807
0.04,-2.501152715409927,-0.6699276521660745,2.851171578023179,0.0081916120402077,0.1112075825108377,0.0430018759457595,-0.0115285776352009,-0.0246923205231947,-0.0142529553694273,-2.500838307238093,-0.6690305587285968,2.8518523867761374,0.1044218672756075,0.1043692692802774,-0.0574821463149928,1.582835778952166,-0.3137709526506847,-0.0656444303173344,-1.5500347419242269,8.496432039284628,-0.9218471084085544,0.2732331934308856,-0.8919408885373079
0.06,-2.5014162724415594,-0.6703650619769248,2.850547222394321,-0.0092896651507524,0.1206039646853099,0.0417978919447873,-0.0140837760561594,-0.0185683886716681,-0.0465588026060325,-2.4997940885653374,-0.667986866035794,2.851277565312988,0.1244218675736307,0.1243692695783006,-0.077482146613016,1.6490143616471948,-0.1277599210479254,0.3061965925763285,-1.61529236183026,8.496432039284628,-0.9052455594772466,0.2799799356361425,-0.9145218300316132
0.08,-2.501692306484494,-0.670636881505557,2.849294020258552,-0.0261774223365148,0.1307956714201898,0.0404746569818563,-0.013070809382044,-0.0085666286646388,-0.0772381500409532,-2.497705651219825,-0.6658994806501886,2.850127922386688,0.1644218681696772,0.1643692701743471,-0.1174821472090624,1.6142209140585837,0.0506483337057714,0.5000880003514651,-1.5339673717460325,8.552935916795377,-0.8882603700966506,0.2875177333700011,-0.9353957906095692
0.1,-2.501906525490127,-0.6706796268460018,2.8475507841767187,-0.0415007953914068,0.1405640519301805,0.0391224871936712,-0.0092915253544065,0.0038590383178668,-0.1048116250831021,-2.495617213874313,-0.663812095264583,2.848978279460388,0.2044218687657236,0.2043692707703935,-0.1574821478051089,1.5239559652608847,0.1889642013818737,0.6212833491252823,-1.378673752107444,8.668460058630899,-0.8696908689074703,0.2965131303509333,-0.95597150631788
0.12,-2.5020279145663187,-0.6704377372521575,2.8451605608292976,-0.0568107228763511,0.1505773341786364,0.0376271139759585,-0.0027858205714051,0.0199713836110043,-0.1327745483049564,-2.4915287764989986,-0.6597247098491751,2.8458286365042857,0.2444218693617701,0.24436927136644,-0.1974821484011553,1.6460991317962734,0.3252852391500683,0.8056172646568753,-1.398146161092717,8.791063366609706,-0.8508227422758118,0.3063425049542417,-0.9748702962492222
0.14,-2.5019961863522107,-0.6698242874641396,2.842214315487468,-0.0706253135230543,0.1601382813293174,0.0361354728655544,0.0058770340895596,0.0404970405460691,-0.1604960942249765,-2.487440339123684,-0.6556373244337672,2.8426789935481835,0.2844218699578166,0.2843692719624865,-0.2374821489972018,1.7782236583798705,0.4331427330482419,1.0262828467532406,-1.3860772960010035,8.889595047506191,-0.8318545029172958,0.3163278674864143,-0.9920862042488616
0.16,-2.501770095204445,-0.6687583981163948,2.838715539605567,-0.0820296552263029,0.1691778523700245,0.034750176329691,0.0165383909009703,0.0645281001398759,-0.1880475457803476,-2.4823519017334688,-0.6505499390034583,2.83852935057718,0.324421870553863,0.3243692725585329,-0.2774821495932483,1.9041000742275025,0.5330678405705334,1.2015529796903426,-1.377572577768557,8.946881580689478,-0.8143129197407034,0.3247073512412833,-1.0071882325140271
0.18,-2.501339569783973,-0.6672812750696188,2.8348841251689896,-0.0904591084928425,0.1772666160322208,0.0335793288831575,0.0284464629581322,0.0892231211329229,-0.2139074322164048,-2.476263464328352,-0.644462553558248,2.833379707591276,0.3644218711499094,0.3643692731545793,-0.3174821501892947,1.884396434174193,0.5954036028580982,1.2347510496523502,-1.2929943218028566,9.002976323047733,-0.7967762181763405,0.3319105391120839,-1.0217899444670342
0.2,-2.500623450107539,-0.6652127113150327,2.830322358791091,-0.0970796562294557,0.1852623438626041,0.0325100873911337,0.0427518759282884,0.1160056737521685,-0.2409092633665691,-2.499917246636067,-0.6628201190129727,2.824188753558169,0.1284464644482484,0.1892231226230391,-0.3139074337065209,2.031655021473473,0.7152706485078073,1.3391276309622755,-1.3500915575082164,9.06288332283566,-0.779664922288832,0.3375297399522656,-1.0356523722165534
0.22,-2.4995881981934,-0.662466883764808,2.8253185546197552,-0.0977141350371398,0.1927204024339789,0.0319003472426118,0.0604330971790502,0.1557135169973287,-0.2574358260084122,-2.499917246636067,-0.6628201190129727,2.824188753558169,0.1284464644482484,0.1892231226230391,-0.3139074337065209,2.3251159502567678,0.8840610625380934,1.9853921622580109,-0.8263281320921536,9.110807144729732,-0.765697724074898,0.3382023608409,-1.0469639219861735
0.24,-2.4981762269888343,-0.659011453311154,2.8200043653599245,-0.091872185975148,0.1996475169753257,0.0318345176728513,0.0800854694900815,0.1865411126096506,-0.2731839254606024,-2.499917246636067,-0.6628201190129727,2.824188753558169,0.1284464644482484,0.1892231226230391,-0.3139074337065209,1.9903259940549367,0.9826186155515632,1.541379780616095,-0.7874049726095095,9.84743390424319,-0.7523109279727107,0.3350822532860288,-1.0560763484551476
0.26,-2.496457822064729,-0.6552272118313749,2.8146522034526478,-0.0846425004172733,0.2057794100067284,0.0319843077444544,0.0999640971356338,0.2099434100052148,-0.2894112282344039,-2.498632781991585,-0.6609278877867423,2.821049679221104,0.1484464647462716,0.2092231229210623,-0.3339074340045441,1.7364854705507748,0.9939313822776152,1.170114869778213,-0.8113651386900789,9.768168983487158,-0.7409763455278314,0.3303105218330048,-1.0630862391471656
0.28,-2.4942294151240585,-0.6508035132962442,2.8086710344318773,-0.0771193049242272,0.2118053926149014,0.032227049096488,0.1219603992949783,0.2311109293106024,-0.307946188740169,-2.4960638527026195,-0.6571434253342815,2.8147715305469734,0.188446465342318,0.2492231235171087,-0.3739074346005905,1.7856693025161536,1.099815107967226,1.05837596526938,-0.9267480252882516,9.678868657495514,-0.7303351238698259,0.3250423852211035,-1.0701877875904473
0.3,-2.4915503978554705,-0.6459789331187379,2.802305708071443,-0.0703470721753649,0.217430259533053,0.0324972637984532,0.144958887732846,0.2502970625456536,-0.3277332200488947,-2.4934949234136545,-0.6533589628818207,2.808493381872843,0.2284464659383645,0.2892231241131552,-0.413907435196637,1.794829230701603,1.1499244218933848,0.9593066617525584,-0.9893515654362888,9.595600506148912,-0.7216403017667625,0.3201394797032673,-1.0762816531026136
0.32,-2.4884014561830874,-0.6407863987585309,2.7955330754294456,-0.0645139120708805,0.2226853816011305,0.0327687244663736,0.1689008420747392,0.2681150253444041,-0.3485755781042507,-2.488925994094888,-0.6475745003995576,2.8002152331689105,0.2684464665344109,0.3292231247092016,-0.4539074357926834,1.820096745584292,1.197097717094657,0.8908981399375238,-1.0421179027677974,9.537907234886006,-0.7124780766666853,0.3156115976299237,-1.0827595227810825
0.34,-2.484956501575761,-0.6355325961211693,2.7887100836604177,-0.0598218318163846,0.2273562851715104,0.0330191967091663,0.1926183370373012,0.2841486892580768,-0.3686193269600621,-2.48435706477612,-0.6417900379172945,2.7919370844649776,0.3084464671304574,0.3692231253052481,-0.4939074363887299,1.747390779126558,1.1858747481281018,0.8016831956836334,-1.0021874427905724,9.494561115118811,-0.7044412312328363,0.3119840577704178,-1.088004020620314
0.36,-2.4808339675191355,-0.6296728760388255,2.781114382479589,-0.0554810916852898,0.2319537174943072,0.0332874733365449,0.218492636352209,0.3009343826736381,-0.3899162342021587,-2.478788135442452,-0.6350055754201303,2.782658935746144,0.3484464677265038,0.4092231259012945,-0.5339074369847763,1.8740311674016537,1.2937149657453877,0.8392846707780677,-1.0648453621048295,9.494848119389644,-0.6974946837464802,0.3091866703600517,-1.0918765872491845
0.38,-2.4761778507579337,-0.6234805132725798,2.773091967356612,-0.0514266310210687,0.236040790839416,0.0335880053183479,0.2458984622278143,0.3173686280699931,-0.4112646244647046,-2.472219206093882,-0.6272211129080648,2.7723807870124086,0.3884464683225502,0.449223126497341,-0.5739074375808227,1.921534205051772,1.3702912937802667,0.8217122698177509,-1.0674195131272934,9.494848119389644,-0.6909849444873195,0.3062055376888198,-1.0960138426338768
0.4,-2.470953254520807,-0.6169649055687686,2.764641500641005,-0.0475022286422208,0.2390711429964251,0.0339531078682537,0.2751030068094219,0.3332491606673853,-0.4327047424998397,-2.463882927646543,-0.6076120818690801,2.752528736133377,0.3458984637179304,0.3915890320988857,-0.5112646259548208,1.9778621041142312,1.460227229080381,0.7940266298696097,-1.0720059017567565,9.50718633917586,-0.6860114211652405,0.303613294994508,-1.0989217798121815
0.42,-2.4653876040046936,-0.610406653045033,2.7563873979915914,-0.0415516650020456,0.2402207735934393,0.0345493985423422,0.309179174488235,0.3545734567839835,-0.4349479669503941,-2.463882927646543,-0.6076120818690801,2.752528736133377,0.3458984637179304,0.3915890320988857,-0.5112646259548208,2.01304673596921,1.7038083839406553,1.0662148058299097,-0.1121612225277207,9.516509629104805,-0.6821589434112264,0.2977925468070012,-1.10289604334039
0.44,-2.458835773719784,-0.6031453404719231,2.747646947620428,-0.0335016162912419,0.2393721688270217,0.0353844015717702,0.3440402631886218,0.3700976687551977,-0.4391571172082847,-2.463882927646543,-0.6076120818690801,2.752528736133377,0.3458984637179304,0.3915890320988857,-0.5112646259548208,1.9196442434712488,1.7430544350193369,0.7762105985607087,-0.2104575128945268,10.70044258184771,-0.6844391509679467,0.2955870469533358,-1.0955007076504946
0.46,-2.4515943195518246,-0.5956126767793353,2.7387812571685166,-0.0255962953786555,0.2364797771571513,0.0362530868617681,0.3782066845541483,0.3823026881348073,-0.447132725354761,-2.460423943009364,-0.6036961915480913,2.7474160898738287,0.3658984640159536,0.4064331129046641,-0.531264626252844,1.8573618200888424,1.7083210682763277,0.6102509689804803,-0.3987804073238149,10.467155885273314,-0.6891487750868,0.2926819110100216,-1.0881908625322505
0.48,-2.4440927274721957,-0.5882526177343704,2.730182321659973,-0.0187638648771148,0.2315641537959369,0.0370474491985002,0.4093623404209167,0.3918599538601052,-0.4575361050496345,-2.4535059737350053,-0.5958644109061135,2.737190797354732,0.4058984646120001,0.4361212745162212,-0.5712646268488905,1.7104433122060496,1.5577827933384192,0.4778632862648957,-0.5201689847436769,10.24160193482021,-0.6951579987425447,0.2898512974017957,-1.0805465789677362
0.5,-2.4355902354492325,-0.5803260092888339,2.7208938676384653,-0.0124840457212728,0.2246130314657955,0.0378007815418383,0.4388611746268075,0.4003203252418522,-0.4708197364118591,-2.4465880044606467,-0.5880326302641359,2.726965504835636,0.4458984652080465,0.4658094361277782,-0.6112646274449369,1.6719853211012303,1.4749417102945417,0.4230185690873494,-0.6641815681112273,10.051558939991082,-0.7021237345489209,0.2872408199340981,-1.0731162878155236
0.52,-2.4265335274281776,-0.5722443873524291,2.711313233785113,-0.0072035313901175,0.2167126833258034,0.0384408243276621,0.4650330762006955,0.4075392342481526,-0.4865073521958902,-2.437670035156486,-0.5787164415415803,2.714740212286737,0.4858984658040929,0.4954975977393352,-0.6512646280409834,1.567786949988666,1.3085950786943967,0.3609454503150172,-0.7843807892015581,9.723761119135816,-0.7097172071633918,0.2843330260034013,-1.0666937155238356
0.54,-2.416984772436645,-0.5640285176237528,2.7014050552560684,-0.0028502488383611,0.2085556160237611,0.0389682263999399,0.488298529953894,0.4138182365909249,-0.5034738753569798,-2.4287520658523247,-0.5694002528190247,2.702514919737838,0.5258984664001395,0.5251857593508923,-0.6912646286370299,1.4735756825987516,1.1632726876599275,0.3139501171386172,-0.8483261580544799,9.723761119135816,-0.7172568189673955,0.2818184554693785,-1.0608637082797865
0.56,-2.407502672184254,-0.5561086935945986,2.6916671268862697,0.0006692315780676,0.200881429280709,0.0393871177865261,0.5084582390490563,0.4195402343507491,-0.5206818917861052,-2.418834096533262,-0.5593418600561803,2.689289627174038,0.5658984669961858,0.5548739209624493,-0.7312646292330762,1.3557940096029055,1.0079854547581115,0.2860998879912091,-0.8604008214562697,9.630655064489474,-0.7253551639642419,0.2794157133161478,-1.0548559678739151
0.58,-2.3971294384705883,-0.5476598331173411,2.68105140722307,0.0039379247575117,0.1930142794006231,0.0397626562367855,0.5275931316986066,0.4250218205019238,-0.5400199811767724,-2.4079161271993,-0.5485412632530469,2.675064334595337,0.6058984675922323,0.5845620825740062,-0.7712646298291227,1.387582073900493,0.9567446324775132,0.2740793075587361,-0.9669044695333584,9.548305397632248,-0.7328441429064695,0.2770678959817843,-1.0496060326746728
0.6,-2.386394036701445,-0.5391071359527712,2.67003469617192,0.0068414974479619,0.1854878967895644,0.0400828410610413,0.5448183194944582,0.4299612602053067,-0.5606487102019341,-2.370749781885658,-0.526408742092245,2.6540504081642315,0.6275931331887227,0.4651095874472859,-0.6400199826668885,1.3662445062828803,0.8612593897925847,0.2469719851691448,-1.0314364512580831,9.459061532411395,-0.739236302430792,0.2746649043449888,-1.0456586390011713
0.62,-2.3753173009507664,-0.5303440216183761,2.658891910709249,0.0133199365106257,0.1795152015981434,0.0406271296671397,0.562052013934505,0.4433690783505878,-0.5525662596834423,-2.370749781885658,-0.526408742092245,2.6540504081642315,0.6275931331887227,0.4651095874472859,-0.6400199826668885,1.1641475613659291,0.8616847220023371,0.6703909072640568,0.4041225259245884,11.105042187668914,-0.7400824244694478,0.2674298144159748,-1.048790546738611
0.64,-2.3645016577251217,-0.5218667026363587,2.6484240939831616,0.0222821567151381,0.1767137299440554,0.0413274512453248,0.5756452972421396,0.4477903417227267,-0.5497915578470506,-2.370749781885658,-0.526408742092245,2.6540504081642315,0.6275931331887227,0.4651095874472859,-0.6400199826668885,0.7280520090768093,0.6796641653817326,0.2210631686069442,0.1387350918195862,11.105042187668914,-0.7471660473912017,0.2637597343796974,-1.038795089731975
0.66,-2.352839624260026,-0.512907920864316,2.637400751250938,0.0318172649356758,0.1767465450250689,0.0421046455345429,0.5901124399944185,0.4477280184535982,-0.5529855983571659,-2.364473850553771,-0.5217576462177721,2.647650208337563,0.6475931334867459,0.4731271408363583,-0.6600199829649117,0.7407833664185302,0.7233571376139447,-0.0031161634564264,-0.1597020255057646,10.653414264465937,-0.7490340234084811,0.256747843318114,-1.0368812954946052
0.68,-2.340876300272651,-0.5039821962060057,2.626252407788114,0.0403550993196304,0.1786965456496964,0.0428633189074426,0.6057174288934057,0.4449758101791827,-0.5616880773256517,-2.3519219878899964,-0.5124554544688265,2.634849808684225,0.6875931340827923,0.4891622476145031,-0.7000199835609582,0.9039129785552008,0.7802494449493602,-0.1376104137207762,-0.435123948424293,10.272537756383826,-0.7471261741834198,0.2494770779183609,-1.039467296001052
0.7000000000000001,-2.329209807491025,-0.4955706997335058,2.61546257093315,0.0472501366846186,0.1814412463427703,0.043537506951638,0.6216783845856612,0.4407785908745858,-0.5736589332823285,-2.339370125226222,-0.5031532627198807,2.622049409030887,0.7275931346788388,0.505197354392648,-0.7400199841570047,1.0193995154458897,0.7980477846127709,-0.2098609652298438,-0.5985427978338398,9.990899049905238,-0.7425979259064504,0.2418229315717912,-1.0451788319677249
0.72,-2.316591213121089,-0.4868130208025008,2.6038288871466104,0.0532195848049345,0.184650561904256,0.0441773568992774,0.6394323778500179,0.4353456630262353,-0.5892197063199122,-2.324818262532645,-0.4930493156320277,2.607249009347747,0.7675931352748853,0.5212324611707928,-0.7800199847530511,1.211258270728623,0.8876996632178391,-0.2716463924175238,-0.7780386518791815,9.641705531520527,-0.7366359755941236,0.2346400326935012,-1.0524905623181733
0.74,-2.3036050492739752,-0.4781736571177815,2.591868659440029,0.0579221271056284,0.187755023849987,0.04472553065887,0.6583622168151603,0.4290229605817724,-0.606066040246671,-2.3102663998390685,-0.4829453685441747,2.592448609664607,0.8075931358709317,0.5372675679489377,-0.8200199853490976,1.305865935135862,0.9464919482571166,-0.3161351222231462,-0.8423166963379414,9.641705531520527,-0.7297248614184249,0.2278429158906073,-1.061079862213406
0.76,-2.2902240294605054,-0.469664653189724,2.579563041274587,0.0615294648515891,0.1902506186541264,0.0451591683507336,0.6787956956524607,0.4223178402470353,-0.6236811530850903,-2.2947145371305906,-0.4724405437868682,2.576648209966565,0.8475931364669781,0.5533026747270825,-0.860019985945144,1.3899441503239924,1.02167394186502,-0.3352560167368568,-0.8807556419209661,9.601311686284134,-0.7236473150287303,0.2221309361347835,-1.068846271641351
0.78,-2.2771228392144955,-0.4617094846004212,2.5675388321269152,0.0640835757817012,0.1915839950558047,0.0454387284278289,0.6991299833566342,0.4155736487159522,-0.6411331362121542,-2.2781626744072114,-0.461534841360108,2.5598478102536237,0.8875931370630246,0.5693377815052274,-0.9000199865411904,1.3816105555757732,1.016714385208678,-0.3372095765541538,-0.8725991563531932,9.58014776705386,-0.7188429521442008,0.2172386886980516,-1.0753645985065354
0.8,-2.2629119310355508,-0.4534757161718419,2.5545142803704475,0.0660014749061938,0.1916898501588426,0.0455836883676437,0.7208206039876366,0.4082637039956857,-0.6604381688056686,-2.242166340046664,-0.4409308021646236,2.535482175316308,0.7991299848467504,0.4495825838098319,-0.7411331377022703,1.4971661552814306,1.0845310315501178,-0.3654972360133235,-0.965251629675723,9.555142742533462,-0.7154259470353248,0.2129378382483921,-1.0809579694835645
0.8200000000000001,-2.248207061744995,-0.4453730902890661,2.541375729426006,0.0683311122085597,0.190160865664147,0.0456326016248793,0.7487897143208064,0.401794373286251,-0.6510033708940294,-2.242166340046664,-0.4409308021646236,2.535482175316308,0.7991299848467504,0.4495825838098319,-0.7411331377022703,1.510909315851332,1.3984555166584922,-0.3234665354717364,0.4717398955819629,11.38154486744861,-0.7090558605061662,0.2046936913133364,-1.0928852591286953
0.84,-2.232946712789473,-0.4374333239459156,2.528425125917978,0.0709705491625203,0.1867767064879468,0.0455521044778472,0.7756370781959557,0.3925858761565433,-0.6446461055693702,-2.242166340046664,-0.4409308021646236,2.535482175316308,0.7991299848467504,0.4495825838098319,-0.7411331377022703,1.4542972433796162,1.342368193757465,-0.4604248564853835,0.3178632662329594,11.38154486744861,-0.7156278707670867,0.2064152158652631,-1.083859156848508
0.86,-2.217968219808212,-0.4300742717660095,2.5161800076284933,0.072783648031928,0.1817628608388126,0.0452745446395161,0.7993885463128676,0.3827608202792751,-0.6445480469599667,-2.2341750401981963,-0.4364349763265253,2.528070843939285,0.8191299851447735,0.4563843708286078,-0.7611331380002935,1.2851785636546784,1.1875734058455931,-0.4912527938634087,0.0049029304701742,10.96656731771327,-0.7232254623779965,0.2076272944643358,-1.0753096109943618
0.88,-2.201748501665929,-0.4225348413179471,2.5032427941799416,0.07356750939202,0.1749206161067185,0.0447683476915938,0.8209375641907953,0.3718251457037644,-0.6493493928829129,-2.2181924405012614,-0.4274433246503287,2.51324818118524,0.85912998574082,0.4699879448661597,-0.8011331385963399,1.231870602576133,1.0774508938963867,-0.5467837287755378,-0.2400672961473116,10.582723820652973,-0.7310831627213973,0.2088268747557109,-1.0676967650666414
0.9,-2.185135291181532,-0.4152223785894297,2.490156634967111,0.0726676855462146,0.1672241016493049,0.0440729317339395,0.8390047822969752,0.3602463785038864,-0.6589410452129315,-2.2022098408043265,-0.418451672974132,2.498425518431194,0.8991299863368665,0.4835915189037116,-0.8411331391923864,1.175257433910963,0.903360905308992,-0.5789383599938969,-0.4795826165009287,10.266409794819085,-0.7382072137285113,0.2100352763155927,-1.062079420417796
0.92,-2.1681951128629438,-0.4081426579030755,2.476838860943779,0.0696761456743262,0.1592980489101453,0.0432273849396823,0.8538690296955106,0.3488075998182677,-0.6722826131349932,-2.184227241077589,-0.4087798425960578,2.4816028556473464,0.9391299869329128,0.4971950929412635,-0.8811331397884329,1.150857227420519,0.7432123699267712,-0.5719389342809383,-0.6670783961030824,9.77350670857686,-0.7451298391937005,0.2120469268566533,-1.0576270900430886
0.94,-2.151853109240159,-0.4016058621099151,2.463922269952161,0.065372676249125,0.1520184071359153,0.0423713249225211,0.8654473868570778,0.3402943511624592,-0.6866378084495499,-2.166244641350852,-0.3991080122179835,2.4647801928634987,0.9791299875289594,0.5107986669788154,-0.9211331403844794,1.0156345181160291,0.5789178580783594,-0.4256624327904246,-0.7177597657278378,9.77350670857686,-0.7512790940442042,0.2148290811084277,-1.0543705889534647
0.96,-2.1344325811716263,-0.3948743515725166,2.450016906149452,0.0603503626729149,0.1448329725483368,0.0415101311234838,0.8758214338338476,0.3335170411862753,-0.7031940462716262,-2.1472620416092134,-0.3890960924889705,2.4469575300647497,1.0191299881250058,0.5244022410163673,-0.9611331409805256,1.0339992650029517,0.5187023488384901,-0.338865498809196,-0.8278118911038135,9.659947720981108,-0.756684924220268,0.2176649432580577,-1.052110585677798
0.98,-2.116822296830953,-0.3882623414728329,2.4357635245778377,0.0552778814500058,0.1381404251932611,0.0407201135041704,0.8845472377946983,0.3281845080268966,-0.7212918913201871,-2.1272794418526737,-0.3787440834090187,2.4281348672511,1.059129988721052,0.5380058150539192,-1.001133141576572,1.0393598511352953,0.4362901980425382,-0.2666266579689325,-0.9048922524280468,9.562380825239416,-0.7611594630774545,0.2201703334613618,-1.0507594925940698
1.0,-2.0999454954564265,-0.3820682089707162,2.4218741763282483,0.0505916670989498,0.1322447202056518,0.0400437772785208,0.8914168516684001,0.3241979549407499,-0.7398288395984542,-2.0725949349412183,-0.3718531160714881,2.3996989300118283,0.9845472392848144,0.3525601460201131,-0.8212918928103032,1.0083435076321614,0.3434806936850887,-0.1993276543073352,-0.9268474139133565,9.474795400140463,-0.765176808684719,0.2224360841364367,-1.0502251201466426
1.02,-2.082040282039804,-0.3755301183683899,2.40717437667719,0.0492671291675502,0.1273388584546009,0.0396759223131969,0.8987260789845812,0.3285777271615687,-0.7276384625599133,-2.0725949349412183,-0.3718531160714881,2.3996989300118283,0.9845472392848144,0.3525601460201131,-0.8212918928103032,0.7436607106195193,0.3654613658090555,0.2189886110409405,0.6095188519270489,9.392617978390264,-0.7649105982027563,0.21990352134754,-1.0555275220602018
1.04,-2.064016543952332,-0.3689528489359335,2.392717099647612,0.0527024409066719,0.1252584989961081,0.0397721849583936,0.9033148049631384,0.3281940718181849,-0.7192662886519146,-2.0725949349412183,-0.3718531160714881,2.3996989300118283,0.9845472392848144,0.3525601460201131,-0.8212918928103032,0.4777470394323944,0.2294362989278597,-0.0191827671691902,0.4186086953999357,11.42570327860085,-0.770113932215527,0.2207767806047167,-1.0467175620746203
1.06,-2.0459028017666565,-0.362441314076297,2.3783412348110877,0.0577309988295552,0.1260587119893215,0.0401184910115061,0.9081914080926544,0.3227718766406757,-0.7187311296862595,-2.06274946254837,-0.368327514611287,2.391486011083725,1.0045472395828376,0.3574352736187564,-0.8412918931083264,0.3656085808085326,0.2438301564758049,-0.2711097588754624,0.0267579482827517,10.91722158077664,-0.7704306084120006,0.2169875751953238,-1.0461811238418015
1.08,-2.028592454984928,-0.3563831691323137,2.364640027622821,0.0622303688698797,0.128581128113174,0.0405272137610001,0.9139338017683124,0.3153183571057583,-0.72352803437437,-2.043058517762674,-0.3612763116908847,2.3750601732275194,1.0445472401788842,0.367185528816043,-0.8812918937043729,0.5280632849631932,0.2871196837828993,-0.3726759767458676,-0.2398452344055224,10.48023830425791,-0.7671130596203435,0.2114801961012785,-1.050588699954878
1.1,-2.010239995936905,-0.350170714393239,2.3500775593897907,0.0661323917243671,0.1323633496795529,0.0409731476044806,0.921193649828312,0.3064535750650367,-0.732652316025091,-2.0233675729769773,-0.3542251087704824,2.3586343353713133,1.0845472407749306,0.3769357840133296,-0.9212918943004194,0.7323630761539345,0.3629924029999676,-0.4432391020360832,-0.4562140825360494,10.17436634151818,-0.7613962043299298,0.2056614446812174,-1.057993387836354
1.12,-1.9917281625742105,-0.3441424112211215,2.335297737877872,0.0690378126572627,0.1367448829895884,0.0413936833608359,0.9297815389849686,0.2969994328571055,-0.745001283183655,-2.0016766281614786,-0.3466863930902158,2.340208497485305,1.124547241370977,0.3866860392106163,-0.9612918948964658,0.8882984224601854,0.4293944578328379,-0.4727071103965585,-0.617448357928202,9.951909718866771,-0.7543409450052405,0.2002508699136048,-1.0667944126474034
1.14,-1.973028952846685,-0.3383087366068685,2.320255715645743,0.0708941367843427,0.1412721123614298,0.0417528024665555,0.9398358247668192,0.2870899552061041,-0.7585843881728216,-1.97998568334598,-0.3391476774099493,2.3217826595992963,1.1645472419670235,0.3964362944079029,-1.0012918954925123,0.979524311905452,0.5027142890925262,-0.4954738825500682,-0.6791552494583297,9.795319223396293,-0.7467800812952704,0.1955829806762049,-1.0761125615159812
1.16,-1.955059888230256,-0.3329538085972484,2.3057076935761764,0.0716528676662207,0.1452369752771665,0.0419976458556748,0.9511635897713304,0.2772356153408176,-0.7721185283789235,-1.9572947385155803,-0.3313652053497505,2.3023568216983867,1.20454724256307,0.4061865496051894,-1.0412918960885589,1.0106918735406312,0.5663882502255635,-0.4927169932643249,-0.6767070103050943,9.757736492588265,-0.7389442447267228,0.1915242460806064,-1.085772232165903
1.18,-1.935899617045108,-0.327523033692389,2.2901070217641664,0.0711678901077763,0.1486181802019319,0.0421023042450403,0.964281759974841,0.2664810910963586,-0.7872815663636814,-1.9336037936702792,-0.3233389769096196,2.2819309837825763,1.2445472431591162,0.4159368048024761,-1.081291896684605,1.1376114254658105,0.6559085101755291,-0.5377262122229498,-0.7581518992378966,9.740232846380422,-0.7318305675016217,0.1887926376034333,-1.0946422225082786
1.2,-1.916465980348787,-0.3223114268276272,2.274193205263368,0.0690184814585746,0.1509002985095825,0.0420032419004961,0.9783280632812056,0.2554662628502065,-0.803332230025835,-1.8876855290463657,-0.3141989791375711,2.2507429434459825,1.056968413112048,0.2934552159303001,-0.8872815678537975,1.2002592239410166,0.7023151653182291,-0.5507414123076065,-0.8025331831076787,9.7042212075321,-0.7262664243165117,0.1879294681166426,-1.1017783913867074
1.22,-1.896656853872714,-0.3172974732768974,2.258291518237508,0.0663020475838517,0.150765116020073,0.0416912169477263,1.001613459498362,0.2463593660376123,-0.7860043320474377,-1.8876855290463657,-0.3141989791375711,2.2507429434459825,1.056968413112048,0.2934552159303001,-0.8872815678537975,1.521020459177777,1.1642698108578264,-0.4553448406297081,0.8663948989198644,9.672592796342542,-0.719874618085988,0.1825486344088125,-1.1159849060726947
1.24,-1.877415009967195,-0.3127066297706628,2.243474129178026,0.0637384720923533,0.1473387146052374,0.0411786249084129,1.0223954727961224,0.2375704204716933,-0.7746178503250533,-1.8876855290463657,-0.3141989791375711,2.2507429434459825,1.056968413112048,0.2934552159303001,-0.8872815678537975,1.263714373269499,1.0391006648880152,-0.4394472782959527,0.5693240861192217,11.275419606516152,-0.7274301401269846,0.1905610084819036,-1.103770862252957
1.26,-1.8567699947675087,-0.3080480082681944,2.2280436846838554,0.0606424260053915,0.1407732389615197,0.0404375778165669,1.0404408370489384,0.2290122962651757,-0.7692623175308986,-1.8771158449152447,-0.3112644269782681,2.2418701277674447,1.0755057437394897,0.2988500408970884,-0.9072815681518208,1.0338742579011464,0.9022682126408,-0.4279062103258804,0.2677766397077341,11.275419606516152,-0.7372255532833205,0.198219247535354,-1.0908238728510402
1.28,-1.8358131711318209,-0.3035501175066316,2.2126466355015784,0.0570481550484878,0.132344450505882,0.0395784953029564,1.053908896980019,0.2215139017945063,-0.7706039321671851,-1.855976476653004,-0.305395322659662,2.2241244964103686,1.1125804049943722,0.309639690830665,-0.9472815687478672,0.7736512259688492,0.6734029965540289,-0.3749197235334678,-0.0670807318143285,10.422242769352124,-0.7489343853147952,0.2053186628389374,-1.0771906110202194
1.3,-1.8156961886122007,-0.2994044108086741,2.197941999799564,0.0532683612011376,0.1235638144547811,0.038731413196044,1.0627086343217969,0.2154980409324813,-0.7771270094937976,-1.8348371083907635,-0.2995262183410561,2.2063788650532925,1.149655066249255,0.3204293407642415,-0.9872815693439136,0.6248529767163042,0.4399868670888929,-0.3007930431012523,-0.3261538663306251,10.422242769352124,-0.7604291880114599,0.2113537035339419,-1.0654482459566943
1.32,-1.7943795528696775,-0.2951509823114241,2.182283210437381,0.0490430283797827,0.1143281143466909,0.0378705741427329,1.068204634647779,0.2103683478467146,-0.7885964143592551,-1.8118440070657784,-0.2931176315257712,2.1866332336664143,1.186729727504138,0.3312189906978181,-1.02728156993996,0.685687645187544,0.2748000162991038,-0.2564846542883303,-0.5734702432728722,10.085094267168644,-0.770363946135619,0.216018184983946,-1.0567341880268777
1.34,-1.7729867500131429,-0.2909884356558302,2.166361977790651,0.0446878709549592,0.1057445601896283,0.0370833771608216,1.0706122879428257,0.2063174280384019,-0.8030471485340701,-1.788850905740793,-0.2867090447104864,2.166887602279536,1.2238043887590206,0.3420086406313947,-1.0672815705360066,0.759984315419891,0.1203826647523276,-0.2025459904156396,-0.7225367087407508,9.801690207660611,-0.7782385288755547,0.219115772541765,-1.0516871382268786
1.36,-1.7515678956811076,-0.2868943300386995,2.150127770310119,0.0403564308416076,0.0981007271606401,0.0363883667316347,1.0710161884566218,0.2034173601474584,-0.8197336410040581,-1.764930937884436,-0.2800307166468622,2.1461419708777565,1.2608790500139035,0.3527982905649713,-1.107281571132053,0.8470722524497125,0.0201950256898175,-0.1450033945471704,-0.8343246234993995,9.51784623817548,-0.7844493659686106,0.2213485694064948,-1.048735107269018
1.38,-1.7312293789997428,-0.2830492027426549,2.1343753573936204,0.0363773493655578,0.0917474164852114,0.0358147972734002,1.0698013979012386,0.2015585955269173,-0.837570969072906,-1.7400841034967067,-0.2730826473348985,2.124396339461076,1.2979537112687862,0.3635879404985479,-1.1472815717280993,0.8987505141079631,-0.0607395277691602,-0.0929382310270551,-0.8918664034423929,9.51784623817548,-0.7894903261502846,0.2228960245779485,-1.047743014691528
1.4,-1.70986081109415,-0.2790311999379148,2.1174092586292974,0.0323913706564005,0.0860669184650349,0.0352986484211487,1.0669945468692394,0.2004141784950954,-0.8581882102971622,-1.6777393091046808,-0.272971272966309,2.092496808939975,1.1313401947731392,0.2147094607390002,-0.8939535916427054,1.041943782981752,-0.140342551599959,-0.0572208515910985,-1.0308620612128117,9.409899949595456,-0.7929680732044807,0.2238893901533321,-1.048595750675013
1.42,-1.6884691895321966,-0.2749384716998487,2.1004547725951244,0.0319367544836943,0.0796977015015765,0.0350307523525666,1.0722371475329586,0.207783648253419,-0.8339658041875726,-1.6777393091046808,-0.272971272966309,2.092496808939975,1.1313401947731392,0.2147094607390002,-0.8939535916427054,1.292786625835793,0.2621300331859588,0.3684734879161794,1.2111203054794797,9.308805919356018,-0.7925347691619975,0.2135547013690884,-1.064736401522339
1.44,-1.6670002514677702,-0.2707459778349325,2.0840064069211253,0.0362678591072888,0.0713136178481147,0.0350073113219941,1.073935577725238,0.2099808219125487,-0.8123215701829588,-1.6777393091046808,-0.272971272966309,2.092496808939975,1.1313401947731392,0.2147094607390002,-0.8939535916427054,1.091083295231051,0.0849215096139666,0.1098586829564859,1.0822117002306897,12.255088866463666,-0.8055868703637327,0.216823710141159,-1.0447687196795703
1.46,-1.6466162353683953,-0.266780830393413,2.0687006419297167,0.0417132030550273,0.062696270903486,0.0349993794606127,1.0714119086419367,0.2070842277845061,-0.7998637396989435,-1.6664259071569494,-0.270824178358919,2.083557273023548,1.1436479541475193,0.2173396337814168,-0.9052301161566652,0.6518372180864666,-0.126183454165063,-0.1448297064021275,0.6228915242007638,11.70397052613589,-0.8178049155020487,0.2162283064717444,-1.0290480883729738
1.48,-1.6252505774204622,-0.2626963188266074,2.052775841369296,0.0472284478974063,0.0539101088324655,0.0349243668284752,1.0650350346895598,0.2014959383039617,-0.7935627079956854,-1.6437991032614867,-0.266529989144139,2.065678201190694,1.1682634728962795,0.2225999798662499,-0.927783165184585,0.5281962259623068,-0.3188436976188424,-0.2794144740272203,0.3150515851629065,11.16264622890776,-0.8287854621103053,0.2138961402865815,-1.0168828800188372
1.5,-1.6040464374999124,-0.2587404065710568,2.0369117203127685,0.0519646803677155,0.0461351327130279,0.0347875813417065,1.055555470856834,0.1944555855717044,-0.793397852902101,-1.6211722993660238,-0.262235799929359,2.04779912935784,1.1928789916450395,0.2278603259510831,-0.9503362142125048,0.5904571835772866,-0.4739781916362928,-0.3520176366128683,0.0082427546792218,10.739765937861192,-0.8368671260389563,0.2104106371305968,-1.0098488380254875
1.52,-1.5830613839388612,-0.2549361980628608,2.020993825445504,0.0557136437979684,0.0399742065251441,0.034626462741501,1.0433588988789575,0.1865182216041299,-0.7983744492421586,-1.597314719533123,-0.2576785934103373,2.02879240507359,1.2174945103938,0.2331206720359162,-0.9728892632404246,0.7689678567683127,-0.6098285988938135,-0.396868198378722,-0.2488298170028824,10.395743489812048,-0.842189669764457,0.205451692859708,-1.008032135469254
1.54,-1.5633744349960463,-0.2514761924782576,2.0057610762109337,0.0583619702946848,0.0362675612975832,0.034507391714939,1.029528818162928,0.1783010750674356,-0.8048187594306828,-1.5734571397002222,-0.2531213868913157,2.00978568078934,1.2421100291425602,0.2383810181207494,-0.9954423122683442,0.8664897051080874,-0.6915040358014823,-0.4108573268347182,-0.3222155094262102,10.139172892215356,-0.843894701388964,0.1996221369803928,-1.011639548197783
1.56,-1.542947078113058,-0.2480056388484357,1.9895847648367075,0.0602794535755673,0.0352165687595426,0.0344774874971596,1.0142129392738382,0.1693196337303594,-0.8125025162475003,-1.5489841718986024,-0.2484326717201732,1.990215130279392,1.2667255478913204,0.2436413642055825,-1.017995361296264,0.9673191736141163,-0.7657939444544959,-0.4490720668538075,-0.3841878408408716,10.069425049780875,-0.8420689634098193,0.1925575024215833,-1.02086976754293
1.58,-1.52281353770413,-0.2447225174126452,1.9732490114247163,0.0612163877934219,0.0366875236997092,0.0345281392841068,1.0002187372189228,0.1596119037957692,-0.820677518293731,-1.5238958161282634,-0.2436124478969098,1.9700807535437457,1.2913410666400806,0.2489017102904156,-1.0405484103241838,0.9446009343799802,-0.6997101027457653,-0.4853864967295118,-0.4087501023115392,10.027202692301216,-0.8385542317794646,0.1873106982445836,-1.0299932494437778
1.6,-1.5039301732454733,-0.2417903901328988,1.957577411368088,0.0609070589995666,0.0397192142909589,0.0345916753841642,0.9884403637832612,0.1497093824715302,-0.8285476512185557,-1.4728026008431838,-0.2367419222228567,1.9322151355100297,1.060523494426555,0.1797185304703021,-0.8187167524904982,0.8641889284486884,-0.5889186717830841,-0.4951260662119483,-0.3935066462412318,10.007874229864685,-0.8337402198854457,0.1837131083697454,-1.0391526543421714
1.62,-1.4842290511412632,-0.2389451898779277,1.941266890322468,0.0585430875458649,0.0430376323813663,0.0345204185195089,0.982452551785416,0.1355651876956049,-0.800237451017712,-1.4728026008431838,-0.2367419222228567,1.9322151355100297,1.060523494426555,0.1797185304703021,-0.8187167524904982,1.6104188692640629,-0.2993905998922574,-0.7072097387962647,1.4155100100421814,10.00586487619148,-0.8246418802604755,0.1755084155835399,-1.0609220646099389
1.64,-1.4646404510752349,-0.2363628440532689,1.9255689465233208,0.0540458639187901,0.0453991291251416,0.0342379946447134,0.9766448866928694,0.124040853307289,-0.7713170528782013,-1.4728026008431838,-0.2367419222228567,1.9322151355100297,1.060523494426555,0.1797185304703021,-0.8187167524904982,1.58345246650217,-0.2903832546273299,-0.5762167194157959,1.4460199069755375,12.50456677899001,-0.8245851491620378,0.182961473619232,-1.0556673752726031
1.66,-1.4451737484538318,-0.2339807455953798,1.9104052150662307,0.0485404151739516,0.0472603530603025,0.0338546518987247,0.9703137452913712,0.1151650577225395,-0.7466563794631992,-1.4621973658989182,-0.2349447369181537,1.9240279679851249,1.072584445868081,0.1837398558052086,-0.8183245993298517,1.348157921006858,-0.3165570700749076,-0.4437897792374717,1.2330336707501055,12.230192226789768,-0.825135205963757,0.191010227506597,-1.0498918880888728
1.68,-1.4268019232378049,-0.2318608834205304,1.896417851957896,0.0427995084429529,0.0489096448203461,0.0334485601226782,0.9639270418377532,0.1087800914582767,-0.7268822469082551,-1.440986896010387,-0.2313503663087476,1.9076536329353149,1.0967063487511342,0.1917825064750218,-0.8175402930085586,1.0869384682454777,-0.3193351726809013,-0.3192483132131399,0.9887066277472044,11.69341979814908,-0.8267350207175771,0.200155436595824,-1.0423972503745451
1.7,-1.4075958951354113,-0.229737992829157,1.882073519900008,0.0365605322095075,0.0507470754299684,0.0330126619617154,0.9570653579903836,0.104125830400005,-0.7086922958299361,-1.4197764261218562,-0.2277559956993416,1.8912792978855049,1.120828251634187,0.1998251571448349,-0.8167559866872655,0.999523850955341,-0.3430841923684868,-0.2327130529135856,0.90949755391595,11.69341979814908,-0.8278447619348878,0.2089381170520421,-1.035960716547786
1.72,-1.3885267345885794,-0.2276873804976651,1.8680678423464887,0.030349215623753,0.0528240406123922,0.0325886056561408,0.950268503709314,0.1013918272560356,-0.6928657306326105,-1.3973598610891724,-0.2237594925564449,1.8749441781517595,1.1449501545172398,0.2078678078146481,-0.8159716803659723,0.8719979461766623,-0.3398427140534787,-0.1367001571984709,0.7913282598662807,11.511706697941008,-0.8286324956371834,0.2174200228665765,-1.0300461944063526
1.74,-1.3695903322456162,-0.2256720417141008,1.8543712419488336,0.0243578597223391,0.0551968775765425,0.0321896004744019,0.9438256947459466,0.1004384254609205,-0.6775606863914487,-1.374943296056489,-0.2197629894135482,1.8586090584180144,1.1690720574002926,0.2159104584844613,-0.8151873740446792,0.8316596983521771,-0.3221404481683676,-0.0476700897557531,0.7652522120580874,11.358381428109167,-0.828790432655349,0.2247778816125135,-1.0256043265185542
1.76,-1.351712201663214,-0.2237576726212297,1.8416414839057025,0.0190608361559177,0.0576061989078585,0.0318425018235904,0.9384777971911534,0.1011703245280545,-0.6631714847947053,-1.3519236834517288,-0.2155654200039062,1.8422935463423007,1.1931939602833457,0.2239531091542744,-0.8144030677233861,0.7684152638592571,-0.2673948777396573,0.0365949533566951,0.7194600798371698,11.33293982559735,-0.8289348299272148,0.2322267195597199,-1.0207732559947869
1.78,-1.332995256439962,-0.2217127151845842,1.8285350436941905,0.0140267024494465,0.0601114109571797,0.0315159989055499,0.9335666704452652,0.1033356809724198,-0.648235905549183,-1.3283010232748924,-0.2111667843275188,1.8259976419246204,1.2173158631663985,0.2319957598240876,-0.813618761402093,0.7935355408622405,-0.2455563372944114,0.1082678222182678,0.7467789622761178,11.294100098921264,-0.8292112478856567,0.2393813157690235,-1.01551569149141
1.8,-1.3143696304109689,-0.2196104505742666,1.8157227332307764,0.009625575202482,0.062446149086236,0.031235008784174,0.9292919423553369,0.1067841879148661,-0.6337590041198393,-1.2863169229176987,-0.2165459311359632,1.796123248416731,0.9817579980469364,0.1375029409039841,-0.6223329041215325,0.7741869531480351,-0.2137364044964174,0.1724253471223145,0.7238450714671829,11.294100098921264,-0.8297723884241076,0.2461419421884778,-1.0097735900109337
1.82,-1.2957487423150769,-0.2174103436465567,1.8033809580989424,0.0064733656747695,0.0624670543486932,0.0310293352219344,0.9326721757774304,0.1125910567138021,-0.6011124432584238,-1.2863169229176987,-0.2165459311359632,1.796123248416731,0.9817579980469364,0.1375029409039841,-0.6223329041215325,1.6665410580855786,0.1690116711046796,0.2903434399467983,1.6323280430707745,12.479417874282262,-0.8336721473113065,0.2486366567444799,-1.0055272992884745
1.84,-1.2780073620143084,-0.2152213513175805,1.7922529073708462,0.004407632598368,0.0588138558625139,0.0308915574596027,0.9343268358226798,0.1174675934487613,-0.5719019039037437,-1.2863169229176987,-0.2165459311359632,1.796123248416731,0.9817579980469364,0.1375029409039841,-0.6223329041215325,1.483049324688888,0.0827330022624694,0.243826836747963,1.460526967734005,12.479417874282262,-0.8443705120008153,0.2586625037745544,-0.9831003632331982
1.86,-1.2593387789993593,-0.2128182869695865,1.7811082512484877,0.0026622541111541,0.0522730861563264,0.0307887623417698,0.931943867024634,0.1225812692814964,-0.5442122462545665,-1.276499342937229,-0.2151709017269234,1.789899919375516,0.9913962635672706,0.144336392890297,-0.6171523038360024,1.4129272464845777,-0.1191484399022946,0.2556837916367557,1.3844828824588595,12.009980815987548,-0.8570754203175767,0.2680160109138825,-0.9591171297916185
1.88,-1.240766940848707,-0.2103092527605837,1.7704778114406463,0.0012155918067495,0.0446377510720608,0.0307308582151233,0.9250655722711396,0.1280659618137236,-0.5201612419147006,-1.2568641829762908,-0.2124208429088437,1.7774532612930851,1.0106727946079392,0.1580032968629227,-0.6067911032649422,1.2804721791640623,-0.3439147376747109,0.2742346266113554,1.2025502169932978,12.009980815987548,-0.8701688958963003,0.2762190943279215,-0.9357179360240084
1.9,-1.2223749105539383,-0.2076855739971304,1.7602959538254055,0.0001089418184887,0.0372138605490033,0.0307226593846864,0.9143367409855754,0.134022400475098,-0.4991866062047453,-1.237229023015352,-0.209670784090764,1.7650066032106546,1.0299493256486076,0.1716702008355485,-0.5964299026938821,1.215033256176708,-0.5364415642782172,0.2978219330687232,1.0487317854977611,11.564123235852094,-0.8814985950885147,0.2826491191903019,-0.9158800249811854
1.92,-1.205133834847648,-0.2050785671771583,1.7509871590462405,-0.0005214902189258,0.0312772485615138,0.0307646380117562,0.900955036566222,0.1400760664224257,-0.4817091957573994,-1.21663003650238,-0.2062373800740531,1.753078005156777,1.049225856689276,0.1853371048081742,-0.5860687021228219,1.141464805101079,-0.6690852209676745,0.3026832973663851,0.8738705223672982,11.564123235852094,-0.8912575368991812,0.2880699442161568,-0.8984343104724573
1.94,-1.1872905937850395,-0.2022081356641145,1.7415355330027655,-0.0006539644415425,0.027194685426236,0.0308613042209489,0.8839102949275417,0.1466264281479233,-0.4644072498173001,-1.1960310499894078,-0.2028039760573421,1.7411494071028994,1.0685023877299449,0.1990040087808,-0.5757075015517618,1.2577636796894116,-0.8522370819340097,0.3275180862748791,0.8650972970049631,11.405016230294676,-0.8980378175417336,0.2920349946696019,-0.8855016055223498
1.96,-1.1698080333775047,-0.1992023526142111,1.73242061537647,-7.101809612143117e-05,0.0262094131218173,0.0310192384491967,0.865531709716705,0.1535649195391577,-0.4479501086054091,-1.174950150200419,-0.1990288994413155,1.7294798390632984,1.087778918770613,0.2126709127534257,-0.5653463009807015,1.2813591943775375,-0.9189292605418342,0.3469245695617212,0.8228570605945507,11.3516169188606,-0.9017080042069662,0.2939645724912048,-0.8781255189660094
1.98,-1.153530647095905,-0.1962167399071025,1.7240629684299338,0.00134286356091,0.0278593566038482,0.0312407199925536,0.8491200188503742,0.160248741266173,-0.4325906974957558,-1.1533873371354133,-0.1949121502259732,1.7180693010379735,1.1070554498112817,0.2263378167260514,-0.5549851004096413,1.1725278030881254,-0.8205845433165382,0.334191086350763,0.7679705554826638,11.289103056680688,-0.9029061039912852,0.2948988723026107,-0.8739558788448263
2.0,-1.136714709059671,-0.1929413369467671,1.7155823688224316,0.0037556766348192,0.0315616756236093,0.0315564245726358,0.8336319279777076,0.1667089821849818,-0.4162529748844314,-1.1110746461533862,-0.1882043028437938,1.702433433555146,0.8948687704608917,0.1741877493828951,-0.4140706458823058,1.1710431799613688,-0.7744045436333336,0.3230120459404392,0.8168861305662217,11.246293174353925,-0.9019267283718968,0.2949913653032893,-0.8725107256051587
2.02,-1.120157771501693,-0.1894868989494385,1.7074859868913643,0.0087749904112137,0.0356329189049736,0.0320755053312491,0.8228781585598125,0.1767429665048215,-0.3941981227360209,-1.1110746461533862,-0.1882043028437938,1.702433433555146,0.8948687704608917,0.1741877493828951,-0.4140706458823058,1.325463033539877,-0.5376884708947538,0.5016992159919866,1.102742607420526,11.246293174353925,-0.9022019289918398,0.2929899160591772,-0.8707255901314819
2.04,-1.10462282661327,-0.1860838852326122,1.7001955711923764,0.015134202042731,0.0389844954204084,0.0326991436440462,0.8129948825084329,0.1806774179346686,-0.3743226183195511,-1.1110746461533862,-0.1882043028437938,1.702433433555146,0.8948687704608917,0.1741877493828951,-0.4140706458823058,1.1271587392318687,-0.4941638025689809,0.1967225714923567,0.9937752208234896,11.579310548451758,-0.9022470135163988,0.2918445604590425,-0.8663354698148175
2.06,-1.088468987896309,-0.1824569992731642,1.6929154950418226,0.0217452064166818,0.0423152862043571,0.0333706756858432,0.8029976650408533,0.1817111354012751,-0.3547854150599223,-1.1021259584487773,-0.1864624253499649,1.698292727096323,0.9040185207829952,0.1769755510062395,-0.4103666355596158,1.0985390754348427,-0.4998608733789766,0.0516858733303246,0.9768601629814412,11.480826947103196,-0.9025310013539772,0.2900044123233828,-0.862955315658417
2.08,-1.0725098014919057,-0.1788318758754863,1.6860110870170228,0.0276432223306206,0.0456160993358963,0.0340138088239611,0.7935178322970039,0.1807723521025836,-0.336680980179976,-1.0842285830395595,-0.182978670362307,1.6900113141786768,0.9223180214272022,0.1825511542529284,-0.4029586149142358,1.0228869747624587,-0.4739916371924724,-0.0469391649345771,0.9052217439973144,11.298281445157954,-0.902677446715332,0.2881788384401473,-0.8604745006924476
2.1,-1.0567340977382371,-0.1752411864352129,1.6794543932700985,0.0325834475613948,0.0489813040006817,0.034611439754999,0.7846456100522876,0.1784985940066336,-0.3198729262012311,-1.0663312076303415,-0.1794949153746491,1.6817299012610307,0.9406175220714093,0.1881267574996172,-0.3955505942688557,0.9570749474191392,-0.4436111122358144,-0.1136879047974992,0.8404026989372454,11.222722027547206,-0.902491077770218,0.2867660504753501,-0.8588701791080634
2.12,-1.041904644054112,-0.1718811081938419,1.6735278545343812,0.0363777856245443,0.0522535190683326,0.0351348837335459,0.7768951166900806,0.1754774236389049,-0.3047981659295907,-1.0475188571889136,-0.1757323802246568,1.6738188893756536,0.9589170227156164,0.1937023607463061,-0.3881425736234757,0.8608803851231057,-0.3875246681103506,-0.1510585183864335,0.7537380135820171,11.16485869180633,-0.9020096219208616,0.2857081424122978,-0.8577468340174396
2.14,-1.0264454698931913,-0.1684114971629105,1.6675944907955178,0.0394962187893343,0.0557499985729246,0.0356412338751324,0.7695367189461019,0.1717587403053589,-0.2893374458901706,-1.0287065067474854,-0.1719698450746644,1.6659078774902765,0.9772165233598232,0.1992779639929949,-0.3807345529780957,0.8760828831096874,-0.3679198871989364,-0.1859341666773026,0.7730360019710086,11.16485869180633,-0.9013334853387494,0.2851451232913426,-0.8569521036512218
2.16,-1.0111222303646894,-0.1650197240474023,1.661965545108687,0.0418253601649916,0.0591733893476128,0.0361021567312761,0.7632438299698406,0.1677175237703676,-0.2743409989201879,-1.009436668789952,-0.1680679198435049,1.6581820661210338,0.9955160240040304,0.2048535672396837,-0.3733265323327157,0.8378921536715518,-0.3146444488130617,-0.2020608267495643,0.7498223484991351,11.138973879788864,-0.9007257867710582,0.2851649169499816,-0.855988555659073
2.18,-0.9959143717981188,-0.1617125205534079,1.6566312626265831,0.0434280140737258,0.0623292008192837,0.0365113320344384,0.7579060726376657,0.1633387936740946,-0.2598240862513235,-0.9897093433163134,-0.1640266045311781,1.6506414552679258,1.0138155246482372,0.2104291704863726,-0.3659185116873357,0.8037500918019052,-0.2668878666087448,-0.2189365048136521,0.7258456334432173,11.106988586830994,-0.9003290073712901,0.285732701633224,-0.8547276482061035
2.2,-0.9815582014927208,-0.1586554038152571,1.6518283209250848,0.0442334202046003,0.0649666546304372,0.0368417965773998,0.7535578023552905,0.1587799913433117,-0.2464635738209109,-0.9580190681662354,-0.1535455808697031,1.643640058314017,0.7959806815298681,0.1591422508932482,-0.2354323810810497,0.7385685911662979,-0.2174135141187638,-0.2279401165391409,0.6680256215206293,11.077234513916665,-0.9006253924440147,0.287161081275057,-0.8521995144634353
2.22,-0.9664750277984916,-0.155480211583158,1.6471278046704223,0.0459457515968156,0.0656405843589206,0.0371614666104587,0.7550216134465064,0.1584765389979641,-0.2238783688679346,-0.9580190681662354,-0.1535455808697031,1.643640058314017,0.7959806815298681,0.1591422508932482,-0.2354323810810497,1.1317313163960427,0.073190554560798,-0.0151726172673796,1.1292602476488138,11.59504151164765,-0.9071830991929216,0.2877923641230621,-0.8438600858074328
2.24,-0.9513671870323952,-0.1523439873406297,1.642880198687883,0.048974058075266,0.06262362351549,0.0373996712291003,0.755409619978789,0.1549417199770044,-0.2021239211151693,-0.9580190681662354,-0.1535455808697031,1.643640058314017,0.7959806815298681,0.1591422508932482,-0.2354323810810497,1.1021586678058537,0.0194003266141273,-0.1767409510479878,1.087722387638267,11.463669464365012,-0.9144947029386156,0.291284713095069,-0.8297330590763332
2.26,-0.936283531890515,-0.1493016100795088,1.6390405543825726,0.0519228236343276,0.0569455337958813,0.0374878913085192,0.7524678740456533,0.1495116090952001,-0.1828891781530887,-0.9500592613509368,-0.1519541583607706,1.6412857345032064,0.8035956033083086,0.1583029423370789,-0.2305540400469949,1.0100932013199582,-0.1470872966567837,-0.271505544090217,0.9617371481040318,11.463669464365012,-0.9225698311560564,0.2942827050521385,-0.8153853033670857
2.28,-0.9220493022799028,-0.1465224412122607,1.635726552316951,0.0542277634735489,0.0505538713547892,0.0374695165283211,0.7458051271893971,0.143428377621863,-0.1668804353610657,-0.9341396477203392,-0.1487713133429057,1.6365770868815854,0.8188254468651895,0.1566243252247404,-0.2207973579788854,0.9188005042035752,-0.3331373428128115,-0.3041615736668543,0.8004371396011469,11.30262093481997,-0.9313347334374898,0.2965849694373879,-0.80126496672479
2.3000000000000003,-0.9072386961471984,-0.1437265442716808,1.6325480587070391,0.0560356279004032,0.0440536836717604,0.0374067866704934,0.7354085072053381,0.1365697391854,-0.1518739738309763,-0.918220034089742,-0.1455884683250407,1.6318684392599645,0.8340552904220705,0.1549457081124018,-0.2110406759107759,0.9750955285882428,-0.5198309992029471,-0.3429319218231461,0.7503230765044707,11.039263258739084,-0.9391864109047886,0.2981784372120744,-0.7893199912994778
2.32,-0.8926720624537745,-0.1410744194662878,1.629648222932675,0.0570911367532528,0.0389183415349879,0.0373625254838254,0.7216643063841968,0.1290978097978036,-0.1388362233190023,-0.9015389282813006,-0.1424895541627927,1.627647625741749,0.8492851339789514,0.1532670910000633,-0.2012839938426664,1.0182285148697805,-0.6872100410570681,-0.3735964693798208,0.6518875255986989,10.94153586453649,-0.9446754165238888,0.299158368197087,-0.7812150867095862
2.34,-0.8784120717368173,-0.1385776447715623,1.626997340702122,0.057176381998889,0.0363694714320364,0.0374008020596232,0.7050608723276673,0.1210883887438206,-0.1268840449609083,-0.884857822472859,-0.1393906400005446,1.6234268122235336,0.8645149775358324,0.1515884738877247,-0.1915273117745569,1.0984983108694344,-0.830171702826471,-0.4004710526991528,0.597608917904703,10.94153586453649,-0.9481701194908292,0.29966989148838,-0.7766467184091527
2.36,-0.8651754884148577,-0.1363561739823256,1.6246958368444266,0.056164043016403,0.0368279944988204,0.037532306611753,0.6894518653446903,0.1133065749213268,-0.1159390114445899,-0.8677959705754956,-0.1363336912661051,1.6194499157570208,0.8797448210927133,0.1499098567753862,-0.1817706297064474,1.029552674752383,-0.7804503491488535,-0.3890906911246883,0.5472516758159185,10.897107963822236,-0.9500533327920556,0.3001389632536375,-0.775042990897241
2.38,-0.851545016929378,-0.1341732201138409,1.622499432330982,0.0538694492312928,0.0396079669120875,0.0377197647043147,0.6746929397469303,0.1055828608868653,-0.1042448995103346,-0.8503533725892102,-0.1333187079594739,1.6157169363422106,0.8949746646495943,0.1482312396630477,-0.1720139476383379,1.0176368424163431,-0.7379462798879965,-0.3861857017230747,0.5847055967127631,10.860566650622786,-0.9502823063877162,0.301593962735146,-0.7750447360566818
2.4,-0.8381902166482885,-0.1321251981197297,1.6205405203467456,0.050743521396803,0.0439674623726692,0.0379345055431075,0.6618009512966425,0.099871394668707,-0.0922014273380571,-0.8178103699420315,-0.1288940770694976,1.6172871873554653,0.7040853889321825,0.1273111902473504,-0.1082857582186567,0.9271858423853632,-0.6445994225143914,-0.285573310907914,0.6021736086138784,10.856747145400732,-0.9496530724009736,0.3042257739362007,-0.7751725371406916
2.42,-0.8250359015679194,-0.1302287703112904,1.6187889196192573,0.0456668984785793,0.0480662932461504,0.0379963455896817,0.6540893289556703,0.0914618633832005,-0.0834950543148386,-0.8178103699420315,-0.1288940770694976,1.6172871873554653,0.7040853889321825,0.1273111902473504,-0.1082857582186567,0.7176180509002011,-0.3855811170486112,-0.4204765642753259,0.4353186511609243,10.632706020380285,-0.949167024695564,0.3076794842264711,-0.7750702371849528
2.44,-0.8126836247923246,-0.1285294493018756,1.617278397434177,0.0394953485051622,0.050790856361839,0.0379026754243243,0.6464965012196425,0.0881452103900045,-0.0759232938230874,-0.8178103699420315,-0.1288940770694976,1.6172871873554653,0.7040853889321825,0.1273111902473504,-0.1082857582186567,0.5612102481483936,-0.3796413868013881,-0.1658326496598007,0.3785880245875589,10.585686668226115,-0.9486870537772076,0.313197213061969,-0.7731288076186065
2.46,-0.7998404870552657,-0.1267734450709569,1.6158371148218134,0.0330788487929707,0.0529094123108427,0.0377808328994174,0.638211518326728,0.0877232325700664,-0.0686385671599995,-0.8107695160527096,-0.1276209651670241,1.6162043297732789,0.709963878769233,0.1316568561194474,-0.1090939299603211,0.552010528369501,-0.4142491446457286,-0.0210988909969032,0.3642363331543941,10.585686668226115,-0.948822030782436,0.3188962207346678,-0.7700943074472304
2.48,-0.7871661097743567,-0.1250025094887816,1.614532223040423,0.0273892029362221,0.0546146949197537,0.0377014346665295,0.6296720733068284,0.0893038792263804,-0.0622158905378975,-0.796687808274066,-0.1250747413620771,1.6140386146089056,0.7217208584433339,0.1403481878636414,-0.1107102734436499,0.5400725416369998,-0.426972250994978,0.0790323328157011,0.3211338311050995,10.489008217152332,-0.949138172681479,0.3240789344513545,-0.7669743715109579
2.5,-0.7746643621894197,-0.1231854231185922,1.6133477608973854,0.022609160670467,0.0561844492705086,0.03768949594971,0.6209877070968519,0.0921890354379125,-0.0565536859379325,-0.7826061004954223,-0.1225285175571301,1.6118728994445324,0.7334778381174347,0.1490395196078355,-0.1123266169269787,0.5380587880654595,-0.434218310498824,0.1442578105766041,0.283110229998251,10.489008217152332,-0.949443868588317,0.3283812733955267,-0.7642397215074267
2.52,-0.7629488884455298,-0.1213967520994484,1.6123211226735867,0.0189154542933956,0.0577279892144921,0.0377460907141039,0.6127244868933358,0.0958030361977359,-0.0517975875577985,-0.7679365437330736,-0.1195477271649734,1.6096263671059927,0.7452348177915356,0.1577308513520295,-0.1139429604103075,0.5098094777103359,-0.4131610101758054,0.1807000379911695,0.2378049190067004,10.406780174745109,-0.9496006510174648,0.3322038572164913,-0.7619084568050105
2.54,-0.7507848761356551,-0.1194345022945959,1.611331833633772,0.0158214569460457,0.0595178995422175,0.0378719515107506,0.6041828871475803,0.1001515562028911,-0.0474104704886337,-0.7532669869707249,-0.1165669367728167,1.607379834767453,0.7569917974656365,0.1664221830962235,-0.1155593038936364,0.5270563267585422,-0.4270799872877762,0.2174260002577609,0.2193558534582387,10.406780174745109,-0.9495071609241672,0.3353864222114497,-0.7602024221813652
2.56,-0.7387874335679099,-0.1173781166131367,1.6104240651131816,0.0135050074948508,0.0614808187945596,0.0380623690145374,0.5960648375298354,0.1051490613225745,-0.0436115333224338,-0.7383035057165237,-0.1133688630870551,1.6050928938418303,0.7687487771397373,0.1751135148404176,-0.1171756473769652,0.5131025984395432,-0.4059024808872435,0.24987525598417,0.1899468583099955,10.368961398125975,-0.949249651290758,0.3379776102156125,-0.7590097269819431
2.58,-0.7269474662719997,-0.1152160175726759,1.6095863305239653,0.011991923605404,0.0635438183381471,0.0383175327537865,0.5884174878787942,0.1106527987111974,-0.0403513741708965,-0.72304609997047,-0.1099535061076887,1.6027655443291244,0.7805057568138383,0.1838048465846116,-0.118791990860294,0.4985020552153152,-0.3823674825520595,0.2751868694311432,0.1630079575768637,10.30391731794134,-0.94887044314661,0.3399240091566832,-0.7582691025603019
2.6,-0.7158365436636964,-0.1130553779239947,1.608846625711364,0.0113640065917952,0.0655304834161363,0.0386235407290143,0.5815969066836576,0.1163935264357517,-0.0376754970641737,-0.69752659187806,-0.1096833776371161,1.6075687618154204,0.613022516210074,0.1264074555773902,-0.0691880361206503,0.4653939216867812,-0.341029059756831,0.2870363862277146,0.1337938553361395,10.30391731794134,-0.948421694233208,0.3414306726452769,-0.757765624644665
2.62,-0.704250085191372,-0.1106119022414915,1.6081380723665328,0.0132376068634925,0.0667240822471261,0.0391184603974929,0.5773707064969587,0.1271740995555504,-0.0332458469832565,-0.69752659187806,-0.1096833776371161,1.6075687618154204,0.613022516210074,0.1264074555773902,-0.0691880361206503,0.6198857246475951,-0.2113100093349473,0.5390286559899329,0.2214825040458615,10.36538926664889,-0.9512037964205756,0.3420787538408306,-0.753366014659834
2.64,-0.6927563262918226,-0.1079873846511347,1.6075008022370487,0.0181626290208288,0.0664901017859317,0.0398082104490874,0.5721248712073462,0.1338791444225281,-0.0307240940696275,-0.69752659187806,-0.1096833776371161,1.6075687618154204,0.613022516210074,0.1264074555773902,-0.0691880361206503,0.4439472162074132,-0.2622917644806211,0.3352522433488894,0.1260876456814507,10.36538926664889,-0.951009752594992,0.3403649929118487,-0.7531100863467955
