t,x,y,z,roll,pitch,yaw,v_x,v_y,v_z,ref_x,ref_y,ref_z,ref_v_x,ref_v_y,ref_v_z,a_com,a_x,a_y,a_z,thrust,wind_x,wind_y,wind_z
0.0,1.5117744040283556,1.989209830772543,2.4777611811504503,0.0285037952711051,0.1000286230938379,0.042902261353886,0.0043189118152763,-0.0068051989401618,0.0149187261445312,1.5119009841075033,1.98904375408006,2.4782132869471174,-0.0957511466288211,-0.1059297708865541,-0.0849714601162633,0.8478386073699925,0.2159455907638188,-0.3402599470080924,0.7459363072265646,10.242706946978617,-0.9438166441159678,0.2579482216085313,-0.8722034167820185
0.02,1.5120037829375494,1.989350675765079,2.477849627221516,0.0344754791099516,0.0942594516757589,0.0431192894143403,0.018160125428249,0.0170315311869789,-0.0072773120532433,1.5119903496191194,1.9888695708255348,2.478507117457677,-0.0956810896748397,-0.1068052004302779,-0.0850812753455848,1.7694865138728473,0.6920606806486347,1.1918365063570413,-1.1098019098887302,10.242966168652856,-0.9524287779638214,0.2590524612167133,-0.857600504245521
0.04,1.5124417334741125,1.9897189784625704,2.4774762137466246,0.04761659420165,0.0792642146106304,0.0433623085651537,0.0259377954496872,0.0197192212085498,-0.0307716795038355,1.5119903496191194,1.9888695708255348,2.478507117457677,-0.0956810896748397,-0.1068052004302779,-0.0850812753455848,1.2446898514468143,0.388883501071911,0.1343845010785417,-1.1747183725296109,8.901772972343224,-0.9528472733488336,0.2447654568596231,-0.8625259746342581
0.06,1.5129600859673156,1.990071835462676,2.476591820197862,0.0621564063309353,0.0577264613009942,0.0430750289937096,0.0244673075323949,0.0150120103817113,-0.0564959828689526,1.5119903496191194,1.9888695708255348,2.478507117457677,-0.0956810896748397,-0.1068052004302779,-0.0850812753455848,1.3096373086696396,-0.073524395864615,-0.2353605413419245,-1.2862151682558547,8.80517194024742,-0.9610974979375942,0.2283515540549212,-0.8610992773114562
0.08,1.5133456577540547,1.9902869166321264,2.475189266265773,0.0761966710456304,0.0340963647328492,0.0422354277869939,0.0134307215619937,0.006384045215301,-0.0825236117303324,1.511033538722371,1.987801518821232,2.477656304704221,-0.1156810899728629,-0.1268052007283011,-0.105081275643608,1.4779085534468803,-0.5518292985200628,-0.4313982583205128,-1.301381443068993,8.80517194024742,-0.9733305562809988,0.2100118893246666,-0.858078838748222
0.1,1.5134203628420666,1.990295790942464,2.473264821454908,0.0895844629125426,0.0114308155506713,0.0410399828165371,-0.0057246977777479,-0.005379280072514,-0.1086997241669373,1.509119916928874,1.9856654148126265,2.4759546791973093,-0.1556810905689094,-0.1668052013243476,-0.1450812762396545,1.7251773634919956,-0.9577709669870844,-0.5881662643907541,-1.308805621830241,8.815581284080054,-0.986579075645736,0.1915971409843887,-0.8550380959300585
0.12,1.5130748708575603,1.9900590858031977,2.4709501678176764,0.1017115348274488,-0.0074415453951324,0.0397843895223236,-0.0297399187769941,-0.0192024485354649,-0.133705909438594,1.5072062951353773,1.9835293108040208,2.474253053690397,-0.1956810911649558,-0.2068052019203941,-0.1850812768357009,1.8662262241206025,-1.2007610499623085,-0.6911584231475469,-1.2503092635828348,8.855331735082473,-1.000757209012231,0.1721369779530484,-0.8520165344633341
0.14,1.512175987202114,1.9895001625034692,2.467989453884825,0.1138787307484219,-0.0235929713143187,0.0385255056214243,-0.0589573213987884,-0.0362438697728672,-0.1611443896492159,1.5032926733120782,1.979393206765613,2.470551428153684,-0.2356810917610023,-0.2468052025164405,-0.2250812774317473,2.1776919261131225,-1.460870131089716,-0.8520710618701154,-1.3719240105310977,8.905102150441053,-1.012898363089186,0.1518934394938026,-0.8525144827859548
0.16,1.5106614945686043,1.988574376035933,2.464472580739693,0.1254508077434189,-0.0356145534558922,0.0374798309080839,-0.0909655149232942,-0.0557477948218892,-0.1892157020407127,1.499379051488779,1.9752571027272048,2.4668498026169696,-0.2756810923570488,-0.286805203112487,-0.2650812780277939,2.3414344558416977,-1.6004096762252913,-0.9751962524510982,-1.4035656195748385,8.918046215510458,-1.0226450563292249,0.1317328872751247,-0.8558752338884086
0.18,1.508480369504192,1.9872327192419668,2.4603923499709865,0.1364206698554718,-0.043250461103171,0.036793044485269,-0.1256104813683479,-0.077681171663687,-0.217433479206361,1.4944654296505788,1.970120998673896,2.4621481770653544,-0.3156810929530952,-0.3268052037085334,-0.3050812786238403,2.488769609582914,-1.7322483222526843,-1.0966688420898925,-1.4108888582824175,8.918046215510458,-1.0292882948888529,0.1147376026593087,-0.859106675498537
0.2,1.5055811331018667,1.98539984433574,2.455744169074152,0.145868450132281,-0.0456810952360878,0.0366293584152324,-0.1620871626086311,-0.1040742365823173,-0.245869874574993,1.4885518077974775,1.963984894605686,2.456446551498838,-0.3556810935491416,-0.3668052043045798,-0.3450812792198867,2.662597759550536,-1.823834062014161,-1.3196532459315125,-1.421819768431598,9.016418110063569,-1.0329129741436347,0.0985877030503868,-0.8663959166752805
0.22,1.5021663535664849,1.9831455860720697,2.450806089018817,0.1527565019603798,-0.0435473089130212,0.036955408484515,-0.1950487259455683,-0.1313634964509652,-0.2723658680359089,1.497476774971435,1.980196132506624,2.443450675345402,-0.2620871640987473,-0.2040742380724334,-0.3458698760651091,2.51654824674315,-1.6480781668468558,-1.3644629934323949,-1.3247996730457927,9.016418110063569,-1.0345838287680231,0.0846707407045691,-0.8746447852376287
0.24,1.4978947849869562,1.9800741624540363,2.445177661927797,0.1543454167385133,-0.0369298244657584,0.0375741621793632,-0.229893441868221,-0.1728595219545796,-0.2880414627968196,1.497476774971435,1.980196132506624,2.443450675345402,-0.2620871640987473,-0.2040742380724334,-0.3458698760651091,2.820371709294396,-1.7422357961326391,-2.074801275180718,-0.7837797380455341,9.053888055144853,-1.0362557012155322,0.076939700842493,-0.8809019340639022
0.26,1.4929731614622634,1.9762410138072024,2.439269100979294,0.1496776174237029,-0.0266480180708601,0.038291277676913,-0.2599934148664803,-0.207075436420448,-0.3019090169080139,1.497476774971435,1.980196132506624,2.443450675345402,-0.2620871640987473,-0.2040742380724334,-0.3458698760651091,2.3817253379947414,-1.5049986499129642,-1.7107957232934206,-0.6933777055597196,9.777062788883086,-1.0335807187198671,0.0780909278647015,-0.8871347043431937
0.28,1.4874980152610424,1.971798189974655,2.433068134787308,0.1427731965084415,-0.0147380779552217,0.0390213967962087,-0.2856034219488521,-0.2349574973373003,-0.3173708285697847,1.4948559033304476,1.9781553901259,2.439991976584751,-0.2820871643967705,-0.2240742383704566,-0.3658698763631324,2.044718442472132,-1.2805003541185855,-1.3941030458426165,-0.7730905830885398,9.777062788883086,-1.0275227908075248,0.0810140596275311,-0.8965282534300438
0.3,1.4818618114845343,1.9671023453393928,2.4268712943033783,0.1359117511396932,-0.0031619549598683,0.0396445001235426,-0.3061428852986844,-0.257791179172576,-0.3341295910478562,1.4896141600484727,1.974073905364451,2.4330745790634487,-0.322087164992817,-0.2640742389665031,-0.4058698769591788,1.749358954481698,-1.0269731674916185,-1.1416840917637825,-0.8379381239035727,9.605454156845552,-1.0197117109001468,0.0844994954495492,-0.90763474870481
0.32,1.475543439614462,1.9617204591754076,2.4199811932034825,0.1291531084513061,0.0083704313316417,0.0401554116493444,-0.3243664725820984,-0.2791324495293872,-0.3541365493823034,1.4843724167664978,1.9699924206030024,2.4261571815421465,-0.3620871655888634,-0.3040742395625496,-0.4458698775552253,1.7232435519355822,-0.9111793641706972,-1.0670635178405634,-1.0003479167223606,9.442891327666077,-1.0106447363227649,0.087257091618107,-0.920224188218844
0.34,1.4688916987623295,1.9559328833711347,2.4126638836809025,0.1231768773743018,0.0185916559679741,0.0404750448232669,-0.339795741747596,-0.2986216920654354,-0.3766263856236648,1.4771306734547205,1.9639109358117517,2.4172397839910422,-0.4020871661849098,-0.344074240158596,-0.4858698781512717,1.6760710424781629,-0.7714634582748819,-0.9744621268024056,-1.124491812068068,9.28907165986493,-1.0017388501257714,0.0891639410873378,-0.932381045110524
0.36,1.4619544087241918,1.949770117198063,2.404880949393053,0.1180245897093784,0.0271850822588359,0.0405928249737252,-0.3531281162439222,-0.3167806241512931,-0.4005894590319479,1.4698889301429432,1.9578294510205003,2.408322386439937,-0.4420871667809564,-0.3840742407546425,-0.5258698787473182,1.6444816138983205,-0.6666187248163119,-0.9079466042928864,-1.1981536704141564,9.089741640575085,-0.9931470198267226,0.0902974964592831,-0.944429339733396
0.38,1.4551276981669905,1.9435805882468544,2.397031346459145,0.113619642732102,0.0338800152240011,0.0405248684719703,-0.3647867363128244,-0.3337691563252495,-0.4245030128761284,1.4616471868162648,1.9507479662143483,2.398404988873932,-0.4820871673770028,-0.4240742413506889,-0.5658698793433645,1.578283644338908,-0.5829310034451085,-0.8494266086978203,-1.1956776922090266,9.089741640575085,-0.9851994904715312,0.0906781608101361,-0.9559972087280127
0.4,1.4477102831927735,1.93672438756519,2.388266296268601,0.1092605095701154,0.0396313689020148,0.0402928745971295,-0.3763014530277453,-0.3508681131793077,-0.450805864915418,1.4524054434746854,1.942666481393295,2.3874875912930253,-0.5220871679730492,-0.4640742419467353,-0.605869879939411,1.6709301690395253,-0.5757358357460468,-0.8549478427029106,-1.315142601964478,8.985491185612773,-0.978169888897359,0.0908012900967913,-0.9665567487991324
0.42,1.4400684755048585,1.929533546079618,2.37896551084754,0.105096851950388,0.0442981911879794,0.0399298294012295,-0.3872728711655639,-0.3672581742237726,-0.4779976239215582,1.4288952105413864,1.9191809819062249,2.36572600302283,-0.4763014545178615,-0.4508681146694238,-0.5508058664055342,1.679581700040329,-0.5485709068909272,-0.8195030522232444,-1.359587950307009,8.985491185612773,-0.9719634345337064,0.0907288944567711,-0.9762765695944036
0.44,1.432631341538762,1.922403419038162,2.369831608077233,0.1018739146432585,0.0475219699866286,0.0394911391394853,-0.3951285248541211,-0.3827837857828586,-0.4821539880958732,1.4288952105413864,1.9191809819062249,2.36572600302283,-0.4763014545178615,-0.4508681146694238,-0.5508058664055342,0.8944708943108465,-0.3927826844278614,-0.7762805779543025,-0.2078182087157487,8.948544970587136,-0.9752098824646904,0.0917903112801159,-0.974765078846598
0.46,1.424647337561585,1.91458801653982,2.360109452447868,0.0996450884702107,0.0493094555528057,0.0389357147977616,-0.4029647474178566,-0.3981541521336423,-0.4901942398249758,1.4288952105413864,1.9191809819062249,2.36572600302283,-0.4763014545178615,-0.4508681146694238,-0.5508058664055342,0.9517092435363846,-0.3918111281867725,-0.7685183175391852,-0.4020125864551332,9.922666623516308,-0.9730425269796694,0.0922290753059437,-0.9779596207215177
0.48,1.4165015570686028,1.9064627679230963,2.35017550642836,0.0982718165932258,0.0495962053990088,0.0382835492079434,-0.4113156214951229,-0.4136228869156703,-0.5029897597426459,1.4241321959962077,1.9146723007595303,2.3602179443587747,-0.4963014548158846,-0.470868114967447,-0.5708058667035574,1.0871340574816093,-0.4175437038633156,-0.7734367391013963,-0.6397759958835042,9.678948932907588,-0.9715218290391472,0.0912527378622579,-0.9813014963674304
0.5,1.4081829507039296,1.898032094251516,2.3399440829999545,0.0974850368679372,0.0486442105698317,0.0375454873575023,-0.4202196315119156,-0.4287119900645929,-0.5195019000169426,1.4146061669058505,1.9056549384661416,2.349201827030664,-0.5363014554119311,-0.5108681155634934,-0.6108058672996038,1.2037578708527958,-0.4452005008396376,-0.7544551574461295,-0.8256070137148352,9.678948932907588,-0.9715163454789988,0.089683049166588,-0.9832902789877674
0.52,1.400109262976518,1.8897467029454151,2.3298931677083283,0.0972652018201688,0.0467436629980244,0.0367792104228493,-0.4292783124500866,-0.4427214654824573,-0.5376641013212624,1.4050801378154931,1.8966375761727532,2.3381857097025533,-0.5763014560079776,-0.5508681161595399,-0.6508058678956503,1.2330760905576406,-0.4529340469085485,-0.7004737708932229,-0.908110065215989,9.365672437397734,-0.972614452828414,0.0873363571093752,-0.9845711403563888
0.54,1.3914171822845298,1.8807413131511788,2.3189195163527776,0.0976810527381169,0.0438070927164045,0.035919914972994,-0.4395573695116354,-0.4571281760497933,-0.5588376257757363,1.3935541086953338,1.8856202138495624,2.3251695923446403,-0.616301456604024,-0.5908681167555864,-0.6908058684916968,1.3797920688184937,-0.5139528530774401,-0.7203355283667973,-1.0586762227236923,9.365672437397734,-0.975776534723396,0.0850764584246578,-0.9830593908946522
0.56,1.3825092936336527,1.871446320500949,2.30751416768501,0.0988184349847356,0.0400522467876724,0.035020515898122,-0.4508433214341091,-0.4717174819503457,-0.5806531253913761,1.3820280795751745,1.874602851526372,2.312153474986727,-0.6563014572000705,-0.6308681173516328,-0.7308058690877433,1.4284052129352736,-0.5642975961236862,-0.7294652950276204,-1.0907749807819944,9.253600564496992,-0.9799589860903,0.0819967014089952,-0.9807639344675484
0.58,1.373356824200493,1.8618439246281544,2.2956689006262176,0.1002811635353922,0.0359315872713374,0.0340936645957282,-0.4639665938969861,-0.4877298904832186,-0.6027732307077709,1.3695020504401136,1.86258548918828,2.298137357613913,-0.6963014577961169,-0.6708681179476792,-0.7708058696837896,1.5148568961843565,-0.6561636231438489,-0.8006204266436445,-1.1060052658197372,9.229814012913266,-0.9841447827255152,0.0785961606812285,-0.9785888399443534
0.6,1.364399586747085,1.8524127002514328,2.2840034210618447,0.1014115047317624,0.0323695426231745,0.0332178982415576,-0.4783372574188965,-0.5041170170678282,-0.6240545807154673,1.3559760212901515,1.8495681268352864,2.2831212402261976,-0.7363014583921633,-0.7108681185437257,-0.8108058702798361,1.5231133788313858,-0.7185331760955205,-0.8193563292304806,-1.0640675003848188,9.227388899597829,-0.9884598205885202,0.0752526880883442,-0.976341258404324
0.62,1.3546570183129465,1.8421407409335695,2.271281343353369,0.1018933868668326,0.0297472342851347,0.0323521307925241,-0.4952786373121093,-0.5221389806060361,-0.6470504559985466,1.3404827238761403,1.827206849398041,2.2528006920260712,-0.5783372589090127,-0.6041170185579443,-0.7240545822055834,1.6886472415024916,-0.847068994660638,-0.9010981769103976,-1.1497937641539668,9.225939120024124,-0.9919231976395866,0.0725166703718517,-0.9749466532787622
0.64,1.3445426181538769,1.831450400242021,2.2583161016193074,0.1003982258612723,0.029797427245423,0.0316169770179303,-0.5150069948108543,-0.5457560339748435,-0.6470700025627761,1.3404827238761403,1.827206849398041,2.2528006920260712,-0.5783372589090127,-0.6041170185579443,-0.7240545822055834,1.5386468742791162,-0.986417874937251,-1.1808526684403686,-0.0009773282114766,10.665173925095589,-0.996927563081899,0.0713383830531877,-0.972277380984458
0.66,1.3340527903792578,1.8203137036898736,2.245355899636618,0.0966469439437908,0.0328492828695795,0.0310226018066699,-0.5326350159860046,-0.5660972274684071,-0.648984920841567,1.3404827238761403,1.827206849398041,2.2528006920260712,-0.5783372589090127,-0.6041170185579443,-0.7240545822055834,1.3492388551592582,-0.8814010587575138,-1.017059674678178,-0.0957459139395433,10.665173925095589,-0.9971558915146236,0.0745987451121503,-0.9711462782269856
0.68,1.323780931955458,1.8093912812577904,2.2329593924549616,0.0924492500798751,0.0373714080920286,0.0305603298772397,-0.5474812788086231,-0.5824122713380755,-0.6557703932294998,1.3346993512870502,1.8211656792124615,2.245560146204016,-0.5983372592070358,-0.6241170188559675,-0.7440545825036066,1.1539441188754194,-0.7423131411309236,-0.8157521934834211,-0.3392736193966406,10.33961879069011,-0.9943115143154666,0.0778878468036634,-0.973931365547374
0.7000000000000001,1.312684981998744,1.7975839900617987,2.219726018179553,0.0880777317587517,0.0430053928273897,0.0301409405086856,-0.5611145116715471,-0.5973580961709899,-0.6674074412507918,1.32313260610887,1.8090833388413028,2.231079054559904,-0.6383372598030823,-0.664117019452014,-0.784054583099653,1.1669014577940249,-0.681661643146203,-0.74729124164572,-0.5818524010645976,10.015197200032162,-0.9901731266934728,0.0806072563252632,-0.9786714510229876
0.72,1.3013352025788436,1.7854952007763187,2.206212187222507,0.0840625844637209,0.0489053114389132,0.0297514139894911,-0.5730104029081019,-0.6107680521222111,-0.6833736889856414,1.3115658609306895,1.7970009984701438,2.216597962915792,-0.6783372603991288,-0.7041170200480604,-0.8240545836956995,1.200271025285774,-0.5947945618277384,-0.6704977975610593,-0.7983123867424835,9.742341369790664,-0.985478649694451,0.0826447260793306,-0.9842371413300453
0.74,1.289763890873601,1.7731511057060054,2.1923436437055384,0.0805022065506039,0.0546456515818251,0.0293638361807904,-0.5834017076052269,-0.6230059717972352,-0.702685030791573,1.297999115722707,1.7829186580691827,2.200116871241878,-0.7183372609951753,-0.7441170206441069,-0.864054584291746,1.2556609948811348,-0.5195652348562507,-0.6118959837512039,-0.9655670902965764,9.518399600837256,-0.9802902790444136,0.0841982767405914,-0.9905714279272524
0.76,1.278591986389423,1.761206483150304,2.1787932505001595,0.0775969415124631,0.0596759372633813,0.0289830643967986,-0.5920003218183549,-0.6337838002589063,-0.72271550946315,1.2844323705147245,1.7688363176682216,2.183635779567964,-0.7583372615912217,-0.7841170212401534,-0.9040545848877924,1.2158513771714856,-0.429930710656401,-0.5388914230835595,-1.0015239335788515,9.25230567057406,-0.9753263999010404,0.0851677837384591,-0.996830426225214
0.78,1.2666631866076374,1.7484112706649106,2.164103627893439,0.074829511034971,0.0644628599770644,0.0285543332491905,-0.6003457821656482,-0.6450970133540644,-0.7452574836933902,1.2698656252918408,1.7537539772523592,2.166154687879149,-0.7983372621872681,-0.8241170218361997,-0.9440545854838388,1.3283223452361934,-0.417273017364661,-0.5656606547579046,-1.127098711512009,9.25230567057406,-0.9704662087375784,0.0856979883185497,-1.0031694299621663
0.8,1.254573942785273,1.7353925840416222,2.1489490045831783,0.0720982372486254,0.0688426066105642,0.0280909287530818,-0.6080761042098027,-0.6560806699194022,-0.7690718984587821,1.254298880054056,1.7376716368215956,2.1476735961754323,-0.8383372627833146,-0.8641170224322462,-0.9840545860798854,1.3670451172782718,-0.386516102207729,-0.5491828282668865,-1.190720738269596,9.121827322624997,-0.966060618953044,0.0861193847200132,-1.009028911959984
0.8200000000000001,1.2423363885611194,1.7221598617119025,2.1333063034075725,0.0693271091577041,0.0729088944859757,0.0275968216590084,-0.6152082660354208,-0.6665153227314967,-0.7940057965796328,1.2241701375747824,1.7025885505456522,2.1104954096602397,-0.7080761056999189,-0.7560806714095183,-0.8690718999488982,1.3977204540936616,-0.3566080912809022,-0.5217326406047273,-1.2466949060425336,9.121827322624997,-0.961593078092406,0.0865791249875578,-1.0150371898407242
0.84,1.230603328744837,1.7093822292961565,2.118229291952309,0.0665970706348259,0.0765321022457996,0.0271000233494491,-0.6194126001893903,-0.6778116009661361,-0.79179297194807,1.2241701375747824,1.7025885505456522,2.1104954096602397,-0.7080761056999189,-0.7560806714095183,-0.8690718999488982,0.6127375467577318,-0.210216707698474,-0.5648139117319706,0.1106412315781402,10.640572505179987,-0.9606365673236996,0.0877231766691538,-1.0169831835924006
0.86,1.2181795910172968,1.6957245010874489,2.102378373836596,0.0640929074775595,0.0798575249173305,0.0265678910136914,-0.6227193727090857,-0.6874665418290119,-0.793806811456837,1.2241701375747824,1.7025885505456522,2.1104954096602397,-0.7080761056999189,-0.7560806714095183,-0.8690718999488982,0.5201157975146312,-0.1653386259847733,-0.4827470431437886,-0.1006919754383495,10.26186948131999,-0.9573878685119628,0.0894015305775382,-1.02002777849187
0.88,1.205694129375391,1.6818796566304646,2.086423718767937,0.062191163455682,0.0823689103583327,0.0260262102527544,-0.6256849010372878,-0.6965875147567154,-0.8018018476160087,1.2170893765177833,1.695027743831557,2.1018046906607504,-0.728076105997942,-0.7760806717075415,-0.8890719002469214,0.6243138405476314,-0.1482764164101035,-0.4560486463851765,-0.3997518079585871,9.93727780543486,-0.9544977444854408,0.0901403774923908,-1.0232382583170123
0.9,1.1931505058922824,1.6678597677039562,2.070254110894889,0.0608082421813316,0.0839921802548016,0.0254688171180547,-0.6285929288560193,-0.7050129860384475,-0.8147430358311035,1.202927854403785,1.679906130403367,2.084423252661772,-0.7680761065939885,-0.8160806723035879,-0.929071900842968,0.7856836903810551,-0.1454013909365725,-0.421273564086605,-0.6470594107547412,9.93727780543486,-0.9522870794465303,0.090098425429182,-1.0261856193491288
0.92,1.1811789953599678,1.654391771337598,2.0546190674878804,0.0600951471507206,0.0847397760202845,0.0249373571100731,-0.6314915997705679,-0.7123271481067954,-0.830403392351881,1.1887663322897866,1.6647845169751765,2.0670418146627942,-0.808076107190035,-0.8560806728996344,-0.9690719014390144,0.8762791024992647,-0.1449335457274325,-0.3657081034173948,-0.7830178260388732,9.69047009055339,-0.9506576550736908,0.0892538855546842,-1.0289509028104276
0.94,1.1685152586412155,1.6400715873161074,2.037811612043246,0.0602220125278571,0.0847527287326599,0.0243973417744319,-0.6347999162219168,-0.7193814531059829,-0.8496462175759847,1.1726048101459858,1.6476629035171837,2.047660376634014,-0.8480761077860814,-0.8960806734956809,-1.0090719020350607,1.038020350678671,-0.165415822567444,-0.3527152499593733,-0.962141261205185,9.354765634250723,-0.9496743980741282,0.0874131136331581,-1.0313683203692197
0.96,1.1557839146030868,1.6256137447883343,2.020605762064171,0.0615114817849077,0.0839887227962412,0.023894354004774,-0.6382357582445863,-0.7262155504932017,-0.8699733106819809,1.156443288002185,1.630541290059191,2.028278938605234,-0.8880761083821279,-0.9360806740917272,-1.0490719026311073,1.085933482818553,-0.1717921011334777,-0.3417048693609426,-1.0163546552998115,9.354765634250723,-0.9498176393180076,0.0843873444868161,-1.0329173031107584
0.98,1.1436195852459583,1.6117405843870736,2.003879790584881,0.0636187117263394,0.0826623429150026,0.0234400472851169,-0.6421049345484902,-0.7338351535036978,-0.889640296602992,1.1392817658434833,1.612419676586297,2.007897500561552,-0.9280761089781744,-0.9760806746877736,-1.0890719032271536,1.072169774948796,-0.193458815195191,-0.3809801505248011,-0.9833492960505564,9.29730578366707,-0.9507071336367824,0.0805834519458198,-1.0338482625015004
1.0,1.130728661440308,1.596964253762433,1.9858644508956975,0.0661642572686557,0.0808903786290084,0.0229562582592993,-0.6468541732116053,-0.7434953054211555,-0.9108860264658172,1.1211202436698804,1.593298063098502,1.9865160625029696,-0.9680761095742206,-1.01608067528382,-1.1290719038232,1.1908556171422866,-0.2374619331557581,-0.4830075958728863,-1.0622864931412623,9.29730578366707,-0.9521019956996712,0.076189973404196,-1.0344984704610385
1.02,1.1177344124403683,1.5819801203255046,1.9674206484368133,0.0684003449060032,0.0789889764719674,0.0224369828118492,-0.6524068472763536,-0.7543753815453533,-0.9324351258594624,1.0983859527797275,1.559789488491375,1.940320149572407,-0.7468541747017214,-0.8434953069112716,-0.9520878675519664,1.238519206971434,-0.2776337032374121,-0.5440038062098917,-1.077454969682251,9.264013959824297,-0.9537190741465936,0.0720250982434026,-1.0349830003201677
1.04,1.104636317412392,1.566681988161884,1.948976297277858,0.0681684407882723,0.0778649478395363,0.0217979997471672,-0.6570703527123537,-0.7739659441044955,-0.9108557507978976,1.0983859527797275,1.559789488491375,1.940320149572407,-0.7468541747017214,-0.8434953069112716,-0.9520878675519664,1.4758115160674663,-0.2331752718000068,-0.9795281279571078,1.07896875307823,9.264013959824297,-0.9603215410524312,0.0725137458887146,-1.027695434628483
1.06,1.092111330279346,1.5518073477102987,1.931846106191628,0.0648614831833107,0.0778957550319037,0.0210589630241285,-0.6610439335814818,-0.7901797994845917,-0.8934691491316837,1.0983859527797275,1.559789488491375,1.940320149572407,-0.7468541747017214,-0.8434953069112716,-0.9520878675519664,1.2051684205016442,-0.1986790434564067,-0.8106927690048116,0.8693300833106987,11.932352470518708,-0.9609251966422792,0.0752709160002556,-1.0268512960645473
1.08,1.078852039554959,1.5358674980755027,1.914115869729197,0.0598560528659194,0.0783806956020385,0.020216691946604,-0.6646571320545316,-0.8025902046973197,-0.8807105179325532,1.0909174110327104,1.5513545354222622,1.9307992708968875,-0.7668541749997446,-0.8634953072092948,-0.9603282357691963,0.9080969535589004,-0.1806599236524875,-0.620520260636398,0.6379315599565283,11.529336664077164,-0.9605569507001814,0.0792740707500473,-1.027169862086753
1.1,1.0655234726247709,1.5197125853453852,1.8965835844720984,0.0547280284956884,0.0788096020757874,0.0193765012570854,-0.668040050039288,-0.8121527494751443,-0.8733688186963505,1.075980327538676,1.5344846292840368,1.911757513545848,-0.8068541755957911,-0.9034953078053412,-0.976808972203656,0.6260729677808078,-0.1691458992378214,-0.4781272388912294,0.3670849618101324,10.813562712975,-0.9601947991530242,0.0834633319732526,-1.0273942327924983
1.12,1.052127584479246,1.5033879993704342,1.8791460504842863,0.0500126415149755,0.0788865114639647,0.0185615352307312,-0.6714399304632968,-0.8198394762773503,-0.8707272948817449,1.0610432440446416,1.5176147231458117,1.8927157561948087,-0.8468541761918376,-0.9434953084013876,-0.9932897086381156,0.440518455607819,-0.1699940212004369,-0.3843363401103028,0.1320761907302792,10.813562712975,-0.9600891441157238,0.0870817316404316,-1.0274187221882662
1.14,1.039336836383259,1.487750894959116,1.8625961719909532,0.0461086596707778,0.0785159070990716,0.0178216051085348,-0.6748568663113296,-0.8258657420821872,-0.8714917325738122,1.0441061605208048,1.4987448169777835,1.8728499620220465,-0.886854176787884,-0.9834953089974342,-1.0097704450725753,0.3484813306519136,-0.170846792401641,-0.3013132902418447,-0.0382218846033621,10.554074051919995,-0.960468460339088,0.0902880091772505,-1.0270815697910256
1.16,1.0258017024719597,1.4711776022370595,1.8451484380705132,0.0427178048806742,0.0775818497717271,0.0170864429335369,-0.6785304344339681,-0.8312320183199516,-0.8732775404582531,1.027169076996968,1.479874910809756,1.852984167849284,-0.9268541773839304,-1.023495309593481,-1.026251181507035,0.3371985068612865,-0.1836784061319263,-0.2683138118882211,-0.0892903942220468,10.356779817808274,-0.9617501346889094,0.0928193681494992,-1.0259174608448207
1.18,1.012186103942443,1.4544956349861435,1.8276578195437136,0.0398359050932866,0.0761543840734752,0.0163854754269851,-0.6829183510563214,-0.8366661602532479,-0.8756869010607291,1.0092319934582303,1.4600050046268271,1.8327063552656604,-0.9668541779799767,-1.063495310189527,-1.042731917941495,0.3694209297965418,-0.2193958311176636,-0.2717070966648138,-0.1204680301237992,10.272751381906346,-0.963279634730201,0.0946922869623288,-1.024671864255818
1.2,0.9991621475665062,1.4385499095605605,1.8109921343645603,0.0373033824498701,0.0746024029904647,0.0157449909573161,-0.6878599435983561,-0.8415075346963599,-0.8784696224992249,0.9902949099045912,1.439135098428997,1.812016524271175,-1.0068541785760232,-1.1034953107855734,-1.0592126543759544,0.3728330120649691,-0.2470796271017372,-0.2420687221555972,-0.1391360719247891,10.272751381906346,-0.9651263785825898,0.0964159472481773,-1.023216166975929
1.22,0.9853431522605226,1.4216713065893762,1.7933858263184794,0.0348083301191729,0.0730166833595711,0.0151044726463039,-0.6938466277897786,-0.8460524821577087,-0.8820417637321852,0.9647691503865884,1.3964745328257422,1.767068653239599,-0.7869087965188883,-0.941507536186476,-0.8386222075586293,0.4161043379444151,-0.2993342095711226,-0.2272473730674407,-0.1786070616480173,10.243496497525484,-0.9669593097854214,0.0979760464492093,-1.0217930240918758
1.24,0.971412872218459,1.4046725170727004,1.7760636587281986,0.0317625545795341,0.0720240847414854,0.0144664007949829,-0.6987184266505386,-0.8532031480223276,-0.848089731991099,0.9647691503865884,1.3964745328257422,1.767068653239599,-0.7869087965188883,-0.941507536186476,-0.8386222075586293,1.751861085956056,-0.2435899430380028,-0.3575332932309438,1.6976015870543093,12.821696625127515,-0.9738585889167648,0.1011318237936109,-1.0135733166529508
1.26,0.9580940240740776,1.3884136002950762,1.760278525076422,0.0284085171954917,0.0718222670699533,0.0138711145786227,-0.702981603769934,-0.8577743412488994,-0.8154022524667827,0.9647691503865884,1.3964745328257422,1.767068653239599,-0.7869087965188883,-0.941507536186476,-0.8386222075586293,1.663987533245514,-0.2131588559697694,-0.2285596613285923,1.6343739762158194,12.821696625127515,-0.9751628897159949,0.1047243806238601,-1.0110783187253862
1.28,0.9439932698481082,1.3712298693342024,1.744295126381096,0.0252709128909197,0.0718733873945561,0.0132985398035575,-0.7068674097353954,-0.8604325805671909,-0.7848327980114874,0.9569000624213996,1.3870594574638777,1.7586824311640126,-0.8067185671029948,-0.9615075364844992,-0.8306527245705101,1.54649383281093,-0.1942902982730698,-0.1329119659145727,1.528472722764762,12.534561343651148,-0.9763177168446786,0.1080265651185798,-1.008650241447217
1.3,0.929818316282448,1.3540071797413291,1.728880236966365,0.0229941079855909,0.0717079190064912,0.0127991265827797,-0.7104987818267184,-0.8619475354255806,-0.7581657251874945,0.9411618864910216,1.368229306740148,1.74190998701284,-0.8463381082712077,-1.0015075370805455,-0.8147137585942719,1.347789601986101,-0.1815686045661513,-0.0757477429194852,1.3333536411996472,12.249112131404218,-0.9777611506404984,0.1107528263174712,-1.0056202408724262
1.32,0.9155706751291472,1.336763089829026,1.7139687242315846,0.0217254179860751,0.0710790455825876,0.0123771596503517,-0.7141819542858344,-0.8625919017161355,-0.7343106205326299,0.925423710560644,1.3493991560164185,1.7251375428616675,-0.8859576494394206,-1.041507537676592,-0.7987747926180336,1.207318294169497,-0.184158622955799,-0.0322183145277488,1.1927552327432311,11.81504930232677,-0.9795675091547184,0.1127094512447816,-1.0022689932647135
1.34,0.9019651200266394,1.320377473793669,1.7002249095829216,0.021750421908071,0.0699402013300102,0.012064822705238,-0.7178903261046802,-0.8623872724563776,-0.7135917324811935,0.9077045575718556,1.328569005262887,1.709162047009307,-0.9255771906076334,-1.0815075382726385,-0.7828358266417954,1.0524569073942085,-0.1854185909422878,0.0102314629878974,1.03594440257182,11.81504930232677,-0.9818730676063556,0.1133655883230652,-0.9986852629674896
1.36,0.88756596578114,1.3031380773670755,1.6861847498062117,0.0234575682932499,0.0680504072134888,0.0118485038557727,-0.721899372540983,-0.8617601899521851,-0.691485983527382,0.8899854045830671,1.307738854509355,1.6931865511569462,-0.9651967317758464,-1.121507538868685,-0.7668968606655571,1.1237546691832176,-0.2004523218151421,0.0313541252096261,1.1052874476905727,11.68178467846792,-0.9852037543429646,0.112430556826326,-0.9942597656437734
1.38,0.8730781320883725,1.2858948998592463,1.6725916361542952,0.0267443212414302,0.0654681208728088,0.0117283111515498,-0.726796332907787,-0.8630830596125796,-0.6689319241753109,0.8712757630650734,1.2859087037409218,1.6776095294539914,-1.0048162729440593,-1.1615075394647314,-0.7509578946893188,1.1558717470260138,-0.2448480183401991,-0.066143483019726,1.1277029676035557,11.703629894260304,-0.989281067122704,0.1101400368657925,-0.9893444332244118
1.4,0.8592130804683074,1.269460709754126,1.660100743600322,0.0301953803198645,0.062658358860353,0.0116238305947664,-0.7325374679797289,-0.8668267516736496,-0.6470227693905004,0.8515756330178743,1.2630785529575876,1.6624309819004428,-1.044435814112272,-1.2015075400607778,-0.7350189287130806,1.147809789933837,-0.2870567535970925,-0.1871846030535029,1.095457739240524,11.728155134995175,-0.9936436576004832,0.1072636019156917,-0.9843203258402456
1.42,0.8444877105159225,1.2520688933578092,1.6474068046133867,0.0335390615536337,0.0596650736181728,0.0114877641041779,-0.7398217689219282,-0.8721679481404638,-0.6234985415399258,0.822586207069321,1.2261193721704435,1.6277496051307971,-0.7583639798843261,-0.9668267531637658,-0.6020153579999574,1.2599392007944126,-0.364215047109967,-0.2670598233407095,1.176211392528731,11.762914017282128,-0.998127601919348,0.1046457162335038,-0.9791438093407822
1.44,0.8294926531311303,1.234484336674142,1.635204560296434,0.0340391560488119,0.0606406981525671,0.0112903721023217,-0.758829315550967,-0.8852285599690916,-0.5976975270754913,0.822586207069321,1.2261193721704435,1.6277496051307971,-0.7583639798843261,-0.9668267531637658,-0.6020153579999574,1.7302880956557012,-0.9503773314519404,-0.6530305914313861,1.290050723221725,12.146943053143332,-0.995805105018517,0.1029067127998574,-0.9829521700256884
1.46,0.814938251532332,1.217573075454751,1.624091106028734,0.0311245239004046,0.0673168170587131,0.011065814156145,-0.771574537066031,-0.8938327066269071,-0.5734462394912452,0.822586207069321,1.2261193721704435,1.6277496051307971,-0.7583639798843261,-0.9668267531637658,-0.6020153579999574,1.435789818071448,-0.6372610757531982,-0.4302073328907752,1.2125643792123053,12.146943053143332,-0.9945274982102048,0.1070459711202465,-0.9815975687093416
1.48,0.7994145289702551,1.1996463085159312,1.6128739918894897,0.0268693202483317,0.0773631555606198,0.010824061945364,-0.7795671035292289,-0.8981793546347699,-0.5496195839288267,0.8150025672704777,1.2164511046388058,1.6217294515507976,-0.7635292822652456,-0.9868267534617888,-0.5930138757218488,1.2752293743313607,-0.3996283231598951,-0.2173324003931442,1.1913327781209238,11.976468620860032,-0.9882353052715436,0.112269783183327,-0.9853924327373496
1.5,0.7837782393690617,1.1816660668543633,1.6021063790677144,0.0230726923446798,0.0887693751760377,0.0106234242226675,-0.783196171161167,-0.8998007431754331,-0.5283393409613052,0.7998352876727911,1.1971145695755303,1.6096891443907984,-0.7738598870270845,-1.0268267540578355,-0.5750109111656316,1.0824137072230329,-0.1814533815969077,-0.0810694270331591,1.0640121483760756,11.63318752707346,-0.9793922965469624,0.1167919797638715,-0.9921229355790586
1.52,0.7681085924643977,1.1636694164767925,1.5917417168814874,0.0202704884342318,0.1005651146362563,0.0104784631050511,-0.7831854933605995,-0.9000675171942641,-0.5092150819942165,0.7846680080751046,1.1777780345122553,1.597648837230799,-0.7841904917889234,-1.066826754653882,-0.5570079466094144,0.9563061270231678,0.0005338900283757,-0.0133387009415508,0.9562129483544346,11.63318752707346,-0.9697830906273944,0.1201074483984366,-0.9998870824300372
1.54,0.7532531627682042,1.146576127052604,1.582233899972561,0.0186915572980254,0.1116527358629545,0.0104035812487019,-0.780234879368202,-0.8994738710014384,-0.4925911423228751,0.7689841982393262,1.1564414994191776,1.586508678298611,-0.7945210965507623,-1.1068267552499282,-0.5390049820531972,0.8447098746474807,0.1475306996198744,0.0296823096412879,0.8311969835670674,11.502366521535803,-0.9590783910972532,0.1224695036553089,-1.0087312883140838
1.56,0.7377061583162026,1.12860263398668,1.5725583325409322,0.0183956859849731,0.1229312315769516,0.0104157161424692,-0.7742982806305584,-0.898051702080793,-0.4758982765016598,0.7533003884035476,1.1351049643261,1.5753685193664229,-0.8048517013126012,-1.1468267558459748,-0.52100201749698,0.8887034633888602,0.2968299368821814,0.0711084460322697,0.8346432910607687,11.382611720334353,-0.9481696150164772,0.1234887180540138,-1.0178063308390757
1.58,0.7223059003427242,1.1106548497142887,1.563208163076871,0.019613777313802,0.1336697587459657,0.0105424601772327,-0.765730611268806,-0.8969589863454691,-0.4599905027744472,0.7373583134487233,1.1127684292181212,1.56467843454814,-0.8151823060744402,-1.1868267564420212,-0.5029990529407629,0.9050638802409576,0.4283834680876175,0.0546357867661939,0.7953886863606263,11.35510535605954,-0.937999914845734,0.1231070439949183,-1.0262755819318754
1.6,0.7071031507947456,1.0927218453614105,1.5541718643672795,0.0221460456403444,0.1438079365261386,0.0107812418179324,-0.7547020641462807,-0.8966158974172409,-0.4444758740017944,0.7211579733748528,1.0894318940952412,1.5544384238437623,-0.8255129108362791,-1.2268267570380675,-0.4849960883845456,0.9519063341522378,0.5514273561262661,0.0171544464114103,0.7757314386326403,11.35510535605954,-0.9276127336497282,0.1214217482250824,-1.0349458072960518
1.62,0.6928876229836676,1.0756714108524696,1.5458730310886748,0.0251910747578346,0.1528440982008975,0.0110766456690443,-0.7420106478939638,-0.8983365788030895,-0.4299000126735349,0.6693680475874316,1.0478910504905483,1.5319480706671895,-0.716222359736443,-0.996615898907357,-0.3771530610273415,0.9701656100659222,0.6345708126158478,-0.0860340692924288,0.7287930664129777,11.35225650398661,-0.9176751488180872,0.119002209135319,-1.043166233641135
1.64,0.6782085478046962,1.0576064709451647,1.5374526910588235,0.0262139392381512,0.1617462373846206,0.0112528891895839,-0.7263164267348994,-0.9073692475098588,-0.4128221753890336,0.6693680475874316,1.0478910504905483,1.5319480706671895,-0.716222359736443,-0.996615898907357,-0.3771530610273415,1.244538275899716,0.784711057953219,-0.4516334353384665,0.853891864225062,11.36489361623535,-0.909109727595163,0.1185573931781427,-1.0499734984641802
1.66,0.6638661723071305,1.0393955210943076,1.529383610656586,0.0243047249483728,0.1700715561749007,0.0112164800575018,-0.708483274855579,-0.9130833029184836,-0.3949442401697842,0.6693680475874316,1.0478910504905483,1.5319480706671895,-0.716222359736443,-0.996615898907357,-0.3771530610273415,1.2945001958935904,0.8916575939660165,-0.2857027704312342,0.8938967609624704,11.524579610229011,-0.8992086098834848,0.1209656483117493,-1.057492118193122
1.68,0.6499015171544101,1.021101578423347,1.5216782956066777,0.0211936193663399,0.1778392709915497,0.0110753163448378,-0.6886737789041952,-0.9157680133703052,-0.3765204253777847,0.6622058239900672,1.0379248915014747,1.5281765400569165,-0.7085264188544754,-1.0166158992053802,-0.3636884984324509,1.359283590304019,0.9904747975691908,-0.1342355225910807,0.921190739599978,11.580560333389258,-0.8898605321656394,0.1244344083591463,-1.064267844877592
1.7,0.6370192219417727,1.003702503338584,1.514702007672046,0.0185273875790337,0.1847275970596357,0.0109431417245439,-0.6681836561234992,-0.9157830872586692,-0.3587867240853505,0.6478813767953383,1.0179925735233275,1.5206334788363696,-0.6931345370905404,-1.0566158998014268,-0.3367593732426697,1.3549257547181226,1.0245061390348031,-0.0007536944181985,0.8866850646217062,11.62789172952671,-0.8806381236891806,0.1279187496714777,-1.0706874224088094
1.72,0.6239022957660623,0.9854010369798704,1.507726148428006,0.0167060382225293,0.1913245621911948,0.0108588185408796,-0.64442642557504,-0.914555715144356,-0.3397401837770979,0.6335569296006095,0.9980602555451804,1.5130904176158226,-0.6777426553266053,-1.0966159003974731,-0.3098302480528885,1.5237151500145345,1.1878615274229565,0.0613686057156614,0.9523270154126324,11.711166505338952,-0.8721159339053043,0.130580129936448,-1.0763450270671775
1.74,0.6112906590216448,0.9671340035693112,1.5011346980112563,0.0162741164842576,0.1966965815463045,0.0108573448794968,-0.6178656397590554,-0.9123639597474464,-0.3203587910288215,0.6200020764940773,0.976127937537231,1.5068938126547649,-0.6623507735626701,-1.1366159009935195,-0.2829011228631073,1.647663132853188,1.3280392907992322,0.1095877698454705,0.9690696374138192,11.711166505338952,-0.8653210881559089,0.1319936642317565,-1.0805503808518324
1.76,0.5992352936217119,0.9489198514613164,1.4949394913484917,0.0177428082598084,0.2001421781700634,0.0109701394772421,-0.589166757306699,-0.9094877756155963,-0.3001404258294922,0.6064472233875453,0.9541956195292816,1.500697207693707,-0.6469588917987351,-1.176615901589566,-0.2559719976733261,1.7611647995772062,1.4349441226178206,0.1438092065924989,1.0109182599664672,11.75743354289989,-0.8595907660211703,0.1316296560960174,-1.0840319732014871
1.78,0.5883284517288354,0.9316566916280868,1.489439979060862,0.0208075853491476,0.2012993294942476,0.0111681992716527,-0.5605606372676734,-0.9082774859440662,-0.2797627092089619,0.5932771673251116,0.931263301506431,1.495173830862394,-0.6315670100348,-1.2166159021856124,-0.2290428724835449,1.7571470054059153,1.4303060019512814,0.0605144835765125,1.0188858310265114,11.832412239467883,-0.8566834346456313,0.1295354474640369,-1.085336647783843
1.8,0.5774431295406829,0.9134774038582794,1.484086008389152,0.024644033387358,0.200026942643348,0.011370753213254,-0.5295558073809619,-0.9098750960657862,-0.2566143845710912,0.5804919083067762,0.9073309834686792,1.490323682160825,-0.616175128270865,-1.2566159027816588,-0.2021137472937637,1.9362959277607816,1.550241494335575,-0.0798805060859997,1.1574162318935377,11.926237645746369,-0.8572862593526992,0.1268830275849297,-1.0838094819266806
1.82,0.5671857860099405,0.895244625047247,1.4792140082226086,0.0282134121161805,0.1957112677476781,0.0114707118339026,-0.4979483722646175,-0.9133231891299678,-0.2316226221721725,0.5509653391716348,0.86798364905499,1.4712552891605974,-0.5167359565636391,-1.0098750975559023,-0.1934993242416539,2.022070404447618,1.580371755817217,-0.1724046532090795,1.249588119945935,12.05312549878272,-0.8627544260650614,0.1250959751086319,-1.0776612623907125
1.84,0.5580123459858785,0.8777723886532902,1.474910393852557,0.0284304311433807,0.1877728148650314,0.0112276447212513,-0.4701019082116881,-0.9243410461917632,-0.2225074136993887,0.5509653391716348,0.86798364905499,1.4712552891605974,-0.5167359565636391,-1.0098750975559023,-0.1934993242416539,1.5651723227711631,1.3923232026464698,-0.5508928530897683,0.4557604236391857,11.119515206311007,-0.8728027204062536,0.128022221736488,-1.065730060348577
1.86,0.5488767509860789,0.8592154107209133,1.4705954513750512,0.0250610440998961,0.1759209396580596,0.0106576729334346,-0.4455609461712043,-0.9303099389762972,-0.2091178253418742,0.5509653391716348,0.86798364905499,1.4712552891605974,-0.5167359565636391,-1.0098750975559023,-0.1934993242416539,1.4293071532471775,1.227048102024192,-0.2984446392267081,0.6694794178757248,11.119515206311007,-0.8831523767049816,0.131856508321351,-1.0560545304480284
1.88,0.540178014133589,0.840591204739171,1.4665935092001827,0.0209231739376921,0.1623222973468316,0.0100650423127494,-0.4261075815070781,-0.9318034678555156,-0.1916763570359631,0.5457979796059984,0.857884898079431,1.4693202959181808,-0.5141719864001746,-1.0298750978539255,-0.1808763121757665,1.308499944530599,0.9726682332063058,-0.0746764439609082,0.8720734152955573,11.364485503519973,-0.8973263102463428,0.1372269470041773,-1.041609906819583
1.9,0.5322256350414846,0.8228962481873432,1.4631419347343309,0.0177166156189755,0.1491642803752918,0.0096196736903781,-0.4123143712921575,-0.9310275783810932,-0.1724728487279508,0.5354632604747257,0.8376873961283129,1.4654503094333478,-0.5090440460732455,-1.069875098449972,-0.1556302880439916,1.1828243570427206,0.6896605107460346,0.0387944737211209,0.960175415400616,11.545701915671998,-0.9136135499434334,0.1425250502643365,-1.0243538412974718
1.92,0.5240916213921019,0.8042964769107125,1.4599251083130675,0.0155594637795512,0.1361288581548025,0.0093084794463451,-0.4021489990277451,-0.9292399331558722,-0.1501010495782254,0.5251285413434529,0.8174898941771949,1.4615803229485147,-0.5039161057463164,-1.1098750990460184,-0.1303842639122167,1.2318967752220455,0.5082686132206166,0.089382261261045,1.118589957486267,11.791527799885444,-0.9298016954171264,0.1468531121439191,-1.0064996457570456
1.94,0.5161191632878569,0.785740466046265,1.4571737519225023,0.0148718186034094,0.1246926253955707,0.009160494466871,-0.3958233286045362,-0.9266121173604424,-0.1260689767566626,0.5150502192285266,0.7952923921962745,1.4589726376702703,-0.4987881654193873,-1.1498750996420648,-0.1051382397804417,1.2494599295882516,0.3162835211604459,0.131390789771485,1.2016036410781443,11.791527799885444,-0.9447119960341008,0.1500135624898666,-0.98925411532832
1.96,0.5082381821915926,0.7672462086220013,1.4549111938886412,0.0161208034836169,0.1153793651702717,0.0091896400029232,-0.3926208454379871,-0.9232729669835292,-0.1013609481672754,0.5049718971136002,0.7730948902153542,1.456364952392026,-0.4936602250924582,-1.1898751002381114,-0.0798922156486668,1.256873601884498,0.160124158327457,0.1669575188456673,1.2354014294693585,11.872247922904537,-0.9571099366426182,0.1515457442636752,-0.9742321396869982
1.98,0.500785879708252,0.7497268580507203,1.4532240588211045,0.0190298412751321,0.1087771903055569,0.0093640768409793,-0.3920701702504868,-0.92142487272616,-0.0774459739867887,0.4950217735068472,0.7498973882195326,1.454388417717076,-0.4885322847655291,-1.2298751008341575,-0.0546461915168919,1.1996298237368812,0.0275337593750119,0.0924047128684601,1.1957487090243322,11.88848887088716,-0.967772460376904,0.1514651697449352,-0.960876995560458
2.0,0.4929292464229836,0.7312912900736666,1.451945683442228,0.0228300812417487,0.1047180518955525,0.0096394594833065,-0.3937401789670733,-0.92240532902505,-0.0516078776786671,0.4851998484082673,0.7256998862088099,1.4530430336454203,-0.4834043444386,-1.269875101430204,-0.029400167385117,1.2955283135609912,-0.0835004358293256,-0.0490228149444993,1.2919048154060797,11.9088046379793,-0.97553161913759,0.1506438417062102,-0.9505384637268608
2.02,0.4850311798967634,0.712813698593338,1.4511885074664734,0.0264024458793828,0.103939847322636,0.0099686217805655,-0.3956372575314725,-0.925287923238178,-0.0253721918246372,0.4732422374746299,0.685171023622414,1.4493652895582947,-0.3806288884451536,-0.9902382683518132,0.0027819679011954,1.323083017716961,-0.0948539282199595,-0.1441297106564099,1.311784292701495,11.95509753112492,-0.9815362514423712,0.1503423667212617,-0.9418297857123152
2.04,0.4770839093448659,0.6940740721658764,1.4508355815262932,0.0230733290581811,0.1061762930786974,0.0099022933210408,-0.3985456264178005,-0.9448552038080992,-0.0111263783920881,0.4732422374746299,0.685171023622414,1.4493652895582947,-0.3806288884451536,-0.9902382683518132,0.0027819679011954,1.2188932262876515,-0.1454184443163975,-0.9783640284960538,0.7122906716274559,11.952611929115848,-0.9834581350895222,0.1555115242312815,-0.9363012617461064
2.06,0.4695056929166392,0.6760634851467908,1.4507659600824518,0.0140932702707893,0.1104194037370376,0.0094801238307384,-0.3987207955737308,-0.9492169520614728,0.0031331322555796,0.4732422374746299,0.685171023622414,1.4493652895582947,-0.3806288884451536,-0.9902382683518132,0.0027819679011954,0.7456359298778973,-0.0087584577965149,-0.2180874126686827,0.7129755323833932,11.181705241726377,-0.9802390179825984,0.1650082707785609,-0.9366688163008702
2.08,0.4615523507576592,0.6571075025969342,1.4509835652144336,0.0042724429126039,0.1159805735656052,0.0090026731055438,-0.3963495126301558,-0.9461033418170482,0.0178371250604612,0.4694359485901783,0.6752686409388958,1.449393109237307,-0.3780066303407697,-1.0038048562171658,0.0136599370171679,0.7607972068144768,0.1185641471787513,0.155680512221229,0.7351996402440775,11.172196823899869,-0.9770000008184048,0.175294179709802,-0.9364384108743444
2.1,0.453672694944562,0.6382636608599132,1.4514857684281386,-0.0038586006671345,0.1217902788398908,0.0086181955736165,-0.3915725953836124,-0.9389052506002148,0.031631396437176,0.4618233708212753,0.6554638755718596,1.4494487485953305,-0.3727621141320018,-1.030938031947871,0.0354158752491129,0.81380799080716,0.2388458623271694,0.3599045608416784,0.6897135688357422,11.172196823899869,-0.9736319739097145,0.1841992729044719,-0.9364179521098484
2.12,0.4459116211761321,0.619586773701125,1.4522581823881275,-0.009758727486861,0.1271780698635535,0.0083752831013201,-0.3846945951539662,-0.9297253775244336,0.0449120337441693,0.4542107930523722,0.6356591102048234,1.4495043879533545,-0.3675175979232339,-1.058071207678576,0.057171813481058,0.8774284645006122,0.3439000114823065,0.4589936537890471,0.6640318653496621,11.099820828520931,-0.9706850030715216,0.190850764239395,-0.9364482172464386
2.14,0.438682937136848,0.6020227093769402,1.453237747225437,-0.0133286724126887,0.1314832695484671,0.0082924021932943,-0.3765603243679985,-0.9201257629008224,0.0575374124726066,0.4468604410939075,0.6144976860512518,1.4506478242229757,-0.362273081714466,-1.0852043834092813,0.078927751713003,0.8912339061348874,0.4067135392983867,0.4799807311805737,0.6312689364218634,11.099820828520931,-0.9682670028707424,0.1960101063461835,-0.9361338585948696
2.16,0.4312525493342057,0.5837325348793855,1.4545294997399552,-0.0151798625731661,0.1349264137241323,0.008361358098896,-0.3669013252417969,-0.909706163508658,0.0709873861187103,0.4395100891354428,0.5933362618976803,1.4517912604925969,-0.3570285655056981,-1.1123375591399869,0.100683689944948,0.9782204591681216,0.4829499563100803,0.5209799696082096,0.6724986823051858,11.10968229264472,-0.966631964460957,0.1995191721122838,-0.9352922761960242
2.18,0.4240246807879917,0.5656510942799746,1.4560935726534954,-0.0151956465962192,0.1371345847055803,0.0085920655172739,-0.3564621902021044,-0.8992368370524255,0.0847568058999868,0.4322908500821974,0.5714965083508411,1.4534785952180165,-0.3517840492969302,-1.1394707348706918,0.1224396281768931,1.0101723342295563,0.5219567519846258,0.5234663228116276,0.6884709890638268,11.125877604291418,-0.9660577272958212,0.2014613591410589,-0.9337120449451364
2.2,0.4173550357328451,0.5486668604278389,1.45784063056989,-0.0135522472519863,0.1381096614003605,0.0089587724143563,-0.3462332831648591,-0.8893249137170692,0.0984704143200164,0.4252027239341711,0.5489784254107344,1.455709828399235,-0.3465395330881623,-1.1666039106013972,0.1441955664088381,0.9886099069912446,0.5114453518622664,0.4955961667678144,0.6856804210014812,11.146984056299516,-0.9665037593542722,0.2021730082559938,-0.9311072989847448
2.22,0.4105435422235308,0.5309812195396216,1.45997105475098,-0.0102162753031194,0.1380875676581231,0.0094828758566479,-0.33554302006819,-0.8802659259188441,0.1139156932772921,0.4000433715746021,0.5042006147419854,1.4627641512858909,-0.3241506693837645,-0.8872795004706909,0.1258518977854495,1.0427171561267952,0.5345131548334547,0.4529493899112558,0.7722639478637855,11.187401258741374,-0.9683301128278544,0.2014001421502964,-0.927555968139336
2.24,0.4039159158826044,0.5131863257517885,1.4622731644761733,-0.0146165339732675,0.1374282459366662,0.009489505269697,-0.3279445987111133,-0.8959945458772718,0.1147392629388325,0.4000433715746021,0.5042006147419854,1.4627641512858909,-0.3241506693837645,-0.8872795004706909,0.1258518977854495,0.874362281757021,0.3799210678538334,-0.7864309979213835,0.0411784830770159,11.245561096397068,-0.9705274832326016,0.207058838743388,-0.9218415748401976
2.26,0.3974297424261828,0.4952718659391883,1.4645705659630164,-0.0276203619195282,0.1366061828890769,0.0089412865120795,-0.3210729841878402,-0.8933565461781264,0.115096662375456,0.4000433715746021,0.5042006147419854,1.4627641512858909,-0.3241506693837645,-0.8872795004706909,0.1258518977854495,0.3684625589067627,0.3435807261636558,0.1318999849572677,0.0178699718311768,10.27489657708793,-0.9691249096144552,0.2184484799257043,-0.9202584977292247
2.28,0.3913893780101815,0.4784166024858993,1.466761050330311,-0.0407511887693061,0.1358835025464548,0.0084149568803084,-0.3150975522943834,-0.8810504622146218,0.1154454268347161,0.3968018648807644,0.4953278197372785,1.464022670263745,-0.3197341466275456,-0.8868704178214153,0.1313281944785362,0.6842278960226058,0.2987715946728364,0.6153041981752316,0.0174382229630058,10.328881110893237,-0.96918205295564,0.2310966326641994,-0.916382928786687
2.3000000000000003,0.38514967846972,0.460985344180835,1.4690733017791224,-0.0527466911255747,0.1353585450780521,0.0080287174686201,-0.3091780967223158,-0.862970448568933,0.1157700461542638,0.3903188514930892,0.4775822297278647,1.4665397082194542,-0.3109011011151077,-0.8860522525228639,0.1422807878647094,0.9513572218160208,0.2959727786033816,0.9040006822844392,0.0162309659773832,10.33292176455234,-0.9696282748729728,0.2421867720462348,-0.9123559471825744
2.32,0.3790266244755897,0.4439500096005679,1.4713936478096534,-0.062029539930165,0.1351655782167906,0.0078574632877754,-0.3033937683016041,-0.841899881169992,0.1162826718743988,0.3838358381054139,0.4598366397184508,1.4690567461751631,-0.3020680556026699,-0.8852340872243126,0.1532333812508827,1.0928060794588763,0.2892164210355874,1.0535283699470488,0.0256312860067532,10.375680916482452,-0.97004436309898,0.2510346789754085,-0.9088037400854106
2.34,0.3730201296801797,0.427355658687005,1.4737315046183603,-0.0684580634978618,0.1353162354092189,0.007898819797017,-0.2974934235351487,-0.8192941427514386,0.1175170934825416,0.3777944769933605,0.4421319579739646,1.4721214138001808,-0.2932350100902322,-0.8844159219257614,0.1641859746370559,1.169783392895612,0.2950172383227673,1.13028692092767,0.0617210804071365,10.375680916482452,-0.9703335501966543,0.2572498776358998,-0.9060518986884832
2.36,0.3674253641151373,0.412014371221924,1.4759798354389355,-0.0722915922462593,0.1357253367097824,0.0081047745529644,-0.2916806514683171,-0.7972848575732446,0.1191259610951969,0.3717531158813071,0.4244272762294783,1.4751860814251985,-0.2844019645777943,-0.88359775662721,0.1751385680232292,1.1410361608545314,0.2906386033415808,1.1004642589097002,0.0804433806327636,10.426127301531778,-0.9704725562854584,0.2619387920921259,-0.9036830254709202
2.38,0.3616596740224512,0.3963165983513503,1.478387171696503,-0.0743405574957113,0.1363314220378563,0.008470814164988,-0.2851588729178995,-0.7741340203974425,0.1215596061206782,0.3659325809070646,0.4067430486174558,1.4785245638848703,-0.2755689190653565,-0.8827795913286587,0.1860911614094024,1.208736412034525,0.3260889275208789,1.1575418587901063,0.1216822512740668,10.4551736506628,-0.9704902782451468,0.264872884924853,-0.9019128364162186
2.4,0.3563074954804111,0.3818367406074121,1.4807270203015062,-0.0745563840772688,0.1369460884674917,0.0089558111669229,-0.2785410535930581,-0.7515304635297904,0.1246439602639796,0.3603328720706331,0.3890792751378972,1.4821368611791967,-0.2667358735529187,-0.8819614260301073,0.1970437547955756,1.1876758355783894,0.3308909662420728,1.130177843382607,0.1542177071650718,10.54806844252562,-0.9703279595677196,0.2666238251606588,-0.900460187610828
2.42,0.3508134619920407,0.3670608518805882,1.4832628552075335,-0.0727238781883211,0.1375225905283905,0.0096327057594105,-0.271195187164453,-0.7274694619761581,0.1288438486232421,0.3423804428007582,0.3442602174309226,1.4869592183147051,-0.2557550733386464,-0.7091074797343859,0.1609880190756442,1.2752770400790057,0.3672933214302537,1.203050077681611,0.2099944179631246,10.54806844252562,-0.970330704812252,0.2667251518898244,-0.8992339930468987
2.44,0.3454764819352651,0.3526330062569499,1.4858311507887956,-0.0726235477167096,0.1374668271888586,0.0102501389074052,-0.2629708326080338,-0.7157713958789073,0.1273788791599953,0.3423804428007582,0.3442602174309226,1.4869592183147051,-0.2557550733386464,-0.7091074797343859,0.1609880190756442,0.718733075998296,0.4112177278209589,0.584903304862544,-0.0732484731623392,10.606188015642148,-0.972731904891164,0.2684215153078577,-0.8948529449482948
2.46,0.3403005676862967,0.338478372838975,1.4883768585290544,-0.0765338447261306,0.1363969918808638,0.0106849001980147,-0.255146873739937,-0.6993859285902425,0.1272487643319503,0.3423804428007582,0.3442602174309226,1.4869592183147051,-0.2557550733386464,-0.7091074797343859,0.1609880190756442,0.9079025285046431,0.391197943404839,0.8192733644332373,-0.0065057414022504,10.317917802241029,-0.9725179446828136,0.2724279467530922,-0.8933860453014244
2.48,0.335521609880081,0.3253926292660783,1.4908082239907527,-0.0810680089577919,0.1347993806015466,0.0111151239834659,-0.2483719409817234,-0.678872472722727,0.1286938706168211,0.3398228920673717,0.3371691426335788,1.4885690985054616,-0.251197877287764,-0.7006228829753051,0.1682568308379771,1.082577846717496,0.3387466379106821,1.025672793375776,0.0722553142435383,10.317917802241029,-0.9738133972166864,0.277725791716843,-0.889471350680666
2.5,0.3306214687838109,0.312067852432251,1.4934121671637626,-0.0851968912823689,0.1328800076707782,0.0116654123453163,-0.2420826260627255,-0.6548087878179712,0.1317160539662422,0.3347077906005988,0.322986993038891,1.4917888588869743,-0.2420834851859993,-0.6836536894571432,0.182794454362643,1.2527469871678163,0.314465745949892,1.2031842452377872,0.1511091674710557,10.52696977900996,-0.9754896424245711,0.2827235340771485,-0.884914727676528
2.52,0.3258375554062718,0.2992410456543454,1.4960921980270476,-0.088146213662638,0.1311198708375607,0.0123147044737028,-0.2366937238691751,-0.6293137539326505,0.136227328208171,0.3295926891338259,0.3088048434442033,1.4950086192684873,-0.2329690930842347,-0.6666844959389815,0.1973320778873088,1.3222978247648989,0.2694451096775199,1.2747516942660353,0.2255637120964368,10.52696977900996,-0.977238302132938,0.2869744539983092,-0.8802162821185288
2.54,0.3211534849963294,0.2869346603086437,1.4988787573817557,-0.0897110466860346,0.1299003745621336,0.0130367686784786,-0.2319307185299931,-0.6029413267423266,0.1422370000215502,0.3249333072721412,0.2954711535254237,1.498955260826233,-0.22385470098247,-0.6497153024208198,0.2118697014119746,1.3732327652974023,0.2381502669591015,1.3186213595161975,0.3004835906689637,10.61624432307417,-0.979059518200552,0.2901491961980165,-0.8756273989479676
2.56,0.3167912360243716,0.2757388546015776,1.501647120896828,-0.0897807420969197,0.1293059628639684,0.0137873260786606,-0.2274432554614435,-0.5771303826733101,0.1488984130825094,0.3202739254104565,0.282137463606644,1.5029019023839796,-0.2147403088807053,-0.6327461089026579,0.2264073249366405,1.3515884936753242,0.2243731534274817,1.290547203450826,0.3330706530479566,10.754979431517311,-0.9807746380358946,0.2925422145360782,-0.8710425451552544
2.58,0.3122939552849798,0.2644890918874558,1.504707614809715,-0.0880078955659367,0.1291589062787936,0.0146753336611935,-0.2224776509475725,-0.5494094772832536,0.1568715971632602,0.3158424033513159,0.2692280035258185,1.5072119845298424,-0.2056259167789406,-0.6157769153844962,0.2409449484613063,1.4634526710985358,0.2482802256935493,1.3860452695028225,0.3986592040375436,10.754979431517311,-0.9817753287170264,0.29361836286401,-0.867465208450903
2.6,0.3078999914278726,0.2537882918008599,1.50793914877712,-0.0841832381643973,0.1293367358260629,0.0156857709370046,-0.2171178150399594,-0.5227291987316126,0.1659938973352216,0.3116387410947195,0.256742773282947,1.5118855072638218,-0.1965115246771759,-0.5988077218663344,0.2554825719859721,1.4350796711132987,0.2679917953806551,1.3340139275820506,0.4561150085980708,10.865534037210637,-0.9827023048352664,0.2932346521378932,-0.8643136593244016
2.62,0.303618374849785,0.2435904040699276,1.511367889949512,-0.0793497084777342,0.1296648868501422,0.0167584049698232,-0.2112912343415735,-0.4987302812232755,0.1764590948578862,0.2970441006758746,0.2276518318642792,1.5162388436438812,-0.198975828237739,-0.4869582944588179,0.1703298581741654,1.3410979115962725,0.2913290349192923,1.1999458754168524,0.523259876133228,10.921290105049591,-0.9839266961243076,0.2922056556037303,-0.8611434225693066
2.64,0.2996433161221361,0.2343147683588202,1.5146311774710453,-0.0745011365609891,0.1297900690979496,0.0178120542742087,-0.2074780323157975,-0.4790568402204249,0.1665261228011306,0.2970441006758746,0.2276518318642792,1.5162388436438812,-0.198975828237739,-0.4869582944588179,0.1703298581741654,1.1183120365782462,0.1906601012888018,0.9836720501425312,-0.4966486028377792,10.921290105049591,-0.9813075967197552,0.2915271424213705,-0.8610451282410596
