t,x,y,z,roll,pitch,yaw,v_x,v_y,v_z,ref_x,ref_y,ref_z,ref_v_x,ref_v_y,ref_v_z,a_com,a_x,a_y,a_z,thrust,wind_x,wind_y,wind_z
0.0,-1.4585738850997796,0.7821621789623664,2.7056177793481315,0.0219150853994682,0.1003520617869031,0.0430365469627386,0.0045909699478749,-0.0017075593237041,0.0280680674870222,-1.4584254570569872,0.7820181062199202,2.706493066326512,0.0655880876005774,-0.1039214014358791,-0.0718055251781395,1.4246132601185952,0.2295484973937465,-0.0853779661852071,1.4034033743511105,10.227077136863045,-0.9480216627063892,0.2679889901467471,-0.8609440781333464
0.02,-1.458602888897966,0.7823875842692497,2.705972821237145,0.0293075676516285,0.1031370910498215,0.0436249467917485,-0.006991132425828,0.0203091482082179,0.0062277831205904,-1.4584254570569872,0.7820181062199202,2.706493066326512,0.0655880876005774,-0.1039214014358791,-0.0718055251781395,1.655202802640616,-0.5791051186851516,1.1008353765961068,-1.0920142183215904,10.226489082871922,-0.93726832177814,0.2691859546105303,-0.8637373888708334
0.04,-1.4588232342067171,0.7828388654582744,2.705785952329059,0.0437590725816385,0.1103560420328776,0.0448856898992754,-0.0138369203966478,0.0229366837903176,-0.0240550117309974,-1.4584254570569872,0.7820181062199202,2.706493066326512,0.0655880876005774,-0.1039214014358791,-0.0718055251781395,1.5578963542225577,-0.3422893985409851,0.1313767791049809,-1.5141397425793923,8.91835446579853,-0.921835340739855,0.249254568335933,-0.8934802912573443
0.06,-1.4591280109684828,0.7832622555907578,2.704986041611836,0.058774105310796,0.1196960134625542,0.0463854492636613,-0.015861822507138,0.0189297005663909,-0.0544943691593455,-1.4577695761809817,0.7809788922055614,2.7057750110747305,0.0777578085781222,-0.1239214017339023,-0.0918055254761627,1.538433150777626,-0.1012451055245124,-0.2003491611963325,-1.5219678714174063,8.659479193665902,-0.9036251214462152,0.2259906932412817,-0.9271951007656404
0.08,-1.4594173734384626,0.7835560514541203,2.70367201109901,0.0725656142899138,0.1293325546016963,0.0479397497973162,-0.0141890578656176,0.0119322198886605,-0.0823958924040771,-1.45645781442897,0.7789004641768438,2.704338900571168,0.1020972505332117,-0.1639214023299488,-0.1318055260722092,1.4407097875330632,0.0836382320760182,-0.3498740338865195,-1.3950761622365773,8.659479193665902,-0.8843387602208463,0.2037349006390275,-0.958947611408507
0.1,-1.4596548570363963,0.7836932624713576,2.7017214985344338,0.0864340103949688,0.1395928113948614,0.0496618870437213,-0.0093278394168742,0.0018595023075793,-0.1112366459556219,-1.4551460526769584,0.7768220361481262,2.702902790067605,0.1264366924883013,-0.2039214029259952,-0.1718055266682556,1.5466739715398732,0.2430609224371717,-0.5036358790540609,-1.4420376775772397,8.758966734093974,-0.8643666238411251,0.1823607046354088,-0.9888268448365084
0.12,-1.459764718752185,0.7836012755282948,2.6992023859385963,0.0996346314723168,0.1495999246268744,0.0514306157521519,-0.0016173994596762,-0.0108379550159535,-0.1392724060799742,-1.4526173188271922,0.7727436080896063,2.69946667953424,0.1507761344433909,-0.2439214035220417,-0.2118055272643021,1.5864111640482104,0.3855219978599006,-0.6348728661766453,-1.4017880062176162,8.8332448805495,-0.8448492249395828,0.16211803655982,-1.016405183004405
0.14,-1.459694125315664,0.7832294295572085,2.696123090665286,0.112190183390041,0.1591655264256135,0.0532101495619934,0.0085373579375928,-0.0259747590093473,-0.167380590190708,-1.4500885849774263,0.7686651800310864,2.696030569000875,0.1751155763984805,-0.2839214041180882,-0.2518055278603486,1.6750462284178345,0.5077378698634566,-0.7568401996696896,-1.4054092055366922,8.925914009113967,-0.8238351668980157,0.1411487151925307,-1.0442930631929617
0.16,-1.459417476726287,0.78257365040744,2.692676485262308,0.1235441577739726,0.1677706021202853,0.0548841353369871,0.0202723109300878,-0.0425132352490252,-0.1941112211402641,-1.446951365078783,0.7635867519576653,2.6915944584526086,0.19945501835357,-0.3239214047141346,-0.291805528456395,1.677615084746662,0.5867476496247496,-0.8269238119838953,-1.336531547477801,8.965990466204858,-0.8038777311516598,0.1219818848933658,-1.068504100870099
0.18,-1.4588644462902958,0.781521581248603,2.688497572716217,0.1349163673101927,0.1762964179245627,0.056606061663201,0.0346329213382499,-0.062066711697039,-0.2224540355576326,-1.4432056591312623,0.7575083238693431,2.686158347889441,0.2237944603086596,-0.363921405310181,-0.3318055290524414,1.865395870583128,0.7180305204081024,-0.9776738224006882,-1.417140720868426,9.014617743039707,-0.7838775678537604,0.1029872899133773,-1.0917908453990952
0.2,-1.4579954119807907,0.7800555608747062,2.6837554540476387,0.1457125486864914,0.1840534936905708,0.0582346248844653,0.0516780313937829,-0.0837858859701063,-0.2504508677958884,-1.4571328002233832,0.7784182456637511,2.677374870938336,0.0896405951382415,-0.1620667131871551,-0.3224540370477488,1.9660117772321075,0.8522555027766505,-1.0859587136533675,-1.3998416119127874,9.054061985288172,-0.7657930335153018,0.0850628087588889,-1.1125328909467411
0.22,-1.456754134632065,0.7781179703064148,2.6788327865250228,0.1518861449370705,0.1888048419369402,0.0591231162257681,0.0776496545319957,-0.1168535722557773,-0.2660306731891874,-1.4571328002233832,0.7784182456637511,2.677374870938336,0.0896405951382415,-0.1620667131871551,-0.3224540370477488,2.242056768245383,1.298581156910639,-1.6533843142835507,-0.7789902696649503,9.124765438626127,-0.7558455716295182,0.0687283085870395,-1.1287533316713805
0.24,-1.4549173587301556,0.7754711726001949,2.6733416843498223,0.1543558783363918,0.1897102383368144,0.0591160679464438,0.1044692743948754,-0.1457370049259193,-0.2823156923809837,-1.4571328002233832,0.7784182456637511,2.677374870938336,0.0896405951382415,-0.1620667131871551,-0.3224540370477488,2.1323382368172576,1.3409809931439878,-1.4441716335070964,-0.8142509595898184,9.9597073247578,-0.7471583339818499,0.062414305143619,-1.1379757711839524
0.26,-1.452549829471638,0.772261695243604,2.6675101744975453,0.1548771493686499,0.1867584431256498,0.058326287628046,0.1306431946616156,-0.1736326628179771,-0.3000363973087801,-1.4562363942720007,0.7767975785318795,2.6741503305678584,0.1006421298982398,-0.1820667134851783,-0.342454037345772,2.10788117223103,1.3086960133370094,-1.3947828946028888,-0.8860352463898186,9.882221925116028,-0.7441400373412205,0.058571893723851,-1.1428138450347036
0.28,-1.4496866050760249,0.7684954784669719,2.6613108550974167,0.1536917250667384,0.1805531039029377,0.0568710734376715,0.1538456176082099,-0.2014173004277652,-0.3189234990167213,-1.454443582369236,0.7735562442681364,2.667701249826904,0.1226451994182365,-0.2220667140812248,-0.3824540379418184,2.041482995659045,1.160121147329715,-1.3892318804894055,-0.9443550853970584,9.80028466143267,-0.744240637889751,0.0561290247796086,-1.1458361505057022
0.3,-1.446572342155267,0.7644057436953584,2.6550629698938413,0.1510612284175608,0.1728895904777063,0.0550926526091489,0.172469753963407,-0.2274933662929694,-0.3377355941159692,-1.452650770466471,0.7703149100043933,2.6612521690859485,0.1446482689382331,-0.2620667146772713,-0.4224540385378649,1.8578984014247053,0.9312068177598526,-1.3038032932602126,-0.9406047549623958,9.725906646969634,-0.7474544397477444,0.0550735539257414,-1.147116547754459
0.32,-1.4429500952225944,0.7595878090679604,2.648091286594302,0.1472909261408713,0.1640757414191431,0.0530412224144294,0.1884814398805688,-0.2526612967610454,-0.3583729515098843,-1.4497578050877065,0.7650735757108479,2.652803088315191,0.1666513384582298,-0.3020667152733177,-0.4624540391339113,1.813628497074256,0.8005842958580922,-1.2583965234037986,-1.0318678696957573,9.655697348272042,-0.7524136439698171,0.0550525921959343,-1.147151207897384
0.34,-1.4392427445367828,0.7545608337525117,2.641082735737495,0.1436221087519948,0.1557871142355238,0.0511125825341353,0.2008019112734216,-0.275173015909337,-0.3783130584661512,-1.4468648397089416,0.7598322414173024,2.644354007544434,0.1886544079782264,-0.3420667158693642,-0.5024540397299578,1.6249456758466008,0.6160235696426403,-1.1255859574145792,-0.9970053478133456,9.576550537766709,-0.7580558399996159,0.0549957610990231,-1.1471034794979116
0.36,-1.4351115501232727,0.7488103885789412,2.633289834085351,0.1397547506671624,0.147657396648061,0.0491834062249983,0.2114905214859417,-0.2985240987606697,-0.3999303946811561,-1.443421797592177,0.7535909071088559,2.634904926758776,0.210657477498223,-0.3820667164654106,-0.5424540403260042,1.6784134499859928,0.5344305106260008,-1.1675541425666374,-1.0808668107502415,9.537680880703192,-0.7642208211132565,0.0551655446057571,-1.1464858998787577
0.38,-1.4307874229736752,0.7425972909176111,2.625058840026535,0.1357125783071966,0.1403862218461001,0.0473784137351891,0.2202572130608147,-0.3214113994659876,-0.4220801483453096,-1.4394286787374126,0.7463495727855081,2.624455845958216,0.2326605470182197,-0.422066717061457,-0.5824540409220507,1.6517377229203771,0.4383345787436515,-1.144365035265893,-1.107487683207678,9.492120052989776,-0.769692157842196,0.0554712456762137,-1.1464200002030962
0.4,-1.426305686568832,0.735933505721861,2.616378534551985,0.1314166406917669,0.1341157060139639,0.0457081590377291,0.2274127478569154,-0.3435631958182408,-0.4448043515840563,-1.4197745623206346,0.7265267209443117,2.6039548326092694,0.2863784560012405,-0.4214114009561037,-0.5220801498354257,1.6265709119846052,0.3577767398050338,-1.1075898176126613,-1.1362101619373344,9.456466582576468,-0.7740124435428518,0.0559333996492366,-1.1470789359533513
0.42,-1.4219530542867356,0.7291946152280274,2.607888324518962,0.1277725637640887,0.1307135047044477,0.0444972121914307,0.2302133946697454,-0.3649458414495851,-0.4467646784371031,-1.4197745623206346,0.7265267209443117,2.6039548326092694,0.2863784560012405,-0.4214114009561037,-0.5220801498354257,1.0827096080397502,0.1400323406415035,-1.0691322815672115,-0.0980163426523378,9.419632074312176,-0.7723702365584044,0.0510103153649918,-1.157640518901577
0.44,-1.4173275339796338,0.7216704443239093,2.5989125583487627,0.1249381466110479,0.1320963295754408,0.0439208554997015,0.2327937524608663,-0.38642925305056,-0.4511026167745539,-1.4197745623206346,0.7265267209443117,2.6039548326092694,0.2863784560012405,-0.4214114009561037,-0.5220801498354257,1.1034184715766595,0.1290178895560434,-1.074170580048747,-0.2168969168725415,10.755492389173924,-0.7731515445526214,0.0538442313152863,-1.1565324932517165
0.46,-1.4126195456164292,0.7137168093978241,2.58979837017994,0.1226761622338199,0.1371173546968982,0.0438185998843153,0.2383609430410144,-0.4078037780270131,-0.4600924961838218,-1.4169107777606222,0.7223126069347506,2.598734031110915,0.2996027045893257,-0.441411401254127,-0.5420801501334489,1.192352570255423,0.2783595290074048,-1.0687262488226543,-0.4494939704633938,10.417826456640796,-0.768802678797798,0.0553125642231398,-1.15974089902874
0.48,-1.4080127720366065,0.7057702610611387,2.5809424669497605,0.1206616971535774,0.1437222953925843,0.0439307555274609,0.2465921771752024,-0.4275250263474137,-0.4716691832458799,-1.411183208640597,0.7138843789156286,2.588292428114207,0.326051201765496,-0.4814114018501734,-0.5820801507294954,1.215216579482388,0.4115617067094013,-0.986062416020031,-0.5788343531029055,9.989602271763944,-0.7607358305755001,0.0561630782479584,-1.1661127356121197
0.5,-1.402964947784523,0.6970101391905988,2.5713577317107625,0.1186414484735754,0.1514127996304964,0.0441154644668976,0.2580189190551653,-0.4473890797574225,-0.4863272834359757,-1.4054556395205726,0.7054561508965065,2.577850825117498,0.3524996989416664,-0.5214114024462199,-0.6220801513255418,1.3601571132132722,0.5713370939981435,-0.9932026705004372,-0.7329050095047918,9.989602271763944,-0.7506540445123835,0.0565232751184294,-1.1742336672158382
0.52,-1.397660942994488,0.6878595358540934,2.5614581800252223,0.1167193917340211,0.1589787199837997,0.0442618788374539,0.2719921299618801,-0.4666179964685636,-0.5029928262295528,-1.3984056455417393,0.6950279228475821,2.565409222090987,0.3789481961178367,-0.5614114030422663,-0.6620801519215883,1.4515011001822231,0.6986605453357386,-0.9614458355570564,-0.8332771396788508,9.766492656912304,-0.7403560235015214,0.0564361599875628,-1.182728676747023
0.54,-1.3920525048298544,0.6783303123790176,2.5512156661979253,0.1148825452580791,0.1657576597145968,0.0442931625337395,0.2882210341676075,-0.4853088212799349,-0.5204509608188649,-1.391355651562906,0.6845996947986577,2.5529676190644763,0.4053966932940072,-0.6014114036383128,-0.7020801525176348,1.5145219767195408,0.8114452102863712,-0.9345412405685648,-0.8729067294656057,9.766492656912304,-0.7295451044951899,0.0558974903460098,-1.191981431236117
0.56,-1.3864029881761513,0.6689270033842,2.541156376237322,0.1129407544662822,0.1710052476117177,0.0441466404263146,0.3056114974341353,-0.5033622636159648,-0.537547523012672,-1.3836444451546683,0.6731714667348322,2.5395260160230646,0.4318451904701775,-0.6414114042343592,-0.7420801531136811,1.5171086246965997,0.8695231633263911,-0.9026721168014952,-0.8548281096903532,9.749253365001096,-0.7197688008768215,0.0554928672021121,-1.2005911446879238
0.58,-1.380086940140628,0.6586635311436472,2.5302099938624907,0.1105091310868943,0.174966091731763,0.0437637808396801,0.325039740105416,-0.521851699612288,-0.5562139245937942,-1.3752720263170266,0.6607432386561054,2.525084412966751,0.4582936876463478,-0.6814114048304056,-0.7820801537097276,1.6338225154098154,0.971412133564034,-0.9244717998161568,-0.9333200790561104,9.743387894420266,-0.711437417496081,0.0555340937263744,-1.2082755957590152
0.6,-1.3733730859713766,0.6480347262277782,2.5188832138645068,0.1076325708670874,0.1771753088443292,0.0431344456192024,0.3452034456399295,-0.5398468625175089,-0.5755070864334924,-1.363834953135357,0.6325709461630328,2.502399297632801,0.3932159202296988,-0.615959923527388,-0.6562139260839103,1.6602913920761009,1.008185276725676,-0.8997581452610481,-0.96465809198491,9.718796111281335,-0.7052370530703995,0.0560311124095045,-1.2146700780479396
0.62,-1.3661883341343812,0.6370090316167734,2.507429812714676,0.1037821471310256,0.1771388361880025,0.0421806108878318,0.3720432000751238,-0.5611676345959753,-0.5687718950892099,-1.363834953135357,0.6325709461630328,2.502399297632801,0.3932159202296988,-0.615959923527388,-0.6562139260839103,1.746647175739524,1.3419877217597158,-1.0660386039233194,0.3367595672141232,9.696922138437913,-0.7040448079265026,0.0553218895300191,-1.2199865047746417
0.64,-1.3588738395636537,0.6261739372696117,2.496652787352707,0.0996963130160046,0.1745855452159059,0.0409813287490713,0.3963755420986784,-0.5782394441814667,-0.5660286407675288,-1.363834953135357,0.6325709461630328,2.502399297632801,0.3932159202296988,-0.615959923527388,-0.6562139260839103,1.4925104649113317,1.2166171011777276,-0.8535904792745685,0.1371627160840549,11.31979512205453,-0.7077591490210108,0.0614805744580423,-1.2155729633070655
0.66,-1.3506949151885157,0.6144356406999023,2.4853147251743506,0.0955541735927795,0.1693180575989025,0.0394860174702498,0.4197611459228932,-0.5946037820634135,-0.5680986357499471,-1.35990279393306,0.6264113469277589,2.495837158371962,0.4068511562545554,-0.6347815683104081,-0.6762139263819335,1.4308763920801195,1.169280191210742,-0.81821689409734,-0.1034997491209166,10.951430582593275,-0.7132787789293622,0.0668719637377306,-1.2108307518030677
0.68,-1.3420880312930046,0.6023829575296358,2.473887659428612,0.091655846923802,0.1621144294763367,0.0378476662754004,0.4393483224456292,-0.6097716139950329,-0.5746457452085593,-1.352038475528466,0.6140921484572112,2.4827128798502835,0.4341216283042686,-0.6724248578764481,-0.7162139269779799,1.281195976326146,0.9793588261368004,-0.7583915965809707,-0.3273554729306072,10.620081847329857,-0.7206743614972612,0.0713311230004533,-1.205661455144688
0.7000000000000001,-1.333130155433005,0.590039000075002,2.462284451864123,0.0880466509935973,0.153920625322531,0.0361705589655345,0.4551480646577426,-0.623842941125334,-0.5852867889203119,-1.344174157123872,0.6017729499866634,2.469588601328605,0.4613921003539817,-0.7100681474424881,-0.7562139275740264,1.1841303902575693,0.7899871106056694,-0.7035663565150563,-0.5320521855876337,10.338455736540707,-0.7285578403420501,0.074599640919091,-1.2009317400459742
0.72,-1.3243610955588776,0.5780607412051251,2.4510326571488257,0.0849289140720705,0.1459506070636639,0.0346134924036161,0.4669262775330189,-0.6363271895922469,-0.5985505309590284,-1.3349463151167924,0.5875715870378136,2.454464322777125,0.4886625724036948,-0.7477114370085282,-0.7962139281700729,1.0845616755036973,0.5889106437638125,-0.6242124233456436,-0.6631871019358249,10.098886823926478,-0.7368968178124279,0.0770152742635582,-1.1966443663780408
0.74,-1.3149187462131586,0.5652044006161169,2.4388972603790418,0.0820503226030111,0.1379728492758436,0.0330675575749839,0.4764938340787394,-0.6486677983222895,-0.6143642343686009,-1.325718473109713,0.5733702240889639,2.4393400442256445,0.515933044453408,-0.7853547265745683,-0.8362139287661193,1.1111952771784606,0.478377827286025,-0.6170304365021306,-0.7906851704786222,9.89746244910748,-0.7445923449898543,0.0783156043831417,-1.1935001351303882
0.76,-1.3053068198747024,0.5520982844358174,2.426428323073408,0.0793308829000559,0.1307495086914025,0.0316213613249224,0.4840763533164481,-0.6612005555012449,-0.6317822546834856,-1.3158088693013903,0.5582277789009631,2.4232157656592626,0.5432035165031212,-0.8229980161406083,-0.8762139293621657,1.1379279768362078,0.3791259618854375,-0.6266378589477706,-0.8709010157442354,9.781566811077935,-0.7515585157031064,0.0791371133913221,-1.191118606689485
0.78,-1.295561952516178,0.5387443711580939,2.4135942401201875,0.0764627992880425,0.1243789071986851,0.0302582964661492,0.4899494990444048,-0.6733725752909999,-0.6507253679834099,-1.3052175036918252,0.5421442514738114,2.40609148707798,0.5704739885528343,-0.8606413057066483,-0.9162139299582122,1.1635005887383243,0.2936572863978332,-0.6086009894877509,-0.9471556649962132,9.606624080554866,-0.7571995026459365,0.0798591166041009,-1.1897253084113986
0.8,-1.2862103605217958,0.5258382174745446,2.401037816040835,0.073562586249418,0.1191887895948695,0.0290409779321929,0.4940469639618907,-0.6843908977526836,-0.6700371867571645,-1.2710644775639577,0.5050757423935439,2.381057971721017,0.5579045980906352,-0.7225358013292175,-0.750725369473526,1.1304191622690376,0.2048732458742957,-0.550916123084183,-0.9655909386877326,9.606624080554866,-0.7619010911786106,0.0804725981447127,-1.189507112117506
0.8200000000000001,-1.2762859753951237,0.511888384090832,2.387693057573781,0.0663721562227159,0.115686108087379,0.027643959491631,0.4980405144046363,-0.7077719450366133,-0.6617322754082607,-1.2710644775639577,0.5050757423935439,2.381057971721017,0.5579045980906352,-0.7225358013292175,-0.750725369473526,1.2565760718568368,0.1996775221372815,-1.1690523641964878,0.4152455674451882,9.5278730409118,-0.761833425806221,0.0808627799455308,-1.198526084066001
0.84,-1.266303463659218,0.4975764007545395,2.374523655811364,0.0550868411931219,0.1156430130813565,0.0262283811578603,0.5003724368888324,-0.7213411414070349,-0.6560622501634706,-1.2710644775639577,0.5050757423935439,2.381057971721017,0.5579045980906352,-0.7225358013292175,-0.750725369473526,0.7444967073263602,0.1165961242098001,-0.6784598185210766,0.283501262239505,11.456920161703238,-0.7652626907705161,0.0943658954849086,-1.1924111036346987
0.86,-1.2567685442144914,0.4837943531684068,2.362044863572008,0.0436127560054473,0.1181772366828095,0.024984554526,0.5034937078007302,-0.7283534197046205,-0.6577310194746637,-1.2654854315830513,0.4978503843802517,2.373550718026282,0.5714956178998812,-0.732368446536861,-0.7707253697715492,0.3927440962071559,0.1560635455948922,-0.350613914879283,-0.0834384655596542,10.97098984681179,-0.7646522437886922,0.109131634433235,-1.1890582350748364
0.88,-1.246653099076237,0.4691895061806189,2.3488184332124646,0.0320286988215589,0.1225436953877134,0.0237692064407131,0.5081270990297734,-0.7315629515750208,-0.6650843598920447,-1.2543273396212389,0.4833996683536674,2.3585362106368115,0.5986776575183734,-0.752033736952148,-0.8107253703675956,0.4632521570440291,0.231669561452158,-0.1604765935200147,-0.3676670208690502,10.516857249562236,-0.7604031869918236,0.1225105638457268,-1.1893355041363742
0.9,-1.2364294905879791,0.4545542507903463,2.3353929957002943,0.0214802844098882,0.1278890318021937,0.0226300116162018,0.5142118173516258,-0.7317308636617418,-0.6772990720681081,-1.2431692476594258,0.468948952327083,2.3435217032473408,0.6258596971368655,-0.771699027367435,-0.8507253709636421,0.6823693740732087,0.3042359160926211,-0.0083956043360478,-0.6107356088031701,10.174251155180173,-0.7538648053043326,0.1341638580298335,-1.192073009050737
0.92,-1.226069151273446,0.4399423008647463,2.3216792335388825,0.0122002237929434,0.1336234665254292,0.0215585240375899,0.521714717653597,-0.7295526808196708,-0.6934784731874586,-1.2306520537166885,0.4535149717797344,2.326507195828068,0.6530417367553576,-0.791364317782722,-0.8907253715596886,0.8983471127794237,0.3751450150985602,0.108909142103547,-0.8089700559675228,9.71914606807968,-0.7463684555082553,0.1434812443504452,-1.1963299165384662
0.94,-1.2160727495202892,0.4261195998247407,2.3083351075442757,0.0046125288913643,0.1390320328776819,0.0206037089408252,0.5302924959423554,-0.725734408144445,-0.7103800482491066,-1.2181348597739512,0.4380809912323856,2.309492688408795,0.6802237763738498,-0.8110296081980091,-0.930725372155735,0.9667222017699724,0.4288889144379193,0.1909136337612915,-0.8450787530824011,9.71914606807968,-0.7377207416078795,0.1514034619839269,-1.2021925733221752
0.96,-1.2053566911911042,0.4116571623756151,2.2939296883062408,-0.0022418296594788,0.1442934093541486,0.0196612015365893,0.5409668376686113,-0.7207371179946365,-0.7293424240880853,-1.2049381148407516,0.4221553784246548,2.291478180974621,0.7074058159923419,-0.830694898613296,-0.9707253727517816,1.1163402008224717,0.533717086312796,0.2498645074904271,-0.948118791948932,9.649858888319612,-0.7291990756782964,0.1580045679781943,-1.2082061011719338
0.98,-1.1944117679373905,0.3973060677787058,2.279134198578519,-0.0081103601153209,0.1487363527938952,0.0187843617202734,0.553039395896197,-0.7146634069616847,-0.7493135691648539,-1.1910618189170896,0.4057381333565417,2.2724636735255457,0.734587855610834,-0.850360189028583,-1.010725373347828,1.2056982038922384,0.6036279113792842,0.3036855516475867,-0.9985572538384336,9.599111135797102,-0.7212427789270858,0.1635045817567411,-1.214096331549129
1.0,-1.183213801556365,0.38308743524365,2.2639284260720216,-0.0130511254189373,0.1520965387836635,0.0179862277158971,0.566109597593461,-0.707626211564982,-0.7702806901422817,-1.1667597981425806,0.3615728974306216,2.2416685201202764,0.6202286646640307,-0.7238528115088992,-0.8444891856080111,1.284496451474888,0.6535100848632014,0.3518597698351389,-1.0483560488713906,9.521772505113404,-0.7147900863921949,0.1677993906495865,-1.2191169168089682
1.02,-1.1722616814549358,0.3696357713111652,2.249378092692912,-0.0197398754748318,0.1535843253339972,0.0171259703010646,0.5858169990921648,-0.7068127887262983,-0.7602722234745922,-1.1667597981425806,0.3615728974306216,2.2416685201202764,0.6202286646640307,-0.7238528115088992,-0.8444891856080111,1.1059076991140075,0.985370074935188,0.0406711419341843,0.5004233333844754,9.521772505113404,-0.711136542960908,0.1716038356811813,-1.2260384704384664
1.04,-1.1603408414451604,0.355571819198157,2.234242432317045,-0.0287898414493862,0.1530072736905158,0.0161543972033612,0.6050291130639887,-0.6991449684516722,-0.7542158440224973,-1.1667597981425806,0.3615728974306216,2.2416685201202764,0.6202286646640307,-0.7238528115088992,-0.8444891856080111,1.0777065035273687,0.9606056985911936,0.3833910137313046,0.3028189726047459,11.459234805673075,-0.7134913542733259,0.1851006600406999,-1.218093847412715
1.06,-1.1480516976621598,0.3417118365639832,2.219149352972031,-0.0376780982673415,0.1504518473430097,0.0153064958051861,0.6227729621349867,-0.6871969133683862,-0.7553464489390823,-1.1605575114959403,0.3543343693155326,2.2332236282641964,0.6336665184175975,-0.7256906924183422,-0.8635243088966426,1.0710724387325536,0.887192453549901,0.5974027541643001,-0.0565302458292504,11.025158870528683,-0.7171539572281114,0.1972292388875248,-1.2105149922470986
1.08,-1.1360629916844802,0.3287924158105791,2.2047355249081235,-0.04510712202915,0.146139776271078,0.0147100396150315,0.6381230679863208,-0.6734968930691557,-0.7618018475980156,-1.1481529382026596,0.3398573130853546,2.216333844552036,0.6605422259247309,-0.7293664542372279,-0.9015945554739054,1.0781795742039522,0.7675052925667059,0.6850010149615227,-0.3227699329466649,10.29051863085897,-0.7219710065298415,0.2079042480599159,-1.203724142070579
1.1,-1.1231568520275188,0.3154887048841134,2.1893857404419883,-0.0516191173723332,0.1399535640005128,0.0143271786322827,0.6513082432284379,-0.6577321723667913,-0.7730043368736579,-1.1357483649093791,0.3253802568551766,2.199444060839876,0.6874179334318644,-0.7330422160561137,-0.9396648020511684,1.1703322508584664,0.6592587621058577,0.7882360351182227,-0.5601244637821134,10.29051863085897,-0.727367198232504,0.2162842243213922,-1.1983612297743995
1.12,-1.110021399378078,0.3025113514020461,2.173770436382612,-0.0567502938354497,0.1329425241244583,0.0141628753129572,0.6613052857063245,-0.6409854725354756,-0.7880940459845363,-1.1220000062407418,0.3107194125340544,2.1806507647988527,0.7142936409389979,-0.7367179778749996,-0.9777350486284312,1.2329762108367948,0.4998521238943287,0.8373349915657857,-0.7544854555439184,10.026320730795304,-0.7333556129922122,0.2225687244861188,-1.1937826541808216
1.14,-1.0967152361997323,0.2898775912820899,2.157828713005447,-0.0604921728148076,0.1258027729961654,0.0141724323150788,0.668637739166139,-0.6235586098869746,-0.8052751249311274,-1.1082516475721045,0.2960585682129321,2.1618574687578294,0.7411693484461314,-0.7403937396938853,-1.015805295205694,1.2773506657130798,0.366622672990724,0.8713431324250454,-0.8590539473295578,9.809755734338069,-0.7388530112267446,0.2265804098745712,-1.1906756980852464
1.16,-1.0839566936122804,0.2782008438485298,2.1423533649558784,-0.0629051152872934,0.1192486261477309,0.0142999618017823,0.673868163866008,-0.6067298680122801,-0.8228207878389522,-1.0938313962157888,0.2813058298463377,2.1421124165523744,0.7680450559532649,-0.7440695015127712,-1.0538755417829568,1.243396741290883,0.2615212349934503,0.841437093734726,-0.8772831453912389,9.707701136714604,-0.7444163965185641,0.22936499333608,-1.187914536612426
1.18,-1.0704369948902006,0.2662555100461699,2.125690654075526,-0.0643768354011633,0.1127563084279524,0.014526565378507,0.6776820819926058,-0.5888376112530749,-0.8425719760970972,-1.078739252171795,0.2664611974342711,2.121415608182488,0.7949207634603983,-0.7477452633316569,-1.0919457883602195,1.3460945927222236,0.1906959063298907,0.8946128379602625,-0.9875594129072518,9.634930846347745,-0.7494515391067808,0.2307060760504161,-1.1860609185307354
1.2,-1.0568575253019614,0.2546756348527145,2.108619468831926,-0.0645221482046496,0.1068171211724962,0.0148425872194153,0.6799831067935904,-0.5702856252353068,-0.8635337884831289,-1.0365528907905703,0.2368136294835161,2.083562055270671,0.7286411699008738,-0.5817702177415411,-0.8597004175798796,1.404340128712948,0.1150512400492298,0.9275993008884044,-1.0480906193015838,9.558861537523626,-0.7537316354312578,0.230360919792981,-1.1853414326627054
1.22,-1.0431635580865044,0.24344686161166,2.091579327138775,-0.0647134905088524,0.1004316014450488,0.0152070391392082,0.6892401285641708,-0.5531052515308693,-0.8370486812541943,-1.0365528907905703,0.2368136294835161,2.083562055270671,0.7286411699008738,-0.5817702177415411,-0.8597004175798796,1.644930543832543,0.4628510885290204,0.859018685221874,1.32425536144673,12.671657416365631,-0.7602542280886379,0.2256892684648228,-1.18910783351413
1.24,-1.0300023381406418,0.2331186721943099,2.075925313388573,-0.0655701105162258,0.0933101495314443,0.0156012430414716,0.6953390926868696,-0.5349533269726882,-0.812296029693244,-1.0365528907905703,0.2368136294835161,2.083562055270671,0.7286411699008738,-0.5817702177415411,-0.8597004175798796,1.564755162823949,0.3049482061349362,0.9075962279090576,1.237632578047515,12.671657416365631,-0.7714449551305875,0.230617121811992,-1.174418596134351
1.26,-1.0160606767323377,0.2226356134116797,2.0598972591967804,-0.0660783177166963,0.0854824019463345,0.0160949345119298,0.6982019798477875,-0.5144218544701168,-0.7920418277593466,-1.0292664790915615,0.2309959273061007,2.074965051094872,0.7388329874825273,-0.5803567390392343,-0.863126105876436,1.4491119539213364,0.1431443580458991,1.0265736251285684,1.0127100966948688,12.24962238914486,-0.782486401088177,0.2351619473163456,-1.1597831408362431
1.28,-1.002097567240355,0.2125758571180009,2.0442114746053504,-0.065233106056335,0.0779401280455976,0.0166849060855582,0.697795682558161,-0.4928969171136554,-0.7774738793257511,-1.0146936556935442,0.2193605229512699,2.0577710427432745,0.7592166226458346,-0.5775297816346209,-0.869977482469549,1.2997241315477692,-0.0203148644813244,1.0762468678230663,0.7283974216797773,11.837249415583756,-0.7925878808545359,0.2377445780179405,-1.146859898060141
1.3,-0.9888666938870964,0.2034211249361799,2.0295396536285204,-0.0625740553111816,0.0714744573237178,0.017332746196247,0.6948691359913832,-0.4723449581705579,-0.767592213839841,-1.0001208322955266,0.207725118596439,2.040577034391677,0.7796002578091418,-0.5747028242300074,-0.876828859062662,1.1495597026489226,-0.146327328338891,1.0275979471548762,0.4940832742955037,11.489617149170954,-0.8007431825000598,0.2376894885390127,-1.1369271405026211
1.32,-0.975023336337791,0.1941798448065053,2.014269857991772,-0.0581898805678629,0.0658112121911983,0.0180420255179392,0.6894492892656153,-0.4533539417325751,-0.7600006580502975,-0.9845288271393438,0.1962310621118389,2.023040457210424,0.799983892972449,-0.5718758668253939,-0.8836802356557749,1.0579049616864231,-0.2709923362883948,0.9495508218991394,0.3795777894771757,11.224997617197005,-0.8071039520031759,0.2351062602442574,-1.1300679105390414
1.34,-0.9613132279003116,0.1852955398651794,1.9991428014989163,-0.05302380154662,0.061961707637399,0.0186847914937474,0.6817702838117512,-0.4364259468008946,-0.7530413300204111,-0.968936821983161,0.1847370056272387,2.0055038800291705,0.8203675281357562,-0.5690489094207805,-0.8905316122488879,0.9924167267270324,-0.3839502726932065,0.8463997465840256,0.3479664014943207,11.036255042395169,-0.8110411014639862,0.2307489572975299,-1.1267693225125943
1.36,-0.9477712065834788,0.1767307434999925,1.984154104146347,-0.0475087203655249,0.0604958696122419,0.0192169619652226,0.6730258847666772,-0.4212093956449542,-0.7461458369532153,-0.9528352259478956,0.1733136230777539,1.9877960184330892,0.8407511632990633,-0.5662219520161669,-0.8973829888420007,0.9428093237508144,-0.4372199522536979,0.7608275577970225,0.3447746533597862,11.015080593357196,-0.813002318917143,0.2259823679538382,-1.125102951137412
1.38,-0.935060223634168,0.1688610201363512,1.970043052175284,-0.0421593263549018,0.0610683635393161,0.019638686642889,0.665628487619684,-0.4081650734848804,-0.7395528464177347,-0.9362240390335472,0.1619609144633845,1.9699168724221805,0.8611347984623705,-0.5633949946115534,-0.9042343654351136,0.819059444373658,-0.3698698573496639,0.6522161080036892,0.329649526774034,11.002677512415175,-0.8129803441713176,0.2206287012269354,-1.1251033597875433
1.4,-0.921818213258774,0.1608292587239892,1.95532479867088,-0.0365732998930875,0.0630601468769033,0.020032339064977,0.6591469938534726,-0.3958818289504683,-0.7326124697040538,-0.9017787992531838,0.1484527664621072,1.9330654098543971,0.7003287024825074,-0.4085544109954494,-0.7267300665909148,0.7763000171670171,-0.3240746883105661,0.6141622267206048,0.3470188356840431,10.989582184731262,-0.8113015492192425,0.215382293449905,-1.1261955624828563
1.42,-0.9086297733883772,0.1530111291495289,1.9409407697056889,-0.0319379963926598,0.0643576454944873,0.0203963415639488,0.6600512443707207,-0.3862393719254516,-0.7051289187971012,-0.9017787992531838,0.1484527664621072,1.9330654098543971,0.7003287024825074,-0.4085544109954494,-0.7267300665909148,1.457000529282929,0.0452125258624036,0.4821228512508324,1.3741775453476324,10.977622343524672,-0.8125317932541243,0.2085868660559245,-1.1283844068798428
1.44,-0.8960854831332925,0.1457700177610979,1.9278016340363051,-0.0284311953887154,0.06346858517383,0.0207525346470679,0.66016321289311,-0.3764924292968005,-0.6794141015551689,-0.9017787992531838,0.1484527664621072,1.9330654098543971,0.7003287024825074,-0.4085544109954494,-0.7267300665909148,1.3750156847670854,0.005598426119463,0.4873471314325556,1.2857408620966126,12.397751117964615,-0.8158467966430608,0.2082425756010262,-1.1203788331830744
1.46,-0.8828949310858455,0.1383465828775776,1.91447039630343,-0.0250104124017826,0.0609809748824889,0.0211504033005714,0.6587168641179838,-0.3664836164639344,-0.6551764717991266,-0.8947755122283587,0.1443672223521527,1.925798109188488,0.7072687454550721,-0.4086322784975632,-0.7241655106255508,1.313136469767746,-0.0723174387563085,0.5004406416433044,1.2118814878021134,12.20468608174724,-0.8207174797663761,0.2079506555745385,-1.1117254532169554
1.48,-0.8697521269340792,0.1311163866096177,1.901593596420676,-0.021658264401106,0.0574539781891544,0.0215622983019874,0.655459124359518,-0.3571702051967642,-0.6338172657979333,-0.8807689381787086,0.1361961341322437,1.91126350785667,0.7211488314002016,-0.4087880135017908,-0.7190363986948228,1.1764014820276671,-0.1628869879232886,0.465670563358514,1.0679603000596671,11.806142069062844,-0.8263745745950221,0.2073806100282118,-1.103168726531524
1.5,-0.856696547582375,0.1240635269304505,1.889114594425584,-0.0183394770342784,0.0534905485363153,0.0219710627907657,0.6501162718571496,-0.3487157656860802,-0.6151202526463283,-0.8667623641290585,0.1280250459123347,1.896728906524852,0.7350289173453309,-0.4089437485060184,-0.7139072867640949,1.060190927490385,-0.2671426251184217,0.4227219755341987,0.9348506575802497,11.806142069062844,-0.8318061542137563,0.2064825754979528,-1.0957184816052317
1.52,-0.8444136030201544,0.1175112204916956,1.8775857113497008,-0.0152571982476189,0.0499440311926843,0.0223403640222542,0.642987544353689,-0.341518700513276,-0.599365081148768,-0.8520617857821519,0.1198461709422143,1.8824507607895695,0.7489090032904603,-0.409099483510246,-0.7087781748333669,0.9365387496491056,-0.3564363751730304,0.3598532586402081,0.7877585748780169,11.642847834332317,-0.8369533218614531,0.2051728621107949,-1.0890684368319312
1.54,-0.8316508953196233,0.1107525882022524,1.8657651361664416,-0.0121476494151192,0.0471538635608471,0.0226967979462476,0.6335299981346254,-0.3348037721631853,-0.5835446566434372,-0.8373612074352452,0.1116672959720939,1.868172615054288,0.7627890892355897,-0.4092552185144736,-0.703649062902639,0.9808431000438412,-0.4728773109531792,0.3357464175045371,0.7910212252665361,11.511757118149944,-0.8408371690187336,0.2034822314192595,-1.084220888742551
1.56,-0.819091559061787,0.1041194353302667,1.854253473230284,-0.009239170889073,0.0459397038717905,0.0230156455589298,0.6230204576504537,-0.3288958636313641,-0.568425108614096,-0.8223136269397104,0.1034845276268679,1.8540226971172744,0.7766691751807191,-0.4094109535187012,-0.698519950971911,0.9668952334927068,-0.5254770242085871,0.295395426591058,0.7559774014670617,11.472408045317934,-0.843497961852156,0.201870871950626,-1.0804892923479608
1.58,-0.8067394210423711,0.0975968612260391,1.8430381880911435,-0.0065832099543727,0.0462168689604702,0.0233035606023031,0.6128932672076806,-0.3236713870602842,-0.5538402313831318,-0.8069190442955473,0.0952978659065361,1.8400010069785289,0.7905492611258486,-0.4095666885229289,-0.693390839041183,0.9254374446015472,-0.5063595221386552,0.2612238285539942,0.7292438615482122,11.424507195593833,-0.844802178999438,0.2003218717472121,-1.0778299459244158
1.6,-0.7951858394774627,0.0914915165058259,1.832650062477385,-0.0043149294447913,0.0475234677768052,0.0235562405492774,0.603922953453412,-0.3192524822301134,-0.5403641631691116,-0.776094757681987,0.0814132918730249,1.8153461765219867,0.6360724369519337,-0.3215485352731492,-0.5356357863637674,0.8390435972836154,-0.44851568771343,0.2209452415085439,0.6738034107010071,11.384751499103912,-0.8448218700081426,0.1990126977741535,-1.0762308275757266
1.62,-0.7831578477006778,0.0851249899653418,1.8220885794202184,-0.0030543253580858,0.0485181103409283,0.0237500756599578,0.5993210612100162,-0.3173583627696455,-0.5159900922272989,-0.776094757681987,0.0814132918730249,1.8153461765219867,0.6360724369519337,-0.3215485352731492,-0.5356357863637674,1.2438452828093924,-0.23009461216979,0.0947059730233929,1.2187035470906382,12.04570019808125,-0.8465556661391018,0.1975326405107058,-1.0746344371892655
1.64,-0.7712281158451897,0.0788036411060641,1.8120171544146464,-0.0033468225167035,0.0481700284405106,0.0238456273627749,0.5937279714881074,-0.3147594219443964,-0.4925230202177126,-0.776094757681987,0.0814132918730249,1.8153461765219867,0.6360724369519337,-0.3215485352731492,-0.5356357863637674,1.2131988859556109,-0.2796544860954375,0.1299470412624542,1.1733536004793126,12.04570019808125,-0.8487741691761221,0.2002934306245235,-1.0686681549119728
1.66,-0.7600114928666901,0.0728521968431076,1.8028592055353472,-0.0047259366911782,0.0472706734151181,0.0238693972878181,0.5871909288680695,-0.3117411044610673,-0.4726245794477819,-0.7697340333124677,0.0781978065202934,1.809989818658349,0.6407082709007843,-0.3211239649157222,-0.5319948973598946,1.0580537695703407,-0.3268521310018979,0.1509158741664573,0.9949220384965346,11.74228641602349,-0.8516995566759918,0.2041062172992941,-1.0620876086452795
1.68,-0.7483499596460519,0.0666583476634606,1.793608828998696,-0.0071017297361492,0.0462161529305265,0.0238422975416649,0.579257017588496,-0.3076214475859376,-0.4535324312627269,-0.757012584573429,0.0717668358148304,1.7992771029310737,0.6499799387984856,-0.3202748242008682,-0.5247131193521488,1.0540738153481504,-0.3966955639786718,0.2059828437564831,0.9546074092527472,11.74228641602349,-0.8547313113690783,0.2086228362953234,-1.0555642688427511
1.7,-0.7368568264215021,0.0605676931261014,1.7847207839121428,-0.0098067065579412,0.0454084309956612,0.0238046527151111,0.5704474078553227,-0.3015613503459293,-0.4362925166328443,-0.7442911358343903,0.0653358651093675,1.7885643872037984,0.6592516066961869,-0.3194256834860142,-0.517431341344403,1.0143331043779722,-0.4404804866586675,0.3030048620004166,0.8619957314941334,11.6174274806599,-0.85732520406264,0.2134324686328055,-1.0493729642636445
1.72,-0.7255469311769882,0.0546132487182642,1.7761594858754957,-0.0121948007399104,0.045103453978089,0.0237975656360651,0.5610544750247849,-0.2942608779378307,-0.4206774261083485,-0.7311061037004666,0.0589473514396472,1.7782157603769104,0.6685232745938882,-0.3185765427711602,-0.5101495633366573,0.9815232251819124,-0.4696466415268885,0.3650236204049306,0.7807545262247889,11.498861609185951,-0.8590641562762729,0.2174981563572385,-1.0444872158046563
1.74,-0.7149788525043065,0.049099133241841,1.7683079958206882,-0.01397736679072,0.0453883927784878,0.023828276047138,0.5519327436914931,-0.2866529124513149,-0.4065604134805115,-0.7179210715665428,0.0525588377699269,1.7678671335500225,0.6777949424915894,-0.3177274020563062,-0.5028677853289115,0.9224656726611594,-0.4560865666645874,0.3803982743257883,0.7058506313918522,11.402158194868209,-0.8602935480174912,0.2210520941172841,-1.0402516795470635
1.76,-0.7040394641783065,0.0434558201481568,1.7603287099830651,-0.0152757200699534,0.0462707273772836,0.0239020346594705,0.5425651409341374,-0.2781112300734924,-0.3921212338024316,-0.7045042477351766,0.0461915526180779,1.757700551173328,0.6870666103892906,-0.3168782613414522,-0.4955860073211658,0.9607317901463126,-0.4683801378677854,0.4270841188911245,0.7219589839039919,11.354732110477926,-0.8609303112910078,0.2239214982586451,-1.0367650906925718
1.78,-0.6932837908187571,0.0379904735347266,1.7526330714262492,-0.0157778828001204,0.0476475662727779,0.0240319923447349,0.5335560834002862,-0.2689085607000278,-0.3781778964303162,-0.6908556322063678,0.0398454959841004,1.7477160132468272,0.6963382782869919,-0.3160291206265982,-0.4883042293134201,0.9490375365576637,-0.4504528766925642,0.4601334686732294,0.6971668686057697,11.323544623737687,-0.8609888078129374,0.2260298385232627,-1.0339277356998693
1.8,-0.682703559604954,0.0327148192028579,1.7452112329720582,-0.0152030008038981,0.0494146216924069,0.0242384730246426,0.5250220285656014,-0.2592644860265387,-0.3646895583032286,-0.6666059866487428,0.0245450454997252,1.733724176604733,0.5534522609752783,-0.2467640065171407,-0.3725904191933301,0.9324343591640712,-0.4267027417342361,0.482203733674455,0.6744169063543803,11.28841476757043,-0.8605763883305921,0.2270570617369403,-1.0318871377978984
1.82,-0.6727801381590084,0.0278181380187343,1.7384424909058307,-0.0155731371635976,0.0506536127719699,0.0243845930756813,0.5198174246944682,-0.2559352455907021,-0.3484918699061128,-0.6666059866487428,0.0245450454997252,1.733724176604733,0.5534522609752783,-0.2467640065171407,-0.3725904191933301,0.8667999376226979,-0.2602301935566598,0.1664620217918327,0.8098844198557914,11.258390728758968,-0.8612648555022526,0.2282663465544973,-1.0295223116606071
1.84,-0.6624488180808278,0.0227541552000458,1.731638582588304,-0.0180127909452051,0.0510736124777456,0.024418673965435,0.5135054673707808,-0.2502884577390168,-0.3328365596189494,-0.6666059866487428,0.0245450454997252,1.733724176604733,0.5534522609752783,-0.2467640065171407,-0.3725904191933301,0.8899659522776064,-0.3155978661843694,0.2823393925842632,0.7827655143581691,11.470650812008898,-0.8629526573319688,0.23288624841152,-1.0237959758265769
1.86,-0.6522533596957718,0.0178350165309572,1.7251266759534627,-0.0212400375802016,0.0511149699747349,0.0244173353523402,0.5063376230650778,-0.2417594294962696,-0.3191211844849996,-0.6610714640389901,0.0220774054345538,1.7299982724128,0.5574314964902768,-0.2423350956805633,-0.3714729237459328,0.8835069748187416,-0.3583922152851526,0.4264514121373575,0.6857687566974885,11.360615894352122,-0.8648867604396954,0.2381555748121514,-1.0178451746193928
1.88,-0.6422086516497241,0.0131071681194172,1.7188721175656458,-0.0242366987253003,0.0511442080113825,0.024446207474635,0.4985157694166655,-0.2315145439839724,-0.307003932023459,-0.6500024188194845,0.0171421253042109,1.7225464640289334,0.5653899675202736,-0.2334772740074085,-0.3692379328511384,0.8845434993175434,-0.3910926824206129,0.5122442756148621,0.6058626230770303,11.24647464591544,-0.8666306048182681,0.2429168424285626,-1.0123606536191438
1.9,-0.6328154440147388,0.0088154108552013,1.7131425603682644,-0.0265472878546686,0.0513910792994787,0.0245179216011134,0.4906856314056475,-0.2208882040367923,-0.2966960801877166,-0.6389333735999789,0.0122068451738681,1.7150946556450668,0.5733484385502705,-0.2246194523342536,-0.3670029419563439,0.8373797994522022,-0.3915069005509003,0.5313169973590062,0.5153925917871227,11.071436632419136,-0.8683596766696906,0.2474015802973745,-1.0067253440710364
1.92,-0.623090133580383,0.0045203280765818,1.7073142869411997,-0.0283636730010301,0.0520151570221737,0.024638118920075,0.4823096159965491,-0.2092656244304394,-0.286699309462355,-0.6274664048289735,0.0077144561271831,1.70775459680594,0.5813069095802674,-0.2157616306610988,-0.3647679510615494,0.8734663928493608,-0.4188007704549218,0.5811289803176412,0.4998385362680796,11.071436632419136,-0.8696936880857118,0.2512478366930605,-1.001614361251442
1.94,-0.6135321206808512,0.0004639865054173,1.7016790636884598,-0.0294829873609191,0.0530709050865362,0.0248050865414827,0.4739794660718896,-0.1969950934458993,-0.2773326714026953,-0.6159994360579681,0.003222067080498,1.7004145379668132,0.5892653806102642,-0.206903808987944,-0.362532960166755,0.8770564932638731,-0.4165074962329734,0.6135265492270059,0.4683319029829852,11.014954090932406,-0.8709783392788459,0.2548893236648894,-0.9959012265676194
1.96,-0.604137826953392,-0.0033369504095524,1.6962253838243202,-0.0295564358573305,0.0545324417778492,0.0250424043042731,0.4659623450621576,-0.1838768043563692,-0.2684803317083802,-0.6043335055112128,-0.0010488764243581,1.6931303539000562,0.5972238516402611,-0.1980459873147891,-0.3602979692719605,0.8870282633387674,-0.4008560504865976,0.6559144544765055,0.4426169847157518,10.974136161812568,-0.8719153008731829,0.2575820152210651,-0.9907313221541904
1.98,-0.5953575503109965,-0.0067005773614359,1.6912047885636372,-0.0283559292800896,0.0562006370412255,0.0253564198819884,0.458758257836008,-0.1710272109506607,-0.2604263971647433,-0.5924686131887076,-0.0050983743873854,1.685902044605669,0.605182322670258,-0.1891881656416343,-0.358062978377166,0.8394593276138939,-0.3602043613074812,0.6424796702854271,0.4026967271818449,10.939708281342972,-0.8725166070749035,0.2591295387130622,-0.9861025488059606
2.0,-0.5862575351191674,-0.0099809450386809,1.6860830197715009,-0.0256146067569342,0.0581460047479061,0.025793423096443,0.4517032624733547,-0.1580071273004841,-0.2521666472379632,-0.5724196374191961,-0.015251937908969,1.6781834687054,0.4763026168047428,-0.1521798516062975,-0.2371547340503148,0.8478192712447603,-0.3527497681326652,0.651004182508827,0.4129874963390068,10.910759984406468,-0.8727314039369788,0.2592191609843333,-0.9823849867557184
2.02,-0.577259298452036,-0.0130104796496283,1.6812376601331245,-0.021619617281152,0.0593207158652098,0.0263442516729154,0.4484494919956464,-0.1460183611480584,-0.2321647181767984,-0.5724196374191961,-0.015251937908969,1.6781834687054,0.4763026168047428,-0.1521798516062975,-0.2371547340503148,1.1772793873450615,-0.1626885238854153,0.5994383076212875,1.0000964530582412,10.88769295649672,-0.8764853883707405,0.2572776156487887,-0.9766506601808892
2.04,-0.5683315371077433,-0.0158291660609818,1.67680387020052,-0.0172336320796231,0.0591183045485765,0.0269539881835536,0.4443411438917826,-0.1365762630733986,-0.2122489731497956,-0.5724196374191961,-0.015251937908969,1.6781834687054,0.4763026168047428,-0.1521798516062975,-0.2371547340503148,1.1210136486397024,-0.2054174051931895,0.472104903732988,0.9957872513501372,11.665714569396188,-0.8811680174960571,0.2593016541031919,-0.9640701600301904
2.06,-0.5599383709597877,-0.0183476669748684,1.6729448038958432,-0.0132951801067012,0.0582773048945991,0.0275258277821474,0.4392859855102434,-0.1290154055053402,-0.1949361236078624,-0.5676566112511486,-0.0167737364250319,1.675811921364897,0.4798114885984897,-0.1484103797374248,-0.2325004014274291,0.977824054583094,-0.2527579190769624,0.3780428784029205,0.8656424770966592,11.557290294687846,-0.8865550991372487,0.2610571643944332,-0.9514503424569672
2.08,-0.5512183820725642,-0.020854586448861,1.6692248462959791,-0.0095833808775205,0.0571958957915415,0.0280959455382477,0.4329203844024225,-0.1220791479944303,-0.1780106271223523,-0.5581305589150538,-0.0198173334571579,1.671068826683891,0.4868292321859836,-0.1408714359996795,-0.2231917361816577,0.9683813517960768,-0.3182800553910431,0.3468128755454928,0.8462748242755058,11.436801925875445,-0.8918236447033184,0.2626038506272998,-0.9399203109810292
2.1,-0.5426354632886011,-0.023231208340385,1.6658292884609565,-0.006373184294612,0.0562798818716016,0.0286262581037307,0.4256690292647577,-0.1159111574374781,-0.1624271943529249,-0.548604506578959,-0.0228609304892839,1.6663257320028844,0.4938469757734775,-0.1333324922619342,-0.2138830709358863,0.9130575498325032,-0.3625677568832419,0.3083995278476123,0.7791716384713695,11.246489483394726,-0.897069252463443,0.2642869346633836,-0.928827043703823
2.12,-0.5342045572324645,-0.0254907982289143,1.6627332222539473,-0.0036539450811633,0.0557814056278494,0.0291185369399453,0.4177978739594359,-0.1103256340331313,-0.1479848515210663,-0.5387275670634895,-0.0255275803345225,1.6620480705841667,0.5008647193609714,-0.125793548524189,-0.2045744056901149,0.8685252213003636,-0.3935577652660893,0.2792761702173372,0.7221171415929303,11.246489483394726,-0.9016990936612788,0.2659131471414174,-0.9191447113983384
2.14,-0.5259351708676443,-0.0276438508345961,1.659919669282201,-0.0014028844216897,0.0558528923184832,0.0295772514511078,0.4100072957044622,-0.1054508873410997,-0.1347596013989127,-0.5288506275480199,-0.0281942301797612,1.6577704091654488,0.5078824629484654,-0.1182546047864437,-0.1952657404443435,0.8052383275339441,-0.3895289127486823,0.2437373346015833,0.6612625061076793,11.129730409371405,-0.906072884474126,0.267596050193494,-0.9100269946192924
2.16,-0.5182301968333007,-0.0295961241771707,1.6575023688741946,0.0003842746126711,0.0564396814548487,0.0299906025005787,0.4019183211254298,-0.1005292722016217,-0.1210650487084582,-0.5187982444428629,-0.0306724064315563,1.6537254643778754,0.5149002065359592,-0.1107156610486984,-0.1859570751985721,0.8324580750899832,-0.404448728951623,0.2460807569739015,0.6847276345227262,11.129730409371405,-0.9102051980269016,0.2694753352350365,-0.9013012075009652
2.18,-0.5102754612404108,-0.0315571076522396,1.6552211805469883,0.0019853222153879,0.0575234405143468,0.0304105766852734,0.3940256842779262,-0.0958166696103967,-0.1077392883325409,-0.5085704177480187,-0.0329621090899077,1.6499132362214464,0.5219179501234532,-0.1031767173109531,-0.1766484099528007,0.8094415191750417,-0.3946318423751788,0.2356301295612498,0.6662880187958659,11.102790587062373,-0.9138516409698428,0.2715539595713283,-0.8931438869258989
2.2,-0.5024753416333083,-0.0334272487358885,1.653201847951287,0.0032994468851275,0.0590064091327996,0.0308164315324754,0.3864666394231918,-0.0914293668259226,-0.0948357433539324,-0.4905741770265144,-0.0363479411327594,1.6498342161303614,0.4153171022789819,-0.0788739431622184,-0.1151179768803011,0.7792449195431298,-0.3779522427367177,0.2193651392237039,0.645177248930423,11.031925688543197,-0.9169470541229716,0.2736862802824349,-0.8858354987680443
2.22,-0.494819794765836,-0.0352082611227356,1.6513965508802426,0.0044012560852943,0.06063589941149,0.0312134220659379,0.3795046859782286,-0.0869403593951913,-0.0863279862144652,-0.4905741770265144,-0.0363479411327594,1.6498342161303614,0.4153171022789819,-0.0788739431622184,-0.1151179768803011,0.5937211361976922,-0.3480976722481627,0.2244503715365643,0.4253878569733596,11.031925688543197,-0.9183781787131082,0.2760079148298923,-0.8803079628343946
2.24,-0.4876766583384569,-0.036822794115773,1.6498238460748251,0.0051842528108711,0.0622563996767729,0.0315776129222129,0.3728221025124693,-0.083210790254802,-0.0796243430526906,-0.4905741770265144,-0.0363479411327594,1.6498342161303614,0.4153171022789819,-0.0788739431622184,-0.1151179768803011,0.5086881151309489,-0.3341291732879642,0.1864784570194642,0.3351821580887308,10.746084761385646,-0.9192396249680912,0.2774602466473779,-0.87689518789595
2.26,-0.4802923562550089,-0.0384481969695632,1.6482963108428683,0.0055753909747467,0.0641505543199136,0.0319370050359088,0.3660291863664641,-0.0795072012595747,-0.0735177501998245,-0.4864210060037246,-0.0371366805643816,1.6486830363615583,0.4195753858791931,-0.0754853978725827,-0.1165937145898532,0.4928254190961109,-0.3396458073002623,0.1851794497613676,0.3053296426433038,10.66763383639227,-0.9197147766880778,0.278881215391532,-0.8743684352622932
2.28,-0.4730403546281322,-0.0399999182775709,1.6468814048396017,0.0054706656286268,0.0662469814482222,0.0322680652070842,0.3595863064904562,-0.0758214140625157,-0.0683093772443457,-0.478114663958145,-0.038714159427626,1.6463806768239524,0.4280919530796154,-0.0687083072933114,-0.1195451900089573,0.4533841561028421,-0.3221439938003945,0.184289359852946,0.2604186477739432,10.6067008279706,-0.919747748247108,0.2804333012281708,-0.8725869025934325
2.3000000000000003,-0.4659129200574425,-0.0414760283902632,1.6455616298442253,0.0048877653086294,0.0685286739652368,0.0325714245313144,0.3535722104033066,-0.0719378192225526,-0.0639193987722613,-0.4698083219125654,-0.0402916382908704,1.6440783172863465,0.4366085202800376,-0.0619312167140401,-0.1224966654280614,0.4198915681810635,-0.3007048043574795,0.1941797419981579,0.2194989236042208,10.552121296550467,-0.9194087866974172,0.2820958165479984,-0.8714244510995859
2.32,-0.4592484589600115,-0.0428026120786102,1.6443830215475586,0.0039745469395534,0.0708228882554673,0.0328389249366239,0.3483287978584845,-0.0678742659927371,-0.0603595803577117,-0.4610761515069646,-0.0415302626251512,1.6416283839777852,0.4451250874804599,-0.0551541261347688,-0.1254481408471655,0.3764244516211307,-0.2621706272411039,0.2031776614907735,0.177990920727479,10.46658778033725,-0.91878797298987,0.2840645212097617,-0.8705137859824021
2.34,-0.4523353869017943,-0.0441104354775241,1.6432090061706632,0.0027648513281223,0.0733151178656782,0.0331069382228126,0.3433313152461062,-0.0630917061450245,-0.0572576010868133,-0.4523439811013638,-0.042768886959432,1.639178450669224,0.4536416546808822,-0.0483770355554974,-0.1283996162662696,0.3790448078890543,-0.2498741306189156,0.2391279923856321,0.1550989635449196,10.46658778033725,-0.917910731285364,0.2862369167452167,-0.8698133016573241
2.36,-0.4455154616781108,-0.0453140071855876,1.6420903558986857,0.0015366703975959,0.0757929543706986,0.0333768617985376,0.3389785510928459,-0.0575009408609273,-0.0547877737116919,-0.4433988965157526,-0.043838084029231,1.6366547304751853,0.4621582218813045,-0.0415999449762261,-0.1313510916853737,0.3751774896588034,-0.2176382076630123,0.2795382642048586,0.12349136875607,10.42596220089763,-0.916959392916466,0.2884639730136322,-0.8691327737999348
2.38,-0.4387763156603806,-0.046396743704831,1.6410145780607828,0.0006229141552893,0.0781392603905759,0.0336717873163176,0.3352059953178541,-0.0511180259096088,-0.0529110376865137,-0.4342408977501307,-0.0447378538345482,1.6340572233956687,0.4706747890817268,-0.0348228543969548,-0.1343025671044778,0.3824131223539229,-0.1886277887495902,0.3191457475659239,0.0938368012589088,10.355621269461151,-0.91601743560699,0.2904193247142423,-0.8685026124963573
2.4,-0.4321072599304564,-0.0473450807938523,1.63997113888236,0.0003046898584655,0.080280645213329,0.0340116898085472,0.3319285216920598,-0.0441283197180799,-0.0515258557771876,-0.4220160158944879,-0.0489526450003114,1.6383690261764572,0.3591289118196146,-0.0320837743389072,-0.0666505760655273,0.3921624501835932,-0.1638736812897168,0.3494853095764468,0.0692590954663043,10.355621269461151,-0.9150575953702962,0.2920614657769855,-0.8679040662114368
2.42,-0.4258065397582393,-0.0481101582896411,1.639066711579874,0.0008423265937673,0.0815473998945345,0.0343960921321865,0.3313226226889034,-0.0368947647240776,-0.0437321775739737,-0.4220160158944879,-0.0489526450003114,1.6383690261764572,0.3591289118196146,-0.0320837743389072,-0.0666505760655273,0.5325242984797334,-0.0302949501578192,0.3616777497001115,0.3896839101606978,10.327227637447322,-0.9176278580668904,0.2922521469665074,-0.865016496089992
2.44,-0.4191949031915978,-0.0487719718996109,1.6382655451063173,0.0023449272707267,0.0818541139852946,0.0348673083522691,0.3297809445832655,-0.029745726704914,-0.0368923072704469,-0.4220160158944879,-0.0489526450003114,1.6383690261764572,0.3591289118196146,-0.0320837743389072,-0.0666505760655273,0.5006729015782599,-0.0770839052818966,0.3574519009581814,0.3419935151763378,10.73646527425626,-0.9196417198723652,0.2948124036794363,-0.8584672606861544
2.46,-0.4126239700739915,-0.0492967123267745,1.6375811979814254,0.0046624264270125,0.0816518939679922,0.0353940673992144,0.3273424608502064,-0.0232478452876247,-0.0319537302553442,-0.4184247267762917,-0.0492734827437005,1.637702520415802,0.3639134951199667,-0.0282769240247669,-0.06939848374133,0.4259055316723646,-0.1219241866529524,0.3248940708644636,0.2469288507551365,10.617665435493109,-0.9214511817422044,0.2959676524032396,-0.8534411378022566
2.48,-0.4061100633566074,-0.0497086057581387,1.636976352258347,0.0073149423769005,0.0813404414719717,0.0359415033798926,0.3241766527363402,-0.0183544918601508,-0.0287609125787361,-0.4112421485398994,-0.0499151582304786,1.6363695088944914,0.3734826617206709,-0.0206632233964862,-0.0748942990929354,0.3322699711682227,-0.1582904056933121,0.2446676713736953,0.1596408838304011,10.502425088884593,-0.9226881203002724,0.2960311584304802,-0.8503692815759453
2.5,-0.3999856837954004,-0.0500207034082042,1.6364478037080792,0.0096495984663573,0.0811992154070021,0.0364474274547315,0.3206840117305636,-0.0147078568868854,-0.0270266935292662,-0.4040595703035071,-0.0505568337172568,1.6350364973731808,0.3830518283213751,-0.0130495227682056,-0.0803901144445408,0.266945703912888,-0.1746320502888282,0.1823317486632719,0.0867109524734959,10.40580676078389,-0.9235350070178104,0.2955919428335193,-0.8484889294704747
2.52,-0.3936135405261136,-0.050280768585144,1.6359162116114665,0.0117423990706458,0.0813756077758971,0.0369559372868876,0.3167457716691358,-0.0114544144992654,-0.0262684456603686,-0.3963985337370797,-0.0508178241726209,1.63342869508429,0.3926209949220793,-0.005435822139925,-0.0858859297961462,0.2582129062502759,-0.1969120030713922,0.1626721193810003,0.0379123934448798,10.32710744122869,-0.9237642246422588,0.2949081423292817,-0.8479084217666308
2.54,-0.3873208706931503,-0.0504802787084133,1.6353920607876506,0.0134186111239674,0.0819643715922945,0.0374393605771498,0.3127711625209204,-0.0086267482489704,-0.0262079568015025,-0.3887374971706521,-0.051078814627985,1.6318208927953992,0.4021901615227835,0.0021778784883556,-0.0913817451477516,0.2439101945705719,-0.1987304574107701,0.1413833125147484,0.0030244429433067,10.263818754885506,-0.9234040244458812,0.2940857147240535,-0.8484809147540526
2.56,-0.3811049769278384,-0.0506259007266256,1.6348632304086876,0.0146792443764398,0.0829331536052762,0.0378986809397856,0.3090778625203482,-0.0060773974855925,-0.0267009888855789,-0.380837231439207,-0.0511494625676421,1.6300756951227182,0.4117593281234877,0.0097915791166362,-0.096877560499357,0.2257362113446294,-0.1846650000286109,0.1274675381688942,-0.0246516042038204,10.197328231479332,-0.9225376481097328,0.2933142267318858,-0.8498480498509376
2.58,-0.3749591102480091,-0.050723916284168,1.6343186774438607,0.0154786680781268,0.0841769098702973,0.0383299130092155,0.3057603265695854,-0.003828806556981,-0.0277306955645766,-0.3726977365427443,-0.0510297679915922,1.6281931020662472,0.4213284947241918,0.0174052797449169,-0.1023733758509624,0.2068967241983919,-0.1658767975381392,0.1124295464305774,-0.0514853339498857,10.197328231479332,-0.9212788270018354,0.2927511128669459,-0.8517012481257306
2.6,-0.3691779264112439,-0.0507769096330653,1.6337778177215234,0.0157696552955877,0.0855117722967151,0.0387092917749158,0.3030016309226213,-0.0018376576737201,-0.029153525395561,-0.3596710939195298,-0.0509153566120171,1.6329321426656318,0.3253430805706068,0.002987151745487,-0.0375345792959418,0.184387637030177,-0.1379347823482063,0.0995574441630428,-0.0711414915492208,10.145931685149662,-0.9196479450821218,0.2924272145597151,-0.8539834170489693
2.62,-0.3631124317728245,-0.050748485644432,1.633267373796368,0.0169754797002804,0.0861298734935962,0.0391576161449448,0.3036923197229223,0.0042335826891928,-0.0213410437611269,-0.3596710939195298,-0.0509153566120171,1.6329321426656318,0.3253430805706068,0.002987151745487,-0.0375345792959418,0.4959129960272673,0.0345344400150521,0.3035620181456488,0.3906240817217085,10.145931685149662,-0.9237950486766122,0.2912485871678761,-0.8510293715082784
2.64,-0.3570380768314034,-0.0506183434743276,1.6329170276831948,0.019764917725747,0.085295467021184,0.0396859226291303,0.3035773029295407,0.008078081652659,-0.0142188044852078,-0.3596710939195298,-0.0509153566120171,1.6329321426656318,0.3253430805706068,0.002987151745487,-0.0375345792959418,0.4047211800928397,-0.0057508396690802,0.1922249481733124,0.3561119637959509,10.726536284364556,-0.9262604209338826,0.2925373345145413,-0.8449207669605306
