t,x,y,z,roll,pitch,yaw,v_x,v_y,v_z,ref_x,ref_y,ref_z,ref_v_x,ref_v_y,ref_v_z,a_com,a_x,a_y,a_z,thrust,wind_x,wind_y,wind_z
0.0,-0.8567462841970984,1.708010926668686,2.557540942689557,0.0254451610687798,0.100350835163933,0.0432285355808923,0.0039090887518333,0.0068760582153231,0.027155880619095,-0.8566231047441,1.708140328689128,2.55836088190198,-0.0253881487078546,-0.0949972552236533,-0.0727138990094145,1.4142162172461143,0.1954544375916658,0.3438029107661575,1.3577940309547512,10.225460429339364,-0.9481358769334988,0.2662502668750862,-0.8602477429653603
0.02,-0.8566533334668117,1.708366358406324,2.557876169483249,0.0343271256958944,0.0989014343906575,0.0437939197818297,0.0055625571531706,0.0249217216391964,0.0051510351735372,-0.8566231047441,1.708140328689128,2.55836088190198,-0.0253881487078546,-0.0949972552236533,-0.0727138990094145,1.425300976324672,0.0826734200668682,0.902283171193664,-1.1002422722778906,10.22492377868184,-0.9463265642202252,0.2638152840472287,-0.8578172781116532
0.04,-0.8565205136051648,1.708891369153448,2.5576753987044825,0.0487507707766393,0.0940458099427712,0.0445564830161883,0.0071980665557948,0.0259846739504989,-0.024063255922109,-0.8566231047441,1.708140328689128,2.55836088190198,-0.0253881487078546,-0.0949972552236533,-0.0727138990094145,1.463966839483846,0.0817754701312074,0.053147615565125,-1.4607145547823104,8.654043652476958,-0.9394831961481624,0.2470790217075704,-0.8742281892271002
0.06,-0.8563951256380895,1.7093438115969797,2.5569410889616297,0.0627020299163647,0.0872442806105307,0.0450753302528188,0.0056250167617016,0.0212836751296002,-0.0518106260144564,-0.8568769862311785,1.7071903561368913,2.557633742911886,-0.031276385394442,-0.1149972555216765,-0.0927138993074377,1.4093353243732338,-0.0786524897046576,-0.235049941044935,-1.3873685046173707,8.693427879624323,-0.9350349148661524,0.2271987176435116,-0.8905522664576714
0.08,-0.8563289175524275,1.709687130900515,2.5555994049395947,0.0768119369768141,0.0793169231298087,0.0453851041300392,0.0008495956980803,0.0129639052722028,-0.0809363731647876,-0.8573847492053356,1.7052904110324183,2.5561794649316973,-0.0430528587676167,-0.154997256117723,-0.1327138999034842,1.533241960585449,-0.238771053181068,-0.415988492869868,-1.456287357516562,8.693427879624323,-0.9325178730083058,0.2063581414994965,-0.9059435721049702
0.1,-0.8563869253644207,1.709832967536877,2.553678967419429,0.0902268118709577,0.0717201004902992,0.0455201175825351,-0.0065377983352575,0.0017300377391797,-0.1096707841498784,-0.8578925121794927,1.7033904659279453,2.5547251869515093,-0.0548293321407913,-0.1949972567137695,-0.1727139004995306,1.5862217255268989,-0.3693697016668942,-0.5616933766511549,-1.4367205492545394,8.726651488078915,-0.93189177003444,0.1860503848137416,-0.9188950638918596
0.12,-0.8566143755114464,1.709725495968249,2.551188103814243,0.1029662217597885,0.0652030948121106,0.0455683418811281,-0.0159057048870116,-0.0122070475395623,-0.1380070279819515,-0.8589890988223086,1.69949052079367,2.551270908941518,-0.066605805513966,-0.2349972573098159,-0.212713901095577,1.646923445200191,-0.4683953275877054,-0.6968542639371079,-1.4168121916036522,8.779739706750206,-0.9313190808402052,0.1656398797432753,-0.9319607853928352
0.14,-0.857049315342003,1.709312877160898,2.5481253188610204,0.1150681436585512,0.0603688318943159,0.0456316366332628,-0.0271481621054433,-0.0286308057280037,-0.166933792603624,-0.8600856854651243,1.6955905756593943,2.547816630931528,-0.0783822788871407,-0.2749972579058624,-0.2527139016916235,1.7556269455797742,-0.5621228609215824,-0.8211879094220689,-1.446338231083627,8.83182566974665,-0.929263049558756,0.1460789003500286,-0.9459861725318364
0.16,-0.85768759815612,1.708593996155349,2.5446746802128097,0.1260107190808382,0.0579790765429218,0.0458281844219383,-0.0394643640716033,-0.046445274428451,-0.1949118612746283,-0.8614766839422695,1.690690630510218,2.543362352906636,-0.0901587522603153,-0.3149972585019088,-0.2927139022876699,1.769050912572821,-0.6158100983080019,-0.8907234350223658,-1.3989034335502135,8.832527518954066,-0.9254253699092776,0.1254507450437959,-0.9623251242186373
0.18,-0.8586137458445929,1.7074491816945274,2.54046347505806,0.1369811864213171,0.0581671363134445,0.0462880283049073,-0.0521546580489687,-0.0673329884296756,-0.2247770217646993,-0.8631620942537441,1.6847906853461403,2.5379080748668432,-0.10193522563349,-0.3549972590979552,-0.3327139028837164,1.929551741031196,-0.6345146988682681,-1.0443857000612295,-1.4932580245035507,8.846041785024227,-0.9220308462767434,0.1071518649055618,-0.9756658046717211
0.2,-0.8597758526178987,1.7058645182292929,2.53565583542768,0.1474164867057966,0.0604694961411989,0.0469771458803431,-0.0631290290759156,-0.0903114020529667,-0.2545523546622604,-0.8612214787470414,1.7040825322730435,2.529224623969825,-0.0782948505725674,-0.1673329899197917,-0.3247770232548154,1.9589632214775787,-0.5487185513473477,-1.1489206811645551,-1.4887666448780534,8.850549912417137,-0.9161042718477712,0.0888733547424385,-0.9911762509499812
0.22,-0.8611341115151728,1.703626356626443,2.530395787007228,0.1525881020899613,0.0646022160924143,0.0475588871686213,-0.0718960037203555,-0.1293995848652712,-0.2695379573144708,-0.8612214787470414,1.7040825322730435,2.529224623969825,-0.0782948505725674,-0.1673329899197917,-0.3247770232548154,2.1385241212307635,-0.438348732221995,-1.954409140615225,-0.7492801326105192,8.87980014175946,-0.9121826044801364,0.0731791975494292,-1.0066773919233842
0.24,-0.8625650992183426,1.700849629551652,2.525127925127748,0.152551080261464,0.0697694679065467,0.0479379660108584,-0.078098674517483,-0.1604372241657932,-0.2842051696455771,-0.8612214787470414,1.7040825322730435,2.529224623969825,-0.0782948505725674,-0.1673329899197917,-0.3247770232548154,1.744229984787415,-0.3101335398563734,-1.5518819650260989,-0.7333606165553175,9.855566103499768,-0.9062593532272528,0.0685995579184855,-1.0164507918908334
0.26,-0.8641764208660104,1.6973197603782686,2.519258758587476,0.1495440822013329,0.0756033453117633,0.0481585902740888,-0.0825455304802958,-0.1903929800369886,-0.3019985814483386,-0.862004427252767,1.7024092023738455,2.525976853737277,-0.0835228890772871,-0.187332990217815,-0.3447770235528387,1.7562227516400897,-0.2223427981406393,-1.497787793559771,-0.8896705901380753,9.569330319164692,-0.8992056562971797,0.0672899865121915,-1.026525697469647
0.28,-0.8658581654816371,1.6932320581478455,2.513013644530261,0.14493659002622,0.0811855144631229,0.0481877828573788,-0.0853036000200189,-0.2165111440228456,-0.321682627845361,-0.8635703242642183,1.69906254257545,2.5194813132721805,-0.0939789660867266,-0.2273329908138614,-0.3847770241488851,1.6410569156325698,-0.1379034769861536,-1.305908199292846,-0.9842023198511212,9.569330319164692,-0.8922153759047379,0.0679936993816008,-1.0358615866795375
0.3,-0.8675804378744499,1.6886526828290858,2.5063538633648696,0.1400564408522461,0.0860723542109091,0.0480545616229825,-0.0867567218202474,-0.2400011038667578,-0.3433130980093794,-0.8651362212756697,1.6957158827770542,2.512985772807084,-0.104435043096166,-0.2673329914099079,-0.4247770247449315,1.5982545291281034,-0.0726560900114289,-1.1744979921956125,-1.0815235082009182,9.44867317018634,-0.8855364487363647,0.0687871677029103,-1.044821960922968
0.32,-0.8692344832760037,1.6838846872362534,2.49961053242896,0.135675307510487,0.0898748994973349,0.0477932627006624,-0.0872871723671283,-0.2607172293422155,-0.3654513342071603,-0.8672249221375931,1.690369222948856,2.5044902323121856,-0.1148911201056055,-0.3073329920059543,-0.464777025340978,1.5161965031340188,-0.0265225273440437,-1.0358062737728837,-1.1069118098890467,9.343642578502113,-0.8787403804286622,0.0691320998005939,-1.0542857879951577
0.34,-0.8709802934526186,1.6784536573850477,2.492047852614748,0.1315689836216911,0.0929320997050634,0.0473948618976309,-0.0872667509471938,-0.2813197234081302,-0.3897193362490941,-0.8693136229995164,1.685022563120658,2.4959946918172866,-0.125347197115045,-0.3473329926020008,-0.5047770259370246,1.5916965020676406,0.0010210709967276,-1.0301247032957344,-1.21340010209669,9.256352461747156,-0.8725929957640425,0.0688056014687353,-1.0634034762867526
0.36,-0.8727220193274559,1.6726094402844447,2.483992571643969,0.1277563606384645,0.0950785069775603,0.046871589775321,-0.0869301276789327,-0.3019548727277097,-0.4146141754549776,-0.8716637257866757,1.678675903277559,2.4864991513074868,-0.1358032741244844,-0.3873329931980472,-0.5447770265330709,1.61684547943895,0.0168311634130537,-1.0317574659789746,-1.2447419602941712,9.191055067963134,-0.8672734277894235,0.0682015084305033,-1.0718502941800934
0.38,-0.8744555335632349,1.6663564531343051,2.4754341400055897,0.1239151817159287,0.0964430162714489,0.0462254615169693,-0.0864912199624674,-0.3221330395782857,-0.4399776612206837,-0.874275230499071,1.671329243419558,2.476003610782786,-0.1462593511339239,-0.4273329937940937,-0.5847770271291174,1.6206923425039983,0.0219453858232632,-1.0089083425288026,-1.268174288285309,9.191055067963134,-0.8635126464592866,0.0680345170956665,-1.0784205814158183
0.4,-0.8760950045987854,1.6600486391403406,2.4668298864937754,0.1201793790208275,0.0971562371814897,0.0455176173936306,-0.0861551989385255,-0.3406725940054727,-0.4644498353748543,-0.8787800945613583,1.6502498011553908,2.453435256944556,-0.0963020550855296,-0.4221330410684019,-0.5399776627107999,1.5351834550951966,0.0168010511970961,-0.9269777213593484,-1.223608707708526,9.17397306552175,-0.8617384502156676,0.0690966763571112,-1.0822942960296005
0.42,-0.8778292146948128,1.6530353629937051,2.457462098052608,0.1169047438363117,0.0984445363385601,0.0448675932889301,-0.087059377440036,-0.3600167690944136,-0.4700732396935699,-0.8787800945613583,1.6502498011553908,2.453435256944556,-0.0963020550855296,-0.4221330410684019,-0.5399776627107999,1.008262521328084,-0.0452089250755252,-0.9672087544470463,-0.2811702159357804,9.155084069682744,-0.8629509376567457,0.0688322609648901,-1.084466055503856
0.44,-0.8795715537063419,1.6456396414007757,2.447985611716464,0.1147402160505713,0.1010642452198091,0.0444336109615205,-0.0869514978280532,-0.3787402461737351,-0.4776445565485649,-0.8787800945613583,1.6502498011553908,2.453435256944556,-0.0963020550855296,-0.4221330410684019,-0.5399776627107999,1.0098329946942812,0.0053939805991408,-0.9361738539660712,-0.3785658427497507,10.107377521423588,-0.8593949273506427,0.0695525194215029,-1.088214713133382
0.46,-0.8812126891645445,1.6382643118799975,2.43880130556067,0.1132814624060569,0.104161223997392,0.0441157335416094,-0.0856978137646775,-0.3966467774022317,-0.4889179807619265,-0.8797431151122136,1.6460284707447068,2.448035480317448,-0.098264222110142,-0.4421330413664251,-0.5599776630088231,1.0598415894159534,0.0626842031687842,-0.8953265614248307,-0.5636712106680791,9.87718252076229,-0.8548324473550447,0.0693078404645942,-1.0932243419505383
0.48,-0.88290355099128,1.630139134838449,2.428864386793037,0.1120795268054998,0.1075274249052842,0.0437988067527146,-0.0833694683164204,-0.4148991176055937,-0.5043228724713484,-0.8816691562139242,1.637585809923339,2.437235927063232,-0.1021885561593669,-0.4821330419624715,-0.5999776636048696,1.199874789305849,0.1164172724128546,-0.9126170101681014,-0.7702445854710971,9.693633585443422,-0.8499540997453295,0.0685757899404766,-1.098624500946005
0.5,-0.8845385536089544,1.6216536727792128,2.418590406206964,0.111182872535561,0.1106396154619119,0.0434576924117793,-0.0801992354346013,-0.432706461296785,-0.5224139262417338,-0.8835951973156347,1.6291431491019708,2.426436373809016,-0.1061128902085917,-0.522133042558518,-0.6399776642009161,1.279099382753497,0.1585116440909542,-0.8903671845595651,-0.9045526885192668,9.693633585443422,-0.8459172389683106,0.0677106715867129,-1.103117465534607
0.52,-0.8861030769389726,1.612816157449272,2.407930263005277,0.1105664175070254,0.1132572711150076,0.043065350408181,-0.0764079730348995,-0.4501459182604849,-0.5426981649136411,-0.8857174551198066,1.6187004882508005,2.413636820524997,-0.1100372242578165,-0.5621330431545645,-0.6799776647969625,1.3508873641712629,0.1895631199850901,-0.8719728481849931,-1.014211933595366,9.55798101016626,-0.84161976408937,0.0660974916325025,-1.1083558323978686
0.54,-0.8875140529448613,1.6040995382315508,2.397418966168479,0.1102506867658273,0.1151814651153721,0.0426355538120952,-0.0723252728169022,-0.4665257770876861,-0.5627479548139583,-0.8878397129239785,1.6082578273996302,2.400837267240979,-0.1139615583070414,-0.6021330437506109,-0.719977665393009,1.310498274813766,0.2041350108998682,-0.8189929413600638,-1.0024894950158625,9.419806125505602,-0.8377149418261923,0.0638802791612893,-1.1136213318205417
0.56,-0.8889126025340952,1.594580204787066,2.385934990842356,0.1099379556990475,0.1165968570336471,0.0421034660886637,-0.0677641332103375,-0.4844827300659205,-0.5846251286797421,-0.8900600790793809,1.5968151665335586,2.3870377139420595,-0.1178858923562663,-0.6421330443466573,-0.7599776659890554,1.43341104635658,0.2280569803282311,-0.8978476489117176,-1.0938586932891905,9.419806125505602,-0.83422584787598,0.0614470449228431,-1.118762831004432
0.58,-0.8902181359909429,1.5846940847901083,2.374007099830973,0.109141341091318,0.1174203081656223,0.0414591307812192,-0.0630513975778442,-0.50312024403875,-0.6070819167069462,-0.8923785535860139,1.584372505652586,2.3722381606282386,-0.1218102264054911,-0.6821330449427038,-0.7999776665851018,1.4780681079774054,0.2356367816246665,-0.931875698641474,-1.122839401360204,9.388131344376234,-0.8313205022988749,0.0593941736466994,-1.1235632549751944
0.6,-0.8914291458428242,1.5744295776865245,2.361623496424674,0.1073848083406482,0.117698395731533,0.0406767612947671,-0.058349090373975,-0.5221730757616756,-0.6301363530112076,-0.8933707058698351,1.5595380725881711,2.3436530039956263,-0.0604856376452219,-0.6031202455288661,-0.7070819181970623,1.513794176076231,0.235115360193458,-0.95264158614628,-1.1527218152130705,9.368468307376132,-0.8290956046840959,0.0583130340157657,-1.1277513656215308
0.62,-0.8924954916009777,1.5642986431872838,2.349655067215432,0.1045104652017184,0.1184766617611267,0.0398953913981845,-0.0539074881302577,-0.5427147557115182,-0.628483356386895,-0.8933707058698351,1.5595380725881711,2.3436530039956263,-0.0604856376452219,-0.6031202455288661,-0.7070819181970623,1.0540645657325132,0.2220801121858694,-1.0270839974921286,0.0826498312156309,9.345066199201028,-0.8268850091861072,0.0554868282377089,-1.1353371061528492
0.64,-0.8935195250870331,1.553250333123276,2.3370722387950504,0.101141493237778,0.1204687982456357,0.0391616624430502,-0.0486035586121215,-0.5609628843225369,-0.6302198602837595,-0.8933707058698351,1.5595380725881711,2.3436530039956263,-0.0604856376452219,-0.6031202455288661,-0.7070819181970623,0.9541243523795304,0.2651964759068071,-0.9124064305509384,-0.0868251948432263,10.826076849465608,-0.8243753694477549,0.058653847909773,-1.1368177413605718
0.66,-0.8944282387899226,1.5418504015626826,2.3243998083100865,0.0979482592269587,0.1230147218023077,0.0384844095508965,-0.0424461056060131,-0.5780164357330269,-0.6371432107900754,-0.8939755622462874,1.5535068701328825,2.3365821848136554,-0.0599724856586974,-0.6231202458268893,-0.7270819184950855,0.9704002079888998,0.3078726503054185,-0.852677570524496,-0.3461675253157936,10.19261526880473,-0.8206876468907308,0.0611252128659126,-1.1397762951901182
0.68,-0.8952063249456698,1.5301218235895446,2.3115397493445986,0.0949089644285419,0.1255658841457515,0.0378067405561679,-0.0356228041430766,-0.5939297427086343,-0.6485006124301717,-0.8951852749991918,1.5414444652223052,2.322440546449714,-0.0589461816856485,-0.6631202464229358,-0.767081919091132,1.0353518167372984,0.3411650731468283,-0.7956653487803722,-0.5678700820048121,10.19261526880473,-0.8168737153376241,0.0629535702485672,-1.1432503821124873
0.7000000000000001,-0.8958142825815505,1.5186946540398203,2.299080429070803,0.0922066466316104,0.1276902389118661,0.037138089275601,-0.0287084445190749,-0.6081112917420799,-0.6624368135033973,-0.8963949877520963,1.529382060311728,2.308298908085773,-0.0579198777125996,-0.7031202470189822,-0.8070819196871785,1.0525473888992152,0.3457179812000813,-0.7090774516722798,-0.6968100536612842,9.962996743270196,-0.813224841748166,0.064673123688628,-1.1466406992690263
0.72,-0.8963101554185137,1.5063851512645148,2.285652125311757,0.0896469744082871,0.1294525063495482,0.0364028048864832,-0.0212513788449037,-0.6220887519358792,-0.6797872660105346,-0.8975533853063482,1.5153196553713482,2.2921572696920296,-0.0568935737395507,-0.7431202476150287,-0.8470819202832249,1.1747504247079192,0.3728532837085643,-0.6988730096899654,-0.8675226253568646,9.784874066886914,-0.8099525715777837,0.0660130638991984,-1.1498647237119457
0.74,-0.8966544394355883,1.4938020470038484,2.2718616950009243,0.0874153394543569,0.1306564420769566,0.0356348590368601,-0.0135702238366827,-0.6355303873647057,-0.6984329247407126,-0.8987117828606003,1.5012572504309685,2.2760156312982858,-0.0558672697665017,-0.7831202482110752,-0.8870819208792714,1.2117531666392132,0.3840577504110504,-0.6720817714413241,-0.9322829365088992,9.57685522425345,-0.8072028300484737,0.0666365283672415,-1.1530778361183045
0.76,-0.8968430006888459,1.4809459318750822,2.257688133978962,0.0852051149143297,0.1312523575607996,0.0348120222974985,-0.0057351691894776,-0.6492436937536121,-0.7179769167389567,-0.8998445228155261,1.4861948454756877,2.258873992889641,-0.0548409657934528,-0.8231202488071215,-0.927081921475318,1.2563941227458644,0.3917527323602515,-0.6856653194453222,-0.977199599912204,9.57685522425345,-0.8048020279747485,0.0671038655344875,-1.1563109213827143
0.78,-0.8968775103203468,1.4684808118828845,2.2438535887351327,0.0828863208729655,0.131264303623448,0.0339671534604101,0.0016416236042317,-0.6620101063223124,-0.7373000693192918,-0.9009516051711256,1.4701324405055058,2.2407323544660955,-0.0538146618204039,-0.863120249403168,-0.9670819220713645,1.2153009786041726,0.3688396396854733,-0.6383206284350129,-0.9661576290167562,9.5381532887277,-0.8030287657555094,0.0677931889092836,-1.1591425421039077
0.8,-0.8967653001828467,1.455104676377045,2.2288845542330624,0.0802255368280784,0.1307416519343485,0.0330202782203677,0.0091378604584395,-0.6747889332647975,-0.7586237439518938,-0.8967954291401352,1.435380306566769,2.206988585269168,0.0224727316974935,-0.7620101078124285,-0.8373000708094079,1.2982594933577791,0.3748118427103865,-0.6389413471242555,-1.0661837316300993,9.497263058446151,-0.8020490171238848,0.068627713069495,-1.1615271874076358
0.8200000000000001,-0.896517567464366,1.441456980156301,2.213740856452634,0.0773793404064109,0.1311851094819857,0.0321400259131637,0.0155752686803218,-0.6892766568607769,-0.7533331685348061,-0.8967954291401352,1.435380306566769,2.206988585269168,0.0224727316974935,-0.7620101078124285,-0.8373000708094079,0.8356502675350314,0.3218704110941144,-0.7243861797989692,0.2645287708543831,9.440553557094065,-0.7988672656494663,0.0655950397288013,-1.170200063245694
0.84,-0.8961315866196977,1.4275388171696453,2.198701086368516,0.0747498651683792,0.1337499630755308,0.0314383559098172,0.0229661645243655,-0.7018425376854442,-0.7510748272945063,-0.8967954291401352,1.435380306566769,2.206988585269168,0.0224727316974935,-0.7620101078124285,-0.8373000708094079,0.7376089875992656,0.3695447922021879,-0.6282940412333682,0.1129170620149944,11.14821627888523,-0.7961290654502108,0.0687672437810835,-1.1709013431299415
0.86,-0.8956136774252306,1.4140914021502446,2.18439978658734,0.0726258204579412,0.1372445795008084,0.0308731929776442,0.0313447743595557,-0.713058340257847,-0.7544394583061054,-0.8965707018231602,1.427760205488645,2.198615584561074,0.0266389533161458,-0.7820101081104517,-0.8573000711074311,0.7199237319981806,0.4189304917595072,-0.5607901286201367,-0.1682315505799558,10.754207661787405,-0.7914662097239427,0.0711341804689026,-1.173429475041154
0.88,-0.8948832913761041,1.3997146715982955,2.1692308129155657,0.0707187624635841,0.1412490230917083,0.0303203881723533,0.0413671655512498,-0.7240333303950066,-0.7624927190789184,-0.8961212471892104,1.412520003332396,2.181869583144886,0.0349713965534505,-0.8220101087064982,-0.8973000717034776,0.8452126105084853,0.5011195595847056,-0.5487495068579817,-0.4026630386406493,10.416824296180494,-0.7857040332086876,0.0727265675714129,-1.177273299126108
0.9,-0.8939411335309916,1.3851255722869855,2.153856533094323,0.0691585800748149,0.1450357857982497,0.0297730444326755,0.0524061236102301,-0.7343556044762704,-0.7745314846400981,-0.8956717925552605,1.3972798011761476,2.1651235817286976,0.0433038397907552,-0.8620101093025446,-0.937300072299524,0.966100167521081,0.5519479029490167,-0.5161137040631869,-0.6019382780589888,9.956144460896212,-0.7799390649660444,0.0733814902181484,-1.181793243090662
0.92,-0.8927698814541185,1.3703373244722004,2.1382101382287657,0.0680120888258484,0.1482560566873748,0.0292139365647768,0.064177734392774,-0.743987575614494,-0.7895165647571829,-0.8948057157594455,1.3800395989900966,2.146377580282707,0.0516362830280599,-0.9020101098985912,-0.9773000728955704,1.067588772115376,0.5885805391271943,-0.4815985569111836,-0.7492540058542385,9.803267241920366,-0.774832974866222,0.0733787094605999,-1.1861076074668948
0.94,-0.8914325840236247,1.3561156832433103,2.1230559961360758,0.0674669259001026,0.1506127905599979,0.0286733850144311,0.0759765600521445,-0.7526062117614261,-0.8049160201664959,-0.8939396389636303,1.3627993968040455,2.1276315788367164,0.0599687262653646,-0.9420101104946376,-1.017300073491617,1.0614099147794434,0.5899412829685251,-0.4309318073466017,-0.7699727704656489,9.803267241920366,-0.769860042692789,0.0724329418329993,-1.1908287459514384
0.96,-0.8897777372643532,1.340963069439401,2.106778005867856,0.0673449880388109,0.1522496824892572,0.0280806558247194,0.0888528863659122,-0.7621844525475896,-0.8221180532465808,-0.8928652510868825,1.3445591946030937,2.107885577375825,0.0683011695026693,-0.982010111090684,-1.0573000740876637,1.176278472540292,0.6438163156883829,-0.4789120393081769,-0.8601016540042472,9.747551969764572,-0.7656222368276666,0.0708344649351665,-1.195270646053446
0.98,-0.887861566593456,1.3256126988750478,2.09014644351565,0.0673093221646925,0.1529267995910753,0.0274314228935479,0.1020135413236622,-0.7722936693114469,-0.8401731596352838,-0.8915825521292022,1.3253189923872406,2.087139575900032,0.0766336127399739,-1.0220101116867304,-1.0973000746837098,1.226158604344262,0.6580327478874992,-0.5054608381928671,-0.90275531943515,9.70093054476274,-0.7625169261068391,0.0691258911347876,-1.1990231261459818
1.0,-0.8857966594893418,1.31083826150603,2.0740043476697463,0.0670735434455703,0.1526457236546791,0.0267407014021628,0.1146073543327922,-0.7823096981167431,-0.8580859845121863,-0.8827608895272729,1.2869980154094756,2.0481377855338856,0.1248314938820604,-0.8722936708015631,-0.8983927601041578,1.2039458607097255,0.6296906504565026,-0.5008014402648087,-0.8956412438451244,9.665347697892685,-0.7604253486015409,0.0675133222238938,-1.2022507685065549
1.02,-0.8833051169144497,1.2950216422090108,2.057008260696395,0.0653419189052998,0.1512358727581807,0.0258401615669443,0.1340734745595441,-0.7986018007128854,-0.8386149690863723,-0.8827608895272729,1.2869980154094756,2.0481377855338856,0.1248314938820604,-0.8722936708015631,-0.8983927601041578,1.5995959532002697,0.9733060113375928,-0.8146051298071166,0.9735507712906988,12.209537573495254,-0.7602354911421647,0.0632550347801606,-1.2091311619637082
1.04,-0.8804207495922173,1.2789031615507886,2.040427046654931,0.0617569473379953,0.1484387761017207,0.0247349436861883,0.1531988697531701,-0.8119075235734495,-0.8206471673097947,-0.8827608895272729,1.2869980154094756,2.0481377855338856,0.1248314938820604,-0.8722936708015631,-0.8983927601041578,1.4711091927835418,0.956269759681301,-0.6652861430282042,0.898390088828882,12.209537573495254,-0.7621744597440461,0.0676736933295299,-1.206628709864645
1.06,-0.8773362241552679,1.2633747151724088,2.0249487238935693,0.0579814462215111,0.1441427037637616,0.0235834423556536,0.1703692776799205,-0.8218951039625546,-0.8095083269818238,-0.8815125745884523,1.2782750787014598,2.039153857932844,0.1293950843937401,-0.8922936710995862,-0.9100366801979326,1.138692709043882,0.8585203963375184,-0.4993790194552538,0.5569420163985428,11.784630847890185,-0.7663230534838084,0.0722016705280698,-1.203268650736593
1.08,-0.8737588903361091,1.2468440359829829,2.0088344085782794,0.054233408105878,0.1377240095396012,0.0223132028309808,0.1859968955296201,-0.8306219152703437,-0.8027023426080099,-0.8790159447108111,1.2608292052854286,2.0211860027307607,0.1385222654170994,-0.9322936716956328,-0.9333245203854822,0.9574720603686102,0.7813808924849799,-0.4363405653894536,0.3402992186906983,11.03932509144306,-0.7715322633912663,0.0759744455784725,-1.200059035742325
1.1,-0.8699049178937767,1.230151187171859,1.992808991373087,0.0509548396380331,0.1299899217124214,0.0210457740926094,0.1982536448827666,-0.838240044453861,-0.8003358900566473,-0.8765193148331699,1.2433833318693974,2.0032181475286777,0.1476494464404587,-0.9722936722916792,-0.9566123605730318,0.7312043056500467,0.6128374676573262,-0.3809064591758671,0.1183226275681292,11.03932509144306,-0.7785873688633593,0.0790613048870393,-1.1957832317881851
1.12,-0.865840781007305,1.213315874073761,1.976788038775287,0.0482272508389081,0.1215941765169336,0.0198241177820819,0.2072430345613475,-0.8450053524172837,-0.8018355138334247,-0.8735663259043608,1.2239374584235638,1.984085900317217,0.1567766274638179,-1.0122936728877256,-0.9799002007605814,0.5675107710546197,0.4494694839290464,-0.3382653981711336,-0.0749811888388685,10.763006862708608,-0.7862930321525191,0.0812892775485037,-1.1911473532372836
1.14,-0.8618409240037194,1.1972026445743105,1.961526435755148,0.0461655012500096,0.1135270679988619,0.0187305262017367,0.2131351242614833,-0.8508984570246814,-0.8045530386018479,-0.8706133369755515,1.2044915849777302,1.9649536531057563,0.1659038084871772,-1.0522936734837722,-1.0031880409481309,0.4382645999141723,0.29460448500679,-0.2946552303698835,-0.135876238421162,10.539696648229436,-0.7949706458085775,0.0827414560252706,-1.186101247766247
1.16,-0.8575347076483326,1.1801163176972234,1.94539556395624,0.0443027720366803,0.1053410878996534,0.0176465873052143,0.216955562821047,-0.8573808176510033,-0.8084218553976054,-0.8674321685211585,1.1840457115169956,1.945239209889607,0.1750309895105365,-1.0922936740798186,-1.0264758811356804,0.4230380995732669,0.1910219279781841,-0.3241180313160952,-0.1934408397878728,10.457472259888164,-0.803710225445091,0.0838227623883136,-1.1808720944223694
1.18,-0.853176293575146,1.1629006107298392,1.9291747063164235,0.0424714730942023,0.097756868803187,0.0166221871940487,0.2185463710389701,-0.8637655541566733,-0.8134455263705709,-0.8640228205411813,1.1625998380413596,1.9249425706687688,0.1841581705338958,-1.132293674675865,-1.04976372132323,0.4139227013515443,0.0795404108961533,-0.3192368252835031,-0.2511835486482761,10.390397845611917,-0.8116867402382535,0.0848521027322384,-1.1759347885153992
1.2,-0.8490252976545747,1.146430426005553,1.913661052889039,0.040679671046727,0.0912988423506722,0.0157051096247441,0.2182341460855755,-0.8695221071054167,-0.8193013770802248,-0.8422489750231975,1.1197123330220056,1.8885024299978947,0.2452660585455266,-0.9637655556467896,-0.8206056940460362,0.4108721632301272,-0.0156112476697292,-0.2878276474371666,-0.2927925354826943,10.321153686308207,-0.8194648160110839,0.0860215346666433,-1.1709833171451514
1.22,-0.8446731989454844,1.1289408093501103,1.8975472218468767,0.0379554084587237,0.0862519587723011,0.0147818473442433,0.2168452483215552,-0.878678063478551,-0.7899595639489172,-0.8422489750231975,1.1197123330220056,1.8885024299978947,0.2452660585455266,-0.9637655556467896,-0.8206056940460362,1.5384266085340357,-0.0694448882010145,-0.4577978186567188,1.4670906565653783,12.777171983902008,-0.8250428168416528,0.0843906236771309,-1.1723104389878265
1.24,-0.8403707783888515,1.1112969065186002,1.8820495838565985,0.0345792116626994,0.0844056389203775,0.0139649091019682,0.2136489573339982,-0.8850864205672346,-0.7617120381662017,-0.8422489750231975,1.1197123330220056,1.8885024299978947,0.2452660585455266,-0.9637655556467896,-0.8206056940460362,1.4570569905621369,-0.1598145493778485,-0.3204178544341796,1.412376289135775,12.777171983902008,-0.8294336396398553,0.0890925103564554,-1.1662933670436575
1.26,-0.8363375557795893,1.0944387942859342,1.8677929044327524,0.0316333059711829,0.0852592662698791,0.0133179659007372,0.2113473005992419,-0.889209127944236,-0.7403693935244043,-0.8397963144377423,1.1100746774655377,1.8802963730574345,0.2506099960468379,-0.9837655559448126,-0.8220377275811293,1.092935062283062,-0.1150828367378162,-0.2061353688500689,1.067132232089868,11.971411775035447,-0.8309391610972995,0.0936290518489528,-1.1622965605881328
1.28,-0.8321240738688067,1.0766221824656357,1.8531829176834025,0.029187762750868,0.0879362563824654,0.0127533102247815,0.2103453786907104,-0.89234151459567,-0.7219309606204678,-0.8348909932668317,1.090799366352602,1.8638842591765137,0.2612978710494605,-1.0237655565408592,-0.8249017946513154,0.9364714378957948,-0.050096095426573,-0.1566193325717002,0.9219216451968272,11.971411775035447,-0.8296386930203222,0.0971061347296663,-1.1609672914964106
1.3,-0.8279147231698153,1.0587513966295437,1.838903754538138,0.0275563811746168,0.0916786300231196,0.01228870160438,0.2108322781810501,-0.8946798010650271,-0.7070518828072913,-0.8299856720959212,1.071524055239666,1.847472145295593,0.2719857460520831,-1.0637655571369056,-0.8277658617215016,0.75347795471572,0.0243449745169821,-0.1169143234678538,0.7439538906588272,11.688130309153166,-0.8265844217438517,0.0995051864578838,-1.1613598234101186
1.32,-0.8236800937729271,1.040843485490159,1.824890175732848,0.0269607136864323,0.0958922549518297,0.0119223260052123,0.2127709269209045,-0.8961637515598897,-0.6950428516465469,-0.8245459571748796,1.050248744096928,1.8309168280611627,0.2826736210547057,-1.103765557732952,-0.8306299287916877,0.6127342356753688,0.0969324369927221,-0.0741975247431303,0.6004515580372183,11.461354363062128,-0.823872285854712,0.1010878852236091,-1.1610502301521095
1.34,-0.8196061228524438,1.0238095610163702,1.8117936937563663,0.0276433953068077,0.0999042218465836,0.0116763683361846,0.2160687903760441,-0.8969985728272347,-0.6841405913759396,-0.8191062422538379,1.0289734329541895,1.8143615108267328,0.2933614960573283,-1.1437655583289985,-0.8334939958618739,0.5710343880302177,0.1648931727569788,-0.041741063367251,0.5451130135303628,11.293611244449494,-0.8203307726554597,0.1008754068936179,-1.162119314875392
1.36,-0.8152348063225456,1.005853711304169,1.7982298778751762,0.0296644224756733,0.1037728737747155,0.0115173072598102,0.2209750654265478,-0.8986505332995197,-0.6728278886853517,-0.8133993304577306,1.0066981217965505,1.797734591915548,0.3040493710599509,-1.1837655589250449,-0.8363580629320599,0.6220485319467094,0.245313752525185,-0.0825980236142498,0.5656351345293964,11.26752310676875,-0.8167983099786772,0.0990931179338678,-1.163547005664023
1.38,-0.8107520024710957,0.9878488436858998,1.784889880815364,0.0325619981826484,0.1069825131131535,0.0114203179536365,0.2270979061546506,-0.9020480067243478,-0.6617607464822206,-0.8074252217865578,0.9834228106240102,1.7810360713276088,0.3147372460625736,-1.2237655595210912,-0.8392221300022461,0.6548160825729115,0.3061420364051423,-0.169873671241405,0.5533571101565549,11.261333472371009,-0.8138002857338599,0.096433849775423,-1.1648917886785723
1.4,-0.8063705235385137,0.970661181824401,1.7724190269846891,0.035287697684437,0.1092223588157645,0.0113172534111241,0.2337583450117767,-0.90698484033166,-0.6515167838034567,-0.7993971071633632,0.9427464433496824,1.7518018434912528,0.2708860598328294,-1.002048008214464,-0.6549237137468729,0.6589243947519876,0.3330219428563027,-0.2468416803656059,0.5121981339381965,11.251086155439223,-0.8118026384569212,0.0937456203216105,-1.1653336432418588
1.42,-0.8016077947042843,0.952389671312995,1.759655617120277,0.0357636205536302,0.1109587856601569,0.0110353781483027,0.2422507621063854,-0.9192843017882856,-0.6245036688572594,-0.7993971071633632,0.9427464433496824,1.7518018434912528,0.2708860598328294,-1.002048008214464,-0.6549237137468729,1.5436209697722856,0.424620854730437,-0.6149730728312874,1.3506557473098646,11.24065727598554,-0.8102227160699688,0.0915811855129556,-1.1680395961648986
1.44,-0.7966710587590983,0.933902809382864,1.7474431549088143,0.0330323218661637,0.1123159652280755,0.0105312105596873,0.2509762426737913,-0.9284562223610152,-0.5983043052799487,-0.7993971071633632,0.9427464433496824,1.7518018434912528,0.2708860598328294,-1.002048008214464,-0.6549237137468729,1.4548752437758612,0.4362740283702954,-0.458596028636471,1.3099681788655335,12.22457306837896,-0.8119429106467367,0.0967614238734887,-1.1624738443894505
1.46,-0.7915609559793267,0.9152762309411394,1.7357158869727514,0.0289918333350269,0.1132096873320678,0.0099377045865683,0.2595590541964633,-0.933488427261995,-0.5757017759138574,-0.7966882465650349,0.9327259632675378,1.745252606353784,0.2796436905684651,-1.0220480085124872,-0.6535563071998033,1.2347692836560358,0.4291405761335964,-0.2516102450489943,1.130126468304565,12.22457306837896,-0.8138672575112379,0.1034458600839366,-1.156778911616704
1.48,-0.7865501450131119,0.8975178288842144,1.7249638920592094,0.0254182848989621,0.1136147032135444,0.0093980555407908,0.2674243486076488,-0.9356887022908972,-0.5572082431857185,-0.7912705253683784,0.9126850031032484,1.7321541320788465,0.2971589520397367,-1.0620480091085338,-0.6508214941056643,1.0108348271901084,0.3932647205592776,-0.1100137514451093,0.924676636406946,11.97620645711686,-0.8155637268211136,0.109499095431893,-1.1518685568333924
1.5,-0.7811183170813067,0.8787951400701394,1.7140019655201348,0.022501153289572,0.1136309654557433,0.0088996836684514,0.2752955618068302,-0.9366205686597374,-0.5400601033753198,-0.7858528041717218,0.8926440429389592,1.7190556578039091,0.3146742135110082,-1.1020480097045802,-0.6480866810115251,0.9445674553907222,0.3935606599590691,-0.0465933184420119,0.8574069905199322,11.604966607185816,-0.817191409082882,0.1142681211671634,-1.147633740392045
1.52,-0.7755335706411324,0.8600638744690824,1.7033584739824084,0.0206673182216283,0.1132996576875,0.0084907784962369,0.2827364894355096,-0.936728734491736,-0.5251351909290559,-0.7795593199015016,0.8706030827448675,1.7060939241836786,0.3321894749822797,-1.1420480103006263,-0.645351867917386,0.8338646703019332,0.3720463814339714,-0.0054082915999342,0.7462456223131964,11.604966607185816,-0.8188994402675053,0.1176485417992014,-1.14379460881791
1.54,-0.7698037959883312,0.8413381161271146,1.693003516927593,0.0200592668653769,0.1126939649586943,0.0081819132012859,0.2898194697061544,-0.9360586746627576,-0.5110995380480048,-0.7732658356312815,0.848562122550776,1.6931321905634482,0.3497047364535512,-1.182048010896673,-0.6426170548232469,0.7867927641477651,0.3541490135322372,0.0335029914489248,0.7017826440525565,11.413470650972158,-0.8207188540650142,0.1194248653248148,-1.1404263957197902
1.56,-0.7642307866857753,0.8235575109482094,1.683420796511937,0.0206328639393417,0.1118691831442335,0.0079798248282464,0.2963969785031246,-0.935718998053509,-0.4983020973249489,-0.7665344698242795,0.8255211623417832,1.680238827270571,0.3672199979248227,-1.2220480114927197,-0.6398822417291078,0.7196413885283737,0.3288754398485083,0.0169838304624303,0.6398720361527915,11.413470650972158,-0.8228035120177687,0.1198735211904105,-1.1370864761010535
1.58,-0.7582325809341547,0.8048441618860547,1.6735932748967823,0.0223161067231956,0.1107220052652108,0.0078500605026667,0.3030113530214743,-0.9357297230456016,-0.4851302151518212,-0.7593652224804958,0.8014802021178893,1.6674138343050475,0.3847352593960942,-1.2620480120887658,-0.6371474286349688,0.7369676812405195,0.3307187259174893,-0.0005362496046323,0.6585941086563879,11.375116163025268,-0.8253065781176986,0.11909990536324,-1.1336037050525092
1.6,-0.7521055928155911,0.786121049143438,1.6640251131126766,0.024922225123392,0.1092902518498926,0.0077880335540103,0.3092785092253414,-0.9368587559355744,-0.4723386153032975,-0.743082013283081,0.7580576757337746,1.6493367641391912,0.3612611730452494,-1.015804748604073,-0.4623134565489636,0.7144525681160736,0.3133578101933543,-0.0564516444986396,0.6395799924261841,11.324284164435085,-0.8279777791429112,0.1174215265184795,-1.1302196273742815
1.62,-0.7461739520988899,0.768165112180539,1.655307436930615,0.0235726884644815,0.1082491885837633,0.0074819348261647,0.3148623362455736,-0.9513249574144306,-0.4458723491992433,-0.743082013283081,0.7580576757337746,1.6493367641391912,0.3612611730452494,-1.015804748604073,-0.4623134565489636,1.533715546401402,0.2791913510116067,-0.7233100739428067,1.3233133052027084,11.324284164435085,-0.830811358996254,0.117986339955262,-1.1283643554482212
1.64,-0.7398171887636129,0.7490623973470475,1.646673148220022,0.0172616892317833,0.1079424651786344,0.0068646456753464,0.3205510939011072,-0.9571812036764558,-0.4190638326593907,-0.743082013283081,0.7580576757337746,1.6493367641391912,0.3612611730452494,-1.015804748604073,-0.4623134565489636,1.4012085346339698,0.2844378827766836,-0.2928123131012594,1.3404258269926332,12.409483972633096,-0.8364952805183831,0.1271616193833243,-1.118801380552906
1.66,-0.7333488352253299,0.7299185487596583,1.6385409357821226,0.0102222721866448,0.1082234590739416,0.0062376500490859,0.3260355090057362,-0.9567940049947096,-0.395644140905516,-0.7394694015526285,0.7478996282477338,1.6447136295737017,0.3729111370500044,-1.0318197537157676,-0.457750104828392,1.2028203250127718,0.2742207552314468,0.019359934087304,1.1709845876937324,11.953901557872996,-0.8400367629546939,0.1369559599443131,-1.1106699800127735
1.68,-0.7267722437830614,0.7108220032795395,1.6308402712135388,0.0041421758804961,0.1089236502525026,0.0057097767750661,0.3314167205908224,-0.9531298486723464,-0.3755722397486741,-0.7322441780917235,0.7275835332756524,1.6354673604427223,0.3962110650595145,-1.0638497639391564,-0.448623401387249,1.0550648033749042,0.2690605792543099,0.1832078161181582,1.0035950578420938,11.74074690371981,-0.8423782358286531,0.1460154703168374,-1.103722497155465
1.7,-0.7204241037516137,0.6927667799903627,1.6238729378811063,-0.0002631572763504,0.1098487223176254,0.0053283099526205,0.3365927231054229,-0.9479514849028328,-0.3588256547674167,-0.7250189546308186,0.7072674383035709,1.626221091311743,0.4195109930690245,-1.095879774162545,-0.439496697946106,0.9138579784285972,0.2588001257300243,0.258918188475693,0.8373292490628709,11.74074690371981,-0.8437523146705737,0.1531942342489533,-1.098245511489916
1.72,-0.7136337447470528,0.6738760787931,1.6168669308460166,-0.00339636028278,0.1109930005133111,0.0050544913237485,0.342214620426727,-0.9416723811970452,-0.3427179320302935,-0.716628734769438,0.68534984282032,1.6174311573528208,0.4428109210785346,-1.1279097843859336,-0.430369994504963,0.9089714030366364,0.2810948660652096,0.3139551852893663,0.8053861368561621,11.581792984522508,-0.8444668008278307,0.1584760558112335,-1.0939580689801285
1.74,-0.7067274105072134,0.6551176319174488,1.610174891292356,-0.0050036988767229,0.1122139925503937,0.0049093417060306,0.3481789626166585,-0.93471319022167,-0.3273077205120085,-0.7082385149080576,0.6634322473370691,1.6086412233938987,0.4661108490880447,-1.1599397946093224,-0.4212432910638199,0.8964908474555471,0.2982171094965707,0.3479595487687725,0.7705105759142489,11.4808914853229,-0.8449399731380312,0.1619838700495218,-1.090394317295459
1.76,-0.6996950309925372,0.6364989746253806,1.6037871483411563,-0.0051054386344492,0.1133141936449655,0.004891540850438,0.3547608946820572,-0.92770452945452,-0.3122281121616138,-0.6992657968464393,0.6407139015982335,1.6000794570210053,0.4894107770975547,-1.191969804832711,-0.4121165876226769,0.8942004018448619,0.3290966032699377,0.3504330383575005,0.753980417519734,11.440515960848645,-0.8454761796540119,0.1638604213289426,-1.0872127937728586
1.78,-0.6928877373825386,0.6189410385499668,1.597996963744997,-0.0038353021106634,0.1140515413652635,0.0049905032012211,0.3614383436339639,-0.921026211232946,-0.2980112922570362,-0.6897105805845832,0.6171948056038131,1.5917458582341402,0.5127107051070647,-1.2239998150560998,-0.4029898841815338,0.8533847710340249,0.3338724475953347,0.333915911078686,0.7108409952288813,11.41888636209478,-0.8461832843180251,0.1643571048492261,-1.0840767472235195
1.8,-0.6855828985770773,0.6005907511377085,1.5921946337640076,-0.0010482966185971,0.1144009256246301,0.0052148645525986,0.3686654779865617,-0.9146966262889268,-0.2829583112625496,-0.6748158202008404,0.5728897279883195,1.583096399132145,0.4258983082669519,-0.944948371500776,-0.2635113676271095,0.8928708659913096,0.3613567176298876,0.3164792472009625,0.7526490497243299,11.408354728983795,-0.8469560994454096,0.1634015506785857,-1.081160364873169
1.82,-0.6781090517423284,0.5821163384187716,1.586777630294623,-0.0047370084159452,0.1138617777336449,0.005010133886801,0.3783142126869847,-0.9300786491695328,-0.2590126061865147,-0.6748158202008404,0.5728897279883195,1.583096399132145,0.4258983082669519,-0.944948371500776,-0.2635113676271095,1.5025823611428728,0.4824367350211522,-0.7691011440302986,1.1972852538017442,11.408959670555303,-0.852026588088264,0.1686102632952158,-1.0737608186844934
1.84,-0.6704514935593762,0.5635012352466326,1.5818438192424789,-0.0160239958659129,0.1121835745515361,0.0043307843140888,0.3868103200102787,-0.9293331433797208,-0.2355909339101314,-0.6748158202008404,0.5728897279883195,1.583096399132145,0.4258983082669519,-0.944948371500776,-0.2635113676271095,1.2463089010693515,0.4248053661647016,0.0372752894906069,1.171083613819167,12.052958167007093,-0.8567226208235903,0.1815887089378348,-1.0646299044005276
1.86,-0.6630356973322269,0.545932244104027,1.5775601041490448,-0.0274619476301031,0.109986674353677,0.003710520804796,0.393278767462314,-0.9200225819675087,-0.2164849903137569,-0.6705568371181709,0.5634402442733117,1.580461285455874,0.4387903011935495,-0.949732803554342,-0.2566113827011242,1.1108155190648807,0.3234223726017615,0.4655280706105991,0.9552971798187204,11.903609785505068,-0.8611270330405638,0.196680135359003,-1.0542854902339558
1.88,-0.6551147001788716,0.5276830444744487,1.5734165103274136,-0.0380447387164475,0.1075334367296192,0.0032357341236332,0.3983493686770223,-0.9055350541374582,-0.1989795017083811,-0.6620388709528319,0.5445412768432962,1.5751910581033317,0.4645742870467447,-0.959301667661474,-0.2428114128491535,1.1640893335758582,0.2535300607354157,0.7243763915025292,0.8752744302687909,11.67947624930639,-0.8651280573108932,0.2101562997510782,-1.044453236609575
1.9,-0.647110631938858,0.5097562740254412,1.5695980414104902,-0.0463711454642287,0.1054937132106515,0.0029685876960164,0.4017037295323704,-0.888198763592953,-0.1838122329379354,-0.6535209047874928,0.5256423094132807,1.5699208307507897,0.4903582728999399,-0.968870531768606,-0.2290114429971828,1.163877945218407,0.1677180427674035,0.866814527225257,0.7583634385222873,11.514537606452905,-0.8682667444603,0.2206733502466225,-1.0361666565879226
1.92,-0.6390520777582221,0.4921965122719756,1.5660647489348185,-0.0522265223036941,0.1043268613460969,0.0028853109324333,0.4040897930357607,-0.8692524555322391,-0.1702265309990298,-0.643713739329494,0.5062648987779086,1.5653406018908458,0.516142258753135,-0.978439395875738,-0.2152114731452122,1.1717798271715434,0.1193031751695189,0.9473154030356978,0.6792850969452785,11.289887993306364,-0.8712003371547313,0.2291645587452327,-1.0282894914479517
1.94,-0.6313536426425875,0.475872931730329,1.5629561101384173,-0.0557110669586107,0.1040397294263677,0.002944903438279,0.4062425604034254,-0.850512665441357,-0.1576367207451239,-0.6339065738714952,0.4868874881425364,1.560760373030902,0.5419262446063302,-0.98800825998287,-0.2014115032932414,1.1339284172942308,0.1076383683832338,0.9369895045441056,0.6294905126952951,11.289887993306364,-0.8731910612065287,0.2352737827078437,-1.0219200276909002
1.96,-0.6232008088215465,0.4590728638837238,1.5599445926865043,-0.0575607533412477,0.1044017346001128,0.0031282809924214,0.4089963497820639,-0.8307550359407503,-0.1441415907198108,-0.6234548087671665,0.467270855904486,1.5565251434172578,0.5677102304595254,-0.9975771240900018,-0.1876115334412708,1.204227775199996,0.137689468931923,0.9878814750303332,0.6747565012656567,11.270137982770391,-0.8746802095095052,0.2395424871534006,-1.0163704504164484
1.98,-0.6149867763393494,0.44267379719225,1.5572054902484591,-0.0575756058205843,0.1051447764182992,0.0034451093359957,0.4123210287264041,-0.810340442671591,-0.1304150841010566,-0.612358444016508,0.4474150020637573,1.5526349130499126,0.5934942163127206,-1.007145988197134,-0.1738115635893001,1.24119508174868,0.1662339472170121,1.0207296634579643,0.6863253309377079,11.290390289424977,-0.8756671700650525,0.2418925938799336,-1.011974053181416
2.0,-0.6067001033856068,0.4266902930585084,1.5547447706196251,-0.0553289351353541,0.1060036693646689,0.0039373051468063,0.4162046072711144,-0.7894092989159255,-0.1163104466772394,-0.5943707249030292,0.4021567750586705,1.5506847360434064,0.4632589160075835,-0.7959966771073281,-0.1330413110831584,1.2768474439910729,0.1941789272355165,1.0465571877832758,0.7052318711908596,11.290390289424977,-0.8763880066814437,0.2421159179344751,-1.008573270910931
2.02,-0.5987233653670146,0.4117358732285175,1.5525894358796413,-0.0556858304480991,0.1055721429018078,0.0043216005312311,0.4230516173581015,-0.7840997308498375,-0.1113667688076618,-0.5943707249030292,0.4021567750586705,1.5506847360434064,0.4632589160075835,-0.7959966771073281,-0.1330413110831584,0.498781041785558,0.3423505043493507,0.2654784033043977,0.2471838934788819,11.309393682853624,-0.8781862998167176,0.245668872599854,-1.0020097735066755
2.04,-0.5901986436790869,0.3961709414080884,1.5504074828336696,-0.0606712807250043,0.1027967139994818,0.0045717960377562,0.4288583971322035,-0.7716273965766046,-0.1071055350778331,-0.5943707249030292,0.4021567750586705,1.5506847360434064,0.4632589160075835,-0.7959966771073281,-0.1330413110831584,0.7201318047212085,0.2903389887050994,0.6236167136616455,0.2130616864914343,10.668667307026226,-0.8802739095439003,0.2514156528880197,-0.9980393573822814
2.06,-0.5815790156321513,0.3809289973269169,1.5482985686460038,-0.0665035334239862,0.0983666751937347,0.0049209229921939,0.4326309284664532,-0.753188621892103,-0.1039859500431686,-0.5897381357429534,0.3941968082875972,1.5493543229325748,0.4734464934638194,-0.7931279239944755,-0.1335665564795788,0.953876584420406,0.1886265667124853,0.9219387342250808,0.1559792517332237,10.668667307026226,-0.8833028232737062,0.2581434697285106,-0.992418694978306
2.08,-0.5733452916300139,0.3668219618180169,1.5463430845079058,-0.0711872350705928,0.0933698362205264,0.0054233598602579,0.4337033309257684,-0.7329827236338129,-0.1019804540997983,-0.5804729574228017,0.3782768747454506,1.5466934967109116,0.4938216483762911,-0.7873904177687704,-0.1346170472724195,1.016673971140689,0.053620122965764,1.0102949129145056,0.1002747971685133,10.613320534414925,-0.8867760105325925,0.2646541337655461,-0.9861248900603404
2.1,-0.5646854791826278,0.3523990059644601,1.544319576109072,-0.0747635139295684,0.0882850721266295,0.0060889420789795,0.4320257604355247,-0.7106337968073007,-0.10047666192293,-0.5712077791026501,0.3623569412033041,1.5440326704892484,0.5141968032887629,-0.7816529115430653,-0.1356675380652602,1.123109705191066,-0.0838785245121848,1.117446341325612,0.075189608843415,10.563996866415437,-0.8900887131410329,0.2697558276900085,-0.9804419968082164
2.12,-0.5560898588998751,0.3384318067406578,1.5423208949118374,-0.0768369182489629,0.084475349583811,0.0068067205799875,0.4275358440127666,-0.6876281475550464,-0.0994296762073785,-0.5609238430368748,0.3467238829724428,1.5413193197279431,0.5345719582012347,-0.7759154053173601,-0.1367180288581009,1.1731532573471253,-0.2244958211379072,1.1502824626127115,0.0523492857775753,10.52304524144256,-0.8919729884580592,0.2731645704450807,-0.9767807354983672
2.14,-0.5480294893128062,0.325594003485826,1.5404371264620311,-0.0773801480737147,0.0830081588419758,0.0074501388936754,0.4212768083600684,-0.6651382037295157,-0.0988870665643462,-0.5506399069710995,0.3310908247415814,1.538605968966638,0.5549471131137065,-0.770177899091655,-0.1377685196509417,1.1675482065015408,-0.3129517826349098,1.1244971912765356,0.0271304821516174,10.50361239907761,-0.8928672048691797,0.2752443600210751,-0.9742577775001708
2.16,-0.5396673794538325,0.3125466880477776,1.5384653160870962,-0.0761249870662323,0.0838716434206252,0.0080893318227643,0.4155308176412843,-0.640976505875752,-0.0982948445022159,-0.5398465920325125,0.3156012041663628,1.5358663559355117,0.5753222680261783,-0.7644403928659498,-0.1388190104437824,1.2421300047577544,-0.2872995359392061,1.2080848926881882,0.0296111031065131,10.50361239907761,-0.892432136382241,0.2755820891882394,-0.9732215326430282
2.18,-0.5314029992020033,0.2999818513999555,1.536509636462403,-0.0727093984763428,0.0864300143395372,0.0087706657841783,0.4114229692923614,-0.6173142186988257,-0.097235722869467,-0.5285438982211137,0.3002550212467867,1.5331004806345645,0.59569742293865,-0.7587028866402447,-0.1398695012366231,1.2019775280075238,-0.205392417446143,1.18311435884631,0.0529560816374445,10.515579028161484,-0.8895620952676236,0.274026645047259,-0.9750588392053045
2.2,-0.5232012120958383,0.287860419337497,1.5345847669198378,-0.0679664163247332,0.0899519515563344,0.0094991040091162,0.4091530588595574,-0.5964310789249153,-0.0952786877942152,-0.5108318507373852,0.2691161404650142,1.5316478503189297,0.437218879799802,-0.5893763258744144,-0.0878400815947168,1.054855448006264,-0.1134955216402028,1.0441569886955215,0.0978517537625907,10.515579028161484,-0.8859667437229579,0.2714374362600504,-0.9778540775139494
2.22,-0.5153521833485105,0.2766620587013914,1.5328650094574654,-0.0648492015589168,0.0911611388563423,0.0102577990783083,0.4167907803301978,-0.5823631228712822,-0.0859277497004593,-0.5108318507373852,0.2691161404650142,1.5316478503189297,0.437218879799802,-0.5893763258744144,-0.0878400815947168,0.9269334118793132,0.3818860735320201,0.7033978026816545,0.4675469046877982,10.54952474154652,-0.8911690849221634,0.26957894583132,-0.9714036005751328
2.24,-0.506941464314873,0.2651927907998731,1.5312489460213106,-0.0632906656112614,0.0877255065946717,0.0112521250786882,0.4233657310940392,-0.5652213220572143,-0.076198667289913,-0.5108318507373852,0.2691161404650142,1.5316478503189297,0.437218879799802,-0.5893763258744144,-0.0878400815947168,1.0389012913257445,0.3287475381920729,0.8570900407033955,0.4864541205273145,10.99789574497754,-0.893244491770229,0.2710302971867943,-0.9664372678732472
2.26,-0.498443814943114,0.2540770213311571,1.5298169768822245,-0.0624148038570047,0.0810144807961863,0.0124132311872373,0.4255799191048883,-0.5472372010945828,-0.0675098855411691,-0.5064596619393872,0.2632223772062701,1.5307694495029822,0.4423780619012901,-0.5837887473095321,-0.0859609533397668,1.0047713217733347,0.1107094005424552,0.8992060481315733,0.4344390874371953,10.88775878328488,-0.8985225758550809,0.2734651777597497,-0.9577200006926256
2.28,-0.4899513678673223,0.2433260666942867,1.5285449443169992,-0.0616965075366949,0.0729448046920864,0.0136547696582261,0.4232501706061329,-0.5288526289711634,-0.0600912061491396,-0.4977152843433912,0.2514348506887818,1.529012647871088,0.4526964261042663,-0.5726135901797675,-0.0822026968298667,0.9980694166118774,-0.1164874249377723,0.9192286061709742,0.3709339696014752,10.88775878328488,-0.905417396201804,0.2756933435397987,-0.9477436585533244
2.3000000000000003,-0.4819658408634014,0.2334556343162595,1.5274631743227975,-0.0608639751231425,0.0653874593732764,0.0148425804939027,0.4173288754699113,-0.5111718269619631,-0.0541200559548808,-0.4889709067473951,0.2396473241712935,1.5272558462391936,0.4630147903072426,-0.561438433050003,-0.0784444403199666,0.9789370899362986,-0.2960647568110791,0.8840401004600151,0.2985575097129389,10.81105893228414,-0.9132417070787026,0.2775991196864061,-0.9369425409478054
2.32,-0.4737141047423752,0.2234279938906858,1.526439047428528,-0.0596293173165513,0.0585645298852385,0.0160507052304411,0.4079971447519506,-0.4926163644975658,-0.0486242246300496,-0.4797106109412503,0.2284185555102934,1.5256869574327945,0.4733331545102188,-0.5502632759202384,-0.0746861838100665,1.074232920984996,-0.4665865358980364,0.9277731232198632,0.2747915662415567,10.743952585448824,-0.9200925699957748,0.2788402824207605,-0.9275736927659216
2.34,-0.4656823509738001,0.2137715002681262,1.5255189161443057,-0.0578308527675677,0.0538981757223838,0.0171683527645409,0.395590824159804,-0.4741241368583853,-0.043638693436107,-0.4704503151351054,0.2171897868492933,1.524118068626395,0.483651518713195,-0.5390881187904738,-0.0709279273001664,1.1409807130054448,-0.620316029607329,0.9246113819590228,0.2492765596971327,10.698490192443389,-0.9242913562827992,0.279231686739747,-0.9216609856234887
2.36,-0.4583032486976225,0.2049346881035858,1.52473552007059,-0.0555658759052049,0.0523540878096571,0.0181004759775242,0.3820420920451948,-0.4572419930495109,-0.0390350541800853,-0.4609320602238861,0.2062403971165374,1.5226431362327433,0.4939698829161713,-0.5279129616607093,-0.0671696707902663,1.1065356025638566,-0.6774366057304582,0.8441071904437214,0.2301819628010848,10.684971408526508,-0.9272447121442388,0.2786217264481066,-0.9176420903571968
2.38,-0.4508034313165179,0.195968004083432,1.5240083404280664,-0.0529003559421212,0.05364105564213,0.0189423285686998,0.3689620719853648,-0.4404503484622838,-0.0338865523037535,-0.4511558462075925,0.1955703863120256,1.5212621602518388,0.5042882471191474,-0.5167378045309448,-0.0634114142803662,1.094935299777914,-0.6540010029915,0.8395822293613547,0.2574250938165895,10.675217320371305,-0.9286323877521996,0.2778709732099932,-0.9149075321415546
2.4,-0.4435458413035593,0.1873296532678952,1.5233882367543163,-0.0501114302966199,0.0570402471956878,0.019689719968788,0.3577293504611957,-0.4243431148813697,-0.0283480584350383,-0.4323553277172496,0.1739454866603178,1.5223140128128787,0.4026866146925696,-0.4138435447023513,-0.0204404718053561,1.0201616548413477,-0.5616360762084549,0.8053616790457047,0.2769246934357622,10.67303131828885,-0.92820186413638,0.2773050640125681,-0.9136175157675008
2.42,-0.4371842298640974,0.1798239658364011,1.5229496296089635,-0.0476267746042893,0.0611347637252117,0.0203193684778672,0.3498423256111739,-0.4104685944554955,-0.0206496526797651,-0.4323553277172496,0.1739454866603178,1.5223140128128787,0.4026866146925696,-0.4138435447023513,-0.0204404718053561,0.8859640641776675,-0.3943512425010925,0.6937260212937085,0.3849202877636558,10.677905122515767,-0.9278645416143364,0.2765739493915967,-0.9127082955601594
2.44,-0.4302656446946048,0.1717697632529051,1.5226292891639623,-0.045053773852333,0.0661974849185971,0.0209948758787542,0.3426510681944713,-0.3957420201389222,-0.01180764167418,-0.4323553277172496,0.1739454866603178,1.5223140128128787,0.4026866146925696,-0.4138435447023513,-0.0204404718053561,0.93108449261832,-0.3595628708351311,0.7363287158286658,0.442100550279256,10.842879484815969,-0.9262904828346904,0.2773133465076565,-0.9108374303143272
2.46,-0.4234729342947372,0.1640068454443072,1.5224856758421326,-0.0426729814477599,0.071443997598419,0.0216624743117447,0.3371467738969537,-0.3813280355727601,-0.0029907000557283,-0.4283284615703239,0.1698070512132942,1.522109608094825,0.4094315232340106,-0.4085221839503647,-0.0177512557056767,0.8885362489657218,-0.2752147148758765,0.7206992283081054,0.4408470809225875,10.842879484815969,-0.9246718689996618,0.2785308918200261,-0.9086643308469976
2.48,-0.417106555891947,0.1568958768638355,1.5225118230146442,-0.0405265212578527,0.0762847557647405,0.0223065919335329,0.3333779714891128,-0.3679587697022293,0.0053116587738954,-0.4202747292764726,0.1615301803192472,1.521700798658718,0.4229213403168925,-0.3978794624463918,-0.0123728235063177,0.8091203613216617,-0.1884401203920443,0.6684632935265389,0.4151179414811897,10.819758307721711,-0.9229519547451116,0.2800971421736555,-0.9062042373104456
2.5,-0.4104687010945561,0.1496807753548737,1.5227095123982548,-0.0383812905857947,0.0810039081869562,0.0230029088323832,0.3307103203219798,-0.3542928665687254,0.0140248288965163,-0.4122209969826211,0.1532533094252002,1.5212919892226109,0.4364111573997745,-0.3872367409424188,-0.0069943913069588,0.8212682338760438,-0.1333825583566511,0.6832951566751955,0.4356585061310414,10.819758307721711,-0.9214680223265164,0.2819183826484075,-0.9033506803771936
2.52,-0.4038716514539348,0.1427357726383272,1.5230801895108692,-0.0363371174488549,0.0851778370897181,0.0237225868540387,0.3291818225718806,-0.3409380495616679,0.0226176463705659,-0.4034927738346257,0.1455085746063518,1.5211521013964715,0.4499009744826564,-0.3765940194384458,-0.0016159591075999,0.79769034531951,-0.0764248875049583,0.667740850352877,0.4296408737024798,10.799163963536555,-0.9203950647402988,0.2839967481726971,-0.8998991555297026
2.54,-0.3972955292009485,0.1360544445868132,1.5236223044599768,-0.0343712757178612,0.0887267841446265,0.0244671073285402,0.3285358176309185,-0.3279094028553103,0.0311776126828763,-0.3947645506866302,0.1377638397875034,1.5210122135703326,0.4633907915655383,-0.3659512979344727,0.003762473091759,0.7801217543606901,-0.0323002470481087,0.6514323353178808,0.4279983156155223,10.799163963536555,-0.920064767281448,0.2862974592734387,-0.8955825549693825
2.56,-0.3910523570757535,0.1299471765398262,1.5242951461619567,-0.0325166258663752,0.0914556379163082,0.0252009383305701,0.3286658496245762,-0.3156897750684696,0.039234472260761,-0.3856990821115627,0.1302851730062544,1.5210067865491774,0.4768806086484202,-0.3553085764304997,0.0091409052911179,0.7318626883269403,0.0065015996828871,0.6109813893420329,0.4028429788942322,10.79155803976846,-0.920545315278911,0.2889656267364931,-0.88993127383211
2.58,-0.3844731345096351,0.1237657795915648,1.525168356220834,-0.030545644209758,0.0936234684491719,0.0260015126620537,0.3292468755049387,-0.3031630143990062,0.0476727421335478,-0.3762963681094231,0.1230725742626047,1.521135820333006,0.4903704257313021,-0.3446658549265267,0.0145193374904769,0.7557475146992689,0.0290512940181258,0.62633803347317,0.4219134936393434,10.779544236651418,-0.9216622541191656,0.2917114189269775,-0.8835919510198483
2.6,-0.3778794843112525,0.1178315082108916,1.5262088838437695,-0.0285510189174923,0.0951091131867906,0.026826868496856,0.3300684334029041,-0.290964837061362,0.0559646719075433,-0.3680107907343882,0.1086076288716145,1.5275519933275117,0.3502467317981402,-0.263774029957249,0.0350529943532844,0.7386247137707979,0.041077894898267,0.6099088668822084,0.4145964886997724,10.768684005010073,-0.9233512834615524,0.2945178328365066,-0.8766389149848435
2.62,-0.3712181162895409,0.1120848531683625,1.527362389250089,-0.0282129337201425,0.0942560259875155,0.0276040578178399,0.3357597228807667,-0.2836330915338268,0.058969663560353,-0.3680107907343882,0.1086076288716145,1.5275519933275117,0.3502467317981402,-0.263774029957249,0.0350529943532844,0.4877889995551834,0.2845644738931313,0.3665872763767619,0.1502495826404843,10.750437402119132,-0.9260324099298286,0.2971962707965915,-0.8703160148481301
2.64,-0.3647958802876141,0.1067742347257464,1.5285014942894342,-0.0302002043443364,0.0899914570832632,0.0282868476158933,0.3395571511137765,-0.2755148770557992,0.0608239078262086,-0.3680107907343882,0.1086076288716145,1.5275519933275117,0.3502467317981402,-0.263774029957249,0.0350529943532844,0.4576136178414494,0.1898714116504912,0.4059107239013815,0.0927122132927817,10.414869394502604,-0.9299458382766644,0.3029344574200888,-0.8602590476617541
