t,x,y,z,roll,pitch,yaw,v_x,v_y,v_z,ref_x,ref_y,ref_z,ref_v_x,ref_v_y,ref_v_z,a_com,a_x,a_y,a_z,thrust,wind_x,wind_y,wind_z
0.0,1.3105523534494,-1.0061775764268648,2.653748732980161,0.0266566612468971,0.0997352498718635,0.0426689843415852,0.0033889408494399,0.0077852627242242,0.0123037742313393,1.310659579507627,-1.0059874822969677,2.654120341835892,-0.0964775031243845,0.1067738528977597,-0.0876329201434428,0.7474591896919337,0.1694470424719996,0.3892631362112135,0.6151887115669669,10.24058322770452,-0.9441227116397272,0.2609844217607573,-0.8693490881426135
0.02,1.310764174074155,-1.0063254255939442,2.653751669435208,0.0191724456895822,0.0947369089441571,0.0420356294055398,0.0174646647236205,-0.0170769385271712,-0.0117465898984193,1.310659579507627,-1.0059874822969677,2.654120341835892,-0.0964775031243845,0.1067738528977597,-0.0876329201434428,1.8672674342612603,0.7037861937090268,-1.2431100625697764,-1.2025182064879338,10.23982291811808,-0.9445857604201854,0.260814057504917,-0.8746778969578443
0.04,1.3112129463522009,-1.0066943294303516,2.65320620464376,0.0027954571700846,0.0802034147659718,0.0407898330659941,0.0253759826323208,-0.0176486725668755,-0.0416280264099153,1.310659579507627,-1.0059874822969677,2.654120341835892,-0.0964775031243845,0.1067738528977597,-0.0876329201434428,1.5458137653475956,0.3955658954350171,-0.0285867019852135,-1.4940718255747991,8.889034430560969,-0.9464518407079386,0.2723778292366252,-0.8696455114148689
0.06,1.3117109345011828,-1.0069807294947684,2.6520577769250133,-0.0142954202429046,0.0598599577640165,0.0398376738381426,0.023052905385948,-0.0106243434696068,-0.0716987656581823,1.3096948044763832,-1.00491974376799,2.6532440126344574,-0.1164775034224077,0.1267738531957829,-0.107632920441466,1.548375960560464,-0.1161538623186424,0.3512164548634327,-1.50353696241335,8.605653524605714,-0.9533323385670216,0.2821952522915557,-0.8620144565583739
0.08,1.312061364873412,-1.0070885891483647,2.6503161275772067,-0.030742023977493,0.0376355977524521,0.0393860950535465,0.0114974354368941,-0.000203919591793,-0.1010017825804268,1.3077652544138954,-1.0027842667100348,2.6514913542315885,-0.1564775040184542,0.1667738537918294,-0.1476329210375125,1.658900931552384,-0.5777734974526952,0.5210211938906902,-1.4651508461122245,8.5951582278376,-0.9649821282707324,0.291316480325864,-0.8507473605250112
0.1,1.312104042371078,-1.0069725944797092,2.648124312700458,-0.0456214199546099,0.0173592637309331,0.0393740090727776,-0.0066917955339119,0.0121533530172483,-0.1283016666316423,1.3058357043514075,-1.0006487896520797,2.64973869582872,-0.1964775046145007,0.2067738543878758,-0.1876329216335589,1.7527364169016575,-0.9094615485403036,0.6178636304520689,-1.3649942025607742,8.709968988164292,-0.978851047751542,0.2996617843678391,-0.8373202303106045
0.12,1.3117159602377926,-1.0065716580380202,2.645259111948129,-0.0605250949032831,-0.0014246259858812,0.039661150814037,-0.0314136671053603,0.0275797940260327,-0.1568102402383118,1.3019061542591177,-0.9965133125643222,2.6459860373960487,-0.2364775052105471,0.2467738549839223,-0.2276329222296054,2.038311056536509,-1.236093578572421,0.7713220504392243,-1.4254286803334764,8.709968988164292,-0.9918943990736,0.3066843006816051,-0.8260257850271016
0.14,1.310782874933874,-1.0058374212143546,2.6418201738432674,-0.0746933083133183,-0.0165446900719703,0.0400837544711174,-0.0605689383215885,0.0453531975258094,-0.1857093305053903,1.2979766041668277,-0.9923778354765648,2.6422333789633776,-0.2764775058065936,0.2867738555799688,-0.2676329228256519,2.236672265846322,-1.45776356081141,0.8886701749888346,-1.444954513353923,8.78721717403323,-1.0020852772452804,0.3124846264986795,-0.8186802433393371
0.16,1.3092296128672112,-1.0047006155066105,2.637798334088314,-0.0874211165772505,-0.0274378352803263,0.0405168094959329,-0.0930745470835466,0.0671863951238078,-0.2150340039192251,1.2930470540596364,-0.987242358373906,2.6374807205158053,-0.31647750640264,0.3267738561760152,-0.3076329234216983,2.4460374021909383,-1.6252804380979018,1.0916598798999195,-1.4662336706917425,8.78721717403323,-1.0100426114632173,0.3177293394910981,-0.8144957758007021
0.18,1.3071262340843268,-1.0031868780937558,2.633431585307169,-0.097474925795051,-0.0333996641447962,0.0408146557964652,-0.1266034019830674,0.090597274030312,-0.2431503957360506,1.2871175039375442,-0.9811068812563462,2.631728062053332,-0.3564775069986864,0.3667738567720616,-0.3476329240177447,2.481322656792833,-1.6764427449760415,1.1705439453252109,-1.4058195908412756,8.820481517986536,-1.0136875432265424,0.3217445686968918,-0.8159632711550112
0.2,1.3042118268970395,-1.0011015102152965,2.6282560779963404,-0.1058649768145266,-0.0345365290506395,0.0408356389840391,-0.1625211667176048,0.1164362597971531,-0.2728299504553404,1.3007960639851734,-0.9986570143922402,2.621274065520366,-0.2266034034731835,0.1905972755204282,-0.3431503972261668,2.663932702472,-1.7958882367268711,1.2919492883420522,-1.483977735964488,8.864858412298418,-1.015264854159845,0.3242929261075974,-0.81995781614897
0.22,1.3005483991636062,-0.9983467669890528,2.6226222091395743,-0.1081448040383318,-0.0299155177329963,0.0406798313263851,-0.2013339022825191,0.1560146760693881,-0.2879889972911907,1.3007960639851734,-0.9986570143922402,2.621274065520366,-0.2266034034731835,0.1905972755204282,-0.3431503972261668,2.873445744059638,-1.940636778245712,1.978920813611749,-0.7579523417925171,8.880211151196363,-1.0189535496888924,0.324595590172409,-0.8164506476592462
0.24,1.2963942285084902,-0.9950659367940614,2.617016411422004,-0.1040996571822693,-0.020606263412893,0.0404475534626034,-0.2332704442863786,0.186158092085815,-0.3011976977622605,1.3007960639851734,-0.9986570143922402,2.621274065520366,-0.2266034034731835,0.1905972755204282,-0.3431503972261668,2.292944620154456,-1.5968271001929768,1.5071708008213447,-0.6604350235534878,9.861718617862609,-1.015718931539629,0.3200565867502568,-0.824216410360293
0.26,1.2914263845987493,-0.9910715010972856,2.610828804253902,-0.097818316968845,-0.0079502369354659,0.0401031891389234,-0.261236445564344,0.211362878299497,-0.3169253071853584,1.2985300299504416,-0.996751041637036,2.6178425615481045,-0.2466034037712067,0.2105972758184514,-0.36315039752419,2.040058929125637,-1.398300063898271,1.2602393106840997,-0.7863804711548961,9.69977862214546,-1.0088036152800968,0.314353919671498,-0.8362635613538683
0.28,1.2859553107313306,-0.9866123290321174,2.604298186688674,-0.0914798268338806,0.0058752942702003,0.0397281519117384,-0.2840326091519956,0.2332590177926518,-0.3353138005795841,1.2939979618809778,-0.9929390961266272,2.610979553603581,-0.2866034043672532,0.2505972764144978,-0.4031503981202364,1.8284164516926555,-1.1398081793825758,1.0948069746577416,-0.9194246697112828,9.503589352095332,-0.999829231155506,0.3091091798093541,-0.8500736655597914
0.3,1.2800774453525068,-0.9817373198944428,2.597373568204105,-0.0857882137469395,0.0195515135523826,0.0394002150965658,-0.3023204447710747,0.2532360902271552,-0.3562420177914218,1.2894658938115142,-0.9891271506162188,2.604116545659058,-0.3266034049632996,0.2905972770105443,-0.4431503987162829,1.7113727168195405,-0.9143917809539576,0.9988536217251708,-1.046410860591887,9.329315397437313,-0.9890889249943096,0.3042740361060545,-0.8652520258177016
0.32,1.2741914822517526,-0.9767486118895082,2.590384621691289,-0.0811705574809167,0.0315631265582365,0.0391779465661566,-0.3161959291532185,0.2710208208832678,-0.3784216733513962,1.2829338257122482,-0.983315205076008,2.5952535376847323,-0.366603405559346,0.3305972776065907,-0.4831503993123293,1.5817417868513577,-0.6937742191071877,0.889236532805629,-1.108982777998721,9.178696831344496,-0.9779577898103052,0.3001912211663868,-0.8801157662365885
0.34,1.2677418386865853,-0.9711416144172352,2.5825556480462573,-0.0771864580072044,0.0426098292669022,0.0390582860287722,-0.3278947579413309,0.2888468879408037,-0.4034169019302335,1.2764017576129822,-0.977503259535797,2.586390529710407,-0.4066034061553926,0.3705972782026372,-0.5231503999083759,1.6427056290322184,-0.5849414394056202,0.8913033528767933,-1.2497614289418617,9.049509239497638,-0.9672570214007656,0.296601664575464,-0.8943067589378106
0.36,1.2610788903195902,-0.9651748196409328,2.5742118023066056,-0.0737599622149321,0.051814916986663,0.0390729154751133,-0.3377719990716247,0.3068858982736623,-0.4297416007765269,1.268869689498815,-0.970691313980685,2.57652752172118,-0.446603406751439,0.4105972787986837,-0.5631504005044222,1.6702960482224314,-0.4938620565146906,0.9019505166429298,-1.3162349423146702,8.967154646175914,-0.9572015429507028,0.2933612474811742,-0.9075370494242352
0.38,1.2542325062370918,-0.9588497414899276,2.565330754620826,-0.0705004789740808,0.0593278879737015,0.0392215586599113,-0.3463470695316407,0.32460945313597,-0.4570682395805813,1.2603376213697468,-0.9628793684106718,2.565664513717052,-0.4866034073474854,0.4505972793947301,-0.6031504011004687,1.6840438078318516,-0.4287535230007994,0.886177743115385,-1.3663319402027196,8.917436222465767,-0.9485545894752776,0.2902754073773944,-0.9190740249791568
0.4,1.2475789398461166,-0.9525175967339888,2.556378967042221,-0.0674513863081292,0.0650755811303948,0.0394704902998389,-0.3535926587122109,0.3409384205046175,-0.4838738956215958,1.2369151527605098,-0.9426192688331292,2.542477342641797,-0.4463470710217568,0.4246094546260861,-0.5570682410706974,1.6106496621620785,-0.3622794590285139,0.8164483684323737,-1.340282802050724,8.877456768713273,-0.9404007024764496,0.2869439214269988,-0.9301989342963034
0.42,1.2404582376404518,-0.9455204279634888,2.546602670247234,-0.064630589997182,0.069476622642143,0.0398235534322548,-0.3580660168896472,0.3580753149672759,-0.4913213638923304,1.2369151527605098,-0.9426192688331292,2.542477342641797,-0.4463470710217568,0.4246094546260861,-0.5570682410706974,0.9606623611492348,-0.2236679088718107,0.856844723132924,-0.3723734135367307,8.841073124887771,-0.9411117454179604,0.2836107670494138,-0.9316712771583218
0.44,1.233259684167602,-0.9381962387032508,2.536675118009122,-0.0627778135648451,0.0718269572139639,0.0402413269458399,-0.361786233647359,0.3737802723294554,-0.5012137127090928,1.2369151527605098,-0.9426192688331292,2.542477342641797,-0.4463470710217568,0.4246094546260861,-0.5570682410706974,0.9464991595145944,-0.1860108378855918,0.7852478681089708,-0.4946174408381187,10.060722550947505,-0.937314638609615,0.2828973979799984,-0.9353311667391122
0.46,1.2259816681657285,-0.9305561794760984,2.5265022629893354,-0.0618215474586745,0.0723110482182526,0.0407082823112269,-0.3659659066631393,0.3895077712396207,-0.5155784415635193,1.2324516820502922,-0.9383731742868684,2.53690666023109,-0.46634707131978,0.4446094549241093,-0.5770682413687206,1.0853217536165116,-0.2089836507890158,0.7863749455082669,-0.7182364427213261,9.55508785856182,-0.9346182057767236,0.2825933324592884,-0.9381981156170976
0.48,1.2189858386837205,-0.923009320576052,2.5165393298548686,-0.0616031619624784,0.0712234959093587,0.0411932168266675,-0.3703282032723367,0.4041624687949073,-0.532429257327607,1.223524740629857,-0.9298809851943466,2.525765295409676,-0.5063470719158264,0.4846094555201558,-0.6170682419647671,1.1376948009668146,-0.2181148304598701,0.7327348777643322,-0.8425407882043878,9.55508785856182,-0.9336158831214024,0.2826450066128992,-0.9396464460530174
0.5,1.211527009787406,-0.9147682457975868,2.5056796075818424,-0.062169994709281,0.0684888758350161,0.0417412718628434,-0.3754358485932937,0.4192264742215705,-0.5527700015481177,1.214597799209422,-0.9213887961018248,2.5146239305882623,-0.5463470725118729,0.5246094561162022,-0.6570682425608135,1.2910830489006806,-0.2553822660478488,0.7532002713331598,-1.0170372110255343,9.380775378853286,-0.9345988427302224,0.2833218727118261,-0.9389988167937484
0.52,1.2039574566266371,-0.9062256613530556,2.494390843394325,-0.0636130338573443,0.0641299379366674,0.0423294090458491,-0.3814555175842452,0.4343627809897679,-0.5750759253257934,1.2036708577591844,-0.9108966069795008,2.501482565737046,-0.5863470731079193,0.5646094567122487,-0.69706824315686,1.3810308042519155,-0.3009834495475733,0.7568153384098664,-1.1152961888837851,9.238937190055369,-0.9373391397011828,0.2846691936204328,-0.9363220037178104
0.54,1.196637341753166,-0.8978263747121021,2.4832487562543166,-0.0657333374421071,0.0587996192930066,0.0429186384164102,-0.3890434097251808,0.4491778590844106,-0.5966645154513811,1.1927439163089468,-0.9004044178571767,2.488341200885829,-0.6263470737039658,0.6046094573082952,-0.7370682437529065,1.3630204232727572,-0.3793946070467818,0.7407539047321388,-1.0794295062793835,9.144402201714,-0.9415989782043116,0.2866297404525368,-0.9321027668885602
0.56,1.1887487190492156,-0.8886599301028948,2.471073398157152,-0.0680944690815982,0.0527490227649501,0.0435719933705049,-0.3996150705844304,0.4666614738937167,-0.6197389333527068,1.1808169748438082,-0.8889122287199516,2.474199836019712,-0.6663470743000122,0.6446094579043415,-0.7770682443489528,1.5409944529492932,-0.5285830429624827,0.8741807404653024,-1.1537208950662847,9.127362336979786,-0.9468993357340398,0.2887325665319836,-0.9266125385323276
0.58,1.1806240704854885,-0.8791312546400182,2.4584356553719853,-0.0698750628909622,0.0470063884663586,0.0442560890850147,-0.4124393078070316,0.4851864624526502,-0.6428624408511987,1.1678900333637685,-0.8764200395678252,2.4590584711386936,-0.7063470748960586,0.684609458500388,-0.8170682449449993,1.6142590099508332,-0.641211861130056,0.9262494279466764,-1.156175374924595,9.117143654243591,-0.9525666784783956,0.2902542101327822,-0.9208484687915552
0.6,1.1722198657885712,-0.8692235541026059,2.445333843812237,-0.0706869588337602,0.0422214886646237,0.0449442700638783,-0.4274249471572907,0.5044627882093627,-0.6661441739895344,1.1600021050951368,-0.8548719315173856,2.426292533329425,-0.5124393092971478,0.5851864639427664,-0.7397023381857744,1.68685003730297,-0.7492819675129575,0.9638162878356256,-1.1640866569167851,9.121866188798776,-0.9575852507434228,0.2910065635262309,-0.915708346393356
0.62,1.163897934951441,-0.8594063083116487,2.432674892554381,-0.069294724733525,0.040737823985011,0.0455265313755959,-0.4475164603580726,0.5273931781766173,-0.6651297623217916,1.1600021050951368,-0.8548719315173856,2.426292533329425,-0.5124393092971478,0.5851864639427664,-0.7397023381857744,1.5252054925314282,-1.004575660039092,1.1465194983627305,0.0507205833871426,9.12018077273342,-0.9646826527468724,0.2884953474662597,-0.9106764328667508
0.64,1.1547457005688544,-0.848635947255483,2.4193563816975416,-0.0654890932922888,0.0436058486272422,0.0459866485790901,-0.4661172049316303,0.5478793946216814,-0.6670010809332331,1.1600021050951368,-0.8548719315173856,2.426292533329425,-0.5124393092971478,0.5851864639427664,-0.7397023381857744,1.3866998560163266,-0.930037228677888,1.024310822253205,-0.0935659305720759,10.600025691273004,-0.9662581309237382,0.2870919258673547,-0.9068306861207518
0.66,1.145255650735996,-0.8374918174414084,2.4059467611258167,-0.0610229716771231,0.0492454560979878,0.046314355353956,-0.4815792747777574,0.565334740265994,-0.6740626217166256,1.1548777120021654,-0.849020066877958,2.4188955099475677,-0.5324393095951709,0.6051864642407896,-0.7590703176526895,1.2182262246032625,-0.773103492306354,0.8727672822156252,-0.3530770391696247,10.257479203229195,-0.9633999891693412,0.2846497616292025,-0.9090253845904124
0.68,1.135487422802867,-0.8260192253664489,2.392341280677603,-0.0566335680629672,0.0563677715351879,0.0465597769545516,-0.4941481915006211,0.5809996819148734,-0.6860947974089585,1.1446289258162223,-0.8373163375991026,2.404101463183852,-0.5724393101912174,0.6451864648368361,-0.7978062765865197,1.1706208997154548,-0.6284458361431849,0.7832470824439719,-0.6016087846166474,9.930155781340543,-0.9581864789273092,0.2818733730063322,-0.9146954391658731
0.7000000000000001,1.126000633327783,-0.8148426613567297,2.3791549426603367,-0.0527946333520423,0.0636136259771835,0.0467581969245192,-0.5036341384964536,0.5947107570549846,-0.7013356698848113,1.1343801396302795,-0.8256126083202473,2.3893074164201367,-0.6124393107872639,0.6851864654328825,-0.83654223552035,1.129447836036181,-0.4742973497916219,0.6855537570055581,-0.7620436237926409,9.44043040806173,-0.9512776081182168,0.2787899638139777,-0.922751818598192
0.72,1.1158437877806957,-0.8028070918169864,2.3649278651037897,-0.0492390199749806,0.0710598643394327,0.0469570313508314,-0.5113783929607411,0.6081473527582945,-0.7207341237949644,1.1221313534145343,-0.8119088790115896,2.37257657170973,-0.6524393113833103,0.725186466028929,-0.8752781944541803,1.2417886247326628,-0.3872127232143751,0.6718297851654953,-0.9699226955076524,9.44043040806173,-0.9436316704819622,0.2757852731439583,-0.9318713557584792
0.74,1.1055531688439182,-0.7905094488984304,2.3502907420945327,-0.0462139657138143,0.0778280988438556,0.0471617719641497,-0.5171851960395775,0.6209780703496829,-0.742086178811731,1.109882567198789,-0.798205149702932,2.355845726999323,-0.6924393119793568,0.7651864666249755,-0.9140141533880106,1.2789219379475212,-0.2903401539418204,0.6415358795694215,-1.0676027508383312,9.168143949525074,-0.9369694274548124,0.2730866590034631,-0.9398706614481048
0.76,1.0951589116817468,-0.7779516806137432,2.3352109718820304,-0.0433994203740975,0.0837242641384613,0.0473964275518469,-0.5218795604166571,0.6340254531014647,-0.7648228626457051,1.0966337809681426,-0.7835014203793732,2.33814648331557,-0.7324393125754032,0.8051864672210218,-0.9527501123218408,1.3315667889204688,-0.2347182188539798,0.6523691375890928,-1.1368341916987046,9.168143949525074,-0.9316479335380587,0.2707432213394425,-0.9461775878021592
0.78,1.0852061424337056,-0.7657825766617654,2.320453201779407,-0.0406538531350529,0.0885587815276726,0.047658732272155,-0.5254966857285109,0.6461289017221693,-0.7874916671592035,1.082384994722595,-0.7677976910409132,2.3194788406584714,-0.7724393131714496,0.8451864678170683,-0.991486071255671,1.2975474578092456,-0.1808562655926937,0.605172431035228,-1.13344022567492,9.108582374497928,-0.9265940183555028,0.268109203050224,-0.9523578100963198
0.8,1.0746629442660722,-0.7527314748237742,2.3044410838821654,-0.0376696795523207,0.0928878851440057,0.0479710408205642,-0.5285813823836838,0.6582182675760652,-0.8125863718760258,1.05893130814728,-0.7334761315756569,2.281078618421447,-0.6254966872186271,0.7461289032122854,-0.8389896890896597,1.4012604370960815,-0.1542348327586429,0.6044682926947931,-1.2547352358411146,9.05489289461184,-0.922107976647829,0.2653039629261469,-0.9580425184349424
0.8200000000000001,1.06410068856701,-0.7394281207603957,2.2882724009229323,-0.0345290500057799,0.0963637648500976,0.0483221797259674,-0.527283154192474,0.6714045374432622,-0.8011831530067814,1.05893130814728,-0.7334761315756569,2.281078618421447,-0.6254966872186271,0.7461289032122854,-0.8389896890896597,0.8740659443470088,0.0649114095604919,0.6593134933598532,0.5701609434622168,8.990927890607963,-0.9234212746217888,0.2602381654249686,-0.9610898332627192
0.84,1.053579596855196,-0.7258770371899339,2.2723560253910464,-0.0315141707690727,0.0987423292711405,0.0486947011550901,-0.524995017356845,0.6830577651575338,-0.7912352028097543,1.05893130814728,-0.7334761315756569,2.281078618421447,-0.6254966872186271,0.7461289032122854,-0.8389896890896597,0.7745885996155653,0.1144068417814503,0.5826613857135787,0.497397509851355,11.261612375777077,-0.9206424370148072,0.2595249570623442,-0.9619325032238564
0.86,1.0436297103623664,-0.7127966373495275,2.257366557469098,-0.0290192785298116,0.0997954392293663,0.0490500694279498,-0.5226112272421045,0.6932850914841932,-0.7870910394145386,1.0526763412750937,-0.7260148425435341,2.2726887215305505,-0.6454966875166502,0.7661289035103086,-0.8492892934757509,0.5644792940165289,0.1191895057370218,0.5113663163329674,0.2072081697607863,10.908471925739832,-0.918585999412982,0.2587079832318033,-0.9625188556035646
0.88,1.0332044040964372,-0.698825614615091,2.241630108721475,-0.0268532465328937,0.0994896208811193,0.0494180822354942,-0.5201315827317091,0.7033274685159495,-0.7869551139160249,1.040166407530721,-0.7110922644792883,2.255908927748757,-0.6854966881126967,0.8061289041063551,-0.8698885022479333,0.5172437749432757,0.1239822255197697,0.5021188515878183,0.0067962749256855,10.581247608245576,-0.9180503601690114,0.2579510591299927,-0.9620678839853506
0.9,1.0228292180360885,-0.6846589440885427,2.2258557512514128,-0.025186343207168,0.0974367162427926,0.0497802178037122,-0.5176504874937999,0.7129087201539872,-0.7904601295545128,1.0276564737863487,-0.6961696864150426,2.239129133966964,-0.7254966887087432,0.8461289047024015,-0.8904877110201158,0.5249794071128422,0.124054761895459,0.4790625819018845,-0.1752507819243964,10.330108940001992,-0.9193851346939084,0.2575559500844094,-0.959881655446775
0.92,1.0125014708137072,-0.6703060508878919,2.209985076177885,-0.0240564121498058,0.0932762130907888,0.0501386812101901,-0.5154386603338793,0.7219512586113659,-0.7964090241346321,1.013146540012174,-0.6792471083209946,2.2213193797465616,-0.7654966893047896,0.886128905298448,-0.9110869197922984,0.5523790090687448,0.1105913579960315,0.4521269228689339,-0.2974447290059634,9.997409869453804,-0.9230744618567512,0.2577243327555842,-0.9550425649660536
0.94,1.0027180093852084,-0.6565089336067884,2.1947949835148863,-0.0236482530860618,0.0873197025517783,0.0504646869890552,-0.5149247323835323,0.7299830390979533,-0.8022331643243547,0.998636606237999,-0.6623245302269466,2.2035096255261597,-0.8054966899008361,0.9261289058944944,-0.9316861285644809,0.496724845041032,0.0256963975173496,0.4015890243293685,-0.2912070094861274,9.997409869453804,-0.9282463419329968,0.2579041702237953,-0.9494941033261216
0.96,0.9923984283706292,-0.6418162779417813,2.178687131637568,-0.0238203599066742,0.0797593276508533,0.0507841826604975,-0.5173888828730783,0.7388451120680569,-0.8082256282538794,0.983126672448923,-0.6444019521179973,2.185184891086452,-0.8454966904968825,0.966128906490541,-0.9522853373366632,0.5489034498644257,-0.1232075244772978,0.4431036485051831,-0.2996231964762397,9.985561173391034,-0.9352221714703404,0.258549479060284,-0.9420412172968972
0.98,0.981998347458717,-0.6269411468395207,2.162461984436347,-0.0242636028172319,0.0717522801874142,0.0510871909096907,-0.5227442770333214,0.7481601268114821,-0.8139707035621184,0.9666167386449458,-0.625479373994147,2.166345176427441,-0.885496691092929,1.0061289070865873,-0.9728845461088456,0.609211860888994,-0.2677697080121555,0.465750737171261,-0.2872537654119489,9.988608670480971,-0.9432901363326144,0.2594323564320909,-0.9332635613258844
1.0,0.9714629819332744,-0.6118753591796616,2.1461231152584554,-0.0246918486680122,0.0639649276729998,0.051379135621124,-0.530697106233832,0.7578740750264071,-0.8196104203041588,0.9558611336070508,-0.5895331404989467,2.1217634492582413,-0.6227442785234375,0.8161519944729583,-0.8048094752480763,0.6881400423336619,-0.3976414600255329,0.4856974107462497,-0.2819858371020167,9.997689385243577,-0.951225790904296,0.2602748990515131,-0.9244490897655148
1.02,0.9612486316982344,-0.597231796981226,2.130798002067252,-0.0202810165064789,0.0587097889681845,0.0519194544442396,-0.5439829827157364,0.7800591407231137,-0.7931527422823378,0.9558611336070508,-0.5895331404989467,2.1217634492582413,-0.6227442785234375,0.8161519944729583,-0.8048094752480763,1.8497975430881304,-0.664293824095219,1.1092532848353265,1.3228839010910487,9.999357761776992,-0.9638793976081872,0.2556434051375743,-0.9137183895738812
1.04,0.9502192018933946,-0.5814964676245206,2.115218225157273,-0.0109485152255642,0.0572640066655684,0.052681876103223,-0.5577991607816389,0.7915157218002598,-0.7664302241191581,0.9558611336070508,-0.5895331404989467,2.1217634492582413,-0.6227442785234375,0.8161519944729583,-0.8048094752480763,1.6095286602818055,-0.6908089032951259,0.5728290538573044,1.336125908158986,12.231282175507658,-0.9695821635292866,0.2508827775162484,-0.9052590018199194
1.06,0.9389384573897308,-0.5656029868247429,2.100116877166716,-0.000915354449231,0.0587801630020633,0.0534288718802541,-0.5692633963725305,0.7970158196599366,-0.7449972338009807,0.9496336908218164,-0.5813716205542171,2.1137153545057608,-0.6427442788214607,0.8297503680052535,-0.802977229585268,1.2460465963684626,-0.5732117795445801,0.2750048929838433,1.071649515908868,11.92523586932748,-0.9713950537813254,0.2451828989844446,-0.9022832822985865
1.08,0.9280317102171296,-0.5504394750109957,2.0861229783103035,0.0079450096496778,0.0617244013616267,0.0540827921925867,-0.578056284520089,0.7989126392052374,-0.7290990459461693,0.9371788052513476,-0.5650485806647579,2.097619165000799,-0.6827442794175071,0.856947115069844,-0.7993127382596511,0.913325220594754,-0.4396444073779204,0.0948409772650371,0.7949093927405726,11.551808198382789,-0.9709757247641334,0.2391815911850175,-0.9023784039629548
1.1,0.9163918796964085,-0.5344635029836058,2.0716824247839307,0.0160651125921195,0.065439634566182,0.0546939247619438,-0.5853192702028013,0.7986528664764562,-0.7159530193665007,0.924723919680879,-0.5487255407752988,2.081522975495837,-0.7227442800135536,0.8841438621344344,-0.7956482469340342,0.7510600137992556,-0.3631492841356165,-0.0129886364390596,0.6573013289834284,11.010016490631642,-0.9693760591683186,0.2337620310439161,-0.904080717667918
1.12,0.9046246283360058,-0.518510830334978,2.057470029636886,0.0227791090996207,0.0690831787794142,0.0552073432071829,-0.5909658284827906,0.7967653947151218,-0.7060752240884735,0.910269034080608,-0.5310426635326101,2.065610010557157,-0.7627442806096001,0.9113406091990248,-0.7919837556084174,0.5766650015688646,-0.2823279139994639,-0.0943735880667206,0.4938897639013617,11.010016490631642,-0.967322530126408,0.2292760866677531,-0.9065102513464616
1.14,0.8927600521364989,-0.5026105689541894,2.0434385895711107,0.028021518704506,0.0721537887429151,0.0556009235516936,-0.5952327986461543,0.7936524078189944,-0.6975525077413129,0.8958141484803368,-0.5133597862899214,2.049697045618476,-0.8027442812056466,0.9385373562636152,-0.7883192642828005,0.5013342590643846,-0.2133485081681874,-0.1556493448063689,0.4261358173580254,10.819195903742184,-0.9655914238163776,0.2253044719842186,-0.9088693791384508
1.16,0.8814146689208939,-0.4875649939638556,2.0302603093281526,0.0319150896390716,0.0744018373267438,0.055870813720045,-0.5988249049384308,0.7904000378987498,-0.6900609976586614,0.8803592628651645,-0.4949969903706179,2.033875692962936,-0.8427442818016929,0.9657341033282058,-0.7846547729571838,0.4461049793254786,-0.1796053146138232,-0.162618496012229,0.3745755041325793,10.757781860489558,-0.9642205248288456,0.2221249543377401,-0.9107973305553538
1.18,0.8694020233224228,-0.4717981653876546,2.0165380350177142,0.0351477047660562,0.0761211463548187,0.0560595894886633,-0.6022649909375946,0.7865439294294229,-0.6825757280409287,0.8639043772350912,-0.4759542757746997,2.018145952590536,-0.8827442823977394,0.9929308503927962,-0.7809902816315669,0.4547884823162556,-0.1720042999581894,-0.1928054234663467,0.3742634808866329,10.725878660296075,-0.9638443178297662,0.2197369928227961,-0.9114395012910964
1.2,0.8573225070397235,-0.4561130652652201,2.002960705269833,0.0376185003779352,0.0772382964688113,0.0561570609245415,-0.6055429495213998,0.7822546392574662,-0.675547641417398,0.839288773775543,-0.4324709689161835,1.982409248615668,-0.6880475933669845,0.7968004983306637,-0.6647183664560269,0.4431055863003694,-0.1638979291902598,-0.2144645085978336,0.3514043311765358,10.679523128355868,-0.9639466586393344,0.2179093526711209,-0.9114969686096822
1.22,0.8451351259075564,-0.4403564998625852,1.9896074603229708,0.0447599882467803,0.0791253283049135,0.0565930155953784,-0.6126850364242085,0.7907877845241861,-0.6597550046318125,0.839288773775543,-0.4324709689161835,1.982409248615668,-0.6880475933669845,0.7968004983306637,-0.6647183664560269,0.965959820737442,-0.3571043451404354,0.4266572633359944,0.7896318392792756,10.679523128355868,-0.9643763572421218,0.2126949821981752,-0.912012191589706
1.24,0.8334502230563849,-0.4253544610940549,1.977212265710339,0.0558499983539557,0.0823265849228988,0.0573644593477501,-0.6167253100473685,0.7872646280877584,-0.6458667254864358,0.839288773775543,-0.4324709689161835,1.982409248615668,-0.6880475933669845,0.7968004983306637,-0.6647183664560269,0.744346592397403,-0.2020136811580031,-0.1761578218213821,0.6944139572688357,11.260100623825563,-0.9643174100477584,0.204514475519925,-0.912501476967994
1.26,0.8210930596639922,-0.4097096382571086,1.964421563498768,0.0676703462134895,0.0860610153078708,0.05821409012708,-0.6186445611864171,0.7772418649353915,-0.6340763873510742,0.8324082978418732,-0.4245029639328768,1.9757620649511076,-0.7052041138528625,0.7988518121109118,-0.6611468941390465,0.7796656005771722,-0.095962556952428,-0.5011381576183471,0.5895169067680783,10.95012264925299,-0.9623287798064758,0.1952362280871784,-0.9159548010150802
1.28,0.8087173645035701,-0.3943079705001988,1.9518376223472989,0.0781581582810997,0.0894313498008033,0.0589511096339825,-0.6187844376432583,0.7635148715282717,-0.6250157021288533,0.8186473459745335,-0.4085669539662635,1.962467697621987,-0.7395171548246184,0.8029544396714082,-0.6540039495050858,0.8224140230420162,-0.0069938228420607,-0.6863496703559901,0.453034261111046,10.809210029915448,-0.959838259415796,0.1863621104100117,-0.9202954653343456
1.3,0.7963539980509421,-0.3792090951316142,1.9394117319480024,0.0867275544986776,0.0919183737346887,0.0594791347230917,-0.6176316913290663,0.7474173649827803,-0.6180079329025006,0.8048863941071938,-0.3926309439996502,1.9491733302928664,-0.7738301957963745,0.8070570672319045,-0.6468610048711251,0.8797263361080486,0.0576373157096021,-0.8048753272745679,0.3503884613176355,10.809210029915448,-0.9577746363237404,0.1789030421208273,-0.9242154745720784
1.32,0.7846381615585829,-0.3651789029235616,1.927725699169456,0.0930324857411754,0.0932071595984115,0.0597425937837605,-0.6158048975172707,0.7306356033207092,-0.6124283332039946,0.7894097901912662,-0.3764898026550122,1.936236110195444,-0.8081432367681305,0.8111596947924008,-0.6397180602371644,0.8889553319893843,0.0913396905897756,-0.8390880831035563,0.2789799849252983,10.716602819650689,-0.9564221427069076,0.172276316733801,-0.9274757254688316
1.34,0.7723471678487349,-0.3507632146121447,1.9155378248430568,0.0978659019863368,0.0932981916095829,0.0597493517312616,-0.6134912710375456,0.7120911937796779,-0.6066265937610885,0.7739331862753388,-0.3603486613103741,1.9232988900980212,-0.8424562777398865,0.8152623223528972,-0.6325751156032037,0.9784019793476382,0.1156813239862553,-0.9272204770515656,0.2900869721453036,10.676438193387185,-0.9564169525858316,0.1670102176424349,-0.9292368632347664
1.36,0.7601004246673377,-0.3367252341994126,1.90346868943623,0.1010320657753388,0.0920869248732034,0.0594805352078194,-0.6114013832212792,0.6929200124439703,-0.6005325658208609,0.7575987563351174,-0.3441049542767236,1.910540243616448,-0.8767693187116424,0.8193649499133935,-0.6254321709692429,1.011235632070287,0.10449439081332,-0.9585590667853804,0.304701397011381,10.70089436787839,-0.957701609522523,0.1630829668201434,-0.9294530209503028
1.38,0.7478924117735822,-0.3230785707095092,1.8915273497834588,0.1025973479684107,0.0896258783009648,0.0589426629597425,-0.6096551059294483,0.6730658202111387,-0.5938679455249326,0.7404065003706022,-0.3277586815540607,1.8979601707507237,-0.9110823596833983,0.8234675774738899,-0.6182892263352822,1.0507801831104993,0.0873138645915483,-0.992709611641579,0.3332310147964146,10.70089436787839,-0.9603291166917546,0.1606659276951544,-0.9279451344895888
1.4,0.7363212502871214,-0.3104897390527151,1.88031303016712,0.1024600392368882,0.0861616540789081,0.0581795196283843,-0.6085991319789574,0.6533495607070113,-0.5868842269376211,0.7174096564771099,-0.2894252796989522,1.8618339525072125,-0.6540278619635841,0.6503694182872438,-0.542832112911226,1.0471607984509448,0.052798697524542,-0.9858129752063682,0.3491859293655752,10.736781563538898,-0.964442923418369,0.1595613948655987,-0.924706375513692
1.42,0.7240375905541053,-0.2975423310253063,1.868736283069872,0.1040595103754311,0.0850638864714025,0.0577407862849621,-0.6197681166198475,0.6415123932983172,-0.5708456263243482,0.7174096564771099,-0.2894252796989522,1.8618339525072125,-0.6540278619635841,0.6503694182872438,-0.542832112911226,1.142476979857764,-0.5584492320445056,-0.5918583704347058,0.8019300306636445,10.780013035899174,-0.965810753964528,0.1570195326977424,-0.9244838956889876
1.44,0.7115575885274903,-0.284899976440687,1.8574985060768912,0.1084136556441473,0.0895478028370373,0.0580600763431978,-0.6269632327999548,0.6229939020290496,-0.5537616739317646,0.7174096564771099,-0.2894252796989522,1.8618339525072125,-0.6540278619635841,0.6503694182872438,-0.542832112911226,1.3101198848647853,-0.3597558090053632,-0.9259245634633816,0.8541976196291823,11.396914766909504,-0.9666327256110452,0.153853719839376,-0.9241754850488318
1.46,0.6989878752213967,-0.27267009242654,1.8465953578342824,0.1125211903332868,0.0970240547904206,0.0586884436541234,-0.6291952540962934,0.601165131177818,-0.5373987020890171,0.7108693778574741,-0.2829215855160798,1.8564056313781,-0.6629024131704112,0.6458301379024648,-0.5326249463884847,1.368597825759483,-0.1116010648169296,-1.0914385425615791,0.8181485921373743,11.389039572969525,-0.9626888051925108,0.150373571798626,-0.9291210112571724
1.48,0.6870497327126561,-0.2614709322969893,1.836533101622876,0.1153553179574726,0.1051631752169518,0.059333000807389,-0.6271000946910403,0.5791560860984142,-0.5225876411504278,0.6977888206182024,-0.2699141971503349,1.8455489891198755,-0.6806515155840656,0.6367515771329069,-0.5122106133430021,1.3305593601632884,0.1047579702626533,-1.100452253970191,0.7405530469294652,11.335460567138398,-0.9564630638106674,0.1474224419236616,-0.936279174710708
1.5,0.6745661477102546,-0.2501382610813933,1.826241376188752,0.1169825305573113,0.1134834731078352,0.0598861741867342,-0.6211579835699811,0.5554912554811376,-0.5073709197707233,0.6847082633789306,-0.25690680878459,1.834692346861651,-0.6984006179977199,0.6276730163633489,-0.4917962802975194,1.4377773665165954,0.2971055560529623,-1.1832415308638269,0.7608360689852212,11.293641643909725,-0.950277027089426,0.1459065329916903,-0.9427928470587104
1.52,0.6622371561837908,-0.2392887725793535,1.8162502922444057,0.1167925609799078,0.1205425268505683,0.0601500297492205,-0.6120527570524548,0.5309871910357151,-0.4924857396923063,0.6707402510189763,-0.244353348457323,1.8248564212557008,-0.7161497204113743,0.618594455593791,-0.4713819472520368,1.5040968305330185,0.455261325876316,-1.2252032222711262,0.7442590039208524,11.284528672843408,-0.9447006109705446,0.1456162878807481,-0.9485239483308968
1.54,0.6507164021473436,-0.2294404054396825,1.80703806419774,0.1144632578807933,0.125511702263724,0.0600233652346015,-0.6012347343427484,0.5072823099949237,-0.4779380506209609,0.6567722386590218,-0.231799888130056,1.8150204956497504,-0.7338988228250286,0.6095158948242331,-0.4509676142065541,1.492134593311151,0.5409011354853166,-1.185244052039569,0.7273844535672674,11.332055095551368,-0.940129823474426,0.147134664854223,-0.9529288277757232
1.56,0.6388218451015638,-0.2195382339738521,1.797651119852005,0.1099897628436968,0.1286999493688945,0.0594864154251162,-0.588904701068086,0.4847879400171213,-0.4614111994756869,0.642360498738726,-0.219473391822028,1.8056949283699368,-0.7516479252386828,0.600437334054675,-0.4305532811610715,1.5257483491967052,0.6165016637331211,-1.124718498890123,0.8263425572637012,11.332055095551368,-0.9374273624434154,0.150757168311284,-0.954809241014373
1.58,0.6271790003137504,-0.2100575469761565,1.7886086264908625,0.104621078825282,0.1298148623742868,0.0586377436513221,-0.5761349596528846,0.4647239164690381,-0.4435867691407503,0.627505031258089,-0.2073738595332389,1.796879719416261,-0.7693970276523372,0.5913587732851171,-0.4101389481155889,1.486053206916018,0.6384870707600687,-1.003201177404156,0.8912215167468318,11.401198084603491,-0.9364328266871385,0.1550457523441593,-0.9549080470421938
1.6,0.6157948475677282,-0.2009586722370646,1.779936218799711,0.0989096461907848,0.128810966406201,0.0575368038834383,-0.5631033072420881,0.4464502053220621,-0.4245118803552282,0.5983722523311061,-0.1868213511527046,1.7664292880338248,-0.5805113613119859,0.448966109869898,-0.408392733521253,1.4727558061496218,0.6515826205398256,-0.9136855573488006,0.9537444392761024,11.469341035315663,-0.9377572535392454,0.159697237769729,-0.952417031301166
1.62,0.6050970628091736,-0.1926011731708844,1.7719302661748078,0.0944316230991289,0.1290928984991046,0.056675621897563,-0.5630215666948796,0.4337433138196929,-0.419241105104622,0.5983722523311061,-0.1868213511527046,1.7664292880338248,-0.5805113613119859,0.448966109869898,-0.408392733521253,0.6878459945955288,0.0040870273604276,-0.6353445751184628,0.2635387625303104,11.531734013092318,-0.9302914946757436,0.162580335467565,-0.9584803466571836
1.64,0.5938694107189348,-0.1840758748767054,1.7636158360760998,0.0907547302074195,0.1330197321589427,0.056171772378177,-0.5592694250247104,0.4194846961089508,-0.4123390631584319,0.5983722523311061,-0.1868213511527046,1.7664292880338248,-0.5805113613119859,0.448966109869898,-0.408392733521253,0.8139793135594338,0.1876070835084564,-0.7129308855371025,0.3451020973095076,10.671492194001983,-0.9287859501767596,0.1650543521146507,-0.96007070460378
1.66,0.5827598337184535,-0.1758347354016314,1.755460711390513,0.0874518936755281,0.1387236121854622,0.0558322735160256,-0.5515944123205726,0.40543898589688,-0.4035495497480344,0.5925671387179863,-0.1823316900540056,1.7623453606986124,-0.5813866416438062,0.4458145485500699,-0.4013539263973535,0.9130215514456708,0.383750635206892,-0.7022855106035397,0.4394756705198732,10.800845851100348,-0.924595525302158,0.1671530415660277,-0.9640273502115592
1.68,0.5723817960742783,-0.168260615759734,1.7478881971331337,0.0844622534231846,0.1445076669971418,0.0555282418513761,-0.5410878816753546,0.392635697752704,-0.3940185286214335,0.5809569114917466,-0.1733523678566076,1.7541775060281872,-0.5831372023074466,0.4395114259104138,-0.3872763121495546,0.9554471953193132,0.5253265322609002,-0.6401644072088014,0.4765510563300462,10.9019339896804,-0.9188416249109992,0.1692881636930867,-0.9692239792579654
1.7,0.5617017114669675,-0.1605429981450453,1.7401228980663856,0.0814275754400905,0.1500305973975843,0.0551445499607609,-0.527360024349439,0.3798863514924702,-0.3829801829123929,0.5693466842655068,-0.1643730456592096,1.746009651357762,-0.5848877629710871,0.4332083032707578,-0.3731986979017557,1.087249940004974,0.6863928662957819,-0.6374673130116887,0.5519172854520304,10.981028047497604,-0.9131118261501416,0.1714745523731257,-0.9740927027705372
1.72,0.5513197149619058,-0.1530728903411138,1.732587951629144,0.0785089980190898,0.1543182781434707,0.0546480575100815,-0.5115113465537837,0.3678373163879875,-0.3710385315398296,0.5576489290060851,-0.1557088795937945,1.738545677399727,-0.5866383236347277,0.4269051806311018,-0.3591210836539568,1.160778695879832,0.7924338897827621,-0.6024517552241343,0.5970825686281628,11.0547441799672,-0.90839185053289,0.1737731991604141,-0.9776974076775784
1.74,0.5412708800864752,-0.1458364681854686,1.725296109726324,0.0757082245326476,0.1569277527519318,0.0540134861717357,-0.4943218659570174,0.3564707953419696,-0.3587513094740365,0.5459511737466634,-0.1470447135283793,1.731081703441692,-0.5883888842983681,0.4206020579914457,-0.3450434694061578,1.1996373097422912,0.8594740298383169,-0.5683260523008965,0.6143611032896568,11.1189709764094,-0.9047176138640768,0.1758484529596445,-0.98024577050567
1.76,0.5320488060528884,-0.1391670410412155,1.7186000951535418,0.0731464161852277,0.1577276824812062,0.0532827861526163,-0.47744893551517,0.3462000616101352,-0.3467026431225307,0.5342096544706506,-0.1385381255289556,1.7239696698398517,-0.5901394449620087,0.4142989353517896,-0.3309658551583589,1.1568860293213523,0.84364652209237,-0.5135366865917201,0.6024333175752905,11.143099072046423,-0.9022853278342448,0.1779369917252765,-0.9815493551566769
1.78,0.5226890230224813,-0.1323514098103287,1.711805115883036,0.070561684393485,0.156767397714297,0.0523879527038457,-0.4594971804108037,0.3359590747363284,-0.3333915654504053,0.5224243711780469,-0.1301891155955232,1.7172095765942066,-0.5918900056256491,0.4079958127121335,-0.31688824091056,1.229154294901559,0.8975877552183154,-0.5120493436903406,0.665553883606268,11.171871635357093,-0.9021720931474924,0.1801375114404866,-0.9805400997130131
1.8,0.5136908884206937,-0.1257350134224475,1.7052842769300802,0.0681044973874982,0.153713899756735,0.0513590102245868,-0.4413967399010581,0.3262368136748638,-0.3193385546521803,0.4997141640019411,-0.1155534560735123,1.6951355376105155,-0.4692488532673133,0.3133808949000552,-0.2887941781365625,1.2446238581285676,0.9050220254872788,-0.4861130530732283,0.7026505399112482,11.211734861875811,-0.9042875539521544,0.1822955808869197,-0.9773652022997265
1.82,0.5054619920656456,-0.1195878034519175,1.6993132606157724,0.0670106772015376,0.1487461093434822,0.0503345825772404,-0.4260029553074027,0.3207939332512136,-0.3099046104307664,0.4997141640019411,-0.1155534560735123,1.6951355376105155,-0.4692488532673133,0.3133808949000552,-0.2887941781365625,0.942858492822182,0.7696892296827712,-0.2721440211825104,0.4716972110706957,11.249493107831768,-0.9061358417037616,0.1833617446496209,-0.974296551346112
1.84,0.4970931801910245,-0.1132444450509235,1.693235132412656,0.0676069380676021,0.1418247836914629,0.0492627843042529,-0.4120403383176347,0.3136833342711005,-0.2982737520445548,0.4997141640019411,-0.1155534560735123,1.6951355376105155,-0.4692488532673133,0.3133808949000552,-0.2887941781365625,0.9756948265967328,0.6981308494883987,-0.3555299490056562,0.5815429193105792,10.95830510997348,-0.9114697156011264,0.1823666067490553,-0.9690108197889434
1.86,0.488976054763431,-0.1070558612841295,1.6874102463598308,0.0694897339767031,0.1339706397725979,0.0482023096005621,-0.4006765275768384,0.3054175187688339,-0.2847011239670516,0.495021675469268,-0.1124196471245117,1.69224759582915,-0.4711991878386153,0.3088652589328006,-0.279874700673794,0.9768266650235062,0.5681905370398144,-0.4132907751133313,0.6786314038751629,11.079268775376477,-0.9187339832323752,0.1805546983401824,-0.9617874590960538
1.88,0.4810587898919948,-0.1010520138927153,1.6818740059631203,0.0721392944779452,0.1258802473666612,0.0471523926309881,-0.3918697924594856,0.2951388219463981,-0.2695940890921336,0.4856366984039217,-0.1061520292265106,1.6864717122664188,-0.4750998569812191,0.2998339869982913,-0.2620357457482569,1.0141901874238808,0.4403367558676402,-0.5139348411217881,0.7553517437458995,11.18327483216308,-0.9264817704298666,0.1782997051604176,-0.9540958742691286
1.9,0.4736772351460907,-0.0955611756334501,1.676904585900786,0.0745054642964295,0.1184769471220842,0.0461381132288402,-0.3857479109246647,0.2834458992848941,-0.254229192943728,0.4762517213385754,-0.0998844113285095,1.6806958287036875,-0.479000526123823,0.290802715063782,-0.2441967908227197,1.0127708372894428,0.3060940767410425,-0.5846461330751979,0.7682448074202819,11.262606376064468,-0.9351932166727166,0.1763569742349452,-0.945072982577986
1.92,0.4660109709487207,-0.0900321099638692,1.671998661357272,0.0764427885875734,0.1113491538979055,0.0450594891763955,-0.3813712687730642,0.2701710982911212,-0.2371030316251762,0.466671710816099,-0.0940683570272339,1.675811892887233,-0.4829011952664269,0.2817714431292727,-0.2263578358971826,1.1053062239222418,0.2188321075800248,-0.6637400496886464,0.8563080659275857,11.32267770876024,-0.9440349938303932,0.1751408308151034,-0.9355419327421574
1.94,0.4584106834167141,-0.0847776685721129,1.667440983939656,0.0776245327989412,0.1051978961620856,0.043989257372556,-0.3790571615807064,0.25601204055757,-0.2194830688098962,0.4570917002936225,-0.0882523027259582,1.670927957070779,-0.4868018644090308,0.2727401711947634,-0.2085188809716455,1.1361085969347413,0.115705359617893,-0.7079528866775625,0.8809981407640013,11.375199960900318,-0.9515261177016628,0.1745481106107968,-0.9272225100879564
1.96,0.4508328482108501,-0.0798180439488774,1.6632385048787308,0.0776501870314432,0.1005120577491257,0.0429491206602952,-0.378964584222829,0.2408637509026746,-0.2016120566182289,0.447414173042581,-0.0826620302230453,1.6664899951274623,-0.4907025335516347,0.2637088992602542,-0.1906799260461084,1.1713798773140611,0.0046288678938688,-0.7574144827447684,0.8935506095833642,11.398086488756237,-0.9582046497105292,0.1748042912063972,-0.9195364537723908
1.98,0.4436169977070563,-0.0753921281013988,1.6595789692612344,0.076258101048986,0.0979752306420031,0.0420173369801,-0.380653569211648,0.2260043518465091,-0.1844640068005071,0.4376391290629743,-0.0772975395184952,1.662498007057285,-0.4946032026942385,0.2546776273257449,-0.1728409711205713,1.1376621018056037,-0.0844492494409515,-0.7429699528082728,0.857402490886093,11.414560626768434,-0.9635666314819262,0.1763551092836025,-0.9129977388416524
2.0,0.435983351001847,-0.0710324695491458,1.65608206823606,0.0731706065818506,0.0975469592834533,0.0411062631161947,-0.3824026662283233,0.2112148877472658,-0.1660659788233959,0.424584319246474,-0.0640919105090734,1.650355768921209,-0.3945509751489621,0.2076587183248331,-0.1692908798570976,1.1835064661453203,-0.0874548508337624,-0.7394732049621655,0.9199013988555576,11.427182623111548,-0.9688321802011082,0.1797659130845039,-0.9060420171956084
2.02,0.4282967225881404,-0.0669349236624576,1.6528199950295428,0.0691018650143353,0.0992969437562013,0.040295872914513,-0.3860041363105675,0.1996357550941948,-0.1617545449827993,0.424584319246474,-0.0640919105090734,1.650355768921209,-0.3945509751489621,0.2076587183248331,-0.1692908798570976,0.643497011478213,-0.1800735041122131,-0.5789566326535489,0.2155716920298298,11.425290867154215,-0.9651104236804152,0.1830042618313689,-0.9084017881918208
2.04,0.4205576465303148,-0.0630419261663967,1.6496242222008195,0.0649205428412423,0.1028317893792467,0.0396041054792731,-0.3874652954946487,0.190317579037927,-0.1579586145211373,0.424584319246474,-0.0640919105090734,1.650355768921209,-0.3945509751489621,0.2076587183248331,-0.1692908798570976,0.5083612869962698,-0.0730579592040564,-0.4659088028133931,0.189796523083098,10.52222292215174,-0.964618994638026,0.185637652185175,-0.908879478453461
2.06,0.413199917077553,-0.0595021761046139,1.6466683061326275,0.0612922427635446,0.1069036106876329,0.039015782565629,-0.3868116683134033,0.182731176617095,-0.1533943825006151,0.4206388094949844,-0.062015323325825,1.648662860122638,-0.3973304563364249,0.2039895916204978,-0.1662562544684157,0.4438832732825953,0.0326813590622671,-0.3793201210416,0.2282116010261098,10.573825901527924,-0.9625206117287302,0.1882564766107378,-0.9107977865542428
2.08,0.4054883972001751,-0.0559223283457008,1.6436576658485091,0.0579789474700516,0.1112663279872391,0.0384348157942304,-0.3842399067227108,0.1756327473800983,-0.1478940489880555,0.4127477899920051,-0.0578621489593284,1.645277042525496,-0.4028894187113505,0.1966513382118274,-0.160187003691052,0.4670527916129958,0.128588079534625,-0.3549214618498317,0.2750166756279842,10.573825901527924,-0.9597107792805718,0.1905135616063477,-0.9133604881239664
2.1,0.3978459828262616,-0.0524772596184881,1.6407622541836715,0.0552029508030797,0.1152083435132688,0.0378677662378039,-0.3800534564186062,0.1691931025284185,-0.141918854305779,0.4048567704890259,-0.0537089745928317,1.6418912249283542,-0.4084483810862761,0.189313084803157,-0.1541177529136882,0.4865653693380019,0.2093225152052319,-0.3219822425839944,0.2987597341138251,10.614845256656736,-0.9567498033260572,0.1923684634249883,-0.9160226068877324
2.12,0.390301479452676,-0.0491552040366026,1.63799061200104,0.0529410931941399,0.118374983924909,0.0372981301273925,-0.3746218305506109,0.1632536966301798,-0.1355637759127656,0.3966878028673004,-0.0499227128967686,1.6388088698700805,-0.4140073434612017,0.1819748313944866,-0.1480485021363244,0.5127526776508662,0.2715812933997669,-0.2969702949119301,0.3177539196506693,10.66802623350668,-0.9542323107059651,0.1937749155938199,-0.9182069224362552
2.14,0.3832421816280881,-0.0461057328847106,1.635472899179346,0.0512061743780356,0.1205150965263248,0.0367469020710685,-0.3687818131327247,0.1579696664397136,-0.1297892947111006,0.3885188352455748,-0.0461364512007054,1.6357265148118068,-0.4195663058361273,0.1746365779858161,-0.1419792513589606,0.4882914387006893,0.29200087089431,-0.2642015095233138,0.2887240600832494,10.66802623350668,-0.9518933706508098,0.1948928157927658,-0.9201715189636658
2.16,0.3759337461839903,-0.0430021553826188,1.632939230002227,0.0497423234962232,0.1218592394791046,0.0361552632137027,-0.3624108117344924,0.1526718711961674,-0.1238918869972022,0.3802108935644762,-0.042533645839859,1.632795891022967,-0.4251252682110529,0.1672983245771457,-0.1359100005815968,0.5085167426023599,0.3185500699116106,-0.2648897621773088,0.2948703856949209,10.653892537078718,-0.950200134966712,0.1956960199396663,-0.92150368698189
2.18,0.3687534714711653,-0.0400004770969581,1.630522356861579,0.0486820877129624,0.1223587247598244,0.0355614295695631,-0.3560182508400454,0.1477436796409363,-0.118092454892639,0.3717639778240044,-0.0391142968142294,1.6300169985035615,-0.4306842305859786,0.1599600711684753,-0.1298407498042331,0.4969540208351848,0.3196280447223532,-0.2464095777615554,0.2899716052281578,10.643026688590908,-0.9493144494872092,0.1961833349530284,-0.9220495162854696
2.2,0.3620487455283512,-0.0372376434707384,1.6283337850183397,0.0481020361036775,0.1221809336148204,0.0350067199472288,-0.3501357100043062,0.1433061569591455,-0.1125735706786112,0.350952558929163,-0.0326132931149113,1.624617734116947,-0.3477217881328239,0.1436237684098357,-0.0894386488171852,0.4603096164631783,0.2941270417869568,-0.2218761340895381,0.2759442107013905,10.643026688590908,-0.9490492464798096,0.1963594352102536,-0.921982196204556
2.22,0.3550812930354199,-0.034471262594436,1.6261647567821274,0.0463869584710037,0.1224816367363834,0.0343814803678077,-0.3468367588072967,0.1340374096300715,-0.1044656994993934,0.350952558929163,-0.0326132931149113,1.624617734116947,-0.3477217881328239,0.1436237684098357,-0.0894386488171852,0.6374369206228522,0.1649475598504785,-0.4634373664536992,0.4053935589608904,10.644271516884146,-0.9473486776145412,0.1968426213531,-0.9238281710640216
2.24,0.3481878211333569,-0.0318586304328001,1.6241686113701992,0.0431134776185229,0.1240598395064021,0.0337203490466933,-0.342517764784906,0.1280042302773797,-0.0955369609160931,0.350952558929163,-0.0326132931149113,1.624617734116947,-0.3477217881328239,0.1436237684098357,-0.0894386488171852,0.5804638988690626,0.215949701119536,-0.3016589676345896,0.4464369291650165,10.83835457692112,-0.9476999610254448,0.199784127278043,-0.9223737355296818
2.26,0.3413946209229195,-0.0293410055605221,1.622354865023809,0.0396837158715124,0.1262433968436067,0.0330860544387267,-0.3369169641684203,0.1241115905948853,-0.0862902259388994,0.3474753410478347,-0.0311770554308129,1.6237233476287751,-0.3460624955913796,0.1427997861636156,-0.0837078876020945,0.5745078741449353,0.2800400308242828,-0.1946319841247212,0.4623367488596833,10.847908748783992,-0.9468956277151084,0.2027326355868558,-0.9220149159377236
2.28,0.3350562302367256,-0.0270081533939505,1.6208044986971035,0.036748885230048,0.128420217881987,0.0325202190995901,-0.3305143555782287,0.1215981375604758,-0.0773776106990691,0.3405209052851782,-0.0283045800626162,1.6219345746524314,-0.342743910508491,0.1411518216711754,-0.072246365171913,0.5629066381928568,0.3201304295095797,-0.1256726517204758,0.4456307619915167,10.853662311486003,-0.9454768944744966,0.2056056895921448,-0.9221602851120416
2.3000000000000003,0.3285252406766458,-0.0245962030814213,1.6193568151610085,0.034146342911158,0.1304860879930741,0.0319617849612062,-0.3228799443220748,0.1196891792284276,-0.0678602094785841,0.3335664695225218,-0.0254321046944195,1.6201458016760877,-0.3394253254256024,0.1395038571787352,-0.0607848427417315,0.617473244629423,0.3817205628076969,-0.0954479166024077,0.4758700610242486,10.853662311486003,-0.9439213056568164,0.208158878186226,-0.9223661647105368
2.32,0.3221547705306801,-0.022216511069785,1.618100135564517,0.0320656236139815,0.1320964861991599,0.0314375609102997,-0.3145418015833853,0.1183176171487512,-0.0582863066103948,0.3267779630140097,-0.0226420275508448,1.618930104821253,-0.3361067403427137,0.1378558926862949,-0.04932332031155,0.638485362006618,0.4169071369344745,-0.0685781039838198,0.4786951434094622,10.863022395753433,-0.9427536340516084,0.2104343191849507,-0.9220031355150804
2.34,0.3159565165404914,-0.0198590888254397,1.6170368346040789,0.0305151983172079,0.1331046546670996,0.0309459610114394,-0.3057529009852119,0.1174178271469765,-0.0485195059351421,0.3199894565054977,-0.0198519504072701,1.6177144079664183,-0.3327881552598252,0.1362079281938547,-0.0378617978813685,0.6584922004131549,0.4394450299086666,-0.0449895000887379,0.4883400337626388,10.866774098243695,-0.9430673430862878,0.2130481218828534,-0.9194648029321164
2.36,0.3102327269306455,-0.0176319321481977,1.616209423777617,0.0295820930386948,0.1334714246668205,0.0305133567653931,-0.2972534418589744,0.1170116358806182,-0.0390596634359229,0.3132839146240578,-0.0171030723760064,1.6167852491723382,-0.3294695701769365,0.1345599637014145,-0.026400275451187,0.6361886844590227,0.4249729563118753,-0.0203095633179162,0.4729921249609577,10.877378970322752,-0.9439480752681534,0.2152982789812629,-0.9163052107959752
2.38,0.3043811184111702,-0.0152926810959206,1.615535230332031,0.0292769622236075,0.13327737667489,0.0301037110754613,-0.2884131518955048,0.1168985054298105,-0.0288392755808803,0.3066613373696902,-0.0143953934570537,1.6161426284390128,-0.326150985094048,0.1329119992089743,-0.0149387530210055,0.6756845659119062,0.4420144981734819,-0.0056565225403835,0.5110193927521305,10.8854735570485,-0.9453978173584988,0.217054600335143,-0.912595419442089
2.4,0.2987038385722916,-0.0129543594780721,1.6150673784087255,0.0297541227688978,0.132571315368295,0.0297485950556768,-0.2798246962898653,0.116884977952187,-0.0184414106156934,0.289960460816395,-0.0094477558244301,1.614093266552987,-0.2976586323062595,0.1049835602222743,-0.0403330431925627,0.6743095515357767,0.4294227802819766,-0.0006763738811761,0.5198932482593425,10.90183405400512,-0.9477029497079116,0.2185814738916599,-0.907686417412284
2.42,0.2931976590819946,-0.0105844376541699,1.614669297674235,0.0319611017860736,0.1307225172248802,0.0294910058159518,-0.2712750718810765,0.1197798416852023,-0.0226341863855661,0.289960460816395,-0.0094477558244301,1.614093266552987,-0.2976586323062595,0.1049835602222743,-0.0403330431925627,0.4976336057294452,0.4274812204394379,0.1447431866507663,-0.209638788493635,10.90183405400512,-0.9483977638135184,0.2195541917036066,-0.9034558278928172
2.44,0.2881239150214097,-0.0083046739040642,1.614188689796063,0.0357171827451811,0.1270289049739535,0.0292985004090296,-0.2633558444658119,0.1196288999780229,-0.0276670053526924,0.289960460816395,-0.0094477558244301,1.614093266552987,-0.2976586323062595,0.1049835602222743,-0.0403330431925627,0.4692180010653656,0.3959613707632314,-0.00754708535897,-0.2516409483563129,9.959511763659975,-0.9491181550755164,0.215366549871089,-0.9038158698749332
2.46,0.2829305682580081,-0.0059397447823087,1.613587866561147,0.039886934330965,0.121325737794516,0.0290313358412397,-0.2567770394285173,0.1167841267484232,-0.0320937721639289,0.2869838744933324,-0.0083979202222073,1.6136899361210617,-0.2995077283884104,0.102600571180767,-0.0426317967148992,0.4212175057130355,0.3289402518647288,-0.1422386614799847,-0.2213383405618245,10.04300252484245,-0.951059723949574,0.2114107627871346,-0.9022976894245144
2.48,0.2778374540400304,-0.0036503451382627,1.6129085397380198,0.043627809965533,0.1147798002809552,0.0286806912657897,-0.2531052191260636,0.1123190032079659,-0.0355673773562973,0.2810307018472072,-0.0062982490177618,1.6128832752572102,-0.3032059205527123,0.0978345930977525,-0.0472293037595722,0.3372147891089052,0.1835910151226832,-0.2232561770228645,-0.1736802596184191,10.04300252484245,-0.954765009612912,0.2075873210149506,-0.8992613831930292
2.5,0.2727894085728302,-0.0014623396902344,1.6121687847494464,0.0466970888823992,0.1083866983194864,0.0282729899597571,-0.25200182799896,0.106830302296152,-0.0382226406471359,0.275077529201082,-0.0041985778133164,1.612076614393359,-0.3069041127170142,0.093068615014738,-0.0518268108042451,0.3098133826289331,0.0551695563551835,-0.2744350455906936,-0.1327631645419311,10.134885256687085,-0.9589935576755348,0.2042915457716473,-0.8958401682116374
2.52,0.2679923139133058,0.000508228325062,1.611422300615842,0.048983291141207,0.1031145292445676,0.0278700953200137,-0.2531079591888178,0.1009989026569558,-0.0402121570918535,0.2689394469467417,-0.0023372055130216,1.611040078177274,-0.310602304881316,0.0883026369317236,-0.0564243178489181,0.3129972988900888,-0.055306559492893,-0.291569981959814,-0.0994758222358803,10.134885256687085,-0.9630327004901792,0.2013044543003033,-0.8926606817239571
2.54,0.2628979377245501,0.002459855461013,1.610593815263888,0.0508068927742303,0.0990979093551541,0.0274786270881702,-0.2564127134737481,0.0945447389475932,-0.042543161876159,0.2628013646924014,-0.0004758332127268,1.610003541961189,-0.3143004970456179,0.0835366588487091,-0.0610218248935911,0.3808254632225636,-0.1652377142465133,-0.3227081854681256,-0.1165502392152743,10.167728159722174,-0.9657395263292022,0.198677536176201,-0.8909784884383914
2.56,0.2577172921784567,0.0042763364601286,1.60971522784047,0.0520127056635977,0.097406798978749,0.0271673416069516,-0.2614275933103536,0.0874662340746685,-0.0452131058606214,0.2565708276339536,0.0012663896354925,1.6088520680689873,-0.3179986892099198,0.0787706807656946,-0.065619331938264,0.453824999013328,-0.2507439918302739,-0.3539252436462379,-0.1334971992231218,10.15644974519182,-0.9669584080625188,0.1957851464363404,-0.8918681963694727
2.58,0.252439680039243,0.0059442982186355,1.608779234151587,0.052354248466626,0.0981462617373165,0.0269325965911739,-0.2657822905184484,0.079804321403796,-0.0482517187135011,0.2502478357713982,0.0028894630316365,1.6075856565006688,-0.3216968813742216,0.0740047026826801,-0.070216838982937,0.4661047672464613,-0.2177348604047418,-0.3830956335436244,-0.1519306426439857,10.142624605281526,-0.9666505752240152,0.1931192100559441,-0.8949783107442464
2.6,0.2473597688291595,0.0073844699525155,1.6078307034387096,0.0517009288258699,0.1004142764100881,0.0267345949056282,-0.2685268344889062,0.072298236603121,-0.0514432263131777,0.2391505655133206,0.0099345142888253,1.606366648215912,-0.2586622460821426,0.0625869050875252,-0.0546690653660983,0.430289296286501,-0.1372271985228879,-0.3753042400337483,-0.159575379983827,10.121290890044293,-0.9646494249761376,0.1913637903137796,-0.899595451815992
2.62,0.2419511064850557,0.0087541375621837,1.6068059485014674,0.05015851165884,0.10460927509669,0.026569296690035,-0.2718709206151164,0.0651024051939072,-0.0506535563572297,0.2391505655133206,0.0099345142888253,1.606366648215912,-0.2586622460821426,0.0625869050875252,-0.0546690653660983,0.3987056568719175,-0.1672043063105116,-0.3597915704606914,0.0394834977973979,10.374177415532358,-0.9612358228742228,0.1910648046932138,-0.9046051100954464
2.64,0.2367748265544247,0.009928076139072,1.6058492431968645,0.0481371561291361,0.1102926026166123,0.0264631794936746,-0.2725379907944302,0.0589134191043821,-0.0501223341743053,0.2391505655133206,0.0099345142888253,1.606366648215912,-0.2586622460821426,0.0625869050875252,-0.0546690653660983,0.312372887940423,-0.0333535089656916,-0.3094493044762555,0.0265611091462183,10.374177415532358,-0.9574057149141464,0.1921542744000067,-0.90909119784545
