t,x,y,z,roll,pitch,yaw,v_x,v_y,v_z,ref_x,ref_y,ref_z,ref_v_x,ref_v_y,ref_v_z,a_com,a_x,a_y,a_z,thrust,wind_x,wind_y,wind_z
0.0,1.7907043254658892,-1.2252372506246132,2.769368321444861,0.0242773907771818,0.0997350069028539,0.0425317297483403,0.0049414283996671,-0.0059534583791664,0.0126792957595027,1.790861046066639,-1.2254667281582194,2.769763239477854,-0.0949719908304633,0.0929594009331957,-0.0872748996743619,0.7426740911369681,0.2470714199833592,-0.2976729189583224,0.6339647879751368,10.24495779087374,-0.9435312892650648,0.2609342508510017,-0.8718650304501969
0.02,1.790947230038212,-1.225585256950163,2.76939241467087,0.0144668858987085,0.0946264596593003,0.0417569341590777,0.0186938341980321,-0.0245156868437704,-0.0112549736538918,1.790861046066639,-1.2254667281582194,2.769763239477854,-0.0949719908304633,0.0929594009331957,-0.0872748996743619,1.6632304734822625,0.687620289918249,-0.928111423230198,-1.1967134706697298,10.244356700017306,-0.9448617548142524,0.2642653054429413,-0.87376179737896
0.04,1.7914183642420418,-1.2260750896462649,2.7688569389381987,-0.0021159261774367,0.0800113358900064,0.040572171815214,0.0264095117227682,-0.022814547144244,-0.0411340036382968,1.790861046066639,-1.2254667281582194,2.769763239477854,-0.0949719908304633,0.0929594009331957,-0.0872748996743619,1.5453009324659013,0.3857838762368047,0.0850569849763192,-1.4939514992202485,8.873659879912339,-0.9465950114869248,0.2759610641655169,-0.8688746874080017
0.06,1.7919354582719735,-1.2264526970018326,2.7677190906915903,-0.01902628890598,0.0596323998264774,0.0397364697215326,0.0239440097611639,-0.0147042452142068,-0.0711360001430743,1.7899113261583344,-1.2245371341488875,2.7688904904811107,-0.1149719911284865,0.1129594012312189,-0.1072748999723851,1.5588260739990558,-0.1232750980802175,0.4055150965018592,-1.5000998252388775,8.604805391508307,-0.9535717670040968,0.2858371629327058,-0.8609433589547867
0.08,1.7922899943363413,-1.2266295450538218,2.7660887711508435,-0.0344502241663326,0.0385275823175419,0.0394130972348457,0.0129787329099547,-0.0040542853111218,-0.0990123657988208,1.7880118863417251,-1.2226779461302235,2.7671449924876232,-0.154971991724533,0.1529594018272654,-0.1472749005684315,1.5896152872109195,-0.5482638425604591,0.5324979951542491,-1.3938182827873222,8.647744453217456,-0.9652044974069676,0.2949452247608852,-0.8495164336775889
0.1,1.792359916903108,-1.2265706221649262,2.763803646264411,-0.0499057470234837,0.0171162141293974,0.0395058413954671,-0.005877280126399,0.009680096504182,-0.1280613000846997,1.786112446525116,-1.2208187581115597,2.765399494494136,-0.1949719923205794,0.1929594024233118,-0.187274901164478,1.8628090714167456,-0.9428006518176903,0.6867190907651959,-1.4524467142939457,8.647744453217456,-0.9790469424147608,0.3032050534408446,-0.8360299846436978
0.12,1.791986329518712,-1.226211263836697,2.7609421774368474,-0.0645942714653297,-0.0016976466775094,0.039892481855976,-0.0307813664566879,0.0258519594023782,-0.1566513395012448,1.7822130066787043,-1.2169595700630935,2.761653996470846,-0.2349719929166258,0.2329594030193582,-0.2272749017605244,2.061027061554588,-1.2452043165144435,0.8085931449098095,-1.429501970827253,8.766356321264539,-0.9920033307617084,0.3101452940653779,-0.8247663378543542
0.14,1.791066259910585,-1.225496898545262,2.7575054738232923,-0.078333280361615,-0.0168615924556048,0.0404108348723107,-0.0600400804461326,0.0449237246943949,-0.1856363279648426,1.7783135668322927,-1.213100382014627,2.757908498447557,-0.2749719935126724,0.2729594036154047,-0.267274902356571,2.2693248621037063,-1.4629356994722351,0.9535882646008365,-1.4492494231798936,8.766356321264539,-1.0022316176135069,0.3158145151526942,-0.817174907794555
0.16,1.7896136386385677,-1.2244219182779543,2.753698597875474,-0.0896737893868311,-0.0272631966140103,0.0409114219082584,-0.0911806730201092,0.0668620828262501,-0.2136277957706205,1.77341412697098,-1.2082411939512598,2.753163000409366,-0.3149719941087188,0.3129594042114512,-0.3072749029526174,2.3635515296381,-1.557029628698827,1.0969179065927592,-1.3995733902888954,8.821994422850821,-1.0101277926440686,0.320558197964921,-0.8130898377104829
0.18,1.787422877693172,-1.2228224528553122,2.7491123735973417,-0.0993983836264624,-0.0335961053314546,0.0413021421897119,-0.1262988120219442,0.0916346782577875,-0.2435328188032773,1.7675146870947662,-1.2023820058729913,2.7474175023562744,-0.3549719947047652,0.3529594048074976,-0.3472749035486638,2.6178596094665587,-1.755906950091752,1.2386297715768664,-1.495251151632837,8.821994422850821,-1.013675911260998,0.3238360359637956,-0.8150586475191106
0.2,1.7845132206333991,-1.2207129227139832,2.7439281563931943,-0.1068918426609669,-0.0346611153732901,0.0413774284339537,-0.1623489232612791,0.1177649890401311,-0.2732812862319402,1.7811079370920748,-1.218240718942423,2.736935732657178,-0.2262988135120603,0.1916346797479036,-0.3435328202933934,2.6773937776803134,-1.802505561966744,1.3065155391171823,-1.4874233714331468,8.84941985428668,-1.0151366203491377,0.325708182613794,-0.8194921921402606
0.22,1.7808528957620475,-1.2179403325020548,2.73828577656078,-0.1085928355348772,-0.0299329418901148,0.0412428255345584,-0.2011895537171332,0.1566351433700586,-0.2883997127596129,1.7811079370920748,-1.218240718942423,2.736935732657178,-0.2262988135120603,0.1916346797479036,-0.3435328202933934,2.849583431184828,-1.9420315227927043,1.9435077164963752,-0.7559213263836323,8.882390509297693,-1.0187218236604512,0.3255164579563813,-0.8164304261160519
0.24,1.776701488130906,-1.2146519831486688,2.7326721182684444,-0.1043449776279322,-0.0205177334189016,0.0410052140241864,-0.233120440281157,0.1863957801691856,-0.3016193127605,1.7811079370920748,-1.218240718942423,2.736935732657178,-0.2262988135120603,0.1916346797479036,-0.3435328202933934,2.2803699500506287,-1.5965443282011909,1.4880318399563497,-0.6609800000443561,9.69670772601512,-1.0154114011900324,0.3207931750748177,-0.824383052011059
0.26,1.771737076388756,-1.210654907840513,2.726475627459736,-0.0980426622530995,-0.00775703579913,0.0406430788320614,-0.2610423394907386,0.2114395970370491,-0.3173955045181394,1.7788449489569542,-1.216324372144944,2.733500404454244,-0.2462988138100835,0.2116346800459268,-0.3635328205914166,2.0345229447925384,-1.396094960479077,1.252190843393172,-0.7888095878819695,9.69670772601512,-1.0084186873485237,0.3150643781472704,-0.8365370344960168
0.28,1.7662705664526983,-1.2061945311658102,2.7199350169070247,-0.0917534334488554,0.0061573827099454,0.0402468062003756,-0.2837726249712293,0.2333215903378513,-0.3358418182567689,1.774318972686713,-1.2124916785499855,2.726629748048376,-0.28629881440613,0.2516346806419732,-0.4035328211874631,1.827398423568952,-1.1365142740245386,1.0940996650401145,-0.922315686931474,9.326102107880615,-0.9988640230769934,0.3095892494696627,-0.8511580758500025
0.3,1.7603987623269917,-1.2013177612470756,2.7129991638937025,-0.0861260462510851,0.0199043910831323,0.0398978284980073,-0.3019780991380391,0.2533521015183838,-0.3568352384927275,1.7697929964164718,-1.2086589849550278,2.719759091642508,-0.3262988150021765,0.2916346812380197,-0.4435328217835095,1.7127349189201513,-0.9102737083404866,1.0015255590266197,-1.049671011797931,9.326102107880615,-0.988536563649896,0.3050633693511149,-0.8656719372677378
0.32,1.754520222202066,-1.1963260631686248,2.705998386041476,-0.081566331925531,0.0319647541029961,0.0396571278610107,-0.3157621725048987,0.2712161580432768,-0.3790710553861486,1.7632670201164282,-1.2028262913302674,2.710888435206838,-0.3662988155982229,0.3316346818340661,-0.4835328223795559,1.5839481896713794,-0.6892036683429831,0.8932028262446517,-1.1117908446710567,9.175550872134409,-0.9773323384627084,0.3010208613034233,-0.8805969236447599
0.34,1.748080302480167,-1.1907140508413838,2.6981558847296787,-0.0776330407556382,0.04304384596989,0.0395203745906093,-0.3273617218618297,0.2891470329290839,-0.4041170097832001,1.7567410438163846,-1.196993597705507,2.702017778771168,-0.4062988161942694,0.3716346824301126,-0.5235328229756024,1.645726018444082,-0.5799774678465486,0.896543744290354,-1.252297719852571,8.96534833673104,-0.9665723570099208,0.29746583715769,-0.8948313593204317
0.36,1.7414290606982046,-1.1847399404411827,2.689797608193893,-0.0742415010634382,0.0522647336699879,0.039520674022886,-0.3371404648024556,0.3073069363919566,-0.4304819846633069,1.74921506750144,-1.1901609040658454,2.692147122320596,-0.4462988167903158,0.4116346830261591,-0.5635328235716488,1.6737068199869738,-0.4889371470312958,0.907995173143636,-1.318248744005343,8.916311763663543,-0.956961402103663,0.2944108259491981,-0.9074420747632932
0.38,1.734941971521344,-1.1787302950968843,2.6813592398309662,-0.0711623489803697,0.0594397581199802,0.0396478833328701,-0.3452034129325501,0.3242768825164798,-0.4564672854965447,1.7406890911715942,-1.1823282104112829,2.681276465855124,-0.4862988173863622,0.4516346836222055,-0.6035328241676953,1.6032982126008866,-0.4031474065047224,0.8484973062261592,-1.2992650416618872,8.916311763663543,-0.9477924335801754,0.2911762922801919,-0.9196464966347678
0.4,1.7279576695625158,-1.172062864370485,2.6719325815529964,-0.0679998933930858,0.0655120879048706,0.0398950632108829,-0.3527652233235259,0.341481554027014,-0.4848928765065853,1.7176818008747166,-1.1625164509710604,2.658535875556139,-0.4452034144226662,0.4242768840065959,-0.5564672869866608,1.7038162477542584,-0.3780905195487932,0.8602335755267115,-1.4212795505020304,8.87675762163235,-0.939546112092646,0.2878765929300512,-0.9308632058761092
0.42,1.7208541252310847,-1.1650514505140717,2.662136366026113,-0.0651829057995691,0.069895510437687,0.0402399639398081,-0.3571798053745181,0.3589236182858168,-0.4922595426476135,1.7176818008747166,-1.1625164509710604,2.658535875556139,-0.4452034144226662,0.4242768840065959,-0.5564672869866608,0.9720878436727336,-0.2207291025496077,0.8721032129401424,-0.3683333070514133,10.069319437201557,-0.9403441962155435,0.28453981239499,-0.932236850725757
0.44,1.713672890609321,-1.1577058392109123,2.652196204432816,-0.0631976176311032,0.0722868661023129,0.0406563818927487,-0.3608683344839445,0.3749312801320533,-0.5017569198063019,1.7176818008747166,-1.1625164509710604,2.658535875556139,-0.4452034144226662,0.4242768840065959,-0.5564672869866608,0.9487500430420488,-0.1844264554713232,0.8003830923118238,-0.4748688579344157,10.069319437201557,-0.936575989523972,0.2837489594748415,-0.9358259585546108
0.46,1.7067793361867551,-1.1504317008737344,2.642529281375453,-0.0621063511432974,0.0728156887187277,0.0411016357723737,-0.3647098087856253,0.390029476176234,-0.5153267996182596,1.71322976673049,-1.1582736821309945,2.652971202686272,-0.4652034147206894,0.4442768843046191,-0.576467287284684,1.0330223699295733,-0.1920737150840401,0.7549098022090361,-0.6784939905978837,9.797169074214253,-0.933816278315776,0.2833153547460584,-0.9387567755927648
0.48,1.699439583765852,-1.1424693522774745,2.632040252484869,-0.0616838006435445,0.071721533556477,0.0416151632343093,-0.3691506077393617,0.4054401629617163,-0.5330135504432748,1.7043256984420363,-1.1497881444508624,2.641841856946539,-0.5052034153167358,0.4842768849006655,-0.6164672878807305,1.193766222187075,-0.2220399476868167,0.7705343392741121,-0.8843375412507626,9.559446510390444,-0.9327360280141674,0.2832103013087422,-0.9403352638825458
0.5,1.6920055765665225,-1.1342012007516538,2.621169037831646,-0.0620598622837617,0.0689658678525136,0.042169749212202,-0.3741412686528835,0.4206439554190821,-0.5533192669576598,1.6954216301535832,-1.1413026067707306,2.6307125112068057,-0.5452034159127823,0.524276885496712,-0.6564672884767769,1.292656300610274,-0.2495330456760924,0.7601896228682931,-1.0152858257192476,9.374694302850004,-0.93376268915477,0.2837252958162534,-0.9396748770684722
0.52,1.6844631231567335,-1.125629839947356,2.6098695724389294,-0.0632541368508544,0.0645725296451126,0.0427676599635119,-0.3800539927717494,0.4358079931398197,-0.5755992897630889,1.6845175618353276,-1.1308170690607964,2.6175831654372703,-0.5852034165088288,0.5642768860927585,-0.6964672890728234,1.379590303960034,-0.2956362059432948,0.75820188603688,-1.114001140271459,9.242762993394535,-0.93649780850653,0.2848715112114212,-0.9370580401287592
0.54,1.6771703876913515,-1.1172039800189253,2.598717663722203,-0.0651294808164307,0.0592103718651514,0.0433644140041737,-0.3875628083307334,0.4504403055512654,-0.5971701885026243,1.673613493517072,-1.1203315313508622,2.604453819667735,-0.6252034171048753,0.604276886688805,-0.7364672896688699,1.3562729721891096,-0.3754407779491986,0.7316156205722818,-1.0785449369767663,9.146327341277356,-0.94079728956459,0.2865947976248032,-0.9328850388317548
0.56,1.669312371551671,-1.1080168564700117,2.586532394258768,-0.0674004303025539,0.0531288645691244,0.044012023517836,-0.3980430763373643,0.4675487816704304,-0.6202308149364273,1.661709425183915,-1.1088459936260266,2.5903244738832982,-0.6652034177009216,0.6442768872848513,-0.7764672902649162,1.5283393472412037,-0.5240134003315466,0.8554238059582525,-1.153031321690151,9.128348846536028,-0.9460882994168311,0.2886024801661324,-0.9274623977864982
0.58,1.66122009767397,-1.0984731460423391,2.5738847426758102,-0.0691910791750028,0.0473533127030348,0.0446833342148494,-0.4107779659509151,0.4858296841893906,-0.6433631935854259,1.6488053568358572,-1.09636045588629,2.57519512808396,-0.7052034182969681,0.6842768878808978,-0.8164672908609627,1.6058298106724256,-0.6367444806775396,0.914045125948007,-1.156618932449932,9.116958400652038,-0.9518284001608466,0.2901226048756992,-0.921630300539719
0.6,1.6528500779343986,-1.088554647743073,2.56077282538163,-0.0700686872030225,0.042525739615847,0.0453563664100686,-0.4256727182667436,0.5049174292950203,-0.6666540832209591,1.640681199376424,-1.0741816618328697,2.541716582996539,-0.5107779674410313,0.5858296856795067,-0.7308472702045742,1.6797776636968604,-0.7447376157914243,0.954387255281483,-1.164544481776658,9.120780006282075,-0.9568890283272824,0.2909110943057754,-0.9164540431702616
0.62,1.644565057674407,-1.0787280664543963,2.548125620028609,-0.0687478873406782,0.0409226259874476,0.0459311894535435,-0.445425390680259,0.5279225941282328,-0.6633845262172265,1.640681199376424,-1.0741816618328697,2.541716582996539,-0.5107779674410313,0.5858296856795067,-0.7308472702045742,1.524873502523726,-0.9876336206757708,1.1502582416606288,0.1634778501866274,9.1191585053175,-0.9646256811122396,0.2883549085953276,-0.910835324556889
0.64,1.6354568356777737,-1.0679443157762116,2.534868858982055,-0.064945800403639,0.0435775168751989,0.0463963521339563,-0.4638339635518639,0.5486663756025411,-0.6626910391740274,1.640681199376424,-1.0741816618328697,2.541716582996539,-0.5107779674410313,0.5858296856795067,-0.7308472702045742,1.3871381954424409,-0.9204286435802428,1.037189073715411,0.0346743521599579,10.744957020937363,-0.9665552162231208,0.2870854469829466,-0.9063607597190724
0.66,1.6260138953224348,-1.056782916889677,2.5215728107607447,-0.060401079967397,0.0489598759477974,0.0467381509216298,-0.4791700591284862,0.5662470326068131,-0.6671412274262424,1.6355734197020138,-1.0683233649760746,2.534408110294493,-0.5307779677390545,0.6058296859775298,-0.7483440855284038,1.1875178985149082,-0.766804778831115,0.8790328502136013,-0.2225094126107496,10.40313062421228,-0.9641732231027657,0.2847683737559418,-0.907719959008976
0.68,1.6162947355678308,-1.0452916506277556,2.508133301595926,-0.0559167059065915,0.0557941990729774,0.0470005849174889,-0.4916671585441761,0.5819455698466669,-0.6765486735131555,1.6253578603531933,-1.0566067712624845,2.519791164890402,-0.570777968335101,0.6458296865735763,-0.7833377161760632,1.108063183165665,-0.6248549707844941,0.7849268619926908,-0.4703723043456564,10.073143894866009,-0.9594371782481488,0.2820852702103538,-0.9126215634077016
0.7000000000000001,1.6068553265093717,-1.0340970995885577,2.4951534371373807,-0.0519915211567232,0.0627484439010954,0.0472153891084728,-0.5011393484485551,0.5956550528848236,-0.6892777175562167,1.6151423010043726,-1.0448901775488943,2.5051742194863102,-0.6107779689311474,0.6858296871696228,-0.8183313468237224,1.048452274794038,-0.4736094952189518,0.6854741519078333,-0.6364522021530594,9.79954356930284,-0.9530749333715364,0.2791032815266548,-0.919848969941271
0.72,1.5967481038652718,-1.0220429184467714,2.4811956631767145,-0.0483542923683771,0.0698775588891183,0.0474303768281227,-0.5089194624889162,0.60906372423642,-0.7059910036095801,1.6029267416257498,-1.0311735838055018,2.488807592549836,-0.6507779695271939,0.7258296877656693,-0.8533249774713817,1.1397988557172023,-0.3890057020180526,0.6704335675798201,-0.8356643026681709,9.3945608044869,-0.946008710013478,0.2761875290548625,-0.9281618804483822
0.74,1.5865060391401553,-1.0097276165259184,2.466882575657246,-0.0452657834538444,0.0763206218484618,0.0476489772160463,-0.5147936322107566,0.6218323980261057,-0.7245563722806213,1.5907111822471267,-1.017456990062109,2.472440965613361,-0.6907779701232404,0.7658296883617157,-0.8883186081190411,1.164278547169954,-0.2937084860920202,0.6384336894842857,-0.9282684335520596,9.3945608044869,-0.939366697740344,0.2734620478663045,-0.9361827737971766
0.76,1.5761585592609717,-0.9971533811534384,2.4521832139123347,-0.0424030942836233,0.0818879319654203,0.0478949061489987,-0.5195967664562343,0.6348204145417398,-0.7444527176229918,1.5774956228536026,-1.0027403963038155,2.4551994979106952,-0.7307779707192867,0.8058296889577621,-0.9233122387667004,1.2120470592899155,-0.2401567122738868,0.6494008257817041,-0.9948172671185253,9.31038590054868,-0.9336416004696146,0.2709806156102663,-0.9431438030271992
0.78,1.566247809641975,-0.9849698956416488,2.4378400167872103,-0.0396217527282985,0.0864134061586808,0.0481654267241032,-0.5233578228321365,0.6468524847654846,-0.7643635148986576,1.5632800634451771,-0.987023802530621,2.437083189441838,-0.7707779713153332,0.8458296895538086,-0.9583058694143596,1.1782997359378713,-0.1880528187951091,0.6016035111872431,-0.9955398637832902,9.253683637140057,-0.9290508505327322,0.2684501336581761,-0.9486838477216396
0.8,1.5557454323172717,-0.9719052469961508,2.4223216845168807,-0.0366122836155918,0.0904234539562982,0.0484834682572968,-0.5266373084366217,0.6588550422318125,-0.7864770194566648,1.5400799185003682,-0.9526272714033748,2.3996218410422774,-0.6233578243222526,0.7468524862556007,-0.813128324864745,1.268683860738692,-0.1639742802242605,0.6001278733163917,-1.10567522790036,9.202632064152567,-0.9250357510069964,0.265762977582346,-0.9537232037412524
0.8200000000000001,1.5452122019534624,-0.9585922552328788,2.406674198367022,-0.0334687289944668,0.0936986526867339,0.0488327270006457,-0.5263294086111114,0.671735768876464,-0.7754917935759499,1.5400799185003682,-0.9526272714033748,2.3996218410422774,-0.6233578243222526,0.7468524862556007,-0.813128324864745,0.846585950815266,0.0153949912755135,0.6440363322325782,0.5492612940357466,9.141835763469317,-0.927294588487402,0.2612477465159071,-0.9549920270483988
0.84,1.534700166831097,-0.945037767172331,2.3912719411830734,-0.0304837934281678,0.0960926058426079,0.0491923594103691,-0.5249394773536546,0.6830631905555907,-0.7657208965280424,1.5400799185003682,-0.9526272714033748,2.3996218410422774,-0.6233578243222526,0.7468524862556007,-0.813128324864745,0.7511870937356613,0.0694965628728394,0.5663710839563352,0.4885448523953728,11.2064759630357,-0.9248045272630816,0.2605205217417715,-0.9556321735606876
0.86,1.5247438262837965,-0.9319601748320772,2.3767654880122837,-0.0280705684691866,0.0972614318147749,0.0495276618901583,-0.5232902546408279,0.6930183942580618,-0.7617408994958165,1.5338463402571456,-0.9451587465408188,2.39149055779363,-0.6433578246202758,0.7668524865536239,-0.8228812868579625,0.5423707050780037,0.0824611356413373,0.4977601851235524,0.1989998516112978,10.564636389362931,-0.92281641379878,0.2597309509599046,-0.9562231302784804
0.88,1.5142972298483284,-0.917996914747148,2.361536802331418,-0.0260180438343966,0.0971758798163149,0.0498691496046881,-0.521549328345074,0.7028416625631921,-0.7615090657310425,1.5213791837707007,-0.9302216968157068,2.375227991296335,-0.6833578252163223,0.8068524871496704,-0.8423872108443974,0.498951829980399,0.0870463147876976,0.4911634152565181,0.011591688238699,10.564636389362931,-0.9222608644396076,0.2591266523705838,-0.955684284174132
0.9,1.5038849122112576,-0.9038418721240972,2.346277707360221,-0.0244812676028586,0.0955342404130616,0.0501982629957358,-0.5198526897595961,0.7121984823290838,-0.7645304254346309,1.5089120272842556,-0.9152846470905946,2.35896542479904,-0.7233578258123687,0.8468524877457169,-0.8618931348308323,0.4988919549350859,0.084831929273893,0.4678409882945822,-0.1510679851794205,10.14915549590478,-0.923462684666906,0.258801633058313,-0.9535724289581512
0.92,1.4935059415669123,-0.8895060391608246,2.330930182766282,-0.0235699440883894,0.0919817637411583,0.0505130096336804,-0.5182948584317018,0.7209830411739059,-0.7700433831869377,1.4944448707680082,-0.8983475973356803,2.3417275621024234,-0.7633578264084152,0.8868524883417633,-0.8813990588172672,0.5243758569075962,0.0778915663947166,0.4392279422411049,-0.2756478876153378,10.14915549590478,-0.9266579992005936,0.2591367816177874,-0.9492053045765372
0.94,1.48366791915109,-0.8757289397787186,2.316244947325892,-0.0234503518938984,0.0866294116112792,0.0507926174189752,-0.5177720368256653,0.7288678900362533,-0.7754798810956846,1.4799777142517607,-0.881410547580766,2.324489699405807,-0.8033578270044617,0.9268524889378098,-0.9009049828037022,0.4795823535265065,0.0261410803018224,0.3942424431173708,-0.2718248954373448,10.002212108810454,-0.9314341322483878,0.2596170170690295,-0.9438459155513456
0.96,1.47329234920141,-0.8610593289999249,2.300676343839068,-0.0239964708064006,0.0795628163904163,0.0510647328110693,-0.5201420167080684,0.7376755179072948,-0.7810754993462998,1.464510557720612,-0.8634734978109505,2.306764188609529,-0.843357827600508,0.9668524895338562,-0.9204109067901372,0.5350281697358584,-0.118498994120153,0.440381393552075,-0.2797809125307637,10.002212108810454,-0.9378637410390516,0.2605775366326308,-0.9367845441182108
0.98,1.4628387622094126,-0.8462075024965947,2.284998492489296,-0.0248797197661679,0.0719328873212991,0.0513228921508031,-0.5253591864675702,0.7470461227651908,-0.7864058944148198,1.4480434011745624,-0.8445364480262338,2.2885510297135907,-0.8833578281965545,1.0068524901299023,-0.939916830776572,0.5988326295568442,-0.2608584879750908,0.468530242894799,-0.2665197534259977,10.005402528493503,-0.945513966945072,0.2618392101168775,-0.9282470714903762
1.0,1.4522526396515585,-0.8311615202555149,2.269215856001288,-0.0257530312065581,0.0644431236325313,0.0515762210358291,-0.5331633992759723,0.7570079699754251,-0.7915733320780851,1.436570802886034,-0.8088551963583351,2.2456781977685547,-0.6253591879576863,0.8470461242553069,-0.7875858577651158,0.683459123508155,-0.3902106404201078,0.4980923605117149,-0.2583718831632664,10.016526292689376,-0.9531514518076758,0.2630620712771966,-0.9195398454255376
1.02,1.4419909167928742,-0.8166343571689423,2.254393348318908,-0.0250360595054484,0.0595906691832312,0.0518591779651055,-0.5466239723004152,0.7710555582408107,-0.7683971248788645,1.436570802886034,-0.8088551963583351,2.2456781977685547,-0.6253591879576863,0.8470461242553069,-0.7875858577651158,1.5129923515680483,-0.6730286512221406,0.7023794132692829,1.1588103599610322,11.975723621277211,-0.9636356994870906,0.2610613823230848,-0.9110046330505536
1.04,1.4309073387870188,-0.801080183504616,2.2392691424162345,-0.0221451246634434,0.0587936177995938,0.0521791909580956,-0.5605171748067098,0.7832902923071474,-0.7454378749265251,1.436570802886034,-0.8088551963583351,2.2456781977685547,-0.6253591879576863,0.8470461242553069,-0.7875858577651158,1.4746499177168164,-0.6946601253147333,0.6117367033168342,1.147962497616967,11.975723621277211,-0.9691755161184392,0.2613514109574804,-0.9016818782113718
1.06,1.4195733118088436,-0.7853152718914481,2.224557263781068,-0.0185355245194509,0.0609541193217975,0.0524688194518844,-0.5718648033316743,0.7924864161454438,-0.7268522849887361,1.430317211006457,-0.8003847351157821,2.237802339190904,-0.6453591882557095,0.8670461245533301,-0.787821850435175,1.1819068492541152,-0.5673814262482257,0.4598061919148188,0.9292794968894512,11.69311712601302,-0.9706378300957692,0.2606099944010859,-0.897822754288274
1.08,1.408619295431331,-0.7701868050873879,2.2108886464222985,-0.0153917031389694,0.0644673087122788,0.0526906771332841,-0.5804303743595062,0.7996177807814803,-0.7128604632378074,1.417810027247303,-0.783443812630676,2.222050622035601,-0.685359188851756,0.9070461251493764,-0.7882938357752934,0.894422222044357,-0.4282785513915921,0.3565682318018237,0.6995910875464362,11.38705711763214,-0.969968210735176,0.2597643818208128,-0.8965900756668425
1.1,1.3969353093726409,-0.7541256763945724,2.196757267210992,-0.012723575649868,0.0687124881805501,0.0528675640661066,-0.5873651524627757,0.8062304109231964,-0.7011493486590548,1.4053028434881496,-0.7665028901455698,2.206298904880299,-0.7253591894478024,0.947046125745423,-0.7887658211154118,0.7565848092074514,-0.3467389051634739,0.3306315070858046,0.5855557289376312,11.129147011249188,-0.9681310599010332,0.2591102788509407,-0.897008565716546
1.12,1.3851311220175904,-0.7379369285739291,2.182830687772053,-0.0107862486771482,0.0728028118136354,0.0529908615488616,-0.5926234088756008,0.8124337484022963,-0.6922075061047673,1.3907956596991935,-0.7475619676306614,2.1905235884579906,-0.7653591900438489,0.9870461263414696,-0.7892378064555302,0.6043326994468544,-0.262912820641259,0.3101668739549978,0.4470921277143713,10.764321985214336,-0.9660805376047142,0.258989461797078,-0.8975847305816288
1.14,1.3738342954763352,-0.7224476706784541,2.1697533512200016,-0.0096850784457527,0.076078684356847,0.0530565705462513,-0.5962692892891005,0.8178199805300388,-0.6847955169083757,1.3762884759102376,-0.7286210451157529,2.1747482720356826,-0.8053591906398954,1.027046126937516,-0.7897097917956486,0.4930555860420101,-0.1822940206749834,0.2693116063871237,0.3705994598195816,10.708832100346626,-0.9645676908090642,0.2592007281338683,-0.8979117842856803
1.16,1.3618737316873082,-0.7060281859894527,2.156134385639542,-0.0092090900234521,0.0787305920414224,0.0530768968975182,-0.5995911149800398,0.8238547808560295,-0.677513918022837,1.3607812921063804,-0.7086801225859433,2.158961155979872,-0.8453591912359417,1.0670461275335623,-0.7901817771357671,0.5011861511091464,-0.1660912845469653,0.3017400162995343,0.3640799442769349,10.67985697659242,-0.9632574436153788,0.2598074802299204,-0.8980286002663883
1.18,1.3498501534639384,-0.6894843714937456,2.142655830430442,-0.0091868642406593,0.0806335424808899,0.0530625274205406,-0.6026121919171532,0.8302177196153895,-0.6707253053834827,1.344274108287622,-0.6877392000412326,2.143162240290557,-0.8853591918319882,1.107046128129609,-0.7906537624758855,0.4891297299350264,-0.1510538468556699,0.3181469379680002,0.3394306319677131,10.651838136979675,-0.9625782289108528,0.2607884153405785,-0.8973527497535453
1.2,1.3377679364193111,-0.6728091536298826,2.1293078251864244,-0.0094048708436505,0.0818675663571618,0.0530277844825108,-0.6054977998261559,0.8369474307231531,-0.6644101796954568,1.3197195438680809,-0.6479734855129762,2.109119565161268,-0.7026121934072693,0.9210542222270266,-0.6559231074577363,0.483468088538483,-0.1442803954501359,0.3364855553881829,0.3157562844012973,10.625546643212148,-0.962639519537289,0.2619425166138797,-0.8958490646879179
1.22,1.326225427310875,-0.6567707113009761,2.116866476783464,-0.0074663813452878,0.0830743857141509,0.0531345279231321,-0.6091674008534177,0.8499115570025878,-0.6454870340565513,1.3197195438680809,-0.6479734855129762,2.109119565161268,-0.7026121934072693,0.9210542222270266,-0.6559231074577363,1.1614860984527944,-0.1834800513630885,0.6482063139717331,0.9461572819452756,11.50800243187132,-0.964580100602725,0.2601022557319098,-0.894825039902477
1.24,1.314017382022425,-0.6396841013350608,2.1041558507425107,-0.0030522411052524,0.0845674073707607,0.0533998053132372,-0.6113773805978701,0.857670718490593,-0.6267030568776962,1.3197195438680809,-0.6479734855129762,2.109119565161268,-0.7026121934072693,0.9210542222270266,-0.6559231074577363,1.0221624089688237,-0.110498987222618,0.3879580744002575,0.9391988589427523,11.353262598307085,-0.9661215948439676,0.2588572783886,-0.8909583906899274
1.26,1.3017766217631197,-0.622480359412119,2.0917891611705093,0.0014187112154032,0.0856277945598636,0.0536588714853438,-0.6126526208413232,0.8623419952661228,-0.6108923867897472,1.3126934219340085,-0.6387629432907059,2.1025603340866907,-0.7226121937052925,0.939221522749354,-0.652962667872587,0.8267774081064566,-0.0637620121726578,0.2335638387764904,0.7905335043974504,11.353262598307085,-0.9670771976328714,0.2574930848984348,-0.8880127435623902
1.28,1.2901289790733947,-0.6060673574800559,2.080310854782343,0.0050222624510072,0.085924634462515,0.0538464422015937,-0.6134613727990258,0.8652649589787565,-0.598133097671951,1.2986411780658629,-0.6203418588461653,2.0894418719375363,-0.762612194301339,0.9755561237940088,-0.6470417887022885,0.6557386205378916,-0.040437597885129,0.1461481856316893,0.6379644558898112,11.16719453904716,-0.9683179501556104,0.2559780399567066,-0.885377950033414
1.3,1.2778528283160933,-0.5887399099107334,2.0684738322498624,0.0079137087391755,0.085304540885967,0.0539608514622636,-0.6142004832188794,0.8674760334962401,-0.5863058258306546,1.2845889341977177,-0.6019207744016248,2.0763234097883814,-0.8026121948973854,1.0118907248386635,-0.6411209095319899,0.6027426771486405,-0.0369555209926819,0.1105537258741795,0.5913635920648197,11.020572537403496,-0.970186714358552,0.2548735699090475,-0.8823108951319796
1.32,1.2655616650491075,-0.5713735347521235,2.056859482905648,0.0098489558009036,0.0835369835294121,0.0539829760651716,-0.6149649113902972,0.869203617095478,-0.5757616104232636,1.2685366902997697,-0.5816829599048515,2.0635009915977416,-0.8426121954934319,1.0482253258833183,-0.6352000303616913,0.5356056713643798,-0.0382214085708876,0.0863791799618929,0.5272107703695517,10.91837841114102,-0.9730937716166596,0.2543778353802119,-0.8781084614894931
1.34,1.253254948819962,-0.5539794842932195,2.0454520604548567,0.010728049092109,0.0803429666185546,0.0539023423274956,-0.6158279796247494,0.8702878127614833,-0.56548722877643,1.252484446401822,-0.5614451454080782,2.050678573407102,-0.8826121960894784,1.0845599269279735,-0.6292791511913927,0.5183707294116248,-0.0431534117226128,0.054209783300263,0.5137190823416793,10.839234148598734,-0.977223102641028,0.2545128089274406,-0.8726290550288431
1.36,1.2415370872322362,-0.5374315567047014,2.034807041056052,0.010648045802021,0.0759462111925061,0.0537375797154428,-0.6177507337267989,0.8715955506462622,-0.555538098113532,1.2354322024889732,-0.5402989658851886,2.03800417719572,-0.9226121966855249,1.1208945279726283,-0.6233582720210942,0.5108629039665382,-0.0961377051024725,0.0653868942389446,0.4974565331448966,10.82337317553356,-0.9825744479180236,0.2553019530360877,-0.8655842591985088
1.38,1.229144541621564,-0.519984008800393,2.023810076650581,0.0097591214952674,0.0701996179035951,0.0534921391539968,-0.6217263404303174,0.8731291469068893,-0.5446527983885433,1.217379958561223,-0.5182444213361826,2.0254778029635943,-0.9626121972815712,1.1572291290172831,-0.6174373928507956,0.5844807872259591,-0.1987803351759243,0.076679813031355,0.5442649862494375,10.828784541545248,-0.9889522406048438,0.2567313586386722,-0.8570975246712168
1.4,1.2166439469443562,-0.5025017193409909,2.0130355780725786,0.0081674768484794,0.0640393392647486,0.0531967643410531,-0.6283556157805815,0.8750709036558395,-0.5333090395888983,1.1980582246000482,-0.4763275514550485,1.9965774367311544,-0.7217263419204335,0.9172441016765006,-0.5365556647893216,0.664075625674962,-0.331463767513207,0.0970878374475125,0.5671879399822499,10.87156992506425,-0.9960192380364702,0.2588018132384924,-0.8473903693189068
1.42,1.2039171204600534,-0.4847622738813859,2.002519362730396,0.0129675381416478,0.0600382843742696,0.0533563098248427,-0.6438264959574275,0.8947691775260809,-0.5188557346994527,1.1980582246000482,-0.4763275514550485,1.9965774367311544,-0.7217263419204335,0.9172441016765006,-0.5365556647893216,1.4459150641900025,-0.7735440088422973,0.9849136935120684,0.7226652444722814,10.87156992506425,-1.0023322861750028,0.2587904763574381,-0.8365273403272552
1.44,1.1915437467528935,-0.4676969871710311,1.992789087553192,0.0233332435459647,0.0600893885038737,0.0539272647070871,-0.6573363033761183,0.8996889008395499,-0.5060906619586024,1.1980582246000482,-0.4763275514550485,1.9965774367311544,-0.7217263419204335,0.9172441016765006,-0.5365556647893216,0.9613345620157449,-0.6754903709345395,0.2459861656734507,0.6382536370425129,11.134645815412114,-1.0072384754490398,0.2523185700853811,-0.8314618821639913
1.46,1.178273333625313,-0.4497201934633112,1.9827824022134155,0.0349855826788652,0.0627601833912438,0.0546297438529351,-0.6686927363153282,0.897509005775264,-0.4953867326245963,1.190840961180844,-0.4671551104382835,1.9912118800832608,-0.7417263422184567,0.9260670926304228,-0.5349362380694772,0.787868350013925,-0.567821646960498,-0.108994753214292,0.5351964667003023,10.798541536099036,-1.0078076567869707,0.2441844034683027,-0.8328908764339443
1.48,1.1648032828989048,-0.4318341724472809,1.9729572730322384,0.0455330929997483,0.0668425776108702,0.0553165409501273,-0.6775265209338891,0.8912692808707452,-0.4877917672823824,1.1764064343424352,-0.4488102284047535,1.9804807667874744,-0.7817263428145032,0.9437130745382676,-0.5316973846297885,0.6607825211834571,-0.441689230928044,-0.3119862452259425,0.3797482671106966,10.615465544547988,-1.006361070950137,0.2362720473903919,-0.8370734403159252
1.5,1.1511811851089613,-0.4141022881204964,1.9632539092083692,0.0542685215116744,0.0713597763751042,0.0559152632650159,-0.6841254628441961,0.8825765067665351,-0.4829136759337697,1.1619719075040265,-0.4304653463712234,1.9697496534916883,-0.8217263434105496,0.961359056446112,-0.5284585311900999,0.5977167622876276,-0.3299470955153483,-0.4346387052105049,0.2439045674306361,10.615465544547988,-1.0039152143057837,0.229606105774114,-0.842235152856363
1.52,1.138136477976307,-0.3974330868023142,1.9541082107854064,0.0608043800447524,0.0754056390110001,0.0563601593423712,-0.6886468293048286,0.8728785073343562,-0.4800297084932392,1.1455373806358151,-0.4112381652423012,1.9591804828678865,-0.8617263440065961,0.9790050383539566,-0.5252196777504112,0.5541011095818027,-0.2260683230316251,-0.484899971608943,0.1441983720265244,10.475795320920042,-1.000943370765332,0.2234541830154792,-0.8481582025169958
1.54,1.1243275956603476,-0.3800933883941954,1.944530187688976,0.0659526617781015,0.0789377162689676,0.0566671420836093,-0.6919864523410759,0.8618617647847737,-0.4779593471930018,1.1291028537676044,-0.392010984113379,1.948611312244084,-0.9017263446026426,0.9966510202618012,-0.5219808243107226,0.5848249617226007,-0.1669811518123676,-0.5508371274791257,0.1035180650118705,10.336175529246248,-0.9982137445624392,0.2182937650027802,-0.8536848221703504
1.56,1.1104583435645612,-0.3629766156714124,1.9349871736560251,0.0696170195217441,0.0815724335972049,0.0568066381820547,-0.6947879134052168,0.8505715443344359,-0.4764586784656088,1.1116683268844922,-0.3723426534367606,1.9381231129562744,-0.941726345198689,1.0142970021696458,-0.5187419708710338,0.5864496324078018,-0.140073053207046,-0.5645110225168892,0.0750334363696481,10.336175529246248,-0.9960821648775012,0.2143902349571052,-0.8579330794943113
1.58,1.0965369959734184,-0.3460893779095598,1.9254716313473923,0.0720664239305624,0.0834020555641964,0.056794918095791,-0.6972596527391133,0.8389965654137599,-0.4751589740210377,1.093233799986479,-0.3522331732124462,1.927715885004457,-0.9817263457947356,1.0319429840774903,-0.5155031174313451,0.5953546505908553,-0.1235869666948219,-0.5787489460338024,0.0649852222285585,10.311381856404296,-0.9947920729307428,0.211594565970452,-0.8608205444557704
1.6,1.0832675666555325,-0.3302639857660971,1.916456023513288,0.0734179206256671,0.0844972355301153,0.0566574169587293,-0.6994485179701234,0.8275937552326325,-0.4739105331037777,1.0616740133364626,-0.3041395496388718,1.9017136826463403,-0.7972596542292294,0.8114041560116279,-0.4569189934575163,0.5838960004791895,-0.1094432615505069,-0.5701405090563716,0.0624220458630003,10.311381856404296,-0.9941055573086864,0.2094058734051131,-0.8629222913596848
1.62,1.069239229167477,-0.3136414235440199,1.9070554154903523,0.080365278885937,0.0853693179396463,0.0568620048601545,-0.7030684756408444,0.8319367464540324,-0.4661508595664731,1.0616740133364626,-0.3041395496388718,1.9017136826463403,-0.7972596542292294,0.8114041560116279,-0.4569189934575163,0.4800473926929326,-0.1809978835360493,0.2171495610699958,0.3879836768652278,10.318116482930236,-0.9942488003814128,0.2038957131328398,-0.8639941065767278
1.64,1.0551567142612412,-0.2971037380428556,1.897800379998808,0.0925065760224175,0.0860333467425598,0.0573879536101127,-0.7049786917456833,0.8209602001846145,-0.4598835100238888,1.0616740133364626,-0.3041395496388718,1.9017136826463403,-0.7972596542292294,0.8114041560116279,-0.4569189934575163,0.6391657919913845,-0.095510805241944,-0.5488273134708954,0.3133674771292144,10.660328614457285,-0.9953238972900544,0.1943400627643456,-0.8650313218176438
1.66,1.0410444722802927,-0.2808516434748649,1.8886480630300664,0.1049690305340274,0.0860548093380449,0.0578445348592587,-0.7062404343131805,0.8044768868035285,-0.4556957968135388,1.0537014167941705,-0.2960255080787555,1.897144492711765,-0.8172596545272526,0.8058856741312015,-0.453270997344812,0.8526848131898789,-0.0630871283748613,-0.8241656690542998,0.2093856605175026,10.484513200849506,-0.9956216153149618,0.1842308241887809,-0.867325590451916
1.68,1.0276183668526868,-0.2657676390039069,1.8800163870675803,0.115674031000581,0.0853179846621707,0.0580804853424558,-0.707076168409786,0.7843556919960105,-0.4530991599792773,1.037756223709586,-0.2797974249585229,1.8880061128426149,-0.857259655123299,0.7948487103703487,-0.4459750051194034,1.0152628413511446,-0.0417867048302766,-1.0060597403758975,0.1298318417130739,10.484513200849506,-0.9965224163972888,0.1739101476695988,-0.8693265441019475
1.7,1.013470682267115,-0.2503306722475131,1.8709769780605932,0.1250533366816065,0.0835472582682395,0.0580323337768136,-0.7077197794637224,0.7605926596844425,-0.4509733314602159,1.0218110306250012,-0.2635693418382904,1.8788677329734644,-0.8972596557193455,0.7838117466094958,-0.4386790128939949,1.1933305144864852,-0.0321805526968199,-1.188151615578403,0.10629142595307,10.434001990046454,-0.9983579505694328,0.1647211795940044,-0.8702323372258458
1.72,0.9993110770105866,-0.2353912259199214,1.8619788764261145,0.1323144819213982,0.0804766834671378,0.0576179466237805,-0.7083202213706976,0.7348303064649311,-0.4488960072008972,1.0038658375106144,-0.2478931069061004,1.8700941527155843,-0.937259656315392,0.772774782848643,-0.4313830206685863,1.29264713859668,-0.0300220953487584,-1.2881176609755685,0.1038662129659334,10.421325089537277,-1.0015140902329882,0.1568931836102654,-0.8695644825807218
1.74,0.9851372328695984,-0.2209842333036326,1.85303046920037,0.1374156353877983,0.0758350126035361,0.0567884339414758,-0.7092519350331727,0.7076644786340661,-0.4459790090813593,0.9859206443962274,-0.2322168719739105,1.8613205724577049,-0.9772596569114383,0.7617378190877901,-0.4240870284431778,1.3668935310718495,-0.0465856831237565,-1.3582913915432482,0.1458499059768941,10.495111764417745,-1.0060035787923014,0.1509231619311909,-0.8670183562146153
1.76,0.9716356997685685,-0.2078108323384425,1.844595127199684,0.140426981685706,0.0701906408168152,0.0556561436860286,-0.7122283052989195,0.6808501570481413,-0.4420303032743505,0.9669754512669394,-0.2168165611357419,1.85272939200546,-1.0172596575074848,0.7507008553269374,-0.4167910362177692,1.3633221369347364,-0.1488185132873354,-1.3407160792962391,0.1974352903504422,10.495111764417745,-1.0117758641664156,0.1460232095729993,-0.8628585300831072
1.78,0.9573351317723916,-0.1944999292237071,1.835810618796296,0.1418291392318126,0.0638063165597637,0.0542422731073003,-0.7179135582269977,0.6518889655070529,-0.4365241816091533,0.94703025812275,-0.2016921743915947,1.8443206113588504,-1.0572596581035312,0.7396638915660846,-0.4094950439923607,1.5011579631469405,-0.2842626464039099,-1.4480595770544225,0.2753060832598575,10.575699907101807,-1.0188972583681035,0.1427826566903128,-0.8568298492596444
1.8,0.942895564783112,-0.181781756276957,1.827150424718798,0.1411206917774413,0.0576772386399131,0.0526978524019709,-0.725932614970779,0.6216154821416188,-0.4296669891576468,0.921439453861042,-0.1619054809483545,1.8139844097158384,-0.7737294449331115,0.5875396121936068,-0.4090766468840833,1.6029739193559889,-0.4009528371890669,-1.513674168271706,0.3428596225753283,10.753969815870732,-1.026741644964534,0.1415095181750098,-0.849508365951418
1.82,0.9281284007425796,-0.1695465528663574,1.8186087616427875,0.1419925265684121,0.0566919116607531,0.0519859110629155,-0.7493627861799496,0.6021586198149762,-0.4249773706834023,0.921439453861042,-0.1619054809483545,1.8139844097158384,-0.7737294449331115,0.5875396121936068,-0.4090766468840833,1.5407262377876734,-1.1715085604585285,-0.9728431163321284,0.2344809237122241,10.753969815870732,-1.025832770280985,0.1388497309301751,-0.8517118057498969
1.84,0.9137229311626772,-0.1583355237779757,1.810588001289984,0.1455391041829114,0.062573508654519,0.0524682848528566,-0.7650709972914967,0.578480008775955,-0.4195624264756453,0.921439453861042,-0.1619054809483545,1.8139844097158384,-0.7737294449331115,0.5875396121936068,-0.4090766468840833,1.446328228511179,-0.7854105555773594,-1.1839305519510623,0.2707472103878477,10.673620414901052,-1.0273370920790426,0.1358675849343235,-0.8521707939703861
1.86,0.8983040584278208,-0.1470623910754548,1.8022571413004644,0.149490252077062,0.0724105157849718,0.0535410488716215,-0.7753966997460568,0.5501336920978206,-0.4137882756473173,0.9137021594117108,-0.1560300848264184,1.8098936432469972,-0.7848926222743342,0.5746697415309177,-0.4035871399390693,1.535801597037739,-0.5162851227280052,-1.4173158339067182,0.2887075414163997,10.685999603096208,-1.022713939395587,0.1319228449198164,-0.85988526592487
1.88,0.8827319511619154,-0.1363759020524974,1.794039785592768,0.1526058127162486,0.0839450784411895,0.0548341082609493,-0.7808314306512686,0.5201604059611258,-0.408222914906814,0.8982275705130486,-0.1442792925825463,1.801712110309316,-0.8072189769567798,0.5489300002055392,-0.3926081260490413,1.5483115174409994,-0.2717365452605869,-1.4986643068347405,0.2782680370251644,10.674577732075704,-1.0145123260723872,0.1278525673772871,-0.8716887222127844
1.9,0.867094338513573,-0.1262995366682814,1.7859318180445278,0.1544278645086769,0.0960361920568643,0.056136739632923,-0.7822690774665658,0.4893389897387805,-0.4028307254225113,0.8827529816143863,-0.1325285003386741,1.793530577371634,-0.8295453316392253,0.5231902588801608,-0.3816291121590133,1.566127576022469,-0.0718823407648616,-1.5410708111172622,0.2696094742151378,10.666975631838795,-1.0053515494750187,0.1247110328584958,-0.8840443356170103
1.92,0.8522466643065983,-0.1173045309446044,1.778328572794667,0.1546900957212761,0.1074280955548985,0.0572548061840892,-0.7802903021303892,0.4593299069394853,-0.3977741232147833,0.8661620749816018,-0.1220646951610709,1.785897995128454,-0.8518716863216708,0.4974505175547823,-0.3706500982689854,1.5248195206099144,0.0989387668088315,-1.500454139964763,0.2528301103864011,10.67339862287008,-0.9950112060490892,0.1224242425473111,-0.8973537698198149
1.94,0.836703808054179,-0.1084530945244627,1.7704292582797378,0.1530444150170234,0.1184988538818813,0.058131435906658,-0.7738657513398973,0.4276124624969844,-0.3924215582902398,0.8495711683488173,-0.1116008899834677,1.7782654128852735,-0.8741980410041164,0.4717107762294039,-0.3596710843789573,1.6400618022609623,0.3212275395245934,-1.5858722221250423,0.2676282462271723,10.692881220687925,-0.9850768855786942,0.1216997782505855,-0.9096493206388354
1.96,0.8213258039938967,-0.1002310219507387,1.7626387213303425,0.1491912578515781,0.1277554483246354,0.0585316160316677,-0.7641804772327498,0.3969396727801507,-0.3868074957755548,0.8324221028489717,-0.1017805783389989,1.770907305989344,-0.8965243956865618,0.4459710349040255,-0.3486920704889293,1.6325916983912991,0.4842637053573739,-1.5336394858416869,0.2807031257342524,10.716777822343827,-0.9755706167761118,0.122548066734011,-0.9208960201189756
1.98,0.8061686709161522,-0.0925932955524584,1.7549697440346774,0.1439995460171305,0.134704866679982,0.0584419212975017,-0.7521376361398903,0.3688526017179539,-0.3803353811736187,0.8147148784820648,-0.0926037602276646,1.7638236744406652,-0.9188507503690072,0.4202312935786471,-0.3377130565989014,1.5618913613479586,0.602142054642979,-1.4043535531098383,0.3236057300968015,10.745520178931656,-0.9682363581009984,0.124478615006684,-0.9293483110232224
2.0,0.7920068055591485,-0.0858377560791574,1.7478131219601911,0.1385030875793903,0.1390277625303375,0.0579481962711808,-0.7393582220175368,0.3439674426445551,-0.3732926301720862,0.7685617891091576,-0.0741506654665607,1.7359529749759963,-0.7276202787904945,0.3376094618400385,-0.3179528209502777,1.4423807655128356,0.6389707061176753,-1.2442579536699387,0.3521375500766283,10.794513510124489,-0.9625619098687416,0.1272177635357184,-0.935699447919064
2.02,0.7772920619831859,-0.0792953524325846,1.7404159727795523,0.1301489089156519,0.1437384585673705,0.0572304231610531,-0.7326193171618209,0.3131254392767882,-0.366591630541601,0.7685617891091576,-0.0741506654665607,1.7359529749759963,-0.7276202787904945,0.3376094618400385,-0.3179528209502777,1.6136491304179914,0.3369452427857911,-1.542100168388344,0.3350499815242574,10.85161796608918,-0.9527803284076832,0.1304515094790601,-0.9466031222542348
2.04,0.7627369108994074,-0.0732908237431184,1.7331879905048333,0.1196596980358381,0.150526542378042,0.0565764922518142,-0.7228211316973334,0.2893899695985437,-0.3563757055930038,0.7685617891091576,-0.0741506654665607,1.7359529749759963,-0.7276202787904945,0.3376094618400385,-0.3179528209502777,1.3817941975912424,0.4899092732243759,-1.186773483912226,0.5107962474298594,10.863962005189023,-0.9475091342188556,0.1384289160196472,-0.951407074011016
2.06,0.7484136633578043,-0.0677145348921964,1.726198674518337,0.1091791608055675,0.1581675049895246,0.0559491036354427,-0.7097095833852994,0.269686845601411,-0.3430964786925526,0.7612855863212526,-0.0707745708481603,1.7327734467664937,-0.7227168073206154,0.3313608338644555,-0.3054763089056095,1.3568931990570006,0.6555774156016991,-0.9851561998566376,0.6639613450225595,11.03289040877644,-0.9412157621164242,0.1463196256280728,-0.9567195112590522
2.08,0.7350756498674673,-0.0627522241000233,1.7198244765600774,0.0998824063693256,0.1656106542511592,0.055346709516051,-0.6947306410351919,0.253729222927096,-0.3285747953079935,0.7467331807454428,-0.0640223816113595,1.7264143903474882,-0.712909864380857,0.3188635779132893,-0.2805232848162732,1.3132914029881542,0.7489471175053775,-0.7978811337157471,0.7260841692279585,11.19204194771919,-0.9338945750738158,0.154372918638499,-0.9624973120754358
2.1,0.7213671132850161,-0.0578317024561405,1.7134280866063885,0.091045627765527,0.1733042598652657,0.0546949628056431,-0.6766723861628532,0.2392372140430038,-0.3117964789442569,0.7321807751696329,-0.0572701923745587,1.7200553339284828,-0.7031029214410988,0.3063663219621231,-0.2555702607269368,1.4297122005254963,0.9029127436169349,-0.7246004442046122,0.8389158181868278,11.313720253302565,-0.9264262298607042,0.1618915561144273,-0.9680311637264852
2.12,0.7080464607969339,-0.0531793949917857,1.7073788046540797,0.0832665069157705,0.1805291176483096,0.0540139242620464,-0.6561068874900302,0.2267432351018694,-0.2939648274840259,0.7181187167408108,-0.0511428659353163,1.714943928713944,-0.6932959785013405,0.293869066010957,-0.2306172366376004,1.497503789012361,1.028274933641149,-0.6246989470567205,0.8915825730115484,11.418609839357488,-0.9197535171041376,0.1684763626704391,-0.9725894185512552
2.14,0.6951719906165525,-0.0487572575068792,1.7016947995299754,0.0765674461499124,0.1865603128217595,0.0532634125782822,-0.63239120573638,0.2160044895215757,-0.2753687379623018,0.7040566583119889,-0.0450155394960738,1.7098325234994052,-0.6834890355615821,0.2813718100597908,-0.2056642125482639,1.5996630607558229,1.185784087682512,-0.5369372790146848,0.9298044760862072,11.494543479922868,-0.9139903491407916,0.1747640697610343,-0.9759716171562892
2.16,0.6834031313353449,-0.0447432290053048,1.6966454856548303,0.071087998082205,0.1905068127148975,0.0524490895872653,-0.6077612495024587,0.2069884326348202,-0.2570821540978985,0.6902397734566609,-0.0392006444556105,1.7053449438870998,-0.6736820926218239,0.2688745541086247,-0.1807111884589275,1.5986894439664834,1.231497811696064,-0.4508028443377734,0.9143291932201676,11.555439062541154,-0.9097397791792212,0.1804037634197982,-0.977701012720747
2.18,0.6715321908596747,-0.0406924047990093,1.6917154405703234,0.0661361676163479,0.1924662983041487,0.0514816641529771,-0.5807604178594499,0.1985376330390961,-0.2368330384395991,0.6766680621748269,-0.0336981808139263,1.701481189877028,-0.6638751496820655,0.2563772981574586,-0.1557581643695912,1.7396031215225356,1.3500415821504408,-0.4225399797862031,1.0124557829149672,11.613018997039037,-0.9072584311182146,0.1853998167807592,-0.97764361890622
2.2,0.6602117351085325,-0.0368000467805578,1.687202227282257,0.0619734284786111,0.1919372029107819,0.0504077033489543,-0.5528198193013204,0.1910207827377443,-0.2154950950556096,0.6424941699667023,-0.0307655231470544,1.6798737886483437,-0.5727635131957083,0.2003348785052465,-0.2140060334257756,1.7975593968613517,1.3970299279064735,-0.3758425150675912,1.0668971691994724,11.757403067436826,-0.9075959862108413,0.1897579266992598,-0.9749359461770508
2.22,0.6499364676763508,-0.0332732765854804,1.6830600383374243,0.0569722429267813,0.188639663552306,0.0491585821505049,-0.5303870669277533,0.1816714914312704,-0.2215105077715138,0.6424941699667023,-0.0307655231470544,1.6798737886483437,-0.5727635131957083,0.2003348785052465,-0.2140060334257756,1.251821489999425,1.121637618678356,-0.4674645653236969,-0.3007706357952097,11.757403067436826,-0.901332150657384,0.1936064228810881,-0.9781416085107172
2.24,0.6395647541463046,-0.0297037933671874,1.6785877368232256,0.0507066004551337,0.1820428168322009,0.047641664825335,-0.5084629054938675,0.1759586112082739,-0.2250686156333364,0.6424941699667023,-0.0307655231470544,1.6798737886483437,-0.5727635131957083,0.2003348785052465,-0.2140060334257756,1.146697417126409,1.096208071694288,-0.2856440111498215,-0.1779053930911295,10.020912519917148,-0.902752553004851,0.1967858283968298,-0.976906261387988
2.26,0.6295996690165951,-0.0262214521936568,1.6740945768181432,0.0447839167511215,0.173402891167955,0.0461126408155393,-0.489525415144094,0.1725439596834977,-0.2238536231248258,0.6367665348347452,-0.028762174362002,1.6777337283140856,-0.5711641322629599,0.2006943275984765,-0.2094406324230109,0.9640598951558454,0.9468745174886772,-0.1707325762388134,0.0607496254255296,10.257791325790096,-0.9075322902407812,0.2004607235383049,-0.9719415688942376
2.28,0.6199813999841193,-0.0227926368378621,1.6696711354885363,0.0397326796449895,0.1639064883051871,0.044677697825159,-0.4735818060353277,0.1703625062388475,-0.2185380044528457,0.625311264570831,-0.024755476791897,1.6734536076455702,-0.5679653703974633,0.2014132257849367,-0.2003098304174815,0.8473682971562809,0.7971804554383122,-0.1090726722325075,0.265780933599008,10.70261831578955,-0.9142509926397844,0.203895888989102,-0.9646991292108272
2.3000000000000003,0.6111111362472434,-0.0195685163117457,1.6655961797021066,0.0357984723848409,0.1549185197858796,0.0434359057263325,-0.4611343013510706,0.1689815649653994,-0.2106553691822442,0.6138559943069168,-0.0207487792217921,1.6691734869770547,-0.5647666085319667,0.2021321239713968,-0.1911790284119521,0.7399042344699848,0.6223752342128547,-0.0690470636724033,0.3941317635300756,10.857552825573292,-0.9223513785686016,0.2072312240444283,-0.9556599774506386
2.32,0.6020028636277531,-0.0161992727657407,1.6614906294320626,0.0324769786292913,0.146102243713945,0.0422609541899403,-0.4505425951194391,0.1679304396177469,-0.2002094000788274,0.6025606621362776,-0.0167061367423642,1.6653499064088155,-0.5615678466664701,0.202851022157857,-0.1820482264064227,0.7456664400105395,0.5295853115815735,-0.0525562673826293,0.5222984551708387,10.857552825573292,-0.9307305195776536,0.2102228438490994,-0.9459795259828058
2.34,0.5930810124767167,-0.0128470601941282,1.6576021576500652,0.0298868962870956,0.1383598415148824,0.0412140316055774,-0.4423070457971682,0.1672612477088019,-0.1891402535460455,0.5912653299656382,-0.0126634942629362,1.6615263258405766,-0.5583690848009735,0.2035699203443171,-0.1729174244008933,0.6906484189056539,0.411777466113547,-0.0334595954472494,0.5534573266390937,10.972793389057188,-0.9382972360006888,0.2128198081735973,-0.9368058646780866
2.36,0.5843007593481142,-0.0095046741122041,1.6539372921055635,0.0279470294335165,0.1320140995877936,0.0402864690890165,-0.4362298053668852,0.1668835743449229,-0.1778851412146928,0.5800499668416363,-0.0086028793288468,1.6579310153224758,-0.5551703229354767,0.2042888185307772,-0.1637866223953639,0.6398301376315003,0.3038620215141507,-0.0188836681939461,0.5627556165676353,10.985454856035176,-0.944210554520836,0.2147663221311207,-0.929365632801278
2.38,0.5777831118703403,-0.0070011020687904,1.6513369578413877,0.0268809519896523,0.1284175521831374,0.0396668366408008,-0.4331272558496816,0.1669039500039907,-0.1693838852014553,0.5689145727642718,-0.0045242919400959,1.6545639748545131,-0.5519715610699801,0.2050077167172374,-0.1546558203898345,0.4524864154778302,0.1551274758601811,0.0010187829533853,0.4250628006618767,10.985963863940924,-0.9480575086711598,0.2161202337452733,-0.9241983865520452
2.4,0.5691497921167482,-0.003659726178131,1.648071675260372,0.0260957323287149,0.1256750183665071,0.0389560840381249,-0.4304407134047019,0.167170189471962,-0.1577006211649889,0.5561267490778562,0.001344095431409,1.642867763581315,-0.4474768086524231,0.1477969770413728,-0.1306826973822128,0.5995561948407566,0.1343271222489811,0.0133119733985692,0.5841632018233178,10.98740897422158,-0.9517246409864646,0.2172936912947429,-0.9191045595788876
2.42,0.5610191685297414,-0.0004047638772147,1.6451791795747623,0.0283802253122877,0.1244362872483016,0.0385380992266066,-0.4255227863493311,0.1743428587054915,-0.1473723931401214,0.5561267490778562,0.001344095431409,1.642867763581315,-0.4474768086524231,0.1477969770413728,-0.1306826973822128,0.6751027414201989,0.2458963527685431,0.3586334616764733,0.5164114012433746,11.006287077969318,-0.9568710687729144,0.217182343245087,-0.91180953985495
2.44,0.5525669929712997,0.0031066441033152,1.642349649519647,0.0342509236605959,0.1233257977873042,0.0383429829938464,-0.4199510856490124,0.1756389476044787,-0.1361072160982083,0.5561267490778562,0.001344095431409,1.642867763581315,-0.4474768086524231,0.1477969770413728,-0.1306826973822128,0.6317196943931207,0.2785850350159324,0.0648044449493595,0.563258852095655,10.919312333189737,-0.9589911213001792,0.2126886383381629,-0.90973607261111
2.46,0.5442282661891531,0.006588842869386,1.6397491924071723,0.0407638463973358,0.1222846689050501,0.0381871635059486,-0.4142236115909788,0.1723544324442872,-0.1244865293050708,0.551651980991332,0.0028220652018228,1.6415609366074928,-0.4503467192129714,0.1439755824488492,-0.1229424598183643,0.6682670881974834,0.2863737029016822,-0.1642257580095771,0.5810343396568759,10.96882046679275,-0.9609059690545176,0.207638429598784,-0.9080064001804644
2.48,0.5360047339564894,0.0099746882722133,1.6373846034694384,0.0467037605207039,0.1212044701853716,0.0379817917570031,-0.4084714945633511,0.1664748153620071,-0.1125460183710619,0.5427024448182836,0.0057780047426502,1.6389472826598486,-0.456086540334068,0.1363327932638021,-0.1074619846906673,0.724969910925534,0.2876058513813839,-0.2939808541140024,0.597025546700447,10.96882046679275,-0.9628121154469385,0.2032342441517997,-0.9062339048592148
2.5,0.5278952766927404,0.0132248785713633,1.6352617848957491,0.0516730631256232,0.1200221919436158,0.0376975351011784,-0.4028285068210413,0.1590084503945253,-0.1003184299142059,0.5337529086452351,0.0087339442834777,1.6363336287122043,-0.4618263614551646,0.1286900040787549,-0.0919815095629703,0.7699088192080514,0.2821493871154906,-0.3733182483740882,0.611379422842797,10.9893369377005,-0.964952596232657,0.1993483533779539,-0.9040919057000942
2.52,0.520293948376424,0.0161638693005255,1.6334744756381652,0.0554214628016765,0.1187788559592889,0.0373495705326826,-0.3976581310690098,0.1509234326934981,-0.0884140843743761,0.5245163814161318,0.0113077443650528,1.634493998520945,-0.4675661825762612,0.1210472148937077,-0.0765010344352733,0.7645484604895665,0.2585187876015749,-0.4042508850513632,0.5952172769914928,11.007763386383886,-0.9672849253984236,0.1963145553207574,-0.9015858675598786
2.54,0.5123955872804973,0.0190862852731771,1.6318410394112648,0.0584336769379965,0.1173462115593681,0.036909674605564,-0.392512712047203,0.141861877115991,-0.0755253609646219,0.5152798541870285,0.0138815444466279,1.6326543683296857,-0.4733060036973578,0.1134044257086606,-0.0610205593075763,0.8287133363343525,0.2572709510903409,-0.453077778875352,0.6444361704877083,11.046417247420322,-0.9698509241125626,0.1940940982829314,-0.8986612206750806
2.56,0.50459532134391,0.0218200063912869,1.6304676470485424,0.0605144694230304,0.1158410453749226,0.0364017143288714,-0.3878358607293286,0.1322012623280705,-0.0624353670628606,0.5058998314298978,0.0162642747985768,1.6312017500166187,-0.4790458248184545,0.1057616365236134,-0.0455400841798793,0.8463869633303647,0.2338425658937215,-0.4830307393960245,0.6544996950880622,11.046417247420322,-0.9723365914502464,0.192678858829334,-0.895700522222473
2.58,0.4968835540866443,0.0243555072792833,1.6293579491584398,0.0616767947684643,0.1143537908306794,0.0358351318923729,-0.3836255210707385,0.1219917949354615,-0.04916900560185,0.4963763131447397,0.0184559354208995,1.630136143581744,-0.4847856459395511,0.0981188473385663,-0.0300596090521824,0.8630708703455808,0.2105169829295011,-0.51047336963045,0.6633180730505333,11.063293699326096,-0.9750300590390416,0.1918766999517025,-0.8924122642459715
2.6,0.4896312193387543,0.0265696724538992,1.628551061574585,0.0617479324928857,0.1130225647100427,0.0352373745933616,-0.380024065531953,0.1117426081952737,-0.0364111868106217,0.4777022780331074,0.0304550970260564,1.6268994988783474,-0.3871574972080488,0.1009573679482904,-0.0329515223942666,0.8378219547477106,0.1800727769392746,-0.5124593370093945,0.6378909395614151,11.063293699326096,-0.9777646129513324,0.191960539294058,-0.8889280716619974
2.62,0.482023093233543,0.0286821437317487,1.6278545671909916,0.0601620002507161,0.1128043045692985,0.0345770546509547,-0.3809179262391632,0.1003034908276312,-0.0344673672313073,0.4777022780331074,0.0304550970260564,1.6268994988783474,-0.3871574972080488,0.1009573679482904,-0.0329515223942666,0.5818737570803444,-0.0446930353605073,-0.5719558683821201,0.09719097896572,11.071059957007492,-0.973376167802666,0.1922757786388303,-0.8930347691669388
2.64,0.4744049783227846,0.0305826698465871,1.6271842654119122,0.0568223962915747,0.1144655958038496,0.0339207707884877,-0.3806213599719603,0.0908282690426644,-0.0325655300927784,0.4777022780331074,0.0304550970260564,1.6268994988783474,-0.3871574972080488,0.1009573679482904,-0.0329515223942666,0.4834375966105688,0.0148283133601462,-0.4737610892483437,0.0950918569264432,10.400342394265865,-0.9738888580332936,0.1943229481096635,-0.8924106360105184
