t,x,y,z,roll,pitch,yaw,v_x,v_y,v_z,ref_x,ref_y,ref_z,ref_v_x,ref_v_y,ref_v_z,a_com,a_x,a_y,a_z,thrust,wind_x,wind_y,wind_z
0.0,0.8007967589049744,1.4597687839857107,2.3962326447233484,0.0245405681533913,0.0998219243966465,0.0424703305393927,0.0029499240386093,0.0062421369896242,0.0132555161193963,0.8008920441197664,1.459875307777042,2.3966320104716488,-0.096886451874702,-0.0957033038476948,-0.0867029392233788,0.7472868151225094,0.1474962019304674,0.3121068494812148,0.6627758059698171,10.240451044834115,-0.9445444619170732,0.2626932848432639,-0.8683518783707551
0.02,0.8009976415202595,1.460113908901334,2.396272460207911,0.0332504660237142,0.0941525568559312,0.0429023329928602,0.0169835707415158,0.0250806003741242,-0.0091348931251148,0.8008920441197664,1.459875307777042,2.3966320104716488,-0.096886451874702,-0.0957033038476948,-0.0867029392233788,1.6226223903051469,0.7016823351453243,0.9419231692249964,-1.11952046222556,10.239827756943669,-0.9516950484674062,0.2594197227948611,-0.8580449347150669
0.04,0.8014418753962983,1.4606471335984237,2.3957789272905288,0.0476547972319065,0.0780435167358058,0.0431975546207616,0.0253579646198861,0.0265816945811382,-0.0392044752893736,0.8008920441197664,1.459875307777042,2.3966320104716488,-0.096886451874702,-0.0957033038476948,-0.0867029392233788,1.5625008225450074,0.4187196939185181,0.0750547103506993,-1.5034791082129408,8.57274343342624,-0.951752546328034,0.2447734908919307,-0.8632207013246573
0.06,0.8019440588084116,1.4611348870909444,2.39467736327031,0.0622936977830675,0.0557260897821217,0.042874834824118,0.0234057472939393,0.0217366072123447,-0.0694373252125106,0.7999231796010194,1.458918274738565,2.395764981079415,-0.1168864521727252,-0.115703304145718,-0.106702939521402,1.5340397962356545,-0.0976108662973408,-0.2422543684396729,-1.511642496156848,8.57274343342624,-0.9587838296534044,0.2279718684014974,-0.8641008651394819
0.08,0.8022902060177265,1.4614720016444072,2.393078883863573,0.0756563234609486,0.0325669998729522,0.0420371803164396,0.0125627215778046,0.0136973353249079,-0.0973695828152813,0.7979854505635253,1.457004208661611,2.3940309222949474,-0.1568864527687717,-0.1557033047417644,-0.1467029401174485,1.55113838353355,-0.5421512858067348,-0.4019635943718399,-1.3966128801385334,8.648969398339887,-0.9708783451332232,0.2084108911838464,-0.8627815727591919
0.1,0.8023486540028189,1.46163010205128,2.390826311585514,0.0890734968001476,0.0089649793730031,0.0407811407833241,-0.0066497620281865,0.0022117862782968,-0.1264637870837526,0.7960477215260313,1.4550901425846572,2.39229686351048,-0.1968864533648182,-0.1957033053378109,-0.1867029407134949,1.8354223527761424,-0.9606241802995616,-0.5742774523305537,-1.454710213423565,8.648969398339887,-0.9855767874910212,0.1886270993095392,-0.8593262797152247
0.12,0.8019519097488796,1.461527811677878,2.3879964262588804,0.101852023165143,-0.0119017589162133,0.0393675912457711,-0.0323261046538903,-0.0121681620414084,-0.1551038819146986,0.7921099924587349,1.451176076477901,2.38856280469621,-0.2368864539608646,-0.2357033059338573,-0.2267029413095414,2.053236783858301,-1.28381713128519,-0.7189974159852645,-1.4320047415473034,8.711991977587331,-1.0003007937362909,0.1684048199166426,-0.8566860548969161
0.14,0.8009875738311534,1.4611096735705975,2.3845906765036124,0.1140188072016635,-0.0287966868508646,0.0380218547842719,-0.0627219803693954,-0.0292000508573536,-0.1841132361781878,0.7881722633914386,1.4472620103711449,2.38482874588194,-0.2768864545569111,-0.2757033065299039,-0.2667029419055879,2.26690159244715,-1.5197937857752548,-0.8515944407972611,-1.450467713174458,8.796756283792547,-1.0124123863392247,0.1485862568819992,-0.8572621904539856
0.16,0.7994745673467702,1.4603728857585845,2.3808157797002605,0.125025496374165,-0.0406505917012124,0.0369752613471547,-0.0947776281779632,-0.0477269773120979,-0.211824814669936,0.7832345343092411,1.442347944249487,2.380094687052769,-0.3168864551529575,-0.3157033071259503,-0.3067029425016343,2.312327368037864,-1.6027823904283922,-0.9263463227372156,-1.3855789245874093,8.833115200867269,-1.022902762443741,0.1287927044785993,-0.8593311100609342
0.18,0.7972035811566056,1.4591933383325886,2.376271570507079,0.1360419718876455,-0.0484845072157492,0.0362659125621552,-0.1306858714982708,-0.0695047908807912,-0.2411769399673208,0.7772968052121424,1.4364338781129289,2.374360628208697,-0.3568864557490039,-0.3557033077219967,-0.3467029430976807,2.561846190570655,-1.7954121660153757,-1.088890678434665,-1.4676062648692425,8.883340051480445,-1.0299875240613674,0.111506301645339,-0.8624003744253071
0.2,0.7941896111023564,1.4575410109135738,2.371140207228668,0.1460644585304138,-0.0509022938645031,0.0361420574016033,-0.1683646067337067,-0.0945678050296269,-0.2704262016695894,0.7906692875816921,1.455718098788549,2.3642127235087127,-0.2306858729883869,-0.1695047923709073,-0.341176941457437,2.694142292685474,-1.8839367617717984,-1.2531507074417858,-1.4624630851134273,8.926317134822057,-1.033917838324612,0.0949803588287968,-0.8693413473420969
0.22,0.7906003091401055,1.4553302916945894,2.365836871501043,0.1500865141311393,-0.0471945688854055,0.0364985143611669,-0.2067424837393199,-0.1340551434499575,-0.2857729985402156,0.7906692875816921,1.455718098788549,2.3642127235087127,-0.2306858729883869,-0.1695047923709073,-0.341176941457437,2.858161783895353,-1.9188938502806576,-1.974366921016527,-0.7673398435313117,8.980274417735018,-1.03901372611986,0.082912710794493,-0.8743773100633238
0.24,0.7860893217714628,1.452280424222847,2.3599638993397423,0.1483252310195384,-0.0377906047833669,0.0372726332005986,-0.241629650436846,-0.1683245019365793,-0.3006429666286047,0.7906692875816921,1.455718098788549,2.3642127235087127,-0.2306858729883869,-0.1695047923709073,-0.341176941457437,2.555689379705252,-1.7443583348763043,-1.713467924331094,-0.7434984044194515,9.90551617246092,-1.0381512320242063,0.0817910387323085,-0.8786949679153644
0.26,0.7809382639695469,1.4485963503300652,2.353783413117593,0.1433935748637038,-0.025324952949098,0.0382327411708336,-0.2711849227896255,-0.1975987519493067,-0.3165960165484827,0.7883624288518082,1.45402305086484,2.360800954094138,-0.2506858732864101,-0.1895047926689305,-0.3611769417554602,2.2276644941511945,-1.477763617638976,-1.463712500636366,-0.7976524959939002,9.768472254781043,-1.0322490723487294,0.0826629631799829,-0.8890640411149139
0.28,0.775249915009762,1.44437563525427,2.347265045218944,0.1374942607503662,-0.0116480389280647,0.0392183636210998,-0.2957508083171907,-0.2227155681540951,-0.33436621270228,0.7837487113920405,1.4506329550174215,2.353977415264989,-0.2906858738824566,-0.229504793264977,-0.4011769423515066,1.968576299869395,-1.2282942763782585,-1.2558408102394212,-0.8885098076898662,9.608295561376508,-1.02445772877051,0.0849233703153601,-0.9003169657452536
0.3,0.7694338270736729,1.439928703044899,2.34072456466688,0.1319537557895115,0.0012153673331839,0.0400580774636541,-0.3149924653965154,-0.2440497340531077,-0.3532142005133725,0.7791349939322727,1.4472428591700035,2.347153876435841,-0.330685874478503,-0.2695047938610235,-0.4411769429475531,1.718018223340493,-0.962082853966234,-1.0667082949506317,-0.942399390554624,9.455431586258785,-1.014840200002973,0.0870231152116608,-0.913707630174778
0.32,0.7629546304937674,1.4348318329183096,2.333431332690129,0.1266326447073967,0.0137153356362156,0.0407600383555013,-0.3316753422521307,-0.2644903570530252,-0.3752556230359348,0.7725212764427026,1.4418527632927831,2.33833033757689,-0.3706858750745495,-0.3095047944570699,-0.4811769435435996,1.7189835336780397,-0.8341438427807657,-1.0220311499958723,-1.102071126128115,9.313921868540092,-1.0041783861807343,0.0882288606757489,-0.92839707657313
0.34,0.756173488861782,1.4293406276423777,2.325680016975627,0.1219920205148819,0.0245634889098078,0.0412329597618517,-0.3454645592675649,-0.2836236028898336,-0.3988680977565203,0.7659075589531326,1.4364626674155627,2.3295067987179388,-0.410685875670596,-0.3495047950531164,-0.5211769441396461,1.6686615628856398,-0.6894608507717115,-0.9566622918404212,-1.1806237360292764,9.10351991157495,-0.9939392891550056,0.0890005352490404,-0.9421818295237372
0.36,0.7491365391766829,1.4234691987635006,2.3174413720354674,0.1177666188395684,0.0335943439619198,0.0414609798378889,-0.3575012212245263,-0.3024576587768596,-0.4238354733124096,0.7582938414486614,1.430072571523441,2.319683259844086,-0.4506858762666424,-0.3895047956491628,-0.5611769447356925,1.675539267199222,-0.6018330978480702,-0.9417027943513012,-1.2483687777944674,9.049889605975295,-0.98474630534482,0.0890554646323427,-0.9548796779379536
0.38,0.7422403937313706,1.4175483489219995,2.3091420914828635,0.1138799799011685,0.0406556716239216,0.0414690286837341,-0.3677896055376752,-0.3197294467193357,-0.4485388983478386,0.749680123929289,1.4226824756164185,2.308859720955333,-0.4906858768626888,-0.4295047962452092,-0.6011769453317389,1.5925017417462746,-0.514419215657444,-0.863589397123804,-1.2351712517714468,9.049889605975295,-0.9761039757327058,0.0889226164999891,-0.9671004071542304
0.4,0.7347790972235136,1.4109709915501834,2.299888015308225,0.1098985331027943,0.0466919707379191,0.0412933134354159,-0.37776155618306,-0.3369943195964352,-0.4756304619611436,0.7238509134544868,1.4015618765860327,2.286715146565472,-0.4677896070277913,-0.4197294482094518,-0.5485388998379548,1.6818653737369615,-0.4985975322692404,-0.8632436438549745,-1.3545781806652502,9.005727290263167,-0.9684235675686944,0.0886735739995942,-0.9782593089899704
0.42,0.7271552583808363,1.4040508787352997,2.2902929552158486,0.1065451077529361,0.0508426630244924,0.0409293580470246,-0.3841298869162132,-0.3544340926726487,-0.4814999053273294,0.7238509134544868,1.4015618765860327,2.286715146565472,-0.4677896070277913,-0.4197294482094518,-0.5485388998379548,0.9735908877776982,-0.3184165366576619,-0.8719886538106736,-0.2934721683092889,10.206100722226438,-0.9705055971012952,0.0895712531324546,-0.9782341316918768
0.44,0.7194131076324124,1.3967926246336475,2.280577421940203,0.1042693055810571,0.0525158812268141,0.0403619515002681,-0.3899773546371827,-0.3708293192111203,-0.4899365441056152,0.7238509134544868,1.4015618765860327,2.286715146565472,-0.4677896070277913,-0.4197294482094518,-0.5485388998379548,0.9671778609320786,-0.2923733860484723,-0.8197613269235821,-0.421831938914291,10.206100722226438,-0.968195513436948,0.0899566440305357,-0.9815757565079832
0.46,0.7119438470422779,1.3895906540032503,2.2711475838256483,0.1027650561541246,0.0520213022472751,0.0396443392595934,-0.3960907806400035,-0.3865030557370673,-0.502258715794282,0.7191730173842089,1.3973645821039382,2.2812297575670923,-0.4877896073258145,-0.439729448507475,-0.568538900135978,1.0426839277817532,-0.3056713001410416,-0.7836868262973501,-0.6161085844333419,9.921014546261176,-0.9673878845544556,0.0891381137094232,-0.9842095358030905
0.48,0.703948672082016,1.38169270979314,2.260934367216501,0.1016535933870248,0.0495197499119137,0.0387140136429653,-0.4032310044071463,-0.4024704129442749,-0.5185621387439711,0.7098172252436531,1.388969993139749,2.270258979570333,-0.527789607921861,-0.4797294491035215,-0.6085389007320244,1.1955551968686782,-0.3570111883571397,-0.79836786036038,-0.8151711474844503,9.685256188699896,-0.968807898996275,0.087685696828362,-0.9849330634065888
0.5,0.6957996209303492,1.3734800155873172,2.250364868114868,0.1010664715222321,0.0451257307700354,0.0376240568671783,-0.411561993024957,-0.4180447531480507,-0.5375663889221436,0.7004614331030973,1.38057540417556,2.259288201573574,-0.5677896085179075,-0.5197294496995679,-0.6485389013280709,1.297234528687477,-0.4165494308905365,-0.7787170101887869,-0.9502125089086266,9.372040093641772,-0.9716456422841552,0.085345197781994,-0.9847742909043584
0.52,0.6874592736564833,1.3649576927281482,2.239395414454396,0.1010326836107476,0.0394158561392923,0.0364340596811138,-0.4223318797871943,-0.4334586472599809,-0.5584345706347862,0.6891056409327391,1.3701808151815686,2.2463174235470125,-0.607789609113954,-0.5597294502956144,-0.6885389019241174,1.4045102354175645,-0.5384943381118612,-0.7706947055965113,-1.04340908563213,9.372040093641772,-0.975847161279402,0.0826550392665962,-0.9831823962398276
0.54,0.6793130849675852,1.3565753917086636,2.228582818792953,0.1015459684009104,0.0335530630778796,0.0352887906089474,-0.4347854244987728,-0.4481709072621506,-0.5786884443045749,0.677749848762381,1.3597862261875773,2.233346645520452,-0.6477896097100004,-0.5997294508916609,-0.7285389025201638,1.3979992568725554,-0.6226772355789251,-0.7356130001084843,-1.0126936834894351,9.281434067448572,-0.9824109590302214,0.0800209561168742,-0.9785718201460706
0.56,0.6704578979665524,1.3474387313287726,2.2167809950153936,0.1023901790153528,0.0276338432171016,0.0341178566020578,-0.4502146254473959,-0.4647069210623631,-0.6004351169958199,0.6653940565771217,1.3483916371786848,2.2193758674789885,-0.6877896103060468,-0.6397294514877072,-0.7685389031162102,1.5687716273042682,-0.7714600474311578,-0.8268006900106262,-1.0873336345622486,9.26573969727633,-0.9891386219485502,0.0771337718177232,-0.9737164265769546
0.58,0.661269150019668,1.3379581920412005,2.2045411144218874,0.1029752463175321,0.0227250334675061,0.0330210910190182,-0.4679826113991903,-0.4823861052248399,-0.6224479911496985,0.6520382643769612,1.3359970481548913,2.204405089422625,-0.7277896109020933,-0.6797294520837537,-0.8085389037122567,1.6679489695044851,-0.8883992975897176,-0.8839592081238384,-1.1006437076939324,9.253163490795488,-0.994744208588497,0.0745277824474479,-0.969921628672646
0.6,0.6521888713980513,1.3286152960086846,2.19250165575689,0.1028308204497482,0.0197769721812128,0.0321014212447529,-0.4869940397319138,-0.5000253355619989,-0.6437433403029967,0.6378700194497084,1.3138388867799584,2.173418714864402,-0.5679826128893064,-0.582386106714956,-0.7224479926398146,1.6778473930147189,-0.9505714166361784,-0.8819615168579514,-1.064767457664911,9.250446114598162,-0.9991603127802308,0.0724853555684192,-0.9673047916220014
0.62,0.6422051103360187,1.3183703770917232,2.179604277572703,0.1009014503221908,0.0200561153371784,0.0313557998022788,-0.5099812245855052,-0.5233264547375972,-0.6436371044773105,0.6378700194497084,1.3138388867799584,2.173418714864402,-0.5679826128893064,-0.582386106714956,-0.7224479926398146,1.6365849415622105,-1.1493592426795678,-1.1650559587799147,0.0053117912843125,9.250446114598162,-1.0049410188002228,0.0718795620431351,-0.963529309429594
0.64,0.6317859884110418,1.3076912927405822,2.166719400841032,0.0972554163814142,0.0239100334640672,0.0308471991673542,-0.5303811606661297,-0.5429680606678674,-0.6451443449933586,0.6378700194497084,1.3138388867799584,2.173418714864402,-0.5679826128893064,-0.582386106714956,-0.7224479926398146,1.4179402751762928,-1.0199968040312255,-0.98208029651351,-0.0753620258024057,10.678583859212267,-1.004956293364451,0.0753971449973574,-0.9623556251573206
0.66,0.6209867047598903,1.2966489012411435,2.153750060886977,0.0932673517108207,0.0298956615032784,0.0305078978028712,-0.5481970953601897,-0.5601040554982597,-0.6519097145282838,0.6321901933208154,1.308015025712809,2.166194234938005,-0.5879826131873296,-0.6023861070129792,-0.7424479929378378,1.2814250590595762,-0.8907967347029977,-0.8567997415196149,-0.3382684767462618,10.3483231287355,-1.0016300353502536,0.0783644799771138,-0.965454528746816
0.68,0.6104211435178949,1.28586004560141,2.1412538659849862,0.0895378511108453,0.0366606964395159,0.0302708260014792,-0.562818553442076,-0.574638709340006,-0.6630991542222064,0.6208305410630293,1.2963673035785097,2.151745275085208,-0.627982613783376,-0.6423861076090257,-0.7824479935338843,1.1728669568664654,-0.7310729040943154,-0.7267326920873174,-0.5594719846961305,10.020633090270168,-0.9964430857621585,0.0807289236892419,-0.9712980880748328
0.7000000000000001,0.5990240291677663,1.2742214176160216,2.1278310221526446,0.0859260979785193,0.0441637354728151,0.0300550119403067,-0.5758952038279378,-0.5884250969260365,-0.6787747873350082,0.6094708888052431,1.2847195814442105,2.137296315232412,-0.6679826143794225,-0.6823861082050722,-0.8224479941299307,1.2316541128432534,-0.6538325192930905,-0.6893193793015229,-0.7837816556400867,9.746128389238038,-0.9902773129223118,0.0825552420013638,-0.9784137906402663
0.72,0.5873870755578755,1.2623189831348256,2.114057416359137,0.0827497879535333,0.0515012434760727,0.029834662831077,-0.5869739605591602,-0.6011253153022591,-0.6979482592989902,0.5961112365176546,1.2710718592801091,2.120847355349813,-0.707982614975469,-0.7223861088011186,-0.8624479947259772,1.276378102941044,-0.5539378365611192,-0.6350109188111297,-0.9586735981991,9.33514232768357,-0.9837063335500826,0.0837534696194812,-0.9861814945774706
0.74,0.5755478989233422,1.250172025957236,2.0998765418815,0.0800506878637163,0.0582816778386461,0.029585099806986,-0.5962829857631653,-0.6130048639995286,-0.7191849104693149,0.5827515842300662,1.2574241371160078,2.1043983954672147,-0.7479826155715155,-0.7623861093971651,-0.9024479953220236,1.3026674368671889,-0.4654512602002558,-0.5939774348634741,-1.0618325585162347,9.33514232768357,-0.9776707594882068,0.0843523405417112,-0.993484875810452
0.76,0.5641382853042783,1.238410051608256,2.085997561474425,0.0776693828628231,0.0641225924997235,0.0293012528173556,-0.604171939579887,-0.6243999901251877,-0.7406983567546761,0.5683919319275766,1.242776414937005,2.0869494355697147,-0.7879826161675618,-0.8023861099932115,-0.94244799591807,1.2795632680871714,-0.3944476908360861,-0.5697563062829536,-1.075672314268061,9.241249611377498,-0.9714846165338188,0.0846173719601333,-1.0011734496294449
0.78,0.5519759138150515,1.225800023239634,2.0709327155114416,0.0751563402339645,0.0697137754032718,0.0289489065560015,-0.6115520931934104,-0.6359024432462471,-0.7647185663172068,0.5530322796101859,1.227128692743101,2.0685004756573138,-0.8279826167636083,-0.8423861105892579,-0.9824479965141164,1.3817955371447548,-0.3690076806761699,-0.5751226560529732,-1.2010104781265352,9.176181818643272,-0.9656293992515382,0.0848608456987313,-1.0085159261689396
0.8,0.5396746917621805,1.2129646789881017,2.055373407835485,0.0725780509515877,0.0747892153437696,0.0285446938862967,-0.6181136022792,-0.6469241170788684,-0.7900078114408301,0.521398309155381,1.1940049010773215,2.032696787195581,-0.6227210899968729,-0.7359024447363632,-0.8201055938788714,1.4178122358746,-0.3280754542894781,-0.5510836916310657,-1.2644622561811647,9.04846786849248,-0.960378278140782,0.0851366182252874,-1.0151621483932105
0.8200000000000001,0.527837440736625,1.2005374134384423,2.040473788856049,0.0698178373256616,0.0812764437030938,0.0282487931013489,-0.626837435360027,-0.6603289606960251,-0.7770536635108323,0.521398309155381,1.1940049010773215,2.032696787195581,-0.6227210899968729,-0.7359024447363632,-0.8201055938788714,1.0290833841516738,-0.4361916540413513,-0.6702421808578329,0.6477073964998914,9.04846786849248,-0.955387230047866,0.0853515644961874,-1.0220758477568244
0.84,0.5152415661638964,1.18720340108615,2.025039461754183,0.0668422249672375,0.0909147469306224,0.0281096210578502,-0.631778920529882,-0.6722751071608633,-0.7674931206781017,0.521398309155381,1.1940049010773215,2.032696787195581,-0.6227210899968729,-0.7359024447363632,-0.8201055938788714,0.8039475578353015,-0.2470742584927521,-0.5973073232419079,0.4780271416365278,11.410586934130151,-0.9475551963177976,0.0885452206869426,-1.0280430048760194
0.86,0.502586095245675,1.1736465531024796,2.0097313451377325,0.0641693176962453,0.1018488363793717,0.0280541763822969,-0.6331193679740541,-0.6827882631304903,-0.7640516993105552,0.5151710982554123,1.186645876629958,2.0244957312567924,-0.6249548893575654,-0.7559024450343864,-0.8311829993912043,0.5571504034399042,-0.0670223722086027,-0.5256577984813549,0.1720710683773274,10.591862750572544,-0.9370358530886836,0.0908795161333851,-1.0370958020711405
0.88,0.4899351157009005,1.1598919096880087,1.9944334249608544,0.0619245544370986,0.1131829047625803,0.0280317248988174,-0.6315427086887273,-0.6922160430017125,-0.7659189421892849,0.5027166764554748,1.1719278277352307,2.008093619379215,-0.6294224880789504,-0.7959024456304329,-0.8533378104158701,0.4869688998549987,0.0788329642663399,-0.471388993561106,-0.0933621439364873,10.591862750572544,-0.9256381022167612,0.0923054776350892,-1.047325452313219
0.9,0.477970383129042,1.1466581184478042,1.9798276618041637,0.0602265573710284,0.1238701090985495,0.0280188994320507,-0.6277009226285702,-0.7004306476495318,-0.771462805809883,0.4902622546555373,1.1572097788405036,1.9916915075016377,-0.6338900868003354,-0.8359024462264794,-0.875492621440536,0.531444901884906,0.1920893030078529,-0.4107302323909656,-0.2771931810299055,10.108643109310831,-0.9130358020081308,0.0931486547392695,-1.0587114200767012
0.92,0.4654781763992872,1.1325673864532997,1.9643084412199343,0.0589910170409544,0.1347796821498479,0.0280111452974435,-0.6214482128914992,-0.708233754724757,-0.7803287251028288,0.4775844529195306,1.140491729915974,1.974181655072827,-0.6383576855217205,-0.8759024468225258,-0.8976474324652018,0.668186695453676,0.3126354868535519,-0.3901553537612623,-0.4432959646472889,10.108643109310831,-0.9000924259368707,0.0932495841349027,-1.0704199588296488
0.94,0.4531350827708716,1.1183279576064626,1.94859851952262,0.0585650266473676,0.1451987719401938,0.0280256849520717,-0.6129147462567364,-0.7153745507121276,-0.7902757210930442,0.4649066511835239,1.1237736809914445,1.956671802644016,-0.6428252842431055,-0.9159024474185724,-0.9198022434898676,0.7462468582332868,0.4266733317381421,-0.3570397993685303,-0.4973497995107712,9.951655309771922,-0.8873390742061652,0.0924687329691534,-1.0818765717944836
0.96,0.4409856459266268,1.103940436532497,1.9326832131125111,0.0588631261440874,0.1550548510096586,0.0280605805075243,-0.6022172206815661,-0.7230178149003694,-0.8007989692951103,0.4521171594794826,1.1060556320520136,1.9386080799395888,-0.6472928829644904,-0.9559024480146188,-0.9419570545145336,0.8420143906207415,0.5348762787585115,-0.3821632094120897,-0.5261624101033036,9.922908415142956,-0.8755234544416138,0.091054765627402,-1.092333466880612
0.98,0.4296609048319941,1.09012621339012,1.917363973014521,0.0595322189813001,0.1638760960300135,0.0280955970873381,-0.5902045129400952,-0.7307054674250493,-0.8112636423477293,0.4392159778074067,1.0873375830976817,1.919990486959545,-0.6517604816858754,-0.995902448610665,-0.9641118655391993,0.8844695171689376,0.6006353870735448,-0.3843826262339922,-0.52323365263095,9.915548970964664,-0.8632793627187361,0.0890941882666258,-1.1030506313987551
1.0,0.4180054197123816,1.0754235620630428,1.901018135857135,0.0604553384566919,0.172596450701758,0.0281230059857169,-0.5757704022957641,-0.7391546707369535,-0.8228211279297768,0.4001506791849893,1.0535909400188674,1.876800790897135,-0.5520197509390576,-0.8307054689151654,-0.773572146035111,1.0164989666471893,0.7217055322165544,-0.422460165595212,-0.577874279102375,9.910147155150298,-0.8512672679969158,0.0868486942753867,-1.1134380372144403
1.02,0.4067250375816349,1.0604687162698818,1.8847830932481529,0.0595311356458608,0.1805929043533686,0.027982031779194,-0.5524667367355199,-0.7555163358853824,-0.7982825504287758,0.4001506791849893,1.0535909400188674,1.876800790897135,-0.5520197509390576,-0.8307054689151654,-0.773572146035111,1.8794325611375728,1.1651832780122109,-0.8180832574214425,1.2269288750500484,9.901218417124255,-0.8464894133325132,0.0861886257675922,-1.1181506264965122
1.04,0.3959380729637783,1.0452069955632646,1.869096169626567,0.0556197473326172,0.1878057976510822,0.0275701618797314,-0.5272691658048363,-0.7689774965812134,-0.7718358251989185,0.4001506791849893,1.0535909400188674,1.876800790897135,-0.5520197509390576,-0.8307054689151654,-0.773572146035111,1.9465030846812144,1.2598785465341822,-0.6730580347915516,1.322336261492868,12.418016100523346,-0.8354095759976671,0.0900784604863932,-1.1258128790259163
1.06,0.3861655810009862,1.0305055862092876,1.8546572467387896,0.0511179532017881,0.194092543867759,0.027069885720723,-0.5025265803382245,-0.7777381272568717,-0.7493986383829475,0.3946304816755988,1.0452838853297155,1.869065069436784,-0.5443827985388501,-0.8507054692131886,-0.7660338467725873,1.7265366616601687,1.2371292733305894,-0.4380315337829177,1.1218593407985478,12.270686594456492,-0.8252432940705187,0.0951685504914875,-1.1323389933251864
1.08,0.3763965297115095,1.0148778942299372,1.8398962460271184,0.0467143522305625,0.2002222550897343,0.0265208993537979,-0.4755352072445855,-0.7845739704460446,-0.7280102197539162,0.3835900866568176,1.0286697759514123,1.8535936265160813,-0.5291088937384351,-0.890705469809235,-0.7509572482475401,1.7555109121262045,1.3495686546819483,-0.3417921594586426,1.0694209314515646,12.085866171231828,-0.8156119390611462,0.0998980533642342,-1.1384249730751144
1.1,0.3671903710625438,0.999130546603428,1.8255379787170884,0.0430820512422695,0.2054880435211387,0.0259713570950944,-0.4464103242428718,-0.7899709202036537,-0.7089132135924583,0.3725496916380365,1.012055666573109,1.8381221835953796,-0.51383498893802,-0.9307054704052816,-0.7358806497224928,1.7621588470399234,1.4562441500856838,-0.2698474878804535,0.9548503080728964,11.949746498314198,-0.8071481293611643,0.1038163997197585,-1.143646812068242
1.12,0.3585892754479328,0.9832856728126974,1.811544564791434,0.0402997277394295,0.2091421301981552,0.0254063239765257,-0.4152891108130844,-0.7944459433659928,-0.6913983594257682,0.3622729918592761,0.9934415571650036,1.8234045706009292,-0.498561084137605,-0.970705471001328,-0.7208040511974455,1.799531796139121,1.5560606714893732,-0.2237511581169582,0.8757427083345037,11.753137605079246,-0.8003204726734616,0.106525555787041,-1.1479885775277952
1.14,0.351010479488866,0.9681561105949864,1.798579355800952,0.038464395831033,0.2105989649124018,0.0248470721969681,-0.384243189138737,-0.7981127142116231,-0.6742333614957307,0.3519962920805156,0.9748274477568978,1.80868695760648,-0.4832871793371899,-1.0107054715973744,-0.7057274526723981,1.783207513851284,1.5522960837173694,-0.1833385422815137,0.8582498965018781,11.814582419581711,-0.7952426093322217,0.1082872596329932,-1.1513717771576817
1.16,0.3436805681849313,0.9521512338704812,1.7852933159967437,0.0371812859953415,0.2096172893203697,0.0242148372010836,-0.3504441925190901,-0.8021949430083567,-0.6552194330197957,0.3421014399217656,0.955213338333891,1.794346259575156,-0.4680132745367749,-1.0507054721934208,-0.6906508541473508,1.949721929232317,1.6899498309823455,-0.2041114398366794,0.9506964237967486,11.893405429637824,-0.7931123834875101,0.1093525931301019,-1.1527415827369891
1.18,0.3370411149704761,0.9360652464475104,1.7723978240768967,0.0363918634660078,0.205252694502288,0.0235021961309293,-0.3155756751507921,-0.8062176577692048,-0.6352377702409925,0.332588435383026,0.9345992288959832,1.7803824765069585,-0.4527393697363599,-1.0907054727894672,-0.6755742556223036,2.0194445925280133,1.7434258684148995,-0.2011357380424072,0.99908313894016,11.893405429637824,-0.7933032029945627,0.1098377107884037,-1.1527032475697556
1.2,0.3310818070076362,0.9198986633995684,1.7599145836217711,0.0360461930825994,0.1973515523449365,0.0227032811686161,-0.2827894229688147,-0.8102642374850823,-0.6139972720258964,0.3212623312129365,0.8957543635590501,1.740635935564847,-0.31750271846209,-0.906217659259321,-0.5965273511523904,1.9637158042615688,1.6393126090988668,-0.2023289857938703,1.0620249107548052,11.95826865073468,-0.7965506615121053,0.1096904161210549,-1.1509250595590177
1.22,0.326018923698346,0.9044160094513152,1.748413644270837,0.0344833874569308,0.1863901549487027,0.0217501424971376,-0.2526563682359429,-0.8186316401397306,-0.5975511317742185,0.3212623312129365,0.8957543635590501,1.740635935564847,-0.31750271846209,-0.906217659259321,-0.5965273511523904,1.7666988593823252,1.5066527366435905,-0.4183701327324152,0.8223070125838949,11.731184891244991,-0.8052595197143617,0.1113265978244172,-1.1445318540069556
1.24,0.3212522374235813,0.8879917465074579,1.736660511554655,0.0314834444803635,0.1715254398630042,0.0205886833271385,-0.2263615126439767,-0.8231808008900077,-0.5784499496980036,0.3212623312129365,0.8957543635590501,1.740635935564847,-0.31750271846209,-0.906217659259321,-0.5965273511523904,1.640860636101475,1.3147427795983129,-0.2274580375138557,0.955059103810746,11.731184891244991,-0.8171473340014138,0.1137822053458542,-1.136572739759776
1.26,0.3169496878440893,0.8715009023468222,1.7253056698217202,0.0288305170651516,0.1547769655258029,0.0194589377131259,-0.2058944404207136,-0.8257923230142981,-0.5578855483334748,0.3180873040283156,0.8866921869664569,1.7346706620533232,-0.3178881271243495,-0.926217659557344,-0.58878526733467,1.456550459715828,1.0233536111631525,-0.1305761062145194,1.0282200682264375,11.801523379597713,-0.8329853641636548,0.116290714131378,-1.1248706299961864
1.28,0.3129940384188061,0.8549696412033498,1.7143737818884202,0.0270695716583944,0.1374238302795483,0.0184318848534265,-0.1912851840531333,-0.8274401598354649,-0.536271695457924,0.3117372496590738,0.8685678337812706,1.7227401150302752,-0.3186589444488687,-0.9662176601533906,-0.5733010996992292,1.3070045657235063,0.7304628183790157,-0.0823918410583435,1.0806926437775422,11.837672228573863,-0.849739650277952,0.1180134985774657,-1.1118236319894184
1.3,0.3094525144713195,0.8392413994011965,1.7043957876491806,0.0264977961236016,0.1213584773061308,0.0175790924442244,-0.1826323491604908,-0.8282778320564379,-0.5150866882433187,0.305387195289832,0.8504434805960841,1.7108095680072275,-0.3194297617733879,-1.006217660749437,-0.5578169320637884,1.144964821634269,0.4326417446321229,-0.0418836110486486,1.0592503607302628,11.861639584096338,-0.8680129959123867,0.1188449612576287,-1.0968510811616097
1.32,0.3058506608342328,0.822673225227835,1.694333810445235,0.0274341121346277,0.105676117098404,0.0168306814140717,-0.1784048591882732,-0.8286710270774073,-0.4921820829217528,0.2989986000543642,0.8303191273810954,1.6996532293659516,-0.320200579097907,-1.0462176613454834,-0.5423327644283475,1.164739475941314,0.211374498610882,-0.0196597510484675,1.1452302660782925,11.876811633395846,-0.8858873363614856,0.1182168990090261,-1.0815300895495643
1.34,0.3022855725071035,0.8060955948957774,1.6847322552590775,0.0302339961067789,0.091851212620419,0.0162419444067482,-0.1785905347901624,-0.829485577588617,-0.4691068797498742,0.2926100048188965,0.8101947741661065,1.6884968907246758,-0.3209713964224262,-1.08621766194153,-0.5268485967929066,1.154516099268356,-0.0092837800944586,-0.0407275255604855,1.1537601585939332,11.891542503682103,-0.902385683370182,0.1159487571619184,-1.06668179805215
1.36,0.2986759818260327,0.7894661156793822,1.6755930525145248,0.0339939012484678,0.0803608913656725,0.0157487095992544,-0.1824370150934199,-0.8336101286859516,-0.4459416723532849,0.2862021391503157,0.7890704209362167,1.6777276562742862,-0.3217422137469453,-1.1262176625375764,-0.5113644291574658,1.1920928720163382,-0.1923240151628744,-0.2062275548667336,1.1582603698294611,11.891542503682103,-0.9172975377130612,0.1134956108949082,-1.0519709397416737
1.38,0.2951474902359955,0.773569276977135,1.667341303236132,0.0373630664393095,0.0718456243188562,0.0153130782145628,-0.1888177684830973,-0.8394713886657238,-0.4237937347597947,0.279775003048622,0.7669460676914257,1.6673455260147825,-0.3225130310714645,-1.1662176631336227,-0.4958802615220251,1.189116817238214,-0.3190376694838737,-0.293062998988608,1.1073968796745104,11.892106302090724,-0.9314937176691654,0.1116157230968506,-1.0366762064600854
1.4,0.2912770616639935,0.7567042068400464,1.659111352480705,0.0403401744834346,0.0657015796384985,0.0148994055030434,-0.1980497401394227,-0.8466635459881378,-0.4003426458705987,0.2857066018118406,0.7315957075438487,1.6461516164981422,-0.2075981787728617,-0.9301227070966244,-0.3633280636377206,1.3104483943506922,-0.4615985828162694,-0.359607866120698,1.1725544444598028,11.912979425463163,-0.9428340216096904,0.1104560893583921,-1.0234721187549836
1.42,0.2872014846306018,0.7395735747619196,1.6514018374303292,0.0390619265545157,0.0630718644571932,0.0143303759775974,-0.2088892848129553,-0.864944426570471,-0.3714084154757535,0.2857066018118406,0.7315957075438487,1.6461516164981422,-0.2075981787728617,-0.9301227070966244,-0.3633280636377206,1.795045968866133,-0.5419772336766299,-0.9140440291166618,1.4467115197422609,11.912979425463163,-0.9534793460179898,0.1130824097256876,-1.0104311006347666
1.44,0.2829158121434659,0.7221570582957696,1.6442823350880087,0.0327349647242256,0.063757496847852,0.0135619214046743,-0.2187786466609453,-0.8746846139393453,-0.3419326156783908,0.2857066018118406,0.7315957075438487,1.6461516164981422,-0.2075981787728617,-0.9301227070966244,-0.3633280636377206,1.629028469238231,-0.4944680923994998,-0.4870093684437138,1.473789989868132,12.356888891177732,-0.9593143672524724,0.1210404978141894,-1.0002130541164698
1.46,0.278677253143601,0.7055017313604962,1.6380512622046577,0.0260567379761035,0.0664920010249601,0.0128674379235501,-0.2266258621273391,-0.8779825711328477,-0.3154178379934584,0.283630620024112,0.7222944804728825,1.642518335861765,-0.2113542608308146,-0.9482529707828043,-0.3512349294133058,1.3923799301084934,-0.3923607733196915,-0.1648978596751227,1.325738884246619,12.266927614267845,-0.962729038777524,0.1302386225654326,-0.9916955519782372
1.48,0.2740747760076582,0.6879393919128545,1.632022818960941,0.019914539647361,0.0706848086595471,0.012235611105176,-0.2329735001619225,-0.8781932880247911,-0.2888805895978478,0.2794786564486547,0.7036920263309501,1.6352517745890107,-0.2188664249467204,-0.9845134981551646,-0.3270486609644761,1.3643335943208477,-0.3173819017291676,-0.0105358445971703,1.3268624197805303,12.112354390315886,-0.9642787580017054,0.1384385168893249,-0.9852547409478613
1.5,0.2693656834601412,0.6703958526582166,1.6265072976732486,0.0152807360915413,0.0754957950545392,0.0117222772397469,-0.2374257648007492,-0.8765246571658828,-0.2639883477418446,0.2753266928731975,0.6850895721890176,1.6279852133162562,-0.2263785890626261,-1.0207740255275248,-0.3028623925156465,1.2671135446115396,-0.2226132319413348,0.0834315429454168,1.2446120928001625,11.992359948098056,-0.9642313637610628,0.1447503027281788,-0.9810817026050568
1.52,0.2648272117542605,0.6537703486090704,1.6217176049666295,0.0123202650977402,0.0801073241714077,0.0113403037182347,-0.2399735685425546,-0.8739916372173666,-0.2414309615993061,0.270799121091945,0.664674091678467,1.6219279654659433,-0.2338907531785319,-1.057034552899885,-0.2786761240668168,1.1420848956512863,-0.1273901870902719,0.126650997425809,1.127869307126922,11.794876282669977,-0.9636586721658538,0.1498450968144467,-0.977685136956733
1.54,0.2600142357514024,0.6363267997117538,1.6171356670817187,0.0106666812120983,0.0845865668481452,0.0110463042248707,-0.2410892559923124,-0.8707155659522852,-0.217957809801422,0.2662715493106925,0.6442586111679166,1.6158707176156304,-0.2414029172944377,-1.0932950802722454,-0.2544898556179872,1.1863454985226147,-0.0557843724878895,0.1638035632540724,1.1736575898942043,11.774413117257607,-0.9632440573592698,0.1534406958355761,-0.9745729497070282
1.56,0.2551918826260659,0.6189471332776563,1.6130198838771084,0.0104048896936927,0.088420253342195,0.0108589990961997,-0.2410352815434776,-0.8675209813821306,-0.1948055312843948,0.2615561734265423,0.6229366174730571,1.6104181264765385,-0.2489150814103434,-1.1295556076446056,-0.2303035871691575,1.1685849181242622,0.0026987224417393,0.1597292285077267,1.1576139258513598,11.74958293664531,-0.9632255240225824,0.1557972051954154,-0.9713151274374512
1.58,0.2503807116953524,0.6016317586755991,1.6093652906658815,0.0114736326209298,0.0914758688801912,0.0107763405274217,-0.2400911156987424,-0.8643389971401491,-0.171804000491751,0.2566529934394945,0.6007081105938886,1.605570192048667,-0.2564272455262492,-1.1658161350169658,-0.2061173187203279,1.1619884806480736,0.0472082922367639,0.1590992120990786,1.150076539632193,11.73769584391266,-0.9637946266804,0.1569329329882825,-0.9678825661670984
1.6,0.2458335245429111,0.5852368649183356,1.6063200778610882,0.0136827268740236,0.0936251643837499,0.0107917861094784,-0.2386370362116904,-0.8617581843691593,-0.1498871890481645,0.2383761559104153,0.5584148088185917,1.600775090641294,-0.2012383085643525,-0.8803034567680158,-0.1457873292812236,1.1058046454587849,0.0727039743525975,0.129040638549488,1.0958405721793227,11.737534828466778,-0.9652016942273732,0.1570545779631716,-0.9636677446341706
1.62,0.2409882928335694,0.5677362569192479,1.6034495033370777,0.007898311649682,0.097828430293826,0.0102837757406239,-0.2456649037143102,-0.8844115029845454,-0.1387989090194519,0.2383761559104153,0.5584148088185917,1.600775090641294,-0.2012383085643525,-0.8803034567680158,-0.1457873292812236,1.309115846592392,-0.35139337513099,-1.1326659307693054,0.5544140014356325,11.737534828466778,-0.9608600514564586,0.163700014655877,-0.9649557458845018
1.64,0.2360357280332816,0.5499939892619025,1.6007771236206847,-0.0068667047047063,0.1056539456498586,0.0091386097636754,-0.248672002606676,-0.8872681317021093,-0.1289393050637965,0.2383761559104153,0.5584148088185917,1.600775090641294,-0.2012383085643525,-0.8803034567680158,-0.1457873292812236,0.534824180317358,-0.1503549446182903,-0.1428314358781934,0.4929801977827691,11.003563975717952,-0.956101922710356,0.1767937468710933,-0.9664554143438576
1.66,0.2310658089062879,0.5323279908778676,1.59828392116885,-0.0225698639293184,0.1151343921326265,0.0078177437854847,-0.247759413162626,-0.8790632006656178,-0.1209088760631296,0.2363637728247717,0.5496117742509116,1.5993172173484818,-0.1934677471374745,-0.8834963486935892,-0.1405839950391181,0.5758504639698659,0.0456294722025005,0.4102465518245723,0.4015214500333444,10.800878822427876,-0.9490125971736274,0.1918106838000551,-0.9692779768902834
1.68,0.2263921347467967,0.5157620134343062,1.5960469895005278,-0.0357205172361192,0.1246988228856462,0.006571013504825,-0.2439479541304566,-0.8655413937895285,-0.1149846528487211,0.2323390066534847,0.5320057051155512,1.596401470762857,-0.1779266242837185,-0.8898821325447358,-0.1301773265549071,0.7623367068466165,0.1905729516084711,0.6760903438044641,0.2962111607204241,10.800878822427876,-0.9406306284496284,0.2052364754103856,-0.9733986940830678
1.7,0.2215795168261383,0.4986352502417849,1.5938034388381537,-0.0469141161683855,0.134800787690195,0.0053521142021108,-0.2372068153883319,-0.8481893095836175,-0.1097325812675249,0.2283142404821976,0.5143996359801909,1.5934857241772329,-0.1623855014299626,-0.8962679163958825,-0.1197706580706961,0.9671117227647638,0.3370569371062351,0.8676042102955528,0.262603579059812,10.718255701262931,-0.9316264212562309,0.2162099771741356,-0.978470229874358
1.72,0.2169363924091308,0.481881961234024,1.5916579494177678,-0.0551835579136849,0.1443816712767781,0.0043002901036454,-0.2272453093091457,-0.8286886281504651,-0.1050857267855588,0.2250665304535984,0.4964742776522732,1.591090311015819,-0.1468443785762067,-0.9026537002470292,-0.1093639895864852,1.1192647545370216,0.4980753039593111,0.9750340716576212,0.2323427240983028,10.689827733875973,-0.9233722245252852,0.224308217312307,-0.983225768016014
1.74,0.2127396061577734,0.4663377509510854,1.589701999365511,-0.0605750445750531,0.1523883208794591,0.0035071395897753,-0.214958324612836,-0.8091209052814381,-0.1010321827057483,0.2218188204249991,0.4785489193243555,1.588694897854405,-0.1313032557224507,-0.909039484098176,-0.0989573211022742,1.1729204904994164,0.6143492348154839,0.9783861434513486,0.2026772039905276,10.68576162356112,-0.9154697966895016,0.2306397532749218,-0.9877478056841732
1.76,0.2085988154953437,0.4503761785623798,1.5877278646010575,-0.0641162409880861,0.1591763604277384,0.0029205670021553,-0.1997086949659749,-0.7884384354724365,-0.0965714780116268,0.2189596384677438,0.4604639164001592,1.5865596514050964,-0.1157621328686947,-0.9154252679493228,-0.0885506526180632,1.3040452907537785,0.7624814823430539,1.0341234904500785,0.2230352347060718,10.724037815868542,-0.908936906067244,0.2351283003336574,-0.9911978853256698
1.78,0.2047825521783764,0.4348320234581233,1.5858475660127385,-0.065776719994998,0.1639838522579668,0.0026113803656352,-0.1827094832321602,-0.767286171040838,-0.0916459105748226,0.2164889845818323,0.4422192688796842,1.584684571667893,-0.1002210100149388,-0.9218110518004692,-0.0781439841338523,1.3789966504036906,0.8499605866907345,1.0576132215799283,0.2462783718402125,10.724037815868542,-0.90377705002775,0.2380092476452903,-0.993674322638332
1.8,0.2013191222895278,0.4197196922801681,1.584073932252314,-0.0653675229434832,0.1666750013579429,0.0026157817314362,-0.1646676653899846,-0.7453728490539965,-0.0859387642040178,0.1956470780167684,0.3964677149060813,1.5812652704839971,-0.1495138386150795,-0.7457775313624789,-0.0896412126559307,1.4476467034872718,0.9020908921087796,1.0956660993420742,0.2853573185402379,10.7700151065701,-0.9006045902065539,0.2391170191320775,-0.9947304006227652
1.82,0.1983843836185626,0.4056368738329665,1.5823978074592604,-0.0669068596333996,0.1662111393323947,0.0027144674589817,-0.1453744117897061,-0.7366167357831384,-0.0908761570832804,0.1956470780167684,0.3964677149060813,1.5812652704839971,-0.1495138386150795,-0.7457775313624789,-0.0896412126559307,1.0877465267020494,0.9646626800139236,0.4378056635429062,-0.2468696439631289,10.827624221905351,-0.9025648224857,0.2432110760100563,-0.9887317408473744
1.84,0.1956818018858039,0.3910672411705871,1.5805300364806032,-0.0716335039653417,0.1614983276297713,0.0029353707576248,-0.1264601500398832,-0.7202846411349177,-0.0955193370733061,0.1956470780167684,0.3964677149060813,1.5812652704839971,-0.1495138386150795,-0.7457775313624789,-0.0896412126559307,1.2708714859880863,0.945713087491147,0.8166047324110304,-0.2321589995012869,10.128517858460327,-0.9016859433600056,0.2481458698703477,-0.9882842745421784
1.86,0.1933162087415707,0.376876356268404,1.5785844617924094,-0.0764534199089255,0.153919466280191,0.003429450017653,-0.1114870917004905,-0.6996665575937276,-0.098706755986462,0.1941519396306176,0.3890099395924565,1.580368858357438,-0.1428747096916634,-0.7414758034268071,-0.0892402730721523,1.2839952144325668,0.7486529169696318,1.030904177059505,-0.1593709456577947,10.292485101061176,-0.9045553934505683,0.2532025904831008,-0.9840723963271344
1.88,0.191207763869615,0.3631238606187378,1.5765903923967186,-0.0801833224292433,0.1451690731591619,0.004166849865553,-0.1004104208346655,-0.676957662868994,-0.1004908768444063,0.191161662858316,0.3740943889652069,1.5785760341043196,-0.1295964518448311,-0.7328723475554635,-0.0884383939045955,1.2664612354160385,0.553833543291253,1.1354447362366848,-0.0892060428972114,10.360901178912172,-0.908972028051639,0.2577410143239168,-0.9783564246728208
1.9,0.1893761622163889,0.3504893518314099,1.574674416778795,-0.0824719205749567,0.1369421649679538,0.005008436859637,-0.0930890171419997,-0.6544940345365493,-0.1010550653104886,0.1881713860860144,0.3591788383379574,1.576783209851201,-0.1163181939979988,-0.7242688916841199,-0.0876365147370388,1.1816681625084628,0.3660701846332915,1.123181416622232,-0.0282094233041166,10.360901178912172,-0.9143678127441216,0.2611562215210672,-0.9717676265532976
1.92,0.1875700889487096,0.3376541505195014,1.572656487209112,-0.0835820893247449,0.1292071409051768,0.0059552401507229,-0.0880345234855884,-0.6303674052983688,-0.1006391744726438,0.1858450222060544,0.3446934605042749,1.57503047955646,-0.1030399361511665,-0.7156654358127763,-0.086834635569482,1.232695329053709,0.2527246828205619,1.206331461909027,0.0207945418922404,10.477507053797126,-0.919841294909414,0.2634312345636617,-0.9651459491246834
1.94,0.1858396882632622,0.3253100054968333,1.5706522579699589,-0.083077046198955,0.123016102119854,0.006916207537844,-0.0854047398311704,-0.605437700122523,-0.0997655708789136,0.1835186583260944,0.3302080826705926,1.5732777492617194,-0.0897616783043343,-0.7070619799414327,-0.0860327564019252,1.254162215846315,0.1314891827208994,1.2464852587922903,0.0436801796865102,10.477507053797126,-0.9235718829847696,0.26428238724123,-0.9605428581792528
1.96,0.1841380662164194,0.3134715848856945,1.5686703058547764,-0.0804409900330865,0.1190474951233393,0.0078557859613971,-0.0849288214210976,-0.580062527417061,-0.0984296950515142,0.1815242508923053,0.3159377912336937,1.5715450659461674,-0.076483420457502,-0.698458524070089,-0.0852308772343685,1.270738419572748,0.02379592050364,1.2687586352730984,0.0667937913699671,10.532532450822146,-0.9258296530642378,0.2633207971617871,-0.9577740103454452
1.98,0.1825180530570662,0.3026752191488654,1.5668193563356467,-0.0762491521505708,0.1178378985715181,0.0086664213341968,-0.0853548252066693,-0.558209047541246,-0.0964247025139954,0.1798617999046869,0.3018825861935785,1.5698324296098043,-0.0632051626106697,-0.6898550681987454,-0.0844289980668117,1.097469882255862,-0.0213001892785814,1.0926739937907493,0.1002496268759436,10.532532450822146,-0.927312101527348,0.2607800947272585,-0.9558635531155926
2.0,0.1808182235188003,0.2917306142144086,1.5649198395319477,-0.0712483331733085,0.1188497629474377,0.0093981457490462,-0.0843642007498106,-0.5376308069596868,-0.0935926937281573,0.1782503117967327,0.2747647667718031,1.561998121209947,-0.0788792350372395,-0.5289067876341196,-0.0458189621158268,1.0397903586902997,0.0495312228429342,1.0289120290779608,0.1416004392919015,10.556818554169697,-0.9269386732393264,0.2577579119225741,-0.955745519624982
2.02,0.1792369891751001,0.2811508020787552,1.5631743296022975,-0.0673542676526012,0.1190938801137151,0.0101203324528506,-0.0736804747480631,-0.520863027209619,-0.0806469850725523,0.1782503117967327,0.2747647667718031,1.561998121209947,-0.0788792350372395,-0.5289067876341196,-0.0458189621158268,1.1862670563821271,0.5341863000873741,0.8383889875033912,0.6472854327802514,10.57894836171272,-0.9345223749825688,0.2561245344816361,-0.9464927714384416
2.04,0.1778767974475643,0.2709243213646145,1.5617175406437225,-0.0647372481233814,0.1157857193803197,0.0110016395374148,-0.0631843183087218,-0.5025447209677336,-0.0657092972407801,0.1782503117967327,0.2747647667718031,1.561998121209947,-0.0788792350372395,-0.5289067876341196,-0.0458189621158268,1.293120413312402,0.5248078219670632,0.9159153120942676,0.7468843915886078,11.20669133757201,-0.9375010926080238,0.2563932935327904,-0.9408149467905632
2.06,0.176755301517111,0.2615547033887548,1.5606170958001429,-0.0625571063588732,0.1100481534028861,0.0119866295708434,-0.0558321111253762,-0.4847261450428404,-0.0508396314119965,0.1774615194463603,0.2694756988954619,1.5615399315887888,-0.0775841170033535,-0.5230463356526943,-0.0356978140361931,1.217234119138263,0.3676103591672836,0.890928796244661,0.7434832914391842,11.261843910675452,-0.9424447498320254,0.256938122848488,-0.9332045035730032
2.08,0.1756869200028309,0.2520557697625246,1.5597711487629025,-0.0602977488033517,0.1026187901993309,0.0131035277570572,-0.0517399898682187,-0.4662016784069548,-0.0344772734005002,0.1758839347456155,0.2588975631427795,1.5606235523464722,-0.0749938809355816,-0.5113254316898437,-0.0154555178769257,1.252625323294732,0.2046060628578715,0.9262233317942764,0.8181179005748145,11.321547354612449,-0.949944813995372,0.2575815987194029,-0.9227560053016948
2.1,0.1746629142155797,0.2429235949215599,1.5592577089958743,-0.057981297006665,0.0949576624139598,0.0142305254358871,-0.0511130576018162,-0.44805833996238,-0.0176408343766353,0.1743063500448707,0.2483194273900971,1.5597071731041556,-0.0724036448678097,-0.4996045277269931,0.0047867782823417,1.2379816769497878,0.0313466133201264,0.9071669222287416,0.8418219511932433,11.321547354612449,-0.9583897933159132,0.2582273015927488,-0.9110989406514092
2.12,0.1736190896678687,0.2341487884622209,1.5590845292354143,-0.0555841994008086,0.0879771292440546,0.0153144536180925,-0.0534677207833546,-0.4304445532907484,-0.000479125502081,0.1728582771475146,0.2383273368355572,1.5598029086698024,-0.0698134088000378,-0.4878836237641425,0.0250290744416091,1.235226872994591,-0.1177331590769183,0.880689333581583,0.8580854437277164,11.335880389811791,-0.9673088412988374,0.2589051059254021,-0.8986065357434049
2.14,0.172499209945729,0.2257201137895619,1.5592604421785228,-0.0531312445972582,0.0824241406976717,0.0163147542820245,-0.0585944038747644,-0.4134109201238793,0.0172598535670002,0.1714102042501584,0.2283352462810174,1.5598986442354492,-0.0672231727322659,-0.476162719801292,0.0452713706008765,1.2560841102375568,-0.2563341545704898,0.8516816583434506,0.8869489534540627,11.344011208445409,-0.9756473202316984,0.2597348761364551,-0.88629026929272
2.16,0.1712472436886642,0.2176274781888695,1.559795426622084,-0.0506005460074395,0.0792459295922076,0.0171898595325176,-0.0663946761555029,-0.396853376190324,0.0353823414630346,0.1700268872544965,0.2186361783255488,1.560500437205078,-0.064632936664494,-0.4644418158384414,0.065513666760144,1.2878480852833385,-0.3900136140369249,0.8278771966777648,0.9061243948017196,11.376346057724732,-0.9819152244361528,0.2604669797538573,-0.8763575115058625
2.18,0.1699046311803397,0.2102406633821624,1.5606421249687896,-0.0481240273962422,0.078945017865976,0.0178898065871925,-0.0741929555222259,-0.3816490883410987,0.0528757671861138,0.1687083261605289,0.2092301329691514,1.561608287578688,-0.0620427005967221,-0.4527209118755909,0.0857559629194114,1.2227054772230006,-0.3899139683361536,0.7602143924612698,0.8746712861539593,11.40025994597272,-0.9879020445890564,0.2612777302412948,-0.8664799170930978
2.2,0.1683471090377345,0.2027705506591127,1.5618965187152956,-0.0454895436864826,0.0808442713508814,0.0185293021320694,-0.0809034244639178,-0.366255787079447,0.0716801401383574,0.1661949834042284,0.1911582089651074,1.5632859133280954,-0.080951851224886,-0.3564453257651147,0.0624463602004732,1.2605440881584122,-0.3355234470845958,0.7696650630825808,0.940218647612182,11.391353250289283,-0.9916336494619374,0.262113187974177,-0.8592071808038743
2.22,0.1666766083949256,0.1955870891358395,1.5633522698325384,-0.0431136579248292,0.083679878412807,0.0191193076601181,-0.0857466047885474,-0.3528541866208302,0.0720080797457386,0.1661949834042284,0.1911582089651074,1.5632859133280954,-0.080951851224886,-0.3564453257651147,0.0624463602004732,0.7126830201698489,-0.2421590162314781,0.6700800229308412,0.0163969803690593,11.391028220111366,-0.9888891193999296,0.2635169427283502,-0.8586465518257733
2.24,0.1649211394139693,0.1886690540891346,1.5647856446556891,-0.0410678997466333,0.0863632912217264,0.0197043444271983,-0.0895130365682213,-0.3396196978699624,0.0714123134125963,0.1661949834042284,0.1911582089651074,1.5632859133280954,-0.080951851224886,-0.3564453257651147,0.0624463602004732,0.6886447530684621,-0.188321588983692,0.66172443754339,-0.0297883166571165,10.156322013683166,-0.986927995413998,0.2627647396650234,-0.8608083309520086
2.26,0.1631911042773282,0.1823404782011518,1.56614958498781,-0.0393002574017148,0.0886385318657845,0.0202683164586705,-0.0923794121677671,-0.3272266220605028,0.0721853030712189,0.1653854648919796,0.1875937557074563,1.5639103769301002,-0.082303630365418,-0.3514045732499178,0.0643604788033451,0.6371851185272279,-0.1433187799772917,0.6196537904729821,0.0386494829311308,10.22433172201272,-0.9852666667752976,0.2622929862643296,-0.8623858428189816
2.28,0.161317406577694,0.1759304020074037,1.5676123911342796,-0.0375863152722356,0.0907073518607069,0.0208727536496299,-0.0948039949913818,-0.3144538100931107,0.0741024849490379,0.1637664278674819,0.180464849192154,1.5651593041341096,-0.0850071886464821,-0.3413230682195243,0.0681887160090889,0.6570747936414091,-0.1212291411807349,0.6386405983696053,0.0958590938909514,10.305084437570258,-0.9840287962110136,0.2621876337687572,-0.8630835532360094
2.3000000000000003,0.1594006093313804,0.1697736782679654,1.5691241706542822,-0.0359899067917958,0.0924272119552271,0.0214891247172931,-0.0967446548996029,-0.3018958606346125,0.0769758992672985,0.1621473908429841,0.1733359426768517,1.5664082313381191,-0.0877107469275461,-0.3312415631891306,0.0720169532148327,0.6513922883446599,-0.0970329954110581,0.6278974729249098,0.1436707159130287,10.369731490246522,-0.9831881347780924,0.2623400624804599,-0.8630713868555188
2.32,0.157448727555588,0.1638652864417079,1.570700747403092,-0.0344937456880022,0.0938172943792151,0.0221161253910209,-0.0983421891623793,-0.2896154908125642,0.080539441373898,0.1603931759044332,0.1667111114130691,1.567848570402416,-0.0904143052086101,-0.321160058158737,0.0758451904205765,0.6443183045524251,-0.0798767131388183,0.614018491102411,0.1781771053299748,10.41953779493906,-0.9827324615691052,0.2626623676328441,-0.8625117597984855
2.34,0.1555664213428013,0.1584768024559849,1.5722628904575142,-0.033180173156932,0.0948706979983695,0.0227178171214958,-0.09971349290251,-0.278243838234724,0.0837200374308107,0.1586389609658823,0.1600862801492865,1.5692889094667124,-0.0931178634896742,-0.3110785531283435,0.0796734276263203,0.5943718271756442,-0.0685651870065334,0.5685826288920115,0.1590298028456366,10.457045284458218,-0.9823015287030318,0.2631836147003324,-0.8617007353778561
2.36,0.1535574614851672,0.1530368183013963,1.57397022988712,-0.0318781755029229,0.0957626245317802,0.0233564384682278,-0.1011032521382504,-0.2664033995235833,0.0868397612379479,0.1568171570703048,0.1537134865112637,1.5708249544611528,-0.0958214217707382,-0.3009970480979498,0.0835016648320641,0.616157642650044,-0.0694879617870215,0.5920219355570355,0.1559861903568583,10.440469054290588,-0.9820027835404922,0.2637562385814486,-0.8607500867099683
2.38,0.151521031835006,0.1478330599096864,1.575737849380689,-0.0305569326027695,0.0965048054516871,0.0240041205040048,-0.1024588085361739,-0.2546441234864961,0.0897733167633335,0.1549277642177007,0.1475927304990008,1.5724567053857366,-0.0985249800518022,-0.2909155430675563,0.0873299020378079,0.6097619496264202,-0.0677778198961753,0.5879638018543604,0.14667777626928,10.414479056990784,-0.9818413712545428,0.2643153517307602,-0.8596593974037378
2.4,0.1495616489982693,0.1431060358401394,1.5774705865267615,-0.0292069953081733,0.0971281533380374,0.0246304885589318,-0.1037104697781581,-0.2436014585755969,0.0924792951656636,0.1463980914081973,0.1351008537353616,1.5802265152188557,-0.086097581277134,-0.2369378727146159,0.0836086961328904,0.5719034518888779,-0.0625830620992085,0.552133245544957,0.1352989201165069,10.414479056990784,-0.9817719466764891,0.2647672929368398,-0.8585707570828952
2.42,0.1474371838305428,0.1383700961811635,1.579310651324114,-0.0270722033976013,0.0988047015534126,0.0253123161158865,-0.108504501451549,-0.2309673826013062,0.0911938084012904,0.1463980914081973,0.1351008537353616,1.5802265152188557,-0.086097581277134,-0.2369378727146159,0.0836086961328904,0.678702975592054,-0.2397015836695451,0.6317037987145349,-0.0642743382186603,10.40812523490331,-0.9779369113189093,0.2647154553979633,-0.8615241310024317
2.44,0.1452281416326196,0.133865816661676,1.5811163437673643,-0.0243306233893786,0.102287110515433,0.0259925843158198,-0.1118835774404594,-0.2202230402672845,0.0894598813348306,0.1463980914081973,0.1351008537353616,1.5802265152188557,-0.086097581277134,-0.2369378727146159,0.0836086961328904,0.5697928347243512,-0.1689537994455217,0.5372171167010872,-0.0866963533229896,10.164339162902252,-0.975444385936176,0.2633755379812117,-0.8646501994729574
2.46,0.1429730982475794,0.1295636529525398,1.5828881277099318,-0.021597341787095,0.1068278457362937,0.0266551077070831,-0.1132270759644883,-0.2105669262198803,0.0877959821076591,0.145537115595426,0.1327314750082154,1.5810626021801846,-0.0828253358253261,-0.2333966225602399,0.0823757720068018,0.4945050237831919,-0.067174926201443,0.4828057023702092,-0.083194961358575,10.1573947330362,-0.9716103051131671,0.2619662167690514,-0.8692243957678176
2.48,0.1408254679542386,0.1256484733779446,1.5845406375522846,-0.0192035038062346,0.1115016617706319,0.0272714664701992,-0.1126352270607996,-0.2020342632291469,0.0862223146046923,0.1438151639698833,0.1279927175539231,1.5827347761028423,-0.0762808449217101,-0.2263141222514879,0.0799099237546245,0.4348363262427712,0.0295924451844335,0.4266331495366732,-0.0786833751483417,10.15957992451149,-0.966952899345336,0.2607514223974883,-0.8745109360809693
2.5,0.138595087177223,0.1216974370295417,1.5862472785042594,-0.0169556729357924,0.1163040851697708,0.0279118028590007,-0.1103059907062714,-0.1935178895186287,0.0845105062905137,0.1420932123443406,0.1232539600996308,1.5844069500255002,-0.0697363540180942,-0.2192316219427358,0.0774440755024473,0.4496783597110032,0.1164618177264112,0.4258186855259069,-0.085590415708929,10.162062018189316,-0.9619218758631772,0.2597809775081074,-0.8799811824289762
2.52,0.1364275805632596,0.1179132182774378,1.5879191049996806,-0.0149775786051034,0.1206231449907962,0.0285477128680981,-0.1064807219804018,-0.1853299797992847,0.0827461437938372,0.1406984852639788,0.1188693276607761,1.5859558315355493,-0.0631918631144782,-0.2121491216339837,0.07497822725027,0.4604006988942399,0.1912634362934796,0.4093954859671983,-0.0882181248338241,10.168040322235356,-0.9571004488664524,0.2592240648778433,-0.8847815502144425
2.54,0.1343495488433964,0.1142897620323178,1.5895537825025414,-0.013235364823888,0.1242059140343111,0.0291817212900117,-0.1015069565310518,-0.1774175504179021,0.0807967956062168,0.1393037581836169,0.1144846952219213,1.587504713045598,-0.0566473722108623,-0.2050666213252317,0.0725123789980928,0.4773490332479322,0.2486882724675003,0.3956214690691323,-0.0974674093810204,10.168040322235356,-0.9528405264432156,0.2589532134169957,-0.8887417537880912
2.56,0.1324760256515409,0.1109929005733992,1.5910691776571653,-0.0117274559703253,0.1268122529756681,0.0297852890485573,-0.0959810822889381,-0.1700499312299247,0.0788083178138208,0.1380726433758454,0.1102771252907854,1.5889919483493429,-0.0501028813072463,-0.1979841210164796,0.0700465307459156,0.4710921952483422,0.2762937121056845,0.3683809593988715,-0.0994238896198006,10.163660430910568,-0.94890191834645,0.2588237161171179,-0.8921805470883789
2.58,0.1306220397889332,0.107670776432566,1.5926224761680925,-0.0102734189542292,0.1286967043165719,0.0304202943285167,-0.0897267174784596,-0.1625889364144154,0.0766191212981156,0.1370051408406643,0.1062466178673683,1.5904175374467828,-0.0435583904036304,-0.1909016207077276,0.0675806824937383,0.4989391350755706,0.3127182405239251,0.3730497407754621,-0.1094598257852602,10.161505638160634,-0.9455973468545616,0.2588696363560525,-0.8947719326356254
2.6,0.1288962589687345,0.1044951863490928,1.5941316709155129,-0.0089670093206214,0.1297456713441718,0.0310506091412388,-0.0832287958442001,-0.1553835003731146,0.0744091381773056,0.1261357039150102,0.0995413296118453,1.596453432232998,-0.0815161320258434,-0.1575477855725535,0.0571931647657565,0.4975573321349988,0.324896081712974,0.3602718020650403,-0.1104991560404985,10.162801960697834,-0.943108090539552,0.2593515331696236,-0.8960164917973986
2.62,0.127329302379635,0.1014921501835008,1.5955778739379871,-0.0068469114455212,0.1290269646468798,0.0317470080068536,-0.0737634060650905,-0.1457583111255495,0.0702337185137832,0.1261357039150102,0.0995413296118453,1.596453432232998,-0.0815161320258434,-0.1575477855725535,0.0571931647657565,0.7065267176272361,0.4732694889554793,0.4812594623782584,-0.2087709831761236,10.162801960697834,-0.9441709066242532,0.2595395164042635,-0.8935322177425656
2.64,0.1260154348262764,0.0987961911517676,1.5968688484366005,-0.0039662835128064,0.125647110139583,0.0324731240861137,-0.0651919956100156,-0.1387110760951623,0.0658956123794729,0.1261357039150102,0.0995413296118453,1.596453432232998,-0.0815161320258434,-0.1575477855725535,0.0571931647657565,0.5957175580663695,0.4285705227537454,0.3523617515193575,-0.2169053067155119,10.027102894074233,-0.944691434347498,0.258778961673847,-0.8916462507981565
