t,x,y,z,roll,pitch,yaw,v_x,v_y,v_z,ref_x,ref_y,ref_z,ref_v_x,ref_v_y,ref_v_z,a_com,a_x,a_y,a_z,thrust,wind_x,wind_y,wind_z
0.0,-0.876348296047061,0.895776715595008,2.5224732602729185,0.0236437691989574,0.1002169042661905,0.0428205458658211,0.0048515928617248,-0.0055583671240474,0.0218937440754075,-0.8761998178182837,0.8955532505461538,2.5231345464512613,0.0166160914333049,-0.1069424251133695,-0.0779951160032726,1.1551725282626344,0.2425796430862435,-0.2779183562023709,1.0946872037703783,10.23483456723443,-0.945950634875608,0.2640266643857105,-0.8663381644121226
0.02,-0.8763162012186692,0.8959401516712953,2.522685187455563,0.0302977757716116,0.1010171398631961,0.0433020935945981,-0.0009573246024771,0.0176007613700473,0.000275630302746,-0.8761998178182837,0.8955532505461538,2.5231345464512613,0.0166160914333049,-0.1069424251133695,-0.0779951160032726,1.610459249561781,-0.2904458732100986,1.1579564247047365,-1.0809056886330757,10.234116973816526,-0.9396254372853424,0.265815537343975,-0.8645752436619365
0.04,-0.8763907393921767,0.8963413022644511,2.522391249282414,0.0445351073920161,0.103477132865838,0.0443649654950802,-0.0059335087228385,0.0204804610077651,-0.0287625685885824,-0.8761998178182837,0.8955532505461538,2.5231345464512613,0.0166160914333049,-0.1069424251133695,-0.0779951160032726,1.4800946534390662,-0.24880920601807,0.1439849818858906,-1.4519099445664274,8.9162371750067,-0.9263658415756116,0.2462578276162315,-0.89088240439037
0.06,-0.8765439730962791,0.8967141114799652,2.5215072089407795,0.0594347060656623,0.1071681624068018,0.0455497165643719,-0.0088893794270737,0.0163068774323073,-0.0582511674778357,-0.8760336569039506,0.8944838262950201,2.5223545952912287,0.0189545301006618,-0.1269424254113927,-0.0979951163012959,1.4964403061371645,-0.1477935352117606,-0.208679178772891,-1.4744299444626634,8.665953206303584,-0.91404424775542,0.2252947889908055,-0.9168949184764577
0.08,-0.8767240500988795,0.8969558384918487,2.520125961682156,0.0731171336181331,0.1112512014299223,0.0467063937573484,-0.0097547552650437,0.0090762993270611,-0.0857440235023328,-0.8757013350752846,0.8923449777927527,2.520794692971163,0.0236314074353758,-0.1669424260074392,-0.1379951168973423,1.4220471752553894,-0.0432687918985002,-0.3615289052623091,-1.3746428012248535,8.705185505610643,-0.9009908456651716,0.2035890094810221,-0.9428618617937272
0.1,-0.8769120235129639,0.8970332218428078,2.5181093691578083,0.0868565678488252,0.1156751814836266,0.0479193934503728,-0.008839242710954,-0.0012593512894052,-0.1145174783829921,-0.8753690132466184,0.8902061292904853,2.519234790651098,0.0283082847700897,-0.2069424266034856,-0.1779951174933888,1.5293589692022067,0.045775627704483,-0.5167825308233179,-1.4386727440329656,8.770828926833474,-0.8880448128693035,0.1826610713226374,-0.9669721710280468
0.12,-0.8770629965511547,0.8968762008289928,2.515521592351597,0.0999118160050417,0.1198500391219648,0.0490899435515819,-0.0061858476197985,-0.0142135631244037,-0.1428592435987926,-0.8748028475512166,0.8860672807584156,2.51567488830123,0.0329851621048037,-0.2469424271995321,-0.2179951180894352,1.5637357236145617,0.1326697545577772,-0.6477105917499248,-1.4170882607900253,8.81611655998131,-0.8749779530736043,0.1616542406331611,-0.9905494851204324
0.14,-0.8771455131065138,0.8964343443203865,2.512363816349431,0.1123053132645851,0.1234928836093396,0.0501769257810583,-0.0021508168465853,-0.0295953095589735,-0.1715961638317165,-0.8742366818558148,0.8819284322263459,2.5121149859513623,0.0376620394395176,-0.2869424277955786,-0.2579951186854817,1.6421709572937344,0.2017515386606562,-0.7690873217284916,-1.4368460116461936,8.87829374427838,-0.8625530389458119,0.141838037338104,-1.0121859818558685
0.16,-0.8771376305642161,0.8957076789162705,2.508827855616463,0.1234898528256357,0.1262970655065429,0.0510969627618972,0.0027819702324955,-0.0463493150398589,-0.1992416934285292,-0.8735535942270453,0.876789583679375,2.507555083586593,0.0423389167742315,-0.326942428391625,-0.2979951192815281,1.6350110050924227,0.2466393539540464,-0.8377002740442681,-1.382276479840637,8.891730395425839,-0.8510262095027341,0.1227003548279579,-1.0313316067448592
0.18,-0.8770198546749043,0.8945766002038272,2.5045343804445945,0.134667987347878,0.1284727250345243,0.0519165535619529,0.008750135590405,-0.0661263472542928,-0.2287176459778737,-0.8727535846649077,0.870650735117503,2.501995181206923,0.0470157941089455,-0.3669424289876714,-0.3379951198775746,1.799709545761007,0.298408267895474,-0.9888516107216968,-1.4737976274672242,8.910809938165585,-0.8401686353239182,0.1038570729708791,-1.0492831452654126
0.2,-0.8767754531799198,0.8930271399285779,2.499651936116813,0.1452617860857373,0.1298389095439323,0.0525612852798497,0.0153833925575839,-0.0880696604720897,-0.2580917627221332,-0.876582347895384,0.8912702828411125,2.493098498145701,0.020586069253356,-0.1661263487444089,-0.3287176474679898,1.86302699086215,0.3316628483589443,-1.097165660889842,-1.4687058372129749,8.92723696268149,-0.8303706743325979,0.0855601847661654,-1.065592472182185
0.22,-0.8763693995676929,0.8908776054247577,2.494308942459777,0.1514716662491864,0.1304486860212693,0.0527521232057451,0.0248817278211645,-0.1240783177819458,-0.2737194818646359,-0.876582347895384,0.8912702828411125,2.493098498145701,0.020586069253356,-0.1661263487444089,-0.3287176474679898,2.0193237603434087,0.4749167631790302,-1.8004328654928048,-0.7813859571251358,8.97048566347894,-0.825866346546239,0.0693251083959874,-1.0795543587879637
0.24,-0.8758075645775049,0.8882201448151955,2.4889639753326755,0.1529519988074528,0.1303883754992268,0.05249144831548,0.0336813300396813,-0.1533691790909277,-0.2881561824005181,-0.876582347895384,0.8912702828411125,2.493098498145701,0.020586069253356,-0.1661263487444089,-0.3287176474679898,1.6910099628542108,0.4399801109258406,-1.4645430654490947,-0.7218350267941098,9.924894268699973,-0.8212832501606032,0.0629174824883619,-1.0875447486818923
0.26,-0.875040486001296,0.8848442356846377,2.4830194109774517,0.1521504120859117,0.1297147026746449,0.0519259911420057,0.0425027330394308,-0.1824815129818396,-0.305631908212424,-0.8763764872028504,0.8896090193536684,2.489811321671021,0.0229532559859462,-0.1861263490424322,-0.3487176477660131,1.7540995753611333,0.4410701499874769,-1.4556166945455986,-0.8737862905952909,9.813282442678428,-0.8179012843634484,0.0594003534000656,-1.0940456962507026
0.28,-0.8741008268950655,0.8808950958855464,2.476703502109116,0.1493134351223406,0.12838512276815,0.051092104598646,0.0509582975665407,-0.2106467289176753,-0.3251222374697291,-0.8759647658177834,0.8862864923787803,2.4832369687216613,0.0276876294511266,-0.2261263496384786,-0.3887176483620595,1.763979091955555,0.4227782263554941,-1.4082607967917853,-0.9745164628652576,9.676787884691294,-0.8155020437867604,0.0580665673061621,-1.0996201282941112
0.3,-0.8729974097184984,0.8764114484045507,2.469981311933552,0.145210641380752,0.1263263612603093,0.0500443563722465,0.0588750812115757,-0.2359800841191551,-0.3460705195475312,-0.8755530444327162,0.8829639654038921,2.4766626157723013,0.032422002916307,-0.2661263502345251,-0.428717648958106,1.6906247891369923,0.3958391822517476,-1.2666677600739875,-1.0474141038901068,9.56960479002737,-0.8143459124072026,0.0582871962672226,-1.103797606702541
0.32,-0.8718095612526187,0.8717047314090736,2.463195620823453,0.1411455265168079,0.1236824679802484,0.0489294279017978,0.0656853147496076,-0.2581245466978951,-0.3671566868629137,-0.87490460437439,0.8776414383992016,2.468088262793139,0.0371563763814874,-0.3061263508305715,-0.4687176495541524,1.5663516174506094,0.3405116769015961,-1.1072231289370005,-1.0543083657691243,9.40150312040896,-0.8142414674042038,0.0588086287615814,-1.1073172897247414
0.34,-0.8704289643316749,0.8663106594951484,2.455612712086197,0.1371517291754951,0.1202602974130154,0.0476818333816924,0.0719049957171566,-0.2801098260840957,-0.3900642998576979,-0.8742561643160639,0.8723189113945111,2.459513909813977,0.0418907498466678,-0.3461263514266181,-0.5087176501501989,1.6177110945300115,0.3109840483774509,-1.0992639693100297,-1.145380649739211,9.40150312040896,-0.81469877928824,0.0586419096898724,-1.1109205410035816
0.36,-0.8689344247329921,0.8604758611065864,2.4475659044393554,0.1333137067136525,0.1163443799769172,0.0463760959186011,0.0771135552624536,-0.3021253495300199,-0.4134679134706399,-0.8734893649211082,0.8659963843749194,2.449939556819914,0.0466251233118482,-0.3861263520226645,-0.5487176507462452,1.6275299500153777,0.2604279772648502,-1.100776172296211,-1.1701806806470954,9.335773933954442,-0.8158967778513503,0.0581892501156794,-1.11418898457401
0.38,-0.8673487904062377,0.8542046033494238,2.439046394145821,0.1293421239722267,0.1121545967172778,0.0450267677190523,0.0810599298916488,-0.323683562893408,-0.4372832771953266,-0.8726042061895231,0.8586738573404266,2.439365203810949,0.0513594967770285,-0.4261263526187109,-0.5887176513422917,1.618256766921158,0.1973187314597613,-1.0779106681694044,-1.190768186234339,9.313504818843285,-0.817867760706617,0.0580758296901117,-1.1165218189375754
0.4,-0.8657828471127956,0.847853955595978,2.4305076270525605,0.1254097379763735,0.1082011672505879,0.0437424392288383,0.0834703724131987,-0.3435324598365636,-0.4603198684859384,-0.8632957939116552,0.8380204252047534,2.4171822302860546,0.1108079561732441,-0.4236835643835241,-0.5372832786854428,1.5251831703933096,0.1205221260774942,-0.992444847157778,-1.1518295645305876,9.313504818843285,-0.8199939558932009,0.0581017702564889,-1.1190312891619
0.42,-0.8641374989022725,0.8407669894332727,2.4212401166599573,0.1218978056242242,0.1062996525497657,0.0427189797915156,0.0808468042717681,-0.3644546757778234,-0.4642433691721491,-0.8632957939116552,0.8380204252047534,2.4171822302860546,0.1108079561732441,-0.4236835643835241,-0.5372832786854428,1.072399281191632,-0.1311784070715312,-1.0461107970629906,-0.1961750343105334,9.287900584388808,-0.8198873381125843,0.0552360471788914,-1.1257388550954253
0.44,-0.8626253683337984,0.8336503813765458,2.4123660110863647,0.1195678985230282,0.1086212580081028,0.042310719677945,0.078914072835991,-0.383700984247157,-0.4700286010118142,-0.8632957939116552,0.8380204252047534,2.4171822302860546,0.1108079561732441,-0.4236835643835241,-0.5372832786854428,1.0094859433620866,-0.0966365717888544,-0.962315423466678,-0.2892615919832558,10.567459064091963,-0.8189075308132244,0.0573157793734873,-1.1261440587316596
0.46,-0.861044058403264,0.825764523115163,2.4028591611275063,0.1177395525458876,0.1140053042670728,0.0422561196490763,0.0797107388442875,-0.4038537644743316,-0.4805289777095805,-0.8621877143499228,0.8337835895609181,2.4118093974992,0.1167575614295631,-0.4436835646815474,-0.557283278983466,1.1369115383447488,0.0398333004148231,-1.0076390113587324,-0.5250188348883134,10.262392974615976,-0.8138465297501937,0.0583871476208286,-1.130107398522217
0.48,-0.8594151238505694,0.8174789652016486,2.393106188427058,0.1161152696231273,0.1209754627663606,0.0423785799059245,0.0834477117431395,-0.4236228648306683,-0.4943791911951539,-0.8599715552264579,0.8253099182732477,2.4010637319254915,0.1286567719422012,-0.4836835652775938,-0.5972832795795124,1.2212807917731563,0.186848644942604,-0.988455017816836,-0.6925106742786707,10.012532073272268,-0.8064920756108493,0.0588174914110671,-1.1361750356259146
0.5,-0.8576824263882262,0.8088044580460028,2.3830460398704822,0.1145355479027892,0.1284219489103024,0.0425341369722796,0.0898506693202562,-0.4427742014156112,-0.5109512773501422,-0.857755396102993,0.8168362469855772,2.3903180663517825,0.1405559824548393,-0.5236835658736403,-0.6372832801755589,1.3061447070027137,0.3201478788558323,-0.9575668292471418,-0.8286043077494171,9.704123008512395,-0.7973280131940034,0.0588667066190416,-1.1439468397642552
0.52,-0.8558953723004386,0.8002150511045846,2.373162449753176,0.1130640599130113,0.1352214626729432,0.0426289633848622,0.0980499666198569,-0.4603750929180581,-0.5286167782700982,-0.8549442764538963,0.8063625756681044,2.3775724007482717,0.1524551929674774,-0.5636835664696868,-0.6772832807716054,1.312525981305812,0.4099648649800342,-0.8800445751223462,-0.8832750459978,9.704123008512395,-0.7878081297715589,0.0585372902489225,-1.1522808568400829
0.54,-0.8538269388192238,0.7908196303527604,2.3623857895440263,0.1116375054541563,0.1416172075114648,0.0426275997112032,0.1084659792155067,-0.4782140015514287,-0.5481781523128049,-0.8521331568047994,0.7958889043506316,2.36482673514476,0.1643544034801155,-0.6036835670657332,-0.7172832813676518,1.4224690981363683,0.5208006297824904,-0.891945431668531,-0.9780687021353318,9.606537725740054,-0.7785810464822477,0.0576942995947031,-1.1607595996023297
0.56,-0.8515304956231228,0.7810606268984305,2.351210020972232,0.1100624564651693,0.1468537974245391,0.042463969267545,0.1206346741004365,-0.4966029416940116,-0.5684223669263233,-0.8490245568928867,0.7844152330182577,2.351081069526348,0.1762536139927536,-0.6436835676617796,-0.7572832819636982,1.496711795978277,0.6084347442464909,-0.9194470071291456,-1.012210730675922,9.56711908575744,-0.7701305489455172,0.0567872045497157,-1.1688921555333445
0.58,-0.8491119573477973,0.7714499403225037,2.340212603230934,0.1081152633526748,0.1505366089377075,0.0421148467905486,0.1332666589464579,-0.5138925932626197,-0.5881794903849802,-0.8456184767181579,0.7719415616709825,2.336335403893034,0.1881528245053917,-0.6836835682578261,-0.7972832825597447,1.4567455336078723,0.6315992423010675,-0.8644825784304033,-0.987856172932844,9.552980286081038,-0.7631533301584751,0.0562634985131787,-1.1760371850198217
0.6,-0.8463019966022667,0.7609862463247111,2.3282233080114163,0.1056459610006222,0.1530184447673384,0.0415485954877646,0.1470007627498567,-0.5313903230114956,-0.6097378959552092,-0.8424486244004744,0.7457553106593727,2.310803628711685,0.1759057766343985,-0.6138925947527358,-0.6881794918750963,1.5488390849098168,0.6867051901699408,-0.8748864874437934,-1.0779202785114517,9.535960794737548,-0.7570398239383023,0.0561105271967867,-1.1828023840556003
0.62,-0.8431908593200316,0.7501511687800004,2.3160317862206945,0.1027190502919577,0.1545572059459766,0.040834869642086,0.1635895679605654,-0.5511158108540019,-0.6070964635226027,-0.8424486244004744,0.7457553106593727,2.310803628711685,0.1759057766343985,-0.6138925947527358,-0.6881794918750963,1.29543476701813,0.8294402605354384,-0.9862743921253136,0.1320716216303252,9.499571058537184,-0.7535820942957676,0.0546603042980634,-1.1896022838848224
0.64,-0.8397467230325484,0.7389441114871289,2.3038947682687145,0.0997951071243248,0.1556270047795659,0.040060926592981,0.1799545128816998,-0.5686369481319188,-0.6068884022517452,-0.8424486244004744,0.7457553106593727,2.310803628711685,0.1759057766343985,-0.6138925947527358,-0.6881794918750963,1.1987962329726871,0.8182472460567177,-0.8760568638958466,0.0104030635428742,11.045454297896868,-0.7502996456250627,0.0570362767386177,-1.1920497276910422
0.66,-0.8361740383773099,0.7279803411212507,2.292319619712117,0.0972330153663827,0.1560981684161332,0.039277606380566,0.1952319918967701,-0.5845212713551674,-0.611545830176938,-0.8406895666341304,0.7396163847118453,2.3039218337929337,0.1844336001719866,-0.633892595050759,-0.7081794921731195,1.1262822960906749,0.763873950753513,-0.794216161162431,-0.2328713962596373,10.713778822335373,-0.7473028782777751,0.0587719152078366,-1.194923547245373
0.68,-0.8321055337147275,0.7161236263868188,2.2799991883063733,0.0947267150970217,0.1559231923679776,0.0383946623277887,0.2107216341725323,-0.6002747332591314,-0.6204272779743374,-0.8371714511014425,0.7273385328167906,2.290158243955432,0.2014892472471628,-0.6738925956468055,-0.748179492769166,1.1905678212187825,0.7744821137881108,-0.7876730951981992,-0.4440723898699705,10.419795703401178,-0.7447684176231107,0.0599076915707531,-1.197987992074599
0.7000000000000001,-0.8277331540691482,0.7039594045167171,2.267464478908796,0.0924197525715826,0.1550421230081675,0.0374547159375015,0.2256816233031305,-0.6153206427662735,-0.6327306861904212,-0.8336533355687545,0.7150606809217359,2.27639465411793,0.2185448943223391,-0.713892596242852,-0.7881794933652124,1.2263304218442974,0.7479994565299116,-0.7522954753571065,-0.6151704108041889,10.185365574445314,-0.743098999153268,0.0605696100840601,-1.2008065654077735
0.72,-0.8230665592747284,0.6915017790088988,2.254651450091719,0.0903037545228337,0.1533321470546071,0.0364500369110249,0.2401554734441113,-0.6296867113935082,-0.6479415829544907,-0.8292824376823078,0.7007828289968789,2.2606310642506258,0.2356005413975153,-0.7538925968388984,-0.8281794939612589,1.2720531102052757,0.7236925070490396,-0.7183034313617331,-0.7605448382034752,9.99883269772181,-0.7426076037812301,0.0609451126554139,-1.2028595531159427
0.74,-0.8183693455293212,0.6794058852375505,2.242184944277263,0.0884896214505441,0.1508372449989576,0.0354314893429746,0.2534826317320071,-0.6428646386306271,-0.6635549491672744,-0.824911539795861,0.6865049770720218,2.244867474383321,0.2526561884726915,-0.7938925974349449,-0.8681794945573054,1.2196804077215564,0.6663579143947898,-0.6588963618559485,-0.7806683106391876,9.848287244902169,-0.7428541171457911,0.0606855419805686,-1.2051037829244906
0.76,-0.8131560888299134,0.6663994722356597,2.2287308586020584,0.0865628061744232,0.1471703735382271,0.0342694542263836,0.2670327930996672,-0.6569638937817903,-0.6810620682106173,-0.8201142507325347,0.6712271251322637,2.228103884501116,0.2697118355478678,-0.8338925980309913,-0.9081794951533516,1.3123405485096178,0.6775080683830065,-0.7049627575581585,-0.875355952167145,9.723395730631635,-0.7443176013459899,0.0602957140530581,-1.2067941916164666
0.78,-0.8076797090948521,0.6531120157225714,2.214916282268592,0.084363895772177,0.1422924320613478,0.0329916462648888,0.2797138692088992,-0.6709145131108344,-0.6995332403826149,-0.8148905704923292,0.6549492731776043,2.2103402946040096,0.286767482623044,-0.8738925986270377,-0.9481794957493982,1.3196719974671822,0.6340538054615985,-0.6975309664522034,-0.9235586085998782,9.668380431096011,-0.7468728268914319,0.060041167591747,-1.2080937506835123
0.8,-0.8019692997540762,0.6395490672341545,2.2007207965576967,0.081803719063142,0.1364207924952312,0.0316192866142337,0.2904181026854185,-0.6844629296238726,-0.71905164811802,-0.7936940156344071,0.6195662900670297,2.1799396202494608,0.335569746906367,-0.7465778636333525,-0.799533241872731,1.3029854612160152,0.5352116738259638,-0.6774208256519088,-0.975920386770257,9.668380431096011,-0.7504897604888433,0.0601963652563257,-1.208589958605239
0.8200000000000001,-0.796380365865601,0.6263237599646154,2.187134249583558,0.0767724534220792,0.1321237881467661,0.0302596947798113,0.2972742884172363,-0.7051396391874143,-0.7099597322279925,-0.7936940156344071,0.6195662900670297,2.1799396202494608,0.335569746906367,-0.7465778636333525,-0.799533241872731,1.180250540897542,0.3428092865908921,-1.0338354781770864,0.4545957945013779,11.45566349749788,-0.7527911375125135,0.060754653407794,-1.2129894249141844
0.84,-0.790382090632639,0.6120583932855437,2.172995841188106,0.0692878843246,0.1313240829781689,0.0289900489934782,0.3025400191596059,-0.7198099386676411,-0.7047447323689506,-0.7936940156344071,0.6195662900670297,2.1799396202494608,0.335569746906367,-0.7465778636333525,-0.799533241872731,0.8217995963440304,0.2632865371184761,-0.73351497401134,0.2607499929520918,11.45566349749788,-0.7549141444869435,0.0694586298904971,-1.2101679359635935
0.86,-0.7842653401427178,0.5975441604593326,2.1588918323023467,0.0614977868043742,0.1335192687807641,0.0279170876241714,0.3091471835183716,-0.7306097200349071,-0.7061824086203813,-0.7903383181653434,0.6121005114306961,2.1719442878307333,0.3467409224458606,-0.7617105337378561,-0.8195332421707542,0.63709656145756,0.3303582179382897,-0.5399890683633002,-0.0718838125715326,10.5648902803714,-0.7537120455213242,0.0782048105152206,-1.2092258240626248
0.88,-0.7780006748417364,0.5828452237875177,2.144695126124685,0.0540629795315291,0.1374529933143007,0.0269681127670132,0.3172571516059141,-0.7386394653974291,-0.7133997873387271,-0.783626923227216,0.5971689541580291,2.155953622993279,0.3690832735248477,-0.7919758739468634,-0.8595332427668007,0.6751646994103205,0.405498404377122,-0.4014872681260995,-0.3608689359172912,10.5648902803714,-0.7493784382798128,0.0865455090964753,-1.2109175932693883
0.9,-0.7718835697729434,0.5687527492138933,2.131037019178878,0.0475878310647732,0.1419623258642758,0.0261348453960268,0.3263933031492462,-0.7443230358436833,-0.7241300941522677,-0.7769155282890887,0.582237396885362,2.139962958155824,0.3914256246038348,-0.8222412141558707,-0.8995332433628471,0.7597889877343912,0.4568075771666069,-0.2841785223127113,-0.5365153406770296,10.009562868051944,-0.7426953003301322,0.0936178757092057,-1.2150381565620538
0.92,-0.7652438643030827,0.5538203116935598,2.116400994731988,0.0415653963950551,0.1469247376524687,0.0253075600738278,0.3372375672223189,-0.7486295285465188,-0.7390688605137641,-0.769087015797012,0.5657925726022446,2.121972293288567,0.413767975682822,-0.852506554364878,-0.9395332439588936,0.9477746080813284,0.5422132036536353,-0.2153246351417725,-0.746938318074819,10.009562868051944,-0.7350342235852604,0.0994633278396739,-1.2203098967814352
0.94,-0.7583724647346969,0.5388153313818764,2.1014464986052777,0.0364080669152197,0.1516866136122374,0.0245200897163523,0.3494706606058153,-0.7517005091290054,-0.7557059942265201,-0.7612585033049354,0.5493477483191272,2.10398162842131,0.4361103267618091,-0.8827718945738853,-0.97953324455494,1.0438794394510735,0.6116546691748187,-0.1535490291243335,-0.8318566856377996,9.82094158838845,-0.7270636517496043,0.1039645799336433,-1.226370664504172
0.96,-0.7512396059435423,0.5237531721254326,2.08614646454955,0.0319052940249513,0.1558142913991036,0.0237490630103164,0.3632176849010703,-0.7543432721382392,-0.7734819792133838,-0.752871432035884,0.5321462905307847,2.0849909635391524,0.4584526778407962,-0.9130372347828924,-1.0195332451509864,1.131316175468323,0.6873512147627492,-0.1321381504616858,-0.8887992493431862,9.749909083196144,-0.7199570311465646,0.1074897240033823,-1.23199950610683
0.98,-0.7441981775599658,0.5094013508388452,2.0712724401406675,0.0280159948880535,0.158838077515729,0.0230149878636524,0.3772570924558761,-0.7562158877594405,-0.7913280919737361,-0.7439258019898579,0.5141881992372168,2.065000298642093,0.4807950289197832,-0.9433025749918996,-1.0595332457470328,1.1391832539257167,0.701970377740288,-0.0936307810600667,-0.8923056380176153,9.661175688885123,-0.7134531687581482,0.1108404698558653,-1.2372819886013828
1.0,-0.7364929623169687,0.4942635068958061,2.055237676714726,0.0242810250282275,0.160943980457922,0.022243122136889,0.3924822239080442,-0.7574360683646557,-0.8112671094161865,-0.725335322937172,0.4715905564508731,2.0317060355419807,0.4247727790572764,-0.7583294903492563,-0.8261959262735389,1.2558442230383178,0.7612565726084097,-0.0610090302607613,-0.9969508721225206,9.6030666962306,-0.7082382300330261,0.1139331242148661,-1.241665355858412
1.02,-0.7283511103435732,0.4788956843890841,2.039226847526633,0.0142886207170292,0.1601833590957568,0.0209897582301837,0.4212753196448903,-0.7756477818504431,-0.7863713781994615,-0.725335322937172,0.4715905564508731,2.0317060355419807,0.4247727790572764,-0.7583294903492563,-0.8261959262735389,2.1098023029510435,1.4396547868423009,-0.9105856742893714,1.244786560836253,9.6030666962306,-0.7134096423295448,0.1205618081016325,-1.241346724583512
1.04,-0.7200779493336726,0.4641126920329301,2.0245159956422243,-0.0011100283959691,0.1548170382866497,0.0194078827801317,0.4473242251098498,-0.7783300110892957,-0.7635509167784434,-0.725335322937172,0.4715905564508731,2.0317060355419807,0.4247727790572764,-0.7583294903492563,-0.8261959262735389,1.736745007967725,1.3024452732479763,-0.1341114619426264,1.1410230710509006,12.724515140637775,-0.7180903340018575,0.1412161944196349,-1.2345816205286473
1.06,-0.7108934884711979,0.4485994326815707,2.0094302088397606,-0.0181553921964953,0.1455024060296655,0.0178733951236756,0.4690665342332929,-0.772332901662216,-0.7465104655724317,-0.7210875951465991,0.4640072615473806,2.023444076279245,0.4342759163775565,-0.7587522108672196,-0.8331694931334994,1.4133915812719693,1.0871154561721552,0.2998554713539825,0.852022560300586,12.20822879057323,-0.7297494820976884,0.1640139143528215,-1.22082667136408
1.08,-0.7013358885146683,0.4332692846972024,1.9946105348424608,-0.034192523037117,0.1339065393195927,0.0166938289005268,0.4850137401545041,-0.7607786348806271,-0.7365641986915631,-0.7125921395654536,0.4488406717403955,2.0069201577537745,0.4532821910181167,-0.7595976519031459,-0.8471166268534206,1.1031122817047088,0.7973602960605619,0.5777133390794442,0.4973133440434318,11.675783380301256,-0.7436703734204398,0.1848478120155022,-1.2061598151218544
1.1,-0.6915186601572997,0.4182172018438053,1.979919680340381,-0.0483802550539554,0.1212741194236444,0.0159326943394948,0.4954604396543366,-0.7451469618518359,-0.7329480113355399,-0.7040966839843081,0.4336740819334103,1.990396239228304,0.4722884656586768,-0.7604430929390722,-0.8610637605733417,0.9572872389109516,0.5223349749916256,0.7815836514395602,0.1808093678011602,10.84025655356345,-0.7574491244326836,0.2019331157790636,-1.1926075318692086
1.12,-0.6820465985227436,0.4042367331705683,1.9659846268509087,-0.0598759898802575,0.1092671995333889,0.0155646624047474,0.5007947751396951,-0.7275318412997903,-0.7340378138010324,-0.6946509146711346,0.4184652200746289,1.9731749640168368,0.4912947402992369,-0.7612885339749985,-0.8750108942932627,0.9218666885011724,0.2667167742679194,0.8807560276022808,-0.0544901232746253,10.84025655356345,-0.7715818948405297,0.2171944851348506,-1.178909624684273
1.14,-0.6720080466121164,0.3899037579496892,1.9512751803663084,-0.0698715406649643,0.0974024626417942,0.0154694952067473,0.5025004190579857,-0.7068899536790498,-0.7368884844946454,-0.6852051453579611,0.4032563582158474,1.95595368880537,0.5103010149397971,-0.7621339750109248,-0.8889580280131839,1.0453744175254926,0.0852821959145322,1.0320943810370242,-0.14253353468065,10.56086582045009,-0.7844233323280516,0.2292595446675892,-1.1672018395079111
1.16,-0.6619692430435571,0.3760023767289172,1.9364950979136588,-0.0777613681336701,0.0868351146964838,0.0155856251342905,0.5011057556836733,-0.684543563406191,-0.7409976340842539,-0.6752842191787736,0.3880263603311678,1.9383837352509048,0.5293072895803572,-0.7629794160468513,-0.902905161733105,1.138190839121834,-0.0697331687156188,1.1173195136429392,-0.2054574794804253,10.469925884904114,-0.7952527472641849,0.2382837014860989,-1.1574045788583955
1.18,-0.6519866527852768,0.3625630483065231,1.921621199921227,-0.0835885356827747,0.0778426392904676,0.0158375598957384,0.497166061960354,-0.6609748542702827,-0.7461392715458386,-0.664888136133572,0.3727752264205901,1.9204651033534423,0.5483135642209174,-0.7638248570827776,-0.9168522954530262,1.2221310002951635,-0.1969846861659657,1.178435456795418,-0.2570818730792346,10.403878969855214,-0.8047733910580328,0.2453514753890296,-1.1489403294915317
1.2,-0.6425959170838679,0.3502396869757779,1.907388580224311,-0.0873803470133934,0.0708925274332523,0.0161401654146374,0.4915040254680471,-0.6378477631832485,-0.7517317425901575,-0.6271283496872591,0.329514305593009,1.884314236343935,0.5317240899430657,-0.6454376938215527,-0.7234193816666119,1.2229030335330504,-0.2831018246153449,1.1563545543517073,-0.2796235522159462,10.315878193803655,-0.8121547491722739,0.2502219398497477,-1.1425489170575458
1.22,-0.6328172781144071,0.3377628175159473,1.892568639816112,-0.0899203992343229,0.0651612592947447,0.0164751848262331,0.4866017912259042,-0.6111501196749282,-0.728472196202816,-0.6271283496872591,0.329514305593009,1.884314236343935,0.5317240899430657,-0.6454376938215527,-0.7234193816666119,1.787318219852785,-0.2451117121071461,1.334882175416019,1.1629773193670756,10.315878193803655,-0.8187296489578968,0.2510420482120905,-1.140655836437349
1.24,-0.6231569297356402,0.3258304993547888,1.8782517361486395,-0.0911100682851469,0.0612333642281622,0.0167806973973681,0.4795181671686258,-0.5836171262460235,-0.7046524121670074,-0.6271283496872591,0.329514305593009,1.884314236343935,0.5317240899430657,-0.6454376938215527,-0.7234193816666119,1.8544713319794983,-0.3541812028639179,1.3766496714452348,1.1909892017904322,12.136701004399583,-0.8243692989870743,0.2549463052069344,-1.13104748908204
1.26,-0.6136592707411669,0.3144650556525084,1.864377132015381,-0.0902529933489004,0.0597647365983931,0.0170310920788915,0.4708840824808811,-0.5547318724147956,-0.6839192699470764,-0.6218111087878284,0.3230599286547934,1.877080042527269,0.5386356955396081,-0.6423302617318067,-0.7188754036907665,1.8294592736663309,-0.4317042343872368,1.4442626915613932,1.0366571109965472,12.136701004399583,-0.828305301953707,0.2566367217434826,-1.1229854433819664
1.28,-0.6047908732788406,0.3042076197734298,1.8515624369196264,-0.0868550400806777,0.0604379446474512,0.0172803948846528,0.4633180360151645,-0.5272685363519372,-0.6659317494121909,-0.611176626988967,0.3101511747783624,1.8626116548939369,0.5524589067326928,-0.6361153975523147,-0.7097874477390759,1.684510894752399,-0.3783023232858284,1.3731668031429225,0.8993760267442752,11.809785284655844,-0.8290944460013839,0.2551667678456348,-1.1186488616384684
1.3,-0.5955976843720814,0.2939377580216263,1.8384365468632369,-0.0813072664309475,0.0627202383544449,0.0175647136919886,0.4566207490422534,-0.5017399243008114,-0.6475812736339747,-0.6005421451901057,0.2972424209019313,1.8481432672606044,0.5662821179257775,-0.6299005333728227,-0.7006994917873852,1.6072520394615386,-0.3348643486455555,1.2764306025562888,0.9175237889108124,11.809785284655844,-0.8277982352188571,0.2513121998334203,-1.1169236109161982
1.32,-0.5865233247870608,0.2841504254054421,1.8256728338219776,-0.0747790646829548,0.0660883815844199,0.0178575357831902,0.4513567304969055,-0.4787038695280117,-0.6296929278254443,-0.5892165028315902,0.2846444102344749,1.8341292774248568,0.5801053291188623,-0.6236856691933307,-0.6916115358356946,1.481859158714788,-0.2632009272673929,1.1518027386399845,0.8944172904265191,11.737278891428105,-0.8253201209226527,0.2463577840801403,-1.11647096366249
1.34,-0.5775370815818414,0.2748013492897828,1.813274830896609,-0.067738736620762,0.0700805377678327,0.0181736738119953,0.447725346183117,-0.4577733795648253,-0.6109637874244401,-0.5778908604730746,0.2720463995670185,1.820115287589109,0.593928540311947,-0.6174708050138387,-0.6825235798840039,1.4160270674443345,-0.1815692156894283,1.046524498159318,0.9364570200502076,11.728297099665724,-0.8222416823402854,0.2409980771224965,-1.11701055935097
1.36,-0.5690501169976792,0.2662883290847072,1.8018510980289435,-0.0608680065993295,0.0740265610133493,0.0185102389215855,0.4459375253223318,-0.4396898211976881,-0.5924530911264104,-0.566219637834732,0.2596037605040493,1.8063284966521536,0.6077517515050317,-0.6112559408343468,-0.6734356239323132,1.29697461818438,-0.089391043039258,0.9041779183568605,0.9255348149014851,11.728297099665724,-0.8188948274261829,0.2352526167998259,-1.1175422308044591
1.38,-0.5601372482504549,0.2576776943308265,1.7902113602603955,-0.0536549362515917,0.0779616674003049,0.0189108639189691,0.4455531044866744,-0.4225803512817203,-0.572465779056965,-0.5542028349165621,0.2473164930455674,1.7927689046139903,0.6215749626981164,-0.6050410766548547,-0.6643476679806225,1.3156503942401387,-0.0192210417828714,0.8554734957983923,0.9993656034722688,11.762144719979917,-0.8157685193933237,0.2298018386165125,-1.1175184541619725
1.4,-0.5512180412765897,0.249389975395486,1.7789732333048949,-0.0466041253039483,0.0813965039379133,0.0193579219617545,0.4464512235502056,-0.4072674887613372,-0.5523366146921977,-0.5378595930261212,0.2365486767667404,1.7615880713075474,0.47581775030157,-0.414771543044406,-0.5269138270823347,1.265379028635539,0.0449059531765633,0.7656431260191526,1.0064582182383652,11.78431432131947,-0.8135230068254076,0.2252120541014626,-1.116241541775807
1.42,-0.5426684660313312,0.2417434154019337,1.7687506196376286,-0.0415783421168483,0.0826484299958416,0.0197771764116589,0.4531319454617887,-0.3975506706585476,-0.5247782264550824,-0.5378595930261212,0.2365486767667404,1.7615880713075474,0.47581775030157,-0.414771543044406,-0.5269138270823347,1.498760622589696,0.3340360955791543,0.4858409051394785,1.3779194118557658,12.372550399139072,-0.8157339741101275,0.2211909809971496,-1.1119653863062808
1.44,-0.533540778789093,0.233919714675216,1.7585570703762392,-0.0378743796263959,0.0807233289265826,0.0202470691343771,0.4590576946413562,-0.3852987845115314,-0.496067757049581,-0.5378595930261212,0.2365486767667404,1.7615880713075474,0.47581775030157,-0.414771543044406,-0.5269138270823347,1.5886427154829563,0.2962874589783754,0.6125943073508139,1.4355234702750683,12.372550399139072,-0.8201186153145531,0.2211246814858506,-1.103016167924599
1.46,-0.5243127586045858,0.2263455509214592,1.7489251588799009,-0.0346407421707673,0.0760681983341275,0.0207812030852787,0.4631129269505329,-0.3728276191423707,-0.4685904547564753,-0.5331014155231055,0.2324009613362964,1.756318933036724,0.4818706794645491,-0.4132097813969432,-0.5178034366874086,1.5223148623503069,0.2027616154588352,0.6235582684580326,1.3738651146552845,12.210477284048466,-0.826998970124765,0.2215637155823897,-1.0922997060732125
1.48,-0.5150389936973662,0.2190165167397797,1.739827279599171,-0.0314951954644751,0.0696036962584121,0.0213581383110497,0.4636910519084283,-0.3608508227330213,-0.4425334143415956,-0.5235850605170741,0.2241055304754083,1.7457806564950773,0.4939765377905074,-0.4100862581020175,-0.4995826558975564,1.4341785417797743,0.0289062478947693,0.59883982046747,1.3028520207439886,12.210477284048466,-0.8349167505807428,0.2218535416424116,-1.081489483507898
1.5,-0.5062529729918409,0.2122684670790977,1.7316547921591368,-0.0285151125021443,0.062926489566885,0.0219057142747006,0.4609242740980731,-0.3501968126338381,-0.4190019227248417,-0.5140687055110427,0.2158100996145201,1.735242379953431,0.5060823961164657,-0.4069627348070918,-0.4813618751077043,1.2989361881504515,-0.1383388905177612,0.5327005049591604,1.1765745808376942,12.109218121553567,-0.8440339446251628,0.2218210899765917,-1.0698843135494494
1.52,-0.4970927193971509,0.2053746771777821,1.7235261340144037,-0.0254200676397567,0.0562426520774402,0.0224508480035346,0.4550509897876949,-0.3398524372849261,-0.3951242111136628,-0.5039470575887134,0.2076708449183783,1.725615142451277,0.5181882544424239,-0.4038392115121661,-0.4631410943178522,1.3338353362918705,-0.2936642155189101,0.5172187674456014,1.1938855805589426,12.016603930429484,-0.8528640721766972,0.2214709386571483,-1.058904935809362
1.54,-0.4880819424051805,0.1986788572662226,1.7158659851987,-0.0224135700527743,0.0507442143930817,0.0229432966423424,0.446186300848393,-0.3303430651626735,-0.3720599541676754,-0.493825409666384,0.1995315902222365,1.7159879049491225,0.5302941127683821,-0.4007156882172404,-0.444920313528,1.323792673174868,-0.4432344469650962,0.4754686061126306,1.15321284729937,11.950848365090678,-0.8598211988465848,0.2212116248371545,-1.0496259014816884
1.56,-0.4792765321994262,0.192164724478504,1.708660168749125,-0.0195355832490784,0.0473423997514521,0.0233691226514087,0.4347282138831472,-0.3216219772623086,-0.3496584761029042,-0.4834011152859058,0.1914704236084677,1.7068161869667149,0.5423999710943405,-0.3975921649223147,-0.4266995327381479,1.3315135659799442,-0.5729043482622875,0.4360543950182427,1.120073903238561,11.906676623200838,-0.8651199091533177,0.2209065674120841,-1.0416619873862571
1.58,-0.4711362620328097,0.1861307953306456,1.7022253270650702,-0.0169537713815049,0.0466562757285801,0.0237103709723017,0.4230527116559013,-0.3140017415101743,-0.3287747585673462,-0.4726741744472786,0.1834873450770722,1.6980999885040533,0.5545058294202987,-0.3944686416273891,-0.4084787519482958,1.2555028905596974,-0.5837751113622947,0.3810117876067137,1.0441858767779004,11.874234736221297,-0.8697012652335452,0.220467972478156,-1.034088394651615
1.6,-0.4627942703250499,0.1799293715798313,1.6958811480007918,-0.0144295596822017,0.0481450568235409,0.0240227809829606,0.4119970375312048,-0.3065762722965967,-0.3067181780752022,-0.4499836264500146,0.1704307082551369,1.685786589136703,0.4272128923438057,-0.2988039727027631,-0.3023540460963379,1.2882723570733208,-0.5527837062348245,0.3712734606788836,1.1028290246071992,11.830835543656576,-0.8719689184736718,0.220215720549391,-1.0284856634130743
1.62,-0.4546062069378211,0.1738271684964777,1.689948178960209,-0.0135529839304414,0.0495271568196333,0.0242289400790769,0.4073343453441694,-0.3035832808537432,-0.2878699593237238,-0.4499836264500146,0.1704307082551369,1.685786589136703,0.4272128923438057,-0.2988039727027631,-0.3023540460963379,0.9822856589501088,-0.2331346093517733,0.149649572142671,0.9424109375739232,11.814056826092385,-0.8769434548975831,0.2218949187260576,-1.0190933997273783
1.64,-0.446916233726208,0.1680976991554526,1.6846475099182188,-0.0149484117083029,0.0490952176862107,0.0243020374086647,0.4022046871395541,-0.2994491211655553,-0.2710138818226054,-0.4499836264500146,0.1704307082551369,1.685786589136703,0.4272128923438057,-0.2988039727027631,-0.3023540460963379,0.9048922841246396,-0.2564829102307625,0.2067079844093988,0.8428038750559169,11.525993860129349,-0.8790952409754184,0.2254921462768688,-1.013306462376366
1.66,-0.438941123962029,0.1621687158049507,1.679407040888428,-0.0179876632668164,0.0475136129090101,0.0243014559575449,0.39543076010429,-0.2932732158842863,-0.2539439732113956,-0.4457114975265766,0.1674426685281092,1.6827630486757397,0.4280449284813866,-0.2957644189412809,-0.2970699036021362,0.9687745784202628,-0.3386963517632069,0.3087952640634467,0.8534954305604914,11.478717339437026,-0.8830516957927648,0.2305897439306937,-1.0054609490933706
1.68,-0.4311185154828602,0.1563956379301065,1.674498551507315,-0.0214402724142036,0.0454059623255238,0.0243028795147614,0.387035486507328,-0.2842701944391697,-0.2377855869335074,-0.4371672396797005,0.161466589074054,1.6767159677538128,0.4297090007565483,-0.2896853114183164,-0.2865016186137329,1.0156629128486987,-0.419763679848098,0.4501510722558305,0.8079193138944091,11.431932232293548,-0.887852926207197,0.2364465215101155,-0.9960175723062116
1.7,-0.423482631871879,0.1508218059264038,1.669903148104029,-0.0244268606070818,0.0434604610617017,0.0243552894344197,0.376899753859685,-0.2736901075681426,-0.2225409144908386,-0.4286229818328244,0.1554905096199987,1.6706688868318862,0.4313730730317101,-0.2836062038953519,-0.2759333336253296,1.0572030935293886,-0.5067866323821529,0.5290043435513564,0.7622336221334403,11.3742607521217,-0.8922176436946836,0.2416798768113905,-0.9870892166319114
1.72,-0.4164294207532181,0.1457313961449239,1.6658136539374298,-0.0265897684537022,0.0423257926475124,0.0244520261422913,0.3661449513431333,-0.2628402239406178,-0.2086659297774516,-0.4199955203721902,0.1498183855420917,1.6651502201593795,0.4330371453068718,-0.2775270963723875,-0.2653650486369263,1.0318683936161392,-0.5377401258275849,0.5424941813762407,0.6937492356693498,11.32257406604549,-0.8970526133371847,0.2464091523102399,-0.977489516254411
1.74,-0.4092287533289062,0.1406001974001266,1.661789967956698,-0.0281209955308276,0.0420402443719419,0.0245959113599373,0.3545558819416605,-0.2509318550995411,-0.1944288476995369,-0.411368058911556,0.1441462614641846,1.6596315534868729,0.4347012175820335,-0.271447988849423,-0.254796763648523,1.0940867014781783,-0.5794534700736403,0.5954184420538355,0.7118541038957357,11.279758610477984,-0.901479694795528,0.2503858409947486,-0.968327180407866
1.76,-0.4022607341518909,0.1357165302347722,1.658045879299039,-0.0286625225066851,0.0426710239531263,0.0247944974091416,0.3429577307045983,-0.2381929835861025,-0.1806596864222952,-0.4026989956440427,0.1386261150743517,1.6543770939390765,0.4363652898571953,-0.2653688813264585,-0.2442284786601196,1.1027077602796167,-0.5799075618531102,0.6369435756719277,0.6884580638620837,11.210168323578728,-0.9051638452585632,0.2534492236109706,-0.9600655062596356
1.78,-0.3958531187394257,0.1313185444560196,1.654741273558371,-0.0279683990812878,0.0440185876152472,0.0250548356623566,0.3322312732363089,-0.2255673116874889,-0.1678541991226683,-0.3939883305696504,0.1332579463725929,1.64938684151599,0.438029362132357,-0.259289773803494,-0.2336601936717163,1.0469538978524406,-0.5363228734144687,0.6312835949306774,0.6402743649813469,11.210168323578728,-0.9079653650712396,0.2553615418647621,-0.9530592730392068
1.8,-0.389322232858185,0.1269474073647314,1.651525326283538,-0.0257667570963431,0.046064277879987,0.0254231114384823,0.3215364402438584,-0.2123638932685332,-0.1543915450218293,-0.3792415550776103,0.1200401788716451,1.6463485636022377,0.3430792673626884,-0.2031445155722097,-0.1674642223173594,1.0839196996563722,-0.5347416496225249,0.6601709209477863,0.6731327050419497,11.18233881080414,-0.910668000707758,0.2565407132313613,-0.9455564880254248
1.82,-0.3829985826906623,0.1228040215698465,1.6485444507891758,-0.0229496718335202,0.0485768111094836,0.0258331256270005,0.3114669846499001,-0.202688375672744,-0.1445453618490163,-0.3792415550776103,0.1200401788716451,1.6463485636022377,0.3430792673626884,-0.2031445155722097,-0.1674642223173594,0.8543373159614849,-0.5034727796979138,0.4837758797894623,0.4923091586406469,10.90719810201881,-0.9112913757962404,0.2573820581141851,-0.9403052489712967
1.84,-0.3768707419511482,0.1188440625745829,1.6457444787736923,-0.0205339107006619,0.0514607782332457,0.0262183577614961,0.3019555807009612,-0.1937386474712505,-0.13590879882296,-0.3792415550776103,0.1200401788716451,1.6463485636022377,0.3430792673626884,-0.2031445155722097,-0.1674642223173594,0.7828707761558419,-0.475570197446945,0.4474864100746711,0.4318281513028155,10.90719810201881,-0.9117219654079712,0.2575024068415882,-0.9370109157118868
1.86,-0.3712181316057926,0.1152449769176028,1.6432383763658516,-0.0185456696066972,0.0544634101215829,0.0265682921400645,0.2936418618928202,-0.1855394158640044,-0.1283105999899308,-0.3758107624039834,0.118008733715923,1.6446739213790642,0.3452488661879643,-0.1986599563491539,-0.1673862269562977,0.6965593027093017,-0.4156859404070484,0.4099615803623085,0.3799099416514587,10.849935160806126,-0.9117550990699496,0.2577308015832987,-0.9342580823279044
1.88,-0.3654299005794039,0.1116215967540453,1.6407514892734714,-0.0167224462309833,0.0577740206114322,0.0269259839410904,0.2857265678981003,-0.1772237431530355,-0.1207927837455442,-0.3689491770567297,0.1139458434044788,1.641324636932717,0.3495880638385161,-0.1896908379030422,-0.1672302362341741,0.6861484036692914,-0.3957646997359981,0.4157836355484445,0.3758908122193337,10.80554458462484,-0.91152919148894,0.2581647573161554,-0.9318389478991048
1.9,-0.3597911448880856,0.1081615461618191,1.6384089833213653,-0.015147730386651,0.0611200375505958,0.0272762702841775,0.2786463835864114,-0.1691922449448667,-0.1138216954005974,-0.3620875917094759,0.1098829530930346,1.6379753524863698,0.3539272614890679,-0.1807217194569305,-0.1670742455120506,0.6388075728816079,-0.3540092155844443,0.4015749104084407,0.3485544172473362,10.769719912268556,-0.9111391815888096,0.2588339101278653,-0.9296537957924934
1.92,-0.354557661870996,0.1050202344466973,1.6363083662278488,-0.0138878452118395,0.0642348473704329,0.0276025340007666,0.2726765166050602,-0.1618768502675675,-0.1076365919551345,-0.3550090464796945,0.106268518703896,1.6346338675761287,0.3582664591396197,-0.1717526010108189,-0.1669182547899271,0.5643797827942643,-0.2984933490675578,0.3657697338649568,0.309255172273145,10.701977914949566,-0.9105938592372932,0.2596922470510395,-0.9275969918443931
1.94,-0.3491635876283853,0.1018603385752409,1.6342192193470062,-0.0128769209227952,0.0673674466769985,0.0279345605438026,0.2671215752603403,-0.1545039606139329,-0.1016226784945738,-0.3479305012499132,0.1026540843147574,1.6312923826658878,0.3626056567901715,-0.1627834825647072,-0.1667622640678035,0.5508721047100348,-0.2777470672359977,0.3686444826817334,0.3006956730280348,10.701977914949566,-0.9099565372851756,0.2607991441011331,-0.9256718755936966
1.96,-0.3438728553655234,0.0988477364038951,1.632244573229021,-0.0121861055470691,0.0702725928873082,0.0282549634049436,0.2622909287739735,-0.1471389102771562,-0.0961617932688286,-0.340743476078868,0.0992638778867716,1.6279547975237,0.3669448544407233,-0.1538143641185955,-0.16660627334568,0.5181707715325723,-0.2415323243183387,0.3682525168388351,0.2730442612872599,10.667135919693465,-0.9093713313722404,0.2621837198432252,-0.9236727547656316
1.98,-0.3386720740479505,0.0959833239873876,1.6303730507901326,-0.0117224844041979,0.072877060370074,0.0285701148920337,0.2580688804336584,-0.1396994534436101,-0.0912555772178682,-0.3334479709665591,0.0960978994199386,1.624621112149565,0.3712840520912751,-0.1448452456724838,-0.1664502826235565,0.4930572129703979,-0.2111024170157571,0.3719728416773024,0.245310802548021,10.631109059447226,-0.9088849731985258,0.2636789714515144,-0.9217048409880642
2.0,-0.3338047999794144,0.0934011967039612,1.6286814923273156,-0.0114037742233154,0.0750457907210282,0.0288704909642193,0.2545115639869756,-0.1325087773146105,-0.087042762893497,-0.3257686300262676,0.0889983513152071,1.625810271929239,0.2771201994218624,-0.1282858382466668,-0.0906646046155008,0.4530676771345298,-0.1778658223341361,0.3595338064499812,0.2106407162185589,10.597675169176,-0.9085222400247732,0.2653539191680472,-0.919512116184933
2.02,-0.3287373163114471,0.0908733273118042,1.6270488400561711,-0.0098050398032219,0.0766910610509252,0.0292872331172078,0.2524344059692446,-0.1210141085574978,-0.0760931375709535,-0.3257686300262676,0.0889983513152071,1.625810271929239,0.2771201994218624,-0.1282858382466668,-0.0906646046155008,0.8005252806289974,-0.1038579008865503,0.5747334378556331,0.5474812661271796,10.567693370710913,-0.9124029729434388,0.2659957639638918,-0.9132140465693642
2.04,-0.3237136787782191,0.088550310671806,1.6256348839936687,-0.0064394331383915,0.0775741809205364,0.0298382054264605,0.2500003478712276,-0.1123196561193207,-0.0658653042266893,-0.3257686300262676,0.0889983513152071,1.625810271929239,0.2771201994218624,-0.1282858382466668,-0.0906646046155008,0.6821413287257382,-0.12170290490085,0.4347226219088541,0.5113916672132054,10.98855665127303,-0.9143268130999204,0.2672339981369194,-0.9066266891549944
2.06,-0.3189908583409209,0.0864791510890559,1.6244670089047712,-0.0029345944260386,0.0780577791176726,0.0303865753158412,0.247253395241249,-0.106208911097149,-0.0575629113868287,-0.322997428032049,0.0877154929327404,1.624903625883084,0.2809304632195032,-0.1260031152072782,-0.0905464100950273,0.5334245034320999,-0.1373476314989324,0.3055372511085882,0.4151196419930322,10.886037536051845,-0.916538085758726,0.2676504270446923,-0.9005666803028756
2.08,-0.3140798041221096,0.0844097732501091,1.6233963804009806,0.0005227837669627,0.0784517097048291,0.0309480106275432,0.2439929652251949,-0.101067975185735,-0.0499789788135238,-0.3174550240436117,0.0851497761678071,1.623090333790774,0.2885509908147848,-0.1214376691285009,-0.0903100210540804,0.4862500879467467,-0.1630215008027055,0.2570467955706999,0.3791966286652442,10.71332348730084,-0.9186547777650024,0.2677034079788871,-0.8954301337856673
2.1,-0.3092373513350295,0.0824333879981588,1.622464385190474,0.0035307654683546,0.0789246362098449,0.0314781456522202,0.2404492376174724,-0.0967709518102085,-0.043581847925056,-0.3119126200551745,0.0825840594028737,1.621277041698464,0.2961715184100664,-0.1168722230497235,-0.0900736320131334,0.4241040522435013,-0.1771863803861226,0.214851168776322,0.3198565444233886,10.71332348730084,-0.920291784315138,0.2676809238816901,-0.8914842354611182
2.12,-0.304704044152442,0.0806299056711317,1.6216884431459513,0.0059454381474741,0.0795565315759377,0.0319520198194471,0.2369621920979267,-0.0932193347448768,-0.0384047925271711,-0.3059891896869732,0.0802466149418793,1.6194755690582014,0.303792046005348,-0.1123067769709462,-0.0898372429721865,0.3590799800424314,-0.1743522759772853,0.1775808532665866,0.258852769894248,10.58425464157881,-0.9216013022897624,0.2676345751755918,-0.888256324581382
2.14,-0.3000031117467656,0.0788006718002752,1.6209731105099376,0.0080536959827265,0.0804659457008908,0.0324232098178094,0.2333592725862467,-0.0898530110931356,-0.0334137575512351,-0.3000657593187718,0.0779091704808848,1.6176740964179388,0.3114125736006296,-0.1077413308921689,-0.0896008539312395,0.350797641336611,-0.1801459755839979,0.1683161825870575,0.2495517487967967,10.58425464157881,-0.9225672065435744,0.2676006062152233,-0.8858057386770148
2.16,-0.2953717403442372,0.077036142190258,1.620352169075885,0.0097790204456005,0.0816063934579821,0.0328711488680312,0.2300157620043018,-0.0867231911217581,-0.0289206504436706,-0.2939518157606884,0.0756858621718598,1.6158785335036998,0.3190331011959112,-0.1031758848133916,-0.0893644648902925,0.3207913946198473,-0.1671755290972479,0.156490998568877,0.2246553553782271,10.554239933976532,-0.9231495994434654,0.2677139815165202,-0.8839638691724672
2.18,-0.2910307625886862,0.0754150958322612,1.6198411740783285,0.0111068356289295,0.0828321431989349,0.0332780008649196,0.2271427754904957,-0.0840579798614114,-0.025087612177704,-0.2876473590127231,0.0735766900148042,1.6140888803154845,0.3266536287911928,-0.0986104387346143,-0.0891280758493456,0.274087508467437,-0.1436493256903065,0.1332605630173337,0.1916519132983305,10.52339947783912,-0.923421560656176,0.2679454811857634,-0.8825263221995536
2.2,-0.2865166743615094,0.0737600710649344,1.6193780536819586,0.0121176935403843,0.0842022887447223,0.0336818837713183,0.2244615745797489,-0.0815847381483197,-0.0214411679132066,-0.2796736238141615,0.0712121968391906,1.6185867934694431,0.2454263717528314,-0.0785456719977289,-0.0555099271791917,0.2578871781867615,-0.1340600455373389,0.1236620856545883,0.1823222132248683,10.494303567808856,-0.9234469942101244,0.2683678851437417,-0.8814393820947449
2.22,-0.2820435654814106,0.0721664084587593,1.618967647495102,0.0131031742994647,0.0852433655173585,0.0340813126422862,0.2229674888475297,-0.0780084051444919,-0.0198862890262021,-0.2796736238141615,0.0712121968391906,1.6185867934694431,0.2454263717528314,-0.0785456719977289,-0.0555099271791917,0.2088067185385868,-0.0747042866109604,0.1788166501913865,0.0777439443502284,10.469044065116575,-0.9234730202255694,0.2691188635919467,-0.8799448274989697
2.24,-0.2776052672153906,0.0706386785797828,1.6185671209450676,0.0143000917602084,0.0857715678929328,0.0344891806477965,0.2209212678782281,-0.0750015680007387,-0.020235010901277,-0.2796736238141615,0.0712121968391906,1.6185867934694431,0.2454263717528314,-0.0785456719977289,-0.0555099271791917,0.1826861845516723,-0.1023110484650785,0.1503418571876594,-0.0174360937537469,10.234980175085184,-0.9226310089381012,0.2692552351692556,-0.8799233958779222
2.26,-0.2734312410479804,0.069238105989444,1.6181659757314044,0.0154366756738593,0.086121770159684,0.0348740624358588,0.2185667184735046,-0.0725993293821432,-0.0219725738389902,-0.2772193600966331,0.0704267401192133,1.6180316941976514,0.2490830910052986,-0.0774432104249924,-0.0615943901794893,0.1892998827421048,-0.1177274702361744,0.1201119309297761,-0.0868781468856581,10.154831607082995,-0.9216059912893352,0.2687408818134695,-0.880962063228378
2.28,-0.2690888004433877,0.0678088443854508,1.6176958245485251,0.0165077840949958,0.0865385540045855,0.0352704032779608,0.2158194965461483,-0.0704730719258215,-0.0250080022775811,-0.2723108326615766,0.0688558266792588,1.6169214956540676,0.2563965295102329,-0.0752382872795194,-0.0737633161800844,0.2306622254212759,-0.1373610963678162,0.1063128728160882,-0.1517714219295493,10.154831607082995,-0.9201810494764864,0.2678020722385015,-0.8830812214560738
2.3000000000000003,-0.2648031425519244,0.0664182382843642,1.6171526583214468,0.0173445131367309,0.0871506938405847,0.0356526841289598,0.2129410702039747,-0.0686925978810284,-0.0291589190740923,-0.2674023052265199,0.0672849132393042,1.6158112971104837,0.2637099680151672,-0.0730333641340464,-0.0859322421806795,0.2677944000677518,-0.1439213171086792,0.0890237022396517,-0.2075458398255575,10.033990999364503,-0.918259241627158,0.2665872877591108,-0.8862667580695693
2.32,-0.2605746678113557,0.0650605477168655,1.616517249391144,0.0178728050294151,0.0880243510557726,0.0360170403392547,0.2101183696289403,-0.0671559261241514,-0.0341818516683377,-0.2621281058662165,0.0658242459566232,1.6140926522668702,0.2710234065201015,-0.0708284409885734,-0.0981011681812746,0.2981562110329756,-0.1411350287517196,0.076833587843849,-0.2511466297122721,9.990968832690667,-0.9159907295134904,0.265356255073067,-0.8900770838399312
2.34,-0.2566082293478889,0.0637979507689663,1.6158130367146113,0.0180485803582413,0.089108129833384,0.0363440165953319,0.2076081657481565,-0.0658118337390524,-0.039702660176567,-0.2568539065059132,0.0643635786739423,1.6123740074232564,0.2783368450250358,-0.0686235178431004,-0.1102700941818697,0.3105923149697995,-0.1255101940391925,0.067204619254952,-0.2760404254114609,9.990968832690667,-0.9131679470386056,0.2640917631599608,-0.8947637359724073
2.36,-0.2524804522759668,0.0624969639792327,1.6149516124691046,0.017895410541959,0.0904576740086389,0.0366671545793252,0.2053607393723271,-0.0643469454538246,-0.0461875758609048,-0.2513968711829865,0.0629580344698982,1.610351139429628,0.2856502835299701,-0.0664185946976274,-0.1224390201824647,0.3508951212112486,-0.1123713187914682,0.0732444142613912,-0.3242457842168942,9.952664769200055,-0.9099479776293904,0.2629225344876818,-0.9000037012137379
2.38,-0.2483930237278414,0.061227037876568,1.6139542708724817,0.017448589027978,0.0919200369792434,0.0369702051134218,0.2035478960939155,-0.0627077887504229,-0.0532542149110485,-0.2457569998974364,0.0616076133444909,1.6080240482859849,0.2929637220349044,-0.0642136715521544,-0.1346079461830598,0.3738670315613685,-0.0906421639205817,0.0819578351700815,-0.3533319525071819,9.919534094647132,-0.9064250321103094,0.2618856385925089,-0.9056042103014968
2.4,-0.2443373191363135,0.0599929777032092,1.6128098601398726,0.0168059244336505,0.0934041888484974,0.0372579176009741,0.2021607966126635,-0.0607825811635557,-0.0608464965651501,-0.2382156289231456,0.0580916484390468,1.611291560126929,0.2188459860377417,-0.0530192530452142,-0.0651452186091591,0.3977222961396219,-0.0693549740625978,0.0962603793433599,-0.3796140827050834,9.894283992821329,-0.902966348374848,0.2610282818377328,-0.9110082355806896
2.42,-0.2404655143897338,0.0588444444672361,1.6117240325350597,0.0156956949375269,0.0938978717834544,0.0374792130773325,0.2052611946886128,-0.0600367151966724,-0.053050636120699,-0.2382156289231456,0.0580916484390468,1.611291560126929,0.2188459860377417,-0.0530192530452142,-0.0651452186091591,0.4211419723183112,0.1550199037974667,0.0372932983441692,0.3897930222225562,9.873180448888888,-0.907556007024588,0.2588875445951266,-0.9109171505509708
2.44,-0.2363345608817424,0.0576595611257425,1.610739448904393,0.013863127197972,0.0928224678307776,0.0376415074644732,0.2075232163726324,-0.0584035143637735,-0.0459507707408272,-0.2382156289231456,0.0580916484390468,1.611291560126929,0.2188459860377417,-0.0530192530452142,-0.0651452186091591,0.3814189804921187,0.1131010842009769,0.0816600416449427,0.3549932689935923,10.819865063301222,-0.9100186429847062,0.2638954877172331,-0.9036312564239196
2.46,-0.2321731534973135,0.0565217969818973,1.6098712994761195,0.0117756717268758,0.0906160607951458,0.0377753936503621,0.2083810682835003,-0.0553877966792469,-0.0411911068949452,-0.2360271690627682,0.0575614559085947,1.6106401079408377,0.2219056040265069,-0.0510815459041724,-0.0675234193487812,0.2849774683178561,0.0428925955433964,0.1507858842263277,0.2379831922940982,10.681890916188422,-0.91311486456484,0.26865758088751,-0.8961829887342376
2.48,-0.2282193488369144,0.055507592027187,1.6091167512375415,0.0100106300054177,0.0879252570888188,0.0379175190685171,0.2076705003343155,-0.0515881927803758,-0.0384566837348364,-0.2316502493420134,0.0565010708476904,1.6093372035686546,0.2280248400040374,-0.0472061316220889,-0.0722798208280254,0.2367433558585362,-0.0355283974592418,0.1899801949435557,0.136721158005439,10.431241360334752,-0.916153328732186,0.2724922662617419,-0.8896710019537548
2.5,-0.2240895250019261,0.0545234285001215,1.608363674831462,0.0085562617312635,0.0850101990605162,0.0381010845069816,0.2052157327062461,-0.0470591212649544,-0.0370543442565229,-0.2272733296212586,0.0554406857867861,1.6080342991964711,0.2341440759815679,-0.0433307173400054,-0.0770362223072696,0.2669500370483921,-0.1227383814034657,0.2264535757710701,0.0701169739156754,10.431241360334752,-0.9191637226700048,0.2756202566989885,-0.8838375694702802
2.52,-0.2200277997740627,0.0536355462571735,1.6076244289101935,0.0076731600338648,0.0826416884604623,0.0383335617422129,0.2009714321062525,-0.0419908821882805,-0.0369899722467703,-0.2225904481016272,0.054574071439986,1.606493574750326,0.2402633119590983,-0.0394553030579219,-0.0817926237865139,0.3305498399525807,-0.2122150299996836,0.2534119538336956,0.0032186004876318,10.266626335685942,-0.921489153852738,0.2777819654444021,-0.8795096822886483
2.54,-0.2160669290106562,0.0528536157599041,1.6068797990498669,0.0075689597169507,0.0814739402019708,0.0386304173704669,0.1954581236476094,-0.0365450292045212,-0.0374651910880027,-0.2179075665819959,0.0537074570931859,1.6049528503041806,0.2463825479366288,-0.0355798887758384,-0.0865490252657581,0.388200070285696,-0.2756654229321545,0.2722926491879645,-0.0237609420616225,10.24145937618141,-0.923057775324467,0.278511862694529,-0.8772966333739394
2.56,-0.2124051243466807,0.0522134253754787,1.6061607398128577,0.0083230516682833,0.0815404154363222,0.0389789124206158,0.1904056251764233,-0.0312142353577014,-0.0381984092097909,-0.2130717041629262,0.0529377281034379,1.603293215821054,0.2525017839141593,-0.0317044744937548,-0.0913054267450023,0.3690620295179014,-0.2526249235593067,0.2665396923409917,-0.0366609060894067,10.221528208675409,-0.9236358544090464,0.2782431623537512,-0.8767686195739705
2.58,-0.2086480204911379,0.0516462424106696,1.6053859636551318,0.0100602095885736,0.0825492841642935,0.0394162112409191,0.185685171337645,-0.0258741007143683,-0.0392539229741998,-0.2080828608444183,0.052264884470742,1.6015146713009465,0.2586210198916898,-0.0278290602116713,-0.0960618282242466,0.3602562690634937,-0.2360226919389113,0.2670067321666556,-0.0527756882204483,10.221528208675409,-0.92310968374751,0.2770852830337269,-0.8777834470243194
2.6,-0.204977451709435,0.0511779793542348,1.6045869430994184,0.0126421245729727,0.084220473284018,0.0399161125159118,0.1817225413548042,-0.0214840050351751,-0.0406133478955762,-0.1993637619242556,0.0503525373749512,1.6034232675064215,0.2000537249835539,-0.0251333308130554,-0.0487032559266992,0.303411488618337,-0.1981314991420388,0.2195047839596566,-0.0679712460688194,10.202304176813414,-0.9215900681626245,0.2750944451191277,-0.8803267330768062
2.62,-0.2015374387876456,0.0508181909004916,1.603868100155594,0.015982181444628,0.0857319631881061,0.0404487363064708,0.1805479009655027,-0.0171439210078649,-0.0349848359002084,-0.1993637619242556,0.0503525373749512,1.6034232675064215,0.2000537249835539,-0.0251333308130554,-0.0487032559266992,0.360195282764402,-0.058732019465077,0.21700420136551,0.2814255997683909,10.184554324783676,-0.9234230994828362,0.2716938240901856,-0.8806426555672695
2.64,-0.1979397051495568,0.0504980629307766,1.6032219040785591,0.019895613680605,0.0868159033669243,0.0410242012452996,0.1792674477679061,-0.0151958797168677,-0.0300175232339909,-0.1993637619242556,0.0503525373749512,1.6034232675064215,0.2000537249835539,-0.0251333308130554,-0.0487032559266992,0.2743566127626156,-0.064022659879831,0.0974020645498626,0.2483656333108742,10.617980046099548,-0.9235306560329316,0.2706137429066037,-0.8790312804333762
