t,x,y,z,roll,pitch,yaw,v_x,v_y,v_z,ref_x,ref_y,ref_z,ref_v_x,ref_v_y,ref_v_z,a_com,a_x,a_y,a_z,thrust,wind_x,wind_y,wind_z
0.0,1.5266051439722388,2.064711048492918,2.11795848580546,0.0280321137036585,0.0998006976330734,0.0424242904135646,0.0033183918389837,-0.0070938024103933,0.0072737133793307,1.5267019848878547,2.0645296591344957,2.118178858177953,-0.0967450947735284,-0.1063775751962823,-0.0926750969401543,0.5344171202333214,0.1659195919491856,-0.3546901205196667,0.3636856689665353,10.251406236657203,-0.9418612858469813,0.2558051457690272,-0.8767447230349278
0.02,1.5268264071809057,2.064870907339847,2.1178626783003565,0.0347654844716339,0.0935101230939974,0.0426804278735395,0.0174494971126934,0.0172548290366545,-0.0169681629087139,1.5267019848878547,2.0645296591344957,2.118178858177953,-0.0967450947735284,-0.1063775751962823,-0.0926750969401543,1.8575606016801296,0.7065552636854846,1.2174315723523943,-1.2120938144022344,10.251604873327778,-0.9496952846033928,0.2561664291284899,-0.8631478560310779
0.04,1.5272513001353971,2.0652388326507984,2.117250732444055,0.0480326302495018,0.0779920074732126,0.0429051487359404,0.0252461908852004,0.0196102176200058,-0.0461505586622717,1.5267019848878547,2.0645296591344957,2.118178858177953,-0.0967450947735284,-0.1063775751962823,-0.0926750969401543,1.5148832554673135,0.3898346886253538,0.1177694291675633,-1.4591197876778883,8.85724001298513,-0.9495753333590232,0.2414071698698516,-0.86901120667953
0.06,1.5277509976014712,2.0655895111170226,2.116003117312951,0.0625736919011208,0.0556874001717663,0.0425656399346356,0.0232750409277126,0.0149273968642845,-0.07707684844562,1.5257345339401194,2.0634658833825323,2.117252107208552,-0.1167450950715516,-0.1263775754943055,-0.1126750972381775,1.5670431089704848,-0.0985574978743939,-0.2341410377860644,-1.546314489167416,8.55881802402655,-0.9570100131118192,0.2234903150279321,-0.8702817598882153
0.08,1.528106715934895,2.065803497451892,2.11414517868184,0.0765951670890682,0.0313072792476897,0.0416603943560363,0.0116610442942661,0.0063593469268543,-0.1071815370476495,1.523799632044649,2.061338331878607,2.115398605269749,-0.1567450956675981,-0.1663775760903519,-0.152675097834224,1.6692728007707187,-0.5806998316723235,-0.4284024968715081,-1.505234430101475,8.554871300799277,-0.9692868712888572,0.2036820618107912,-0.8691606405293184
0.1,1.5281395273509577,2.0658122217599835,2.1116945704415504,0.0899645668772474,0.0079438215476227,0.0403924594566104,-0.0081220017256451,-0.0053670279862738,-0.1364610633174381,1.5218647301491783,2.059210780374681,2.113545103330946,-0.1967450962636445,-0.2063775766863984,-0.1926750984302705,1.861563480661087,-0.989152300995566,-0.5863187456564117,-1.463976313489426,8.625272936287274,-0.983596628198314,0.1851148137380883,-0.8652972424831622
0.12,1.527742109541264,2.065575724280447,2.1088297180539013,0.1020771593146532,-0.01153919769359,0.0390645490955077,-0.0327833731112088,-0.0191931532623821,-0.1637122035223438,1.5179298282239055,2.055083228840953,2.10969160136234,-0.236745096859691,-0.2463775772824449,-0.2326750990263169,1.9633960510011537,-1.233068569278184,-0.691306263805416,-1.3625570102452869,8.712216966811866,-0.9982669901737312,0.164701791613353,-0.8630058570034123
0.14,1.5267744944982191,2.0650165807134075,2.1052485373558185,0.1142317035240984,-0.0282797376009986,0.0377277850265446,-0.0627616490989407,-0.0362756417164361,-0.1930477979961129,1.5139949262986323,2.050955677307225,2.105838099393735,-0.2767450974557375,-0.2863775778784914,-0.2726750996223634,2.2644455977727427,-1.4989137993865953,-0.8541244227026965,-1.466779723688455,8.801357242523409,-1.0110352262330222,0.143818888658581,-0.863636604644867
0.16,1.5251672245481145,2.064089043991083,2.1010782151097955,0.125791487781445,-0.0405813326231794,0.0366354204697651,-0.0962006461776524,-0.0558754326566355,-0.2225469392377466,1.5090600243584584,2.045828125758596,2.1009845974102284,-0.3167450980517839,-0.3263775784745378,-0.3126751002184099,2.435424842057063,-1.671949853935585,-0.9799895470099712,-1.474957062081686,8.820548864187003,-1.0216560827968226,0.1250261612844379,-0.8642975205409021
0.18,1.5228650656384737,2.0627443983104303,2.096319531576178,0.1367680782117276,-0.0480944233764358,0.0359549108360549,-0.1322342315025207,-0.0778507911014374,-0.2518935676772172,1.5031251224033833,2.0397005741950656,2.0951310954118205,-0.3567450986478303,-0.3663775790705842,-0.3526751008144563,2.5702919342491186,-1.8016792662434125,-1.098767922240093,-1.4673314219735305,8.870427941650178,-1.0280077246904802,0.1084829604032461,-0.8677417535154611
0.2,1.5199920206452766,2.061022293980838,2.091254643508822,0.1461492927020693,-0.0502143932227643,0.0358475075453692,-0.1678788139051246,-0.1021535767763164,-0.2797062908726483,1.5162533540633476,2.0588518587553586,2.083724853192317,-0.2322342329926368,-0.1778507925915535,-0.3518935691673334,2.566470931922274,-1.7822291201301952,-1.2151392837439523,-1.3906361597715522,8.934959018627524,-1.0326066707244614,0.0912780795348971,-0.8743520437489332
0.22,1.5162143733641866,2.0585408386823256,2.085459192300028,0.150425428566087,-0.0463678518222227,0.0362149755817096,-0.2074602351407643,-0.1428294931761187,-0.2972614487123236,1.5162533540633476,2.0588518587553586,2.083724853192317,-0.2322342329926368,-0.1778507925915535,-0.3518935691673334,2.9704387928270664,-1.9790710617819869,-2.033795819990114,-0.8777578919837631,8.986876754698642,-1.0371887149438668,0.0800555193313643,-0.8790458709207353
0.24,1.511692260359421,2.0553090859225467,2.0793485186630614,0.1482441314352732,-0.0369607952276694,0.0369571944685334,-0.242032981659577,-0.1774355649854783,-0.3127429693677235,1.5162533540633476,2.0588518587553586,2.083724853192317,-0.2322342329926368,-0.1778507925915535,-0.3518935691673334,2.5654105371909792,-1.7286373259406351,-1.7303035904679798,-0.7740760327699964,9.855880181851717,-1.036333187813778,0.0790590258183457,-0.8833197952305483
0.26,1.506807011990197,2.05165158471864,2.0732491875680514,0.1432148923199605,-0.0252070271538786,0.0378268023744892,-0.2699950609523163,-0.2051162311070572,-0.328349262799778,1.5139310117334213,2.057073350829443,2.080205917500644,-0.2522342332906601,-0.1978507928895767,-0.3718935694653566,2.1163964361593246,-1.398103964636964,-1.3840333060789467,-0.7803146716027276,9.593741308602148,-1.0306887490686134,0.0803685293509928,-0.8931081279853786
0.28,1.5011424247309262,2.0472839622842622,2.0664945144868727,0.1371189919498817,-0.0116583542968318,0.0387734533110898,-0.2945403595813148,-0.2299404780827639,-0.3463605117925841,1.5092863270735684,2.053516334977612,2.073168046117297,-0.2922342338867065,-0.2378507934856231,-0.411893570061403,1.9641283136409728,-1.2272649314499229,-1.2412123487853324,-0.9005624496403047,9.593741308602148,-1.0226836619142647,0.0831488839299414,-0.9044025421144868
0.3,1.4950337601847108,2.042449054708106,2.059358114333896,0.1311781252206262,0.0017555116743493,0.0396218411157218,-0.314767366560172,-0.2521923017389338,-0.3664791415876702,1.5046416424137157,2.0499593191257808,2.06613017473395,-0.3322342344827529,-0.2778507940816696,-0.4518935706574495,1.8090292508551007,-1.0113503489428604,-1.112591182808495,-1.0059314897543052,9.295748710973385,-1.0135243773242484,0.0852268287442216,-0.9170938439415884
0.32,1.4885604816371365,2.0371906839428333,2.051794796677308,0.1257636603473923,0.0141003842007369,0.0402842196866806,-0.3313773551846146,-0.2725435759115205,-0.3888730616238315,1.4979969577240606,2.0444023032441474,2.0570923033208013,-0.3722342350787994,-0.317850794677716,-0.4918935712534959,1.7259444784942335,-0.8304994312221287,-1.0175637086293348,-1.1196960018080653,9.172569237645805,-1.0028246260652314,0.0866322636966287,-0.9316609876344244
0.34,1.482131233490015,2.031831983523363,2.0441809193948943,0.1212290928693224,0.0243277753946481,0.0407044494428572,-0.3444891063188568,-0.2905751982814557,-0.411509336141593,1.4913522730344055,2.038845287362514,2.0480544319076524,-0.4122342356748459,-0.3578507952737625,-0.5318935718495424,1.5885987120271337,-0.6555875567121117,-0.9015811184967608,-1.1318137258880727,9.172569237645805,-0.9925918686157168,0.0875395417266309,-0.9453981698204704
0.36,1.4751121759166956,2.025824497886683,2.0356874632673083,0.1168983761030449,0.0333841372019907,0.0409191430127341,-0.3566363378723063,-0.3091376009708732,-0.4367225413274874,1.4837075883298494,2.03228827146598,2.038016560479602,-0.4522342362708923,-0.397850795869809,-0.5718935724455888,1.6791543584221404,-0.6073615776724772,-0.928120134470875,-1.2606602592947214,9.099218706996908,-0.9828689846412332,0.0877083962221315,-0.9587558923016464
0.38,1.467863754858059,2.019451782079996,2.026678091539256,0.1127573118192387,0.0408421086307193,0.0409183178160622,-0.3675399347329377,-0.3270860059941413,-0.4630046204155785,1.4750629036103922,2.024731255554544,2.026978689036651,-0.4922342368669387,-0.4378507964658554,-0.6118935730416353,1.6820979078007905,-0.545179843031568,-0.8974202511634055,-1.3141039544045523,9.035708012880605,-0.9741864694906532,0.0876210351919502,-0.9709971259145886
0.4,1.4604075080959735,2.0127280935132696,2.017132779754642,0.1086977663817914,0.0468961120219719,0.0407310793315631,-0.3775274903621828,-0.3442540296610152,-0.4902231434737947,1.449486758121412,2.003097481780289,2.003527860518477,-0.4675399362230538,-0.4270860074842574,-0.5630046219056946,1.6847405598075462,-0.4993777814622568,-0.8584011833436933,-1.360926152910813,8.992080149338108,-0.9671230694124688,0.0875744138872389,-0.9812359894063934
0.42,1.4531743912275483,2.006026957767842,2.007758500349532,0.1054672923621324,0.0509071267934395,0.0403845195514117,-0.3835255784564634,-0.3605494570889415,-0.49524078072372,1.449486758121412,2.003097481780289,2.003527860518477,-0.4675399362230538,-0.4270860074842574,-0.5630046219056946,0.9037348884177836,-0.299904404714027,-0.8147713713963167,-0.2508818624962633,8.954092512233728,-0.968619719381891,0.0884690526459054,-0.9818334775363958
0.44,1.445442448038347,1.998649146990074,1.9977654096490227,0.1031517764212362,0.0528153760669969,0.039837127825618,-0.3894841443205279,-0.376583781049761,-0.5041515693178819,1.449486758121412,2.003097481780289,2.003527860518477,-0.4675399362230538,-0.4270860074842574,-0.5630046219056946,0.9643731194495572,-0.2979282932032256,-0.801716198040972,-0.4455394297080917,10.176936364746323,-0.9658682396389148,0.088802716195833,-0.9857707199073096
0.46,1.4375864542657717,1.99094885095474,1.9875408775021524,0.1016438762543816,0.0525178776324276,0.0391107224150409,-0.3959590575302358,-0.3927143765214339,-0.5178483391934474,1.4448113587591815,1.9988266217054464,1.99789781429942,-0.4875399365210771,-0.4470860077822807,-0.5830046222037177,1.1064832989794813,-0.3237456604853972,-0.8065297735836474,-0.6848384937782781,9.650057691165784,-0.9650487325077178,0.0880160332926747,-0.9882861916262164
0.48,1.4295935806714606,1.982928691810231,1.9770076354703576,0.1006238848223532,0.0502641664495949,0.038214757864471,-0.4031444521346803,-0.408521555524806,-0.5347886723438112,1.4354605600347206,1.990284901555761,1.986637721861306,-0.5275399371171235,-0.4870860083783271,-0.6230046227997642,1.2129217729428614,-0.3592697302222225,-0.7903589501686042,-0.8470166575181903,9.482842265613726,-0.9661463374935584,0.0864840052416094,-0.9893801303995742
0.5,1.4218579902590496,1.975020320715855,1.9666640419792512,0.1000952105699067,0.0464621872548895,0.0372233886868862,-0.41091413412089,-0.4231802302927409,-0.5531612109304351,1.4261097613102591,1.981743181406076,1.975377629423192,-0.56753993771317,-0.5270860089743736,-0.6630046233958107,1.2377347032340031,-0.3884840993104849,-0.7329337383967433,-0.9186269293311956,9.35842883543046,-0.9688196474358656,0.0842243716499465,-0.9893159572841956
0.52,1.4135370479128468,1.9663988558885528,1.955379502968395,0.100108473919269,0.0410650782503064,0.0360743603781782,-0.4210820504492042,-0.438237050154743,-0.5744175131861667,1.414758962555996,1.9712014612265885,1.962117536955276,-0.6075399383092165,-0.5670860095704201,-0.7030046239918571,1.3981458546977503,-0.5083958164157104,-0.7528409931001068,-1.0628151127865804,9.256327389030048,-0.9734972730155004,0.081836027623152,-0.9868485174969144
0.54,1.4049866065086087,1.9574754013818745,1.9436625239809584,0.1007876601166116,0.03502207357943,0.0348973725510779,-0.4336559169677154,-0.4534253545488105,-0.5962134780724803,1.4034081638017326,1.960659741047101,1.94885744448736,-0.647539938905263,-0.6070860101664666,-0.7430046245879036,1.4695669386911243,-0.6286933259255612,-0.7594152197033771,-1.0897982443156762,9.256327389030048,-0.979475415425792,0.0791637801201801,-0.9828257510865984
0.56,1.396157381754415,1.94823328246446,1.9315076335461256,0.1017480759282007,0.0291577046241702,0.0337446314929511,-0.4487287465429664,-0.4699486297239136,-0.618170500200133,1.3910573650325682,1.9491180208527124,1.9345973520045423,-0.6875399395013093,-0.6470860107625129,-0.78300462518395,1.5670989396261563,-0.7536414787625512,-0.8261637587551524,-1.0978511063826355,9.241610070422212,-0.9860741768668524,0.0760947374426319,-0.9782361769245776
0.58,1.3874690085631574,1.9391362392348384,1.919551839624593,0.1023893946388061,0.0244476809990301,0.0327072232235917,-0.4651683104193201,-0.4866866709921205,-0.6392220324382322,1.3777065662485024,1.9365763006434225,1.919337259506824,-0.7275399400973558,-0.6870860113585594,-0.8230046257799964,1.5760617813974185,-0.8219781938176851,-0.8369020634103469,-1.0525766119049595,9.246395329032566,-0.992013226943558,0.0732670011954284,-0.974240654449035
0.6,1.377964837370385,1.9292103065889716,1.9065291817957837,0.1023749247737117,0.0211412186160413,0.0317298616920174,-0.4845064539450928,-0.5049371099548338,-0.6619504743811049,1.3642105930421913,1.9148019056852323,1.8875907380026813,-0.5651683119094363,-0.5866866724822366,-0.7391579887375371,1.7490171457890558,-0.9669071762886312,-0.9125219481356612,-1.1364220971436356,9.249130181337932,-0.9965141858617712,0.0711469398966818,-0.9715386689014064
0.62,1.368033291821762,1.9188660005903628,1.8932632989350344,0.1005198203942452,0.0211966104025092,0.0309665936088447,-0.507319278844735,-0.5283522784282536,-0.6622643469256855,1.3642105930421913,1.9148019056852323,1.8875907380026813,-0.5651683119094363,-0.5866866724822366,-0.7391579887375371,1.634620453281597,-1.1406412449821128,-1.1707584236709925,-0.0156936272290297,9.230478817157746,-1.0025837664799646,0.0703896762111562,-0.9675936654057168
0.64,1.3576677026854331,1.9080848835020645,1.8799973093864224,0.0967858731249622,0.024949178029156,0.0304404293568007,-0.5276435851308963,-0.5480932471415698,-0.6643528743553946,1.3642105930421913,1.9148019056852323,1.8875907380026813,-0.5651683119094363,-0.5866866724822366,-0.7391579887375371,1.4205150637871369,-1.016215314308061,-0.9870484356658104,-0.1044263714854554,10.661950806558709,-1.0027063190847625,0.0737856486926984,-0.966373562314934
0.66,1.347469396040962,1.8975058853121936,1.867307771129648,0.0928465570336745,0.0305763913168918,0.0300999074271578,-0.5445242364904104,-0.5643297397686792,-0.6712338214961554,1.358558909923097,1.90893503896041,1.880199158115306,-0.5851683122074595,-0.6066866727802598,-0.7591451799973981,1.2205813335308573,-0.8440325679757055,-0.8118246313554678,-0.3440473570380409,10.336786656005645,-0.9994775593463494,0.0771275578152583,-0.9692424995913698
0.68,1.3364151716091317,1.8860588461045404,1.853764545437893,0.0887976882257947,0.0376548269422481,0.0298344962817742,-0.5597254996944736,-0.5794279204232663,-0.6829199709173822,1.3472555436849083,1.8972013055107653,1.8654159983405552,-0.6251683128035059,-0.6466866733763063,-0.7991195625171201,1.2202454162718614,-0.7600631602031616,-0.7549090327293562,-0.5843074710613405,10.013076127127531,-0.9942860522653612,0.0796240710971652,-0.975034089519303
0.7000000000000001,1.3250816126944394,1.8743252303541424,1.8399440054817888,0.0850768936733125,0.0451419338400241,0.0296050033491352,-0.5726448640244547,-0.5931301471105189,-0.6987132053644832,1.3359521774467196,1.8854675720611205,1.8506328385658044,-0.6651683133995524,-0.6866866739723527,-0.8390939450368421,1.2289093184412996,-0.6459682164990543,-0.6851113343626314,-0.7896617223550506,9.740237045903996,-0.9880572380945608,0.0815448650990857,-0.982188008503829
0.72,1.3135113013038362,1.8623305260933944,1.8257676837764136,0.0817730040023606,0.0524906899596181,0.0293716372180629,-0.583573111326655,-0.6056832491325088,-0.7181223044939554,1.3226488111787285,1.8717338385816733,1.833850959665068,-0.7051683139955989,-0.7266866745683992,-0.879068327556564,1.278397520814842,-0.5464123651100161,-0.6276551010994946,-0.9704549564736098,9.334572837597989,-0.9817429028443594,0.0828109812682665,-0.989597364447948
0.74,1.3023345973350335,1.85071171244549,1.811922456282244,0.079067513709827,0.0589884704448833,0.0291247275285253,-0.5922801431543249,-0.6167860034866387,-0.7383103297260584,1.3093454449107376,1.8580001051022264,1.8170690807643308,-0.7451683145916453,-0.7666866751644457,-0.919042710076286,1.231503065635883,-0.4353515913834926,-0.5551377177064942,-1.009401261605147,9.334572837597989,-0.9753111771872468,0.0836015775759183,-0.9973071916143842
0.76,1.29040226653254,1.8382527235804136,1.7969185644845067,0.0764675477136204,0.0651979599081126,0.0288197388980785,-0.6003861019703403,-0.6284492682542465,-0.7610860388296854,1.2950420786278454,1.843266371607878,1.799287842300601,-0.7851683151876917,-0.806686675760492,-0.959017092596008,1.342079765270398,-0.4052979408007695,-0.5831632383803909,-1.1387854551813514,9.242524644685544,-0.9690230715779736,0.0839825868480459,-1.0050320930500496
0.78,1.2783177404132753,1.8255634427452625,1.7814453798803822,0.0738746767473479,0.0708336154821502,0.0284610109326176,-0.6075627903920013,-0.6397819745718558,-0.7851435744333066,1.279738712330052,1.8275326380986288,1.780507244273878,-0.8251683157837382,-0.8466866763565385,-0.99899147511573,1.3772255702156138,-0.3588344210830541,-0.5666353158804649,-1.2028767801810614,9.166795377550445,-0.9631094381361148,0.0843417204932768,-1.0123594576176191
0.8,1.266098635678141,1.8126528429804347,1.7654775703497396,0.0712030048986016,0.0759631992194476,0.0280506552526741,-0.613899065900567,-0.6505760144356905,-0.810432301699814,1.2479396008936752,1.7935743440166698,1.7421882011587169,-0.7075627918821175,-0.7397819760619719,-0.8045415223705568,1.4108325650677789,-0.3168137754282818,-0.5397019931917324,-1.2644363633253664,9.107081895595911,-0.9577655262070992,0.0847247360483537,-1.0190472284375105
0.8200000000000001,1.2544458299922547,1.8001418932454192,1.7502748267264134,0.0678985525184041,0.0794422286606579,0.0275027046387526,-0.6126170422929431,-0.6651981227360498,-0.7885640903175712,1.2479396008936752,1.7935743440166698,1.7421882011587169,-0.7075627918821175,-0.7397819760619719,-0.8045415223705568,1.3168791751109827,0.064101180381193,-0.7311054150179686,1.0934105691121354,9.05072307356295,-0.9606128048981196,0.0864916586506451,-1.0172844062049753
0.84,1.2422041398696937,1.7867025333179465,1.7347216642385417,0.0638240977990904,0.0810056801930964,0.0267412543263099,-0.6118010423407994,-0.677763333012972,-0.7683118236593119,1.2479396008936752,1.7935743440166698,1.7421882011587169,-0.7075627918821175,-0.7397819760619719,-0.8045415223705568,1.1923764820961644,0.0407999976071882,-0.6282605138461073,1.012613332912965,11.983735506214543,-0.9588711762493108,0.090719124310202,-1.0174401697793505
0.86,1.2299730017127397,1.7730356200408637,1.7195132556773045,0.059872019635949,0.0807616346152187,0.0258814980329293,-0.6114621421021957,-0.6882342782885501,-0.7537669173408801,1.240863972974854,1.78617652425605,1.7341427859350114,-0.7275627921801406,-0.7597819763599951,-0.8084211119580068,0.8962558900055225,0.0169450119301806,-0.5235472637789063,0.727245315921593,11.587945007029704,-0.959414040613969,0.0945546191405298,-1.0156019456958596
0.88,1.217744973662318,1.7591763227798816,1.7045423257077443,0.0563768633933504,0.0785944649374714,0.0249553213212111,-0.6115121056979714,-0.6972313712327293,-0.744022577010627,1.2267127171372116,1.7713808847348107,1.7180519554876,-0.7675627927761871,-0.7997819769560416,-0.8161802911329068,0.6631409093829488,-0.0024981797887846,-0.4498546472089582,0.4872170165126532,11.229523041020911,-0.9619573934916846,0.0977545968858356,-1.012341128647823
0.9,1.2061213720995212,1.7458534989829526,1.6904683487106935,0.053591519877273,0.0745772155122727,0.0240237056484788,-0.6121901917046599,-0.7048205483294401,-0.7379193213413632,1.2125614612995692,1.7565852452135713,1.701961125040189,-0.8075627933722336,-0.839781977552088,-0.8239394703078069,0.4881217558204814,-0.0339043003344252,-0.3794588548355404,0.305162783463192,10.953830802518496,-0.966439633879436,0.100047853952075,-1.0077099492128696
0.92,1.1938534842318995,1.7316812611398245,1.675755586000221,0.0512834784801944,0.0683599024943123,0.0230058966833584,-0.614994025855878,-0.7121021152091522,-0.7337789060771699,1.1964102054321246,1.7397896056625295,1.6854823356340327,-0.84756279396828,-0.8797819781481345,-0.831698649482707,0.441660901402939,-0.1401917075609049,-0.3640783439856077,0.2070207632096643,10.752902463731516,-0.9721741138096088,0.1012895717077306,-1.0024603654363196
0.94,1.1814988206109742,1.717368222480365,1.66112369821542,0.0496671947269847,0.060879622631385,0.0219971658693068,-0.6206736526311658,-0.7189738750019066,-0.7296017849568749,1.18025894956468,1.7229939661114877,1.6690035462278767,-0.8875627945643265,-0.919781978744181,-0.839457828657607,0.4922590370158162,-0.2839813387643886,-0.343587989637717,0.2088560560147501,10.61071323154738,-0.9798113115847183,0.101902059166323,-0.995321485707885
0.96,1.168995683315979,1.7029117011828798,1.646580142930558,0.0484953354872392,0.0530691981916036,0.0210249227586231,-0.629580346099674,-0.7263065947335862,-0.7249515033917081,1.163107693682334,1.7051983265455448,1.652330777342348,-0.9275627951603728,-0.9597819793402274,-0.8472170078325071,0.6219386743093303,-0.4453346734254071,-0.3666359865839796,0.232514078258339,10.624144936100492,-0.9876598788505012,0.1020995871298288,-0.9878838601523507
0.98,1.1569251907211728,1.6890407080159715,1.6328528058250256,0.0475575950760954,0.0461080616019473,0.0201538394162117,-0.6406574456727139,-0.733382670475016,-0.7202525615568859,1.1449564377850872,1.6864026869647009,1.635464028977447,-0.9675627957564192,-0.9997819799362738,-0.8549761870074071,0.697948847009106,-0.5538549786519964,-0.3538037870714938,0.2349470917411111,10.67427908263926,-0.9958709435090188,0.102221983326465,-0.9798800242638496
1.0,1.1439683308820174,1.6742954858442198,1.6184995025641582,0.0466722012242735,0.0398133277870638,0.01931058204162,-0.6546057478294314,-0.7407309668209663,-0.7153211345379464,1.1248923184375372,1.6523715744922207,1.5968401777471812,-0.74065744716283,-0.8333826719651322,-0.6850436098750335,0.8259412277609736,-0.6974151078358748,-0.3674148172975122,0.2465713509469724,10.676334649039743,-1.0031753695164711,0.1022505739558676,-0.9726932243481504
1.02,1.1306819916939643,1.659344808664912,1.6044749029394931,0.0443190776666342,0.0363094732502698,0.0185135004193578,-0.6735559475266933,-0.7532776368126751,-0.6861233702326046,1.1248923184375372,1.6523715744922207,1.5968401777471812,-0.74065744716283,-0.8333826719651322,-0.6850436098750335,1.8500259706807145,-0.9475099848630986,-0.6273334995854418,1.4598882152670911,12.466458573308955,-1.0092619258364277,0.1030507398482531,-0.9672531788530032
1.04,1.1170120128156598,1.6441866029168604,1.5910654815900025,0.0405248719108382,0.0371364949086323,0.0178283394597317,-0.6919397496322569,-0.7616492089973436,-0.6563537137094246,1.1248923184375372,1.6523715744922207,1.5968401777471812,-0.74065744716283,-0.8333826719651322,-0.6850436098750335,1.7988050548959924,-0.919190105278178,-0.418578609233422,1.4884828261589989,12.466458573308955,-1.012282045933793,0.1070680155951953,-0.9620330846693604
1.06,1.1037107054247377,1.6296602688692985,1.5788479234972537,0.0370519777155689,0.0405972448150551,0.0173043251175604,-0.7069480219700973,-0.7670817533658777,-0.6311648623309305,1.117485743965909,1.6440377477725694,1.589989741648431,-0.7606574474608532,-0.8533826722631553,-0.6780018195386631,1.4910055421180897,-0.7504136168920206,-0.2716272184267065,1.2594425689247069,12.250220662492213,-1.0121871686538912,0.1111403757791691,-0.9600574591786624
1.08,1.0894300612189238,1.6142748295207945,1.5664770567352364,0.0340901332058519,0.0457846523075973,0.0168609187998221,-0.7200391004225328,-0.771285396353199,-0.6073665967232178,1.1026725950226524,1.6273700943332667,1.5762888694509305,-0.8006574480568996,-0.8933826728592018,-0.6639182388659222,1.3742310534876572,-0.6545539226217756,-0.2101821493660671,1.189913280385635,11.988005593522756,-1.0100980454915858,0.1144742529443836,-0.960425735196852
1.1,1.0749141070381203,1.598815981829729,1.5545499684365192,0.0320426590040961,0.0515684281060164,0.0165041869762765,-0.7306931427301044,-0.7746299334560455,-0.5865201530783006,1.0878594460793958,1.610702440893964,1.5625879972534296,-0.8406574486529461,-0.9333826734552484,-0.6498346581931812,1.1824431895069525,-0.5327021153785805,-0.1672268551423217,1.0423221822458584,11.587380891684916,-1.0075011776077958,0.1168670111758161,-0.9615551078592308
1.12,1.0609477176129667,1.5840754101057404,1.543583758032551,0.0310045731518033,0.0569640568896413,0.0162310121476434,-0.7388095040062641,-0.777000524178978,-0.5688613465777609,1.0710462971063368,1.592034787424859,1.549591304089566,-0.8806574492489926,-0.9733826740512947,-0.6357510775204402,0.9789387975817267,-0.4058180638079833,-0.1185295361466276,0.8829403250269874,11.587380891684916,-1.00442353245763,0.1184894629332412,-0.9633091446727056
1.14,1.046099562517659,1.5685183053602143,1.5323964728408572,0.0311899607965126,0.0620284205481956,0.0160243782426717,-0.745482083355222,-0.7787166314505256,-0.5508232664990189,1.0542331481332778,1.573367133955754,1.5365946109257025,-0.920657449845039,-1.013382674647341,-0.6216674968476993,0.965454131824379,-0.3336289674478965,-0.0858053635773792,0.9019040039370984,11.440091025902802,-1.0016153249762645,0.1189249572636228,-0.964975378556074
1.16,1.0311290040261971,1.5529210715333122,1.5215642463366092,0.0327353982940773,0.0662630889667395,0.0159025997780778,-0.7511841324326867,-0.781023951146311,-0.5333289451778627,1.0364199991453178,1.553699480471748,1.5239500072786574,-0.9606574504410854,-1.0533826752433877,-0.6075839161749584,0.9272113652617676,-0.2851024538732316,-0.1153659847892674,0.8747160660578124,11.406693268361778,-0.9992506525878732,0.1180176510828861,-0.9666568983130448
1.18,1.0160529999683716,1.5372679070664632,1.5110783363590583,0.0353406612039717,0.069728424906855,0.0158474166514987,-0.7561066133707165,-0.7844235594755906,-0.5161460470701109,1.0176068501424569,1.533031826972841,1.5116574931484308,-1.0006574510371318,-1.093382675839434,-0.5935003355022175,0.9097254294004776,-0.2461240469014913,-0.1699804164639828,0.8591449053875877,11.362284658330282,-0.9976476517450475,0.1161233443576151,-0.9676492863397202
1.2,1.001645634086499,1.522313374747491,1.501433381307223,0.0380981341945081,0.0723688781682463,0.0158076205468082,-0.7602064114328481,-0.7896075407852741,-0.4999770142199755,0.9782476692998358,1.4980467290926838,1.485271034005553,-0.8377887813180088,-0.8844235609657067,-0.4699163008774172,0.8733836924258462,-0.2049899031065782,-0.2591990654841725,0.8084516425067689,11.362284658330282,-0.9965526057502272,0.1138386927124901,-0.9682838664028178
1.22,0.986373691341378,1.5063847125233176,1.4916514758304436,0.0386031888325487,0.075521315880854,0.0156279190118829,-0.7666007572890986,-0.8023068113125859,-0.4788104541346069,0.9782476692998358,1.4980467290926838,1.485271034005553,-0.8377887813180088,-0.8844235609657067,-0.4699163008774172,1.274933720534834,-0.3197172928125269,-0.6349635263655895,1.05832800426843,11.357882415077256,-0.9949595715725364,0.1131344764678503,-0.9699313617889296
1.24,0.9709950656692936,1.4902364912591397,1.4823006609683336,0.0358864782049217,0.079562861663361,0.015266950709081,-0.7707431007059261,-0.8115700080234272,-0.4573600054414585,0.9782476692998358,1.4980467290926838,1.485271034005553,-0.8377887813180088,-0.8844235609657067,-0.4699163008774172,1.1864733155702096,-0.2071171708413755,-0.4631598355420652,1.0725224346574191,11.651487531952624,-0.9933936875290384,0.1160946443415378,-0.9702427839567576
1.26,0.955555016436156,1.4739467873771217,1.4733660755521982,0.031989593760881,0.0835434028475758,0.0148251215976923,-0.7729883428303934,-0.8167447328669001,-0.4371698114643809,0.9698697814866556,1.4892024934830268,1.4805718709967788,-0.8541252149074673,-0.90442356126373,-0.4606703516388785,1.0481684290169675,-0.1122621062233653,-0.2587362421736461,1.0095096988538803,11.651487531952624,-0.9910719940550096,0.1199593757107081,-0.9711817882546322
1.28,0.9408595573827728,1.458404658163944,1.4652395461844878,0.0286702379553159,0.0867582591825887,0.0144178791058214,-0.7737939723335587,-0.8191896442001156,-0.4192728593861368,0.9531140058602956,1.4715140222637126,1.4711735449792305,-0.8867980820863842,-0.9444235618597764,-0.442178453161801,0.9040568621699412,-0.0402814751582658,-0.122245566660778,0.8948476039122077,11.554714346587389,-0.9891213676682628,0.1236973315112595,-0.9716938101323416
1.3,0.9253844037267124,1.4420078714220204,1.457043818137688,0.0261217098162326,0.089219253146822,0.0140371691766162,-0.7736934980127893,-0.8205599462192159,-0.4012872748943671,0.9363582302339352,1.4538255510443985,1.4617752189616822,-0.9194709492653012,-0.9844235624558229,-0.4236865546847235,0.9018994847310708,0.0050237160384714,-0.0685151009550133,0.8992792245884812,11.410459271338368,-0.9879815563070422,0.1265570708465629,-0.971504741648549
1.32,0.90991798490349,1.425593541199765,1.44919948333118,0.0247873436234157,0.0905404629142535,0.0137238886337462,-0.7730654347492516,-0.8210711443329339,-0.3840499637376456,0.9179688112486292,1.434137079795282,1.4533014878679875,-0.952143816444218,-1.0244235630518692,-0.405194656207646,0.8628161491420262,0.0314031631768851,-0.0255599056859012,0.8618655578360751,11.410459271338368,-0.9876558311472218,0.1282552225686819,-0.9706990246044872
1.34,0.894465563454081,1.4091765355286965,1.4416988213131023,0.0249310077863386,0.0907109011921024,0.0134988020360346,-0.7723489496622612,-0.8208611492553952,-0.3668799369256156,0.8995793922633232,1.4144486085461656,1.444827756774293,-0.9848166836231348,-1.0644235636479158,-0.3867027577305685,0.8593126170642139,0.0358242543495201,0.0104997538769358,0.8585013406015002,11.367229099715589,-0.9883061011123696,0.1287553321730476,-0.9690368206390976
1.36,0.8797931369263854,1.3935780863995966,1.434893665050983,0.0264571258259995,0.0900075465343158,0.0133705935443803,-0.7722473506670381,-0.8212284139671221,-0.3503076650566114,0.8803731515985442,1.393760137282148,1.4368163231425255,-1.0174895508020518,-1.1044235642439622,-0.368210859253491,0.8288326137171773,0.0050799497611553,-0.0183632355863438,0.8286135934502115,11.364262682592198,-0.9899368421073989,0.1278735678795058,-0.9666146041314364
1.38,0.8643440295977548,1.3771406967080335,1.428076617916906,0.0292619757580054,0.088661575726374,0.0133091765340819,-0.7727488444506709,-0.8228248274105309,-0.332239494417405,0.8603500892542923,1.372071666003229,1.429267186972685,-1.0501624179809688,-1.1444235648400083,-0.3497189607764135,0.9072745203972156,-0.0250746891816422,-0.0798206721704386,0.9034085319603202,11.382128439093322,-0.9927377839229884,0.1259736208316211,-0.963066635253242
1.4,0.8488775116755903,1.3606447675002578,1.4216272485342665,0.0324280464715057,0.0869420719299387,0.0132639221094204,-0.7739614858432226,-0.8267713421041412,-0.3135724124735147,0.8403270269100405,1.3503831947243103,1.4217180508028444,-1.0828352851598857,-1.184423565436055,-0.3312270622993361,0.9559098096495896,-0.0606320696275808,-0.1973257346805146,0.9333540971945136,11.421573396391976,-0.9954949543301612,0.1239365380195727,-0.9597185604556184
1.42,0.8332772052278874,1.343974080788256,1.4155839094070624,0.0327877294626226,0.0884980102187444,0.0131359060179682,-0.7850039585705939,-0.8388167150457915,-0.2916245521118278,0.8257065873752213,1.3359994553375072,1.4114646431960358,-0.8077737816929405,-0.922824828900647,-0.2591452828986405,1.368151844363673,-0.5521236363685678,-0.6022686470825156,1.0973930180843443,11.789778443665456,-0.9928390959356572,0.1223491296606128,-0.9633991795327064
1.44,0.8182963146862842,1.327955700122362,1.4102640317135997,0.0300283570932663,0.0945105219902968,0.0129515659398873,-0.7908243627003454,-0.8463945679904162,-0.2694443835234448,0.8257065873752213,1.3359994553375072,1.4114646431960358,-0.8077737816929405,-0.922824828900647,-0.2591452828986405,1.2075396868147634,-0.2910202064875744,-0.3788926472312381,1.1090084294191505,11.789778443665456,-0.9912006965871898,0.1260209104254421,-0.9632802317975196
1.46,0.8024589463640773,1.3109876384098424,1.4051176335378972,0.0260846300008251,0.103234715044953,0.0127459493430281,-0.7921375656172862,-0.849847449688093,-0.2463974042621097,0.8257065873752213,1.3359994553375072,1.4114646431960358,-0.8077737816929405,-0.922824828900647,-0.2591452828986405,1.167058425049516,-0.0656601458470407,-0.1726440848838384,1.1523489630667545,11.79817610578175,-0.98554630828472,0.1307643119900209,-0.9669646052810744
1.48,0.7866434292743721,1.2939822782178567,1.4004204552573365,0.0227287468936502,0.1126761815974205,0.0125825806582761,-0.7890145526859231,-0.8506708231893277,-0.2245541028941936,0.8176288495582918,1.3267712070485007,1.4088731903670495,-0.8147787691413944,-0.9428248291986704,-0.2445264405948876,1.1040391391857467,0.1561506465681539,-0.0411686750617368,1.0921650683958048,11.736999413914418,-0.9786025509693868,0.1350273031300123,-0.9719051363394168
1.5,0.7709329388250565,1.276976099008462,1.396146523040267,0.0205553480532571,0.1214795248081827,0.0124773158387888,-0.7820614488885264,-0.8502733242563223,-0.2039638522238806,0.8014733739244331,1.3083147104704878,1.4036902847090766,-0.8287887440383022,-0.9828248297947167,-0.2152887559873818,1.0868096435041434,0.3476551898698388,0.0198749466502723,1.029512533515653,11.648775492538334,-0.971884206315659,0.1380091114821653,-0.976875404872994
1.52,0.7561665493110004,1.260835937230885,1.3924607594538627,0.019765655303428,0.1284265776087953,0.012438996123753,-0.7726527173126898,-0.8489587056174308,-0.1850676017891164,0.7853178982905743,1.2898582138924748,1.3985073790511038,-0.84279871893521,-1.0228248303907632,-0.186051071379876,1.0574979107842113,0.4704365787918274,0.0657309319445742,0.9448125217382072,11.582085913120864,-0.9650380405526788,0.1399541706771912,-0.9819266176922312
1.54,0.7408376935997032,1.2438804688928606,1.388970014805534,0.0206902921286059,0.1337591593856536,0.0124942815990946,-0.7607381996551756,-0.8468573185281776,-0.1650027565763962,0.7684619239118701,1.2694017172846594,1.3947863576235062,-0.8568086938321178,-1.0628248309868096,-0.1568133867723702,1.1715049851798751,0.5957258828757084,0.1050693544626613,1.0032422606360127,11.553875921707911,-0.9591427212428136,0.1401655373102164,-0.9862954034781533
1.56,0.7257596913976219,1.2269579226774798,1.3858851829681194,0.0234698127019758,0.1369145371442066,0.0126514565221545,-0.7477482098994521,-0.8458006931383488,-0.1444684605920263,0.751605949533166,1.248945220676844,1.3910653361959089,-0.8708186687290256,-1.1028248315828562,-0.1275757021648644,1.216052633155675,0.6494994877861759,0.0528312694914379,1.0267147992184922,11.624829728952136,-0.9554670667276428,0.1385141588192017,-0.9889397001952616
1.58,0.7109479992423912,1.210026117742753,1.383221611043063,0.0271584233624177,0.1379698081684231,0.0128366277565561,-0.7342832791874159,-0.8476461218838567,-0.1229141443996062,0.734399725782039,1.2274887240541277,1.3880752568834989,-0.8848286436259334,-1.1428248321789023,-0.0983380175573586,1.2740668279740175,0.6732465356018125,-0.092271437275393,1.0777158096210084,11.624829728952136,-0.955094844231654,0.1366912069754289,-0.9879520944022112
1.6,0.697126796926197,1.19388492451186,1.3811024981023234,0.0304851697816178,0.1371795221454372,0.012957060559184,-0.7213950824837162,-0.8512852014607909,-0.1012106551756281,0.6742338352830204,1.16764381164856,1.3770759038230829,-0.7379999247169096,-0.9476461233739728,-0.0683835573522677,1.2751372072603064,0.6444098351849836,-0.1819539788467106,1.0851744611989018,11.77848057814208,-0.9580504467498906,0.1357109845347953,-0.9828069340013452
1.62,0.682748214629737,1.1767387741968651,1.3791638558049208,0.0310703868257505,0.1367224624738647,0.0128975483666796,-0.7172801082082837,-0.8622931616493431,-0.0945964327332622,0.6742338352830204,1.16764381164856,1.3770759038230829,-0.7379999247169096,-0.9476461233739728,-0.0683835573522677,0.6742702338775581,0.2057487137716251,-0.5503980094276106,0.3307111221182962,11.77848057814208,-0.9559686784583368,0.136378782035653,-0.983104818926072
1.64,0.6684596910042444,1.1594210303505053,1.3773505093519032,0.028200637279526,0.1385231117260936,0.0126786234976806,-0.7114691568045818,-0.8686063160957938,-0.0868299164550291,0.6742338352830204,1.16764381164856,1.3770759038230829,-0.7379999247169096,-0.9476461233739728,-0.0683835573522677,0.578666247462611,0.2905475701850957,-0.3156577223225321,0.3883258139116531,10.69554783028252,-0.9553511519953968,0.1394989331772441,-0.982511309751158
1.66,0.6543124117777038,1.1420241629731869,1.3757173998849934,0.0244614539434162,0.1413935169510113,0.0124384193702261,-0.7033961917703377,-0.870716705619956,-0.0768919154574136,0.6668538360358512,1.1581673504148204,1.3763920682495605,-0.7387432538228083,-0.967646123671996,-0.0574774399428,0.6488265797122301,0.403648251712202,-0.1055194762081102,0.496900049880778,10.866678332356967,-0.9536550233484186,0.1440103652207365,-0.9822953025220184
1.68,0.6410414438526841,1.125484657386947,1.3743625172660183,0.0215663666670756,0.1443675295936834,0.0122687761622705,-0.6938849031411554,-0.8704634451732127,-0.0662415274377498,0.6520938375415131,1.1392144279473408,1.375024397102515,-0.7402299120346058,-1.0076461242680426,-0.0356652051238646,0.7140719802843685,0.475564431459119,0.0126630223371615,0.5325194009831876,10.972973618924698,-0.9519563202719976,0.1481191137073645,-0.9819398964147616
1.7,0.6272838701935349,1.1080911130861495,1.3731662551027084,0.0197267463297776,0.1471893204440665,0.0121764450091556,-0.6823137687560918,-0.8691327465101437,-0.0539016536120556,0.6373338390471749,1.1202615054798617,1.3736567259554695,-0.7417165702464033,-1.047646124864089,-0.0138529703049292,0.8484314879870194,0.578556719253176,0.0665349331534503,0.6169936912847128,11.120243851935813,-0.9505260528010264,0.1512398496095242,-0.9813255398289166
1.72,0.6137715255207078,1.090732787575215,1.372228486744444,0.019441485076284,0.1492930079582849,0.012189819748677,-0.6695001040256607,-0.8669410019027141,-0.0404487303783023,0.6224995076422468,1.0993085829825795,1.373379666549371,-0.7432032284582007,-1.0876461254601353,0.0079592645140061,0.9353807938232296,0.6406832365215553,0.1095872303714828,0.6726461616876643,11.120243851935813,-0.94972725525292,0.1530673325300788,-0.9801999825251028
1.74,0.6005245108022896,1.0734260518290306,1.371567370145115,0.0211805101920347,0.150410317943208,0.0123373143381023,-0.6559481844813243,-0.8641805078685308,-0.0263356863324168,0.6076651762373187,1.078355660485298,1.3731026071432724,-0.7446898866699982,-1.127646126056182,0.0297714993329415,0.9879940066746756,0.6775959772168216,0.1380247017091607,0.7056522022942726,11.189680293082349,-0.9498008534064768,0.1533673951456003,-0.9782465713253342
1.76,0.5881934822726194,1.057018851330981,1.3712089077010643,0.024484184460174,0.1505101804556214,0.0125804339899971,-0.6428468780138624,-0.863517745085937,-0.0120987323995366,0.5927936783770958,1.056402737973115,1.373370853607647,-0.7461765448817956,-1.1676461266522282,0.0515837341518769,0.967954470710403,0.6550653233730941,0.0331381391296903,0.7118476966440092,11.224764377005158,-0.9515557018944512,0.1520578183226085,-0.9749831263051232
1.78,0.5754819151769406,1.0397282462044308,1.3711360969739037,0.0283798059500368,0.1496686817621236,0.0128453387482773,-0.6290745058249235,-0.8656796883670447,0.0041372408073891,0.5778850140615779,1.0334498154460308,1.3741844059424952,-0.7476632030935931,-1.2076461272482746,0.0733959689708123,1.069998902379573,0.6886186094469449,-0.1080971640553818,0.8117986603462898,11.275917906528775,-0.9541612564835285,0.1504382105314457,-0.9708535799706656
1.8,0.5630447638676344,1.0223743868033188,1.3714014618164343,0.0318868128155597,0.147877304985991,0.0130550289825028,-0.6154092290639515,-0.8695586859039438,0.0216541297354121,0.5440281898856945,0.9964442617860786,1.3713429590142732,-0.6149109344150424,-0.9656796898571608,0.030285811508869,1.1276389144601318,0.6832638380486034,-0.1939498768449565,0.8758444464011533,11.429185886522646,-0.9576474079330288,0.1493829574043894,-0.965725180422604
1.82,0.5507913518928168,1.0048536273894615,1.3718230289267177,0.0319980974819286,0.1469355104561043,0.0130579299274891,-0.6103338478403103,-0.8809134724998369,0.0196428472976913,0.5440281898856945,0.9964442617860786,1.3713429590142732,-0.6149109344150424,-0.9656796898571608,0.030285811508869,0.6299522407449751,0.2537690611820575,-0.5677393297946531,-0.1005641218860405,11.429185886522646,-0.956026085889528,0.1499292938711111,-0.9660097774683578
1.84,0.5392545978213416,0.988056496012087,1.372193028068211,0.0288981932192615,0.1479933023611709,0.0129110093709941,-0.604095111500334,-0.8863167213553167,0.0194585144432836,0.5440281898856945,0.9964442617860786,1.3713429590142732,-0.6149109344150424,-0.9656796898571608,0.030285811508869,0.4127678158335474,0.3119368169988146,-0.2701624427739912,-0.009216642720386,10.22333934143171,-0.9544394784628376,0.1528031599595828,-0.9670914993049944
1.86,0.5272573411566027,0.9703130970409448,1.372596316623975,0.0250207953604776,0.1503019706942781,0.0127582213418424,-0.5957812109325267,-0.8877136948779624,0.0209343934210669,0.537879080541544,0.986787464887507,1.371645817129362,-0.6120782201330662,-0.985679690155184,0.035515525649165,0.4279331035086647,0.4156950283903671,-0.0698486761322836,0.0737939488891658,10.375495744888212,-0.9521227914609552,0.1566446729703486,-0.96840630688223
1.88,0.5154448402686209,0.9525678144890484,1.373041507365418,0.0219828626112419,0.1531702634663476,0.0126855752908424,-0.5857517238433743,-0.886969360899317,0.0235362387060804,0.5255808618532432,0.9674738710903638,1.3722515333595393,-0.6064127915691138,-1.0256796907512304,0.0459749539297569,0.5194089025767359,0.5014743544576206,0.0372166989322686,0.130092264250672,10.465942361093768,-0.9495449880209876,0.1599680679124667,-0.9698454697054848
1.9,0.5038503727502798,0.9348505797274396,1.3735497766877574,0.0203204285473644,0.1560303391940463,0.0127167367163502,-0.5741442858880309,-0.8851593550878818,0.0271385341277292,0.5132826431649423,0.9481602772932204,1.3728572495897169,-0.6007473630051613,-1.065679691347277,0.0564343822103489,0.6143803163135334,0.5803718977671679,0.09050029057176,0.1801147710824416,10.529541333863564,-0.9470705405471704,0.1621394448456031,-0.971231716274324
1.92,0.4930635828255024,0.9180598002765832,1.3741088912568329,0.0202642451407298,0.1583608462646333,0.0128540078878457,-0.5618911249995464,-0.8826589249992055,0.0315243795969049,0.5012676959048391,0.926846683466275,1.3739859372339236,-0.5950819344412088,-1.1056796919433234,0.0668938104909409,0.6626230883144141,0.6126580444242247,0.1250215044338143,0.2192922734587845,10.588697448560197,-0.9447273195504564,0.1631431685832437,-0.9724959937742272
1.94,0.481969009516938,0.9004402895676709,1.3747920500246853,0.0221850939258062,0.1601695996122613,0.0131343808078999,-0.5482130239037915,-0.8796499010130323,0.0365755867365011,0.4892527486447359,0.9055330896393294,1.3751146248781307,-0.5894165058772564,-1.14567969253937,0.0773532387715328,0.7444114596481001,0.6839050547877479,0.1504511993086599,0.2525603569798088,10.6532951373174,-0.9429423296764878,0.1624469131062889,-0.9733717686643932
1.96,0.4711549929653815,0.8828601816244369,1.3755830503193862,0.0258476139994987,0.1611821421944705,0.0135278567555918,-0.5339077823377161,-0.8790280958892626,0.0422975197931344,0.4773794370987315,0.8832194957974827,1.3765047982293526,-0.583751077313304,-1.1856796931354163,0.0878126670521248,0.7709849151901592,0.7152620783037689,0.0310902561884873,0.2860966528316688,10.6817539585154,-0.9426616983077152,0.1601514864391697,-0.9731828530059656
1.98,0.4606320654199624,0.8652577508205359,1.3764997606334817,0.0297714020104944,0.1613166921103999,0.0139217020941427,-0.5192131108561007,-0.8812731683407987,0.0490902381476861,0.4656477612668259,0.8599059019407349,1.378156457287589,-0.5780856487493515,-1.225679693731463,0.0982720953327167,0.8171822668620362,0.7347335740807703,-0.1122536225768078,0.339635917727582,10.789741502626384,-0.9428590210509532,0.1577911027050956,-0.9725019206630884
2.0,0.4509083790111175,0.8484772830436955,1.3775066982017057,0.0330423433091447,0.1606532722829711,0.0142412124502231,-0.5051634327318767,-0.8848708126673807,0.0565726659720235,0.4346714098771573,0.821194092403496,1.3789542725408657,-0.4962989061096159,-0.9812731698309148,0.089369533443163,0.8159706279047414,0.7024839062111987,-0.1798822163290969,0.3741213912168691,10.85469198755709,-0.9438772669154448,0.1558563644097049,-0.970776065866284
2.02,0.4409501151073752,0.8306550379425263,1.378684685981754,0.0332920777101576,0.1592576968343421,0.0143334306132095,-0.4915124605405618,-0.8963156815358192,0.0606749412277674,0.4346714098771573,0.821194092403496,1.3789542725408657,-0.4962989061096159,-0.9812731698309148,0.089369533443163,0.9140059182763716,0.6825486095657418,-0.572243443421927,0.2051137627871946,10.85469198755709,-0.9462002218547512,0.1568653664057374,-0.9673060559978864
2.04,0.4312608697488102,0.8126532994841439,1.379957820447452,0.0297194190970401,0.1573093279907592,0.0141562042752688,-0.4781584154735291,-0.9026810339758872,0.0665866980366833,0.4346714098771573,0.821194092403496,1.3789542725408657,-0.4962989061096159,-0.9812731698309148,0.089369533443163,0.7965505318345842,0.6677022533516375,-0.3182676220033931,0.2955878404457973,10.620578620434571,-0.9471917726060112,0.1606086393563006,-0.9651547044642668
2.06,0.4218332094873223,0.7945823752176666,1.381366536619726,0.0254132412501752,0.154926165296378,0.0139409345485271,-0.4653724631956242,-0.9041350259077724,0.073992947257547,0.4297084208160612,0.8113813607051868,1.3798479678752973,-0.4917160651603189,-1.001273170128938,0.0974253925022584,0.7423732142803809,0.6392976138952455,-0.0726995965942611,0.3703124610431866,10.743011163168376,-0.949410521911394,0.1652585243950203,-0.9612639408342676
2.08,0.4131061276290547,0.777414992455912,1.3828509423372912,0.0221590987222815,0.1524369824752596,0.0138140835824157,-0.4539888488068734,-0.9032179120589864,0.0818945660040311,0.4197824426938689,0.7917558973085685,1.3816353585441603,-0.482550383261725,-1.0412731707249845,0.1135371106204491,0.6943762545950782,0.569180719437537,0.0458556924392949,0.3950809373242013,10.806747487758912,-0.9524495981718658,0.1696252101657977,-0.9563339348918178
2.1,0.4041440771185817,0.7593730383619347,1.3845846088626028,0.0200802408966537,0.1498212112504625,0.013796336663176,-0.4429107578076932,-0.901300441254307,0.0911019625325507,0.4098564645716765,0.7721304339119502,1.3834227492130238,-0.4733847013631311,-1.081273171321031,0.1296488287386399,0.7265964239285649,0.5539045499590112,0.0958735402339705,0.4603698264259825,10.850541164407332,-0.9556546151797316,0.1728675623737764,-0.9513151064860084
2.12,0.3953936311622655,0.741378880285902,1.3865125103030105,0.0196752530109801,0.1475003005920569,0.0139164469471261,-0.4327618461872509,-0.8985322963180169,0.1012357854914642,0.4003887705444139,0.7505049704855297,1.3860157257877963,-0.4642190194645372,-1.1212731719170774,0.1457605468568307,0.7303379375851633,0.5074455810221173,0.1384072468145036,0.5066911479456738,10.898767778777255,-0.9583364708906514,0.1746253710496266,-0.9470794654379452
2.14,0.3868373730737952,0.7234452233201472,1.3886513276475123,0.0212918836361191,0.1457540502898143,0.0141959193802463,-0.4238650159101412,-0.8954184287823331,0.1115978243206324,0.3909210765171513,0.728879507059109,1.3886087023625693,-0.4550533375659433,-1.161273172513124,0.1618722649750215,0.700395618037889,0.4448415138554817,0.1556933767841883,0.5181019414584126,10.94521398958932,-0.9607751491469796,0.1748331110958166,-0.9432678079954812
2.16,0.3788811042690606,0.7064521256044501,1.3908941593325992,0.0245112861159898,0.1447030281708683,0.0145918980605126,-0.4145284507671482,-0.89406476609807,0.1233934290022594,0.3816825245373536,0.7062540436177872,1.391604471890297,-0.4458876556673494,-1.2012731731091704,0.1779839830932122,0.7552154347226683,0.4668282571496512,0.0676831342131589,0.5897802340813496,11.033699867201904,-0.9634964770528586,0.1734689793199952,-0.9395682420055668
2.18,0.3706918115561899,0.6885566324893486,1.393494528542928,0.0283842050763198,0.1440227582478967,0.0150505321302199,-0.4048489490855979,-0.8956569574334187,0.1360944538443076,0.3726731146050206,0.6826285801615642,1.3950030343709794,-0.4367219737687555,-1.2412731737052167,0.194095701211403,0.8024086522617716,0.4839750840775175,-0.0796095667674356,0.63505124210241,11.033699867201904,-0.9656309152324356,0.1717641973442971,-0.936414014025711
2.2,0.3626998590017729,0.670608105155386,1.396358743333119,0.0318539696304201,0.1435496841179501,0.015485106909546,-0.3948398440286573,-0.8990104275237379,0.1496973737955034,0.3504493641019101,0.6437737846176776,1.4002992512351435,-0.3808508189727114,-0.9469417437471908,0.1555460403739202,0.8609114020707604,0.5004552528470263,-0.1676735045159638,0.6801459975597862,11.13587510801608,-0.9674607444597104,0.1704922570735,-0.933411335482385
2.22,0.354882805927816,0.6523400150111082,1.3993377551576986,0.0266541086794654,0.1433456445180193,0.0153297527616304,-0.3873462017320889,-0.9225776406966492,0.1476890631408376,0.3504493641019101,0.6437737846176776,1.4002992512351435,-0.3808508189727114,-0.9469417437471908,0.1555460403739202,1.2405659225651848,0.3746821148284202,-1.1783606586455608,-0.1004155327332903,11.13587510801608,-0.9685665282571102,0.1763709767483077,-0.9295535316331726
2.24,0.3475950306463724,0.6347459649010855,1.4021363839704797,0.0147525919873825,0.1434609717964371,0.0147290985599405,-0.3801289929549873,-0.92731786831778,0.1470671549910652,0.3504493641019101,0.6437737846176776,1.4002992512351435,-0.3808508189727114,-0.9469417437471908,0.1555460403739202,0.4328528334756421,0.360860438855079,-0.2370113810565399,-0.0310954074886196,10.21519332063508,-0.9663941186976116,0.1870723334733232,-0.9295692447315166
2.26,0.3400718485763231,0.6162398574271956,1.405071600412784,0.0018272398554616,0.1438343452935827,0.0141016329920841,-0.3725397440249925,-0.9229872320780476,0.146457454792184,0.3466408559121829,0.6343043671802058,1.4018547116388826,-0.3760511929501341,-0.9571987010099452,0.1594363576798427,0.4379578858030368,0.3794624464997426,0.2165318119866144,-0.0304850099440576,10.285371945147745,-0.9653144206851392,0.1987087922665033,-0.9278118799831826
2.28,0.3327010363189972,0.5978808864165919,1.4079901382034286,-0.0089733046483467,0.1444344431946969,0.0136488990769028,-0.364872799681532,-0.913701668221442,0.1454122728881437,0.3390238395327287,0.6153655323052619,1.404965632446361,-0.3664519409049795,-0.9777126155354542,0.1672169922916877,0.604351174635569,0.3833472171730245,0.4642781928302864,-0.052259095202016,10.256295842646068,-0.9644892164578954,0.2081587056635013,-0.926148017197966
2.3000000000000003,0.3258431013484642,0.5806368635590866,1.4107424749646502,-0.0166669475292287,0.1451518658772574,0.0134168745293966,-0.3573597684664008,-0.9025681411288348,0.1443580125078348,0.3314068231532745,0.5964266974303181,1.4080765532538395,-0.356852688859825,-0.9982265300609632,0.1749976269035327,0.6736329276966107,0.3756515607565597,0.5566763546303588,-0.0527130190154462,10.256295842646068,-0.9636700609806084,0.2158203920057911,-0.9248319453275952
2.32,0.318782011664102,0.56272113453072,1.4136221212730933,-0.0222186983309327,0.1459883163291589,0.0133672899429785,-0.3491053047915468,-0.8900343214836198,0.1436908927837516,0.324269769376078,0.5764621668290988,1.4115765057919103,-0.3472534368146704,-1.0187404445864718,0.1827782615153778,0.7511289073529952,0.4127231837427025,0.6266909822607469,-0.0333559862041574,10.262650468320317,-0.962866199618378,0.2212617906259091,-0.923984806627442
2.34,0.3118897756992992,0.5450599233290399,1.4164907848849455,-0.0255101419880062,0.1468275137275513,0.0134920081535247,-0.3405018023562771,-0.8771427167762522,0.1432234680168946,0.3171327155988815,0.5564976362278795,1.4150764583299809,-0.3376541847695158,-1.0392543591119807,0.1905588961272228,0.7752938346159243,0.4301751217634847,0.6445802353683805,-0.0233712383428535,10.297015267009556,-0.9620693116379636,0.2249094129724325,-0.9234182649188482
2.36,0.3051746801867351,0.5276549202198142,1.4193552636038886,-0.0269557219986889,0.1475501577697173,0.0137634206778152,-0.3314375259118408,-0.86436016511224,0.1432562490239788,0.3102356431228139,0.5360202577635225,1.4187709267333477,-0.3280549327243613,-1.0597682736374896,0.1983395307390678,0.7835110227347308,0.4532138222218151,0.6391275832006105,0.0016390503542143,10.309954336130431,-0.9613749666637008,0.2269706773705021,-0.923101132549134
2.38,0.2989671090712533,0.5113578119160218,1.4220838755654297,-0.0268147357054136,0.1480243357485748,0.0141447820014146,-0.3224617600812497,-0.8519913154057035,0.1439719064757116,0.3035785519478751,0.5150300314360279,1.4226599110020106,-0.3184556806792067,-1.0802821881629985,0.2061201653509128,0.7649591180199012,0.4487882915295504,0.6184424853268256,0.0357828725866385,10.34037010006341,-0.9607938396523932,0.2278813570849209,-0.9228379199884128
2.4,0.2926196091309961,0.4944557260077502,1.4249792026728838,-0.0249972476055351,0.1482434158906441,0.0146802548167554,-0.3127730833552978,-0.8390365775400078,0.1455706600497863,0.2828440210671908,0.4687582461457366,1.4292824708892151,-0.2969216876103464,-0.8427387262097368,0.1479117222726233,0.8127910292004787,0.4844338362975986,0.6477368932847838,0.0799376787037342,10.383617894703091,-0.9605553357780218,0.2274177222669444,-0.9224930059784164
2.42,0.286456361547899,0.4775828559495351,1.4278151763863465,-0.0285726163298553,0.1481030729948491,0.0148600837021098,-0.3041816863009782,-0.84637706889621,0.1373600888757405,0.2828440210671908,0.4687582461457366,1.4292824708892151,-0.2969216876103464,-0.8427387262097368,0.1479117222726233,0.6984060346594979,0.4295698527159775,-0.3670245678101091,-0.4105285587022902,10.43428834718452,-0.96185295108321,0.2311590779149223,-0.9196127709176452
2.44,0.2807538709410421,0.4615455278835878,1.4303457799883248,-0.0384155686311936,0.147697476127313,0.0146154945233379,-0.2965415430792325,-0.8403435497591464,0.129459660769631,0.2828440210671908,0.4687582461457366,1.4292824708892151,-0.2969216876103464,-0.8427387262097368,0.1479117222726233,0.6268809812992913,0.3820071610872888,0.3016759568531812,-0.3950214053054721,9.856273021078778,-0.9592973913476838,0.2399282880427334,-0.9201916366300368
2.46,0.2749029758401017,0.4448861587697271,1.4328497161937976,-0.0494602053385307,0.1472165419618919,0.014349198816906,-0.2889651132079232,-0.8258047571769609,0.1213515284583935,0.2798748041910874,0.4603308588836393,1.430761588111941,-0.2918136731161657,-0.8408882083705435,0.1486996854320057,0.9144952008064524,0.3788214935654649,0.7269396291092745,-0.4054066155618763,9.856273021078778,-0.958163282793968,0.2495967126889276,-0.918884053308908
2.48,0.2692002125092061,0.428568717920753,1.435193560208836,-0.0589722436458012,0.1468558843881076,0.0142207764240255,-0.2816807595518689,-0.806913977471723,0.1134591846040191,0.2739363704388804,0.4434760843594445,1.433719822557394,-0.2815976441278043,-0.8371871726921567,0.1502756117507704,1.0865225004273735,0.3642176828027144,0.9445389852618946,-0.3946171927187207,9.88248098936765,-0.9574234741444292,0.2580625855326121,-0.9173780759199331
2.5,0.2636420465711511,0.4126573671270724,1.4373852775108946,-0.0661633701025031,0.1467124922006375,0.0142730498231929,-0.2744636873184158,-0.7857437031334207,0.106131229511881,0.2679979366866735,0.4266213098352498,1.4366780570028463,-0.271381615139443,-0.8334861370137701,0.151851538069535,1.1768236624641928,0.360853611672654,1.058513716915116,-0.366397754606907,9.911495004967946,-0.956805736851718,0.264348870915187,-0.91626665934185
2.52,0.2584966586360057,0.3979438342370263,1.4393399353480647,-0.0709118408510946,0.1467918268249234,0.0144775858804622,-0.2674805792099304,-0.7646236639407944,0.1000171927986267,0.2625703043838847,0.4099515870949744,1.439715087764237,-0.2611655861510816,-0.8297851013353834,0.1534274643882997,1.15347442460148,0.3491554054242701,1.0560019596313142,-0.3057018356627139,9.954900271380213,-0.9561484873692396,0.2692185144496158,-0.9155114319809252
2.54,0.2532257604299142,0.3828895708091481,1.4412785706374729,-0.0740696718202007,0.1470768747017634,0.0148272931746319,-0.2599404878154596,-0.7422422175062977,0.0942178076353787,0.2571426720810958,0.393281864354699,1.4427521185256278,-0.2509495571627202,-0.8260840656569967,0.1550033907070644,1.2159512644519497,0.3770045697235408,1.1190723217248344,-0.289969258162398,10.013112566994096,-0.95539599288067,0.272623592739335,-0.9151273284313692
2.56,0.248110108565728,0.3682892376516242,1.443110138545627,-0.0755040914186452,0.1474743452301783,0.0153061288615832,-0.2519798987349582,-0.7193039088721571,0.0892532239584002,0.251970440503016,0.3767046675063832,1.4458285474449877,-0.2407335281743589,-0.82238302997861,0.1565793170258291,1.2391368695481222,0.3980294540250673,1.1469154317070296,-0.2482291838489275,10.10165131964095,-0.9543047581888512,0.2746996271995508,-0.9152696416551168
2.58,0.2434017741392413,0.3548487709976698,1.444766735561113,-0.0751989824346453,0.1478294669904827,0.0158921137975527,-0.2440282631871426,-0.6969126082988629,0.0853926310574009,0.2470536096496452,0.3602199965500272,1.4489443745223165,-0.2305174991859975,-0.8186819943002233,0.1581552433445938,1.2036434550938817,0.3975817773907777,1.1195650286647096,-0.1930296450499628,10.10165131964095,-0.9527773637917064,0.2756148378980664,-0.9159601867432232
2.6,0.2386122327305267,0.3411609683506662,1.446440833118241,-0.0728988470679323,0.1480878137207822,0.0166658554677757,-0.2353373608914425,-0.6732569974072614,0.082282931396316,0.2312003609798841,0.3200031405827267,1.449036367113983,-0.2246598344502175,-0.6611367829175839,0.0991830690090849,1.2696357168007033,0.4345451147850093,1.1827805445800754,-0.1554849830542451,10.21422914602499,-0.9515568702174048,0.2749947285211132,-0.9165947727710192
2.62,0.2340184478103216,0.3278489952393205,1.4480162614411587,-0.0713143983881914,0.1473631566092445,0.0174674534909839,-0.224514086755334,-0.6586266810541892,0.0751318819076643,0.2312003609798841,0.3200031405827267,1.449036367113983,-0.2246598344502175,-0.6611367829175839,0.0991830690090849,0.977659102659858,0.5411637068054211,0.7315158176536107,-0.3575524744325847,10.21422914602499,-0.9532726425117556,0.2753551262885159,-0.9135110783967104
2.64,0.229641220801811,0.314847943393692,1.4494600598326932,-0.0722713225746728,0.1447632512145331,0.0182365452274138,-0.2139063406349453,-0.6419759221595411,0.0696303675481374,0.2312003609798841,0.3200031405827267,1.449036367113983,-0.2246598344502175,-0.6611367829175839,0.0991830690090849,1.024742296592667,0.5303873060194392,0.8325379447324033,-0.2750757179763433,9.917667389012422,-0.953699219904706,0.276917318124329,-0.9123383399042232
