t,x,y,z,roll,pitch,yaw,v_x,v_y,v_z,ref_x,ref_y,ref_z,ref_v_x,ref_v_y,ref_v_z,a_com,a_x,a_y,a_z,thrust,wind_x,wind_y,wind_z
0.0,-0.0319803090641053,-2.477837975414068,1.9796153786196065,0.0259517445308486,0.0996753195126619,0.0422004630664514,0.0041754708854743,-0.0074356724521836,0.0042958839232407,-0.0318511231337342,-2.4780820526046887,1.9797487657549253,0.0866826627344377,0.0922202901606042,-0.0524744708407045,0.4774369084328463,0.2087735442737191,-0.3717836226091821,0.2147941961620398,10.254529844280114,-0.9410282954069328,0.2567143323538358,-0.877947966472192
0.02,-0.0319845765316374,-2.478218018955224,1.9795830062671544,0.0161261289104038,0.1024187504673432,0.0415736760396595,-0.0044041342495749,-0.0263891841212153,-0.0079556935290774,-0.0318511231337342,-2.4780820526046887,1.9797487657549253,0.0866826627344377,0.0922202901606042,-0.0524744708407045,1.2072141265447056,-0.4289802567524676,-0.9476755834515832,-0.6125788726159144,9.583499511654736,-0.9287070912341696,0.2615213607432947,-0.8917045208202554
0.04,-0.0321347665945771,-2.4787622786945005,1.979254142472504,-0.0003832474608663,0.109555923172329,0.0404978778674116,-0.0096335077806657,-0.0261650480779663,-0.0244514341827715,-0.0318511231337342,-2.4780820526046887,1.9797487657549253,0.0866826627344377,0.0922202901606042,-0.0524744708407045,0.8653121462909948,-0.2614686765545386,0.0112068021624469,-0.8247870326847033,9.583499511654736,-0.9211537571677012,0.2715828644872969,-0.9002602684724635
0.06,-0.0323447851100779,-2.479212125646277,1.978594556733917,-0.0174674470236838,0.1187771821090688,0.0392619737122894,-0.0107030074896016,-0.0184031877501963,-0.0407227629919922,-0.0309842965063899,-2.477159849703083,1.9792240210465184,0.1031850520462282,0.1122202904586274,-0.0638295229840399,0.902976254661496,-0.0534749854467958,0.3880930163885014,-0.8135664404610372,9.344049908509078,-0.9100731089998076,0.2814238403793636,-0.9124275980052028
0.08,-0.0325300450100182,-2.4794552937375247,1.977676460599041,-0.0331444011321077,0.128285163531543,0.0379799827094104,-0.0084586586228463,-0.0072515158238516,-0.0551677071717383,-0.0292506432517011,-2.475315443899871,1.978174531629704,0.1361898306698091,0.1522202910546738,-0.0865396272707106,0.9193112924147456,0.1122174433377629,0.5575835963172323,-0.7222472089873022,9.38543366281192,-0.8966493283159956,0.2926201383476187,-0.9252567045235932
0.1,-0.032649455140529,-2.4794292722244893,1.9764209873957388,-0.0483038124665961,0.1384056875099938,0.0365808461544792,-0.0032912265665517,0.0093090155605845,-0.0696323027472407,-0.0275169899970124,-2.4734710380966587,1.97712504221289,0.16919460929339,0.1922202916507203,-0.1092497315573813,1.12935609857361,0.2583716028147341,0.8280265692218107,-0.7232297787751196,9.468224750376976,-0.8826540432731111,0.304148365689041,-0.936766381276282
0.12,-0.0326380788268484,-2.4790299339497874,1.974885059645608,-0.0613556278275569,0.1482799466624892,0.0352168710105004,0.004452177807845,0.0296373678638179,-0.0832337635616843,-0.0241330978111446,-2.4696266322636444,1.9749400475817425,0.202199387916971,0.2322202922467668,-0.1319598358440519,1.2827723443353545,0.3871702187198408,1.0164176151616702,-0.6800730407221817,9.545718767700237,-0.8692997261819086,0.3144597009786692,-0.9466248402020278
0.14,-0.0324473151874897,-2.4781947315980046,1.973082701687751,-0.0720414176494122,0.1577270255000245,0.033948663008892,0.0144941889584073,0.0524692216895331,-0.0963701604388258,-0.0207492056252768,-2.4657822264306297,1.9727550529505948,0.2352041665405519,0.2722202928428133,-0.1546699401307227,1.4095216032227196,0.5021005575281148,1.1415926912857632,-0.6568198438570733,9.690241182746831,-0.8552559209819445,0.3243057934750267,-0.9559832272746044
0.16,-0.0320601749010547,-2.4769541003161555,1.971130314116741,-0.0799287605120959,0.1662357425399761,0.0328730864083175,0.0259723525408232,0.0764470710497382,-0.1085047073435841,-0.0165401939738194,-2.460937820582714,1.9700023057122809,0.2682089451641329,0.3122202934388597,-0.1773800444173933,1.461106368261019,0.5739081791207913,1.1988924680102528,-0.6067273452379146,9.690241182746831,-0.841539615825582,0.3328433138464726,-0.964312201713134
0.18,-0.0313968876554439,-2.4751470046497626,1.968829145210777,-0.0859755802265201,0.1746783750210352,0.0318998358329549,0.0399836648967264,0.1026548627339947,-0.1209613355752968,-0.0115060628567726,-2.4550934147198977,1.9666818058667996,0.3012137237877138,0.3522202940349061,-0.200090148704064,1.6111585938410675,0.7005656177951619,1.3103895842128226,-0.6228314115856358,9.746471900026336,-0.8283207330455375,0.339917879680229,-0.9717774622465066
0.2,-0.0304335019016609,-2.4728060866360053,1.9662840786452955,-0.0899267354706714,0.1825958379366606,0.0310993651700191,0.0558719346254824,0.1297462863870312,-0.1328945638943835,-0.0293977044106076,-2.4700142615130627,1.9627810784320123,0.1143213857676981,0.2026548642241108,-0.1626407961306118,1.6798692572916687,0.7944134864377991,1.354571182651828,-0.5966614159543345,9.85004293138354,-0.8159977492455016,0.3456782315585104,-0.9780311519503928
0.22,-0.0290895356883332,-2.469797277511537,1.963546442757458,-0.0882453526163291,0.1887260569136652,0.0308618711059667,0.0778450905776735,0.1684189905358566,-0.1398433970211328,-0.0293977044106076,-2.4700142615130627,1.9627810784320123,0.1143213857676981,0.2026548642241108,-0.1626407961306118,2.2509353114346142,1.0986577976095555,1.93363520744127,-0.347441656337466,9.85004293138354,-0.8117413692459274,0.3477758992696342,-0.9766941994271088
0.24,-0.0273914870670492,-2.4663046407491542,1.9608394256797932,-0.0810447570977492,0.1919142785896894,0.0312953531182956,0.0996516249901326,0.196203189075175,-0.1446826883140463,-0.0293977044106076,-2.4700142615130627,1.9627810784320123,0.1143213857676981,0.2026548642241108,-0.1626407961306118,1.7824879885792324,1.0903267206229563,1.3892099269659202,-0.2419645646456733,10.260968910050906,-0.8036966052884611,0.3455349147349966,-0.979308448295248
0.26,-0.025157014864041,-2.4621345530510745,1.957893008694523,-0.0722881455981755,0.1930985547406456,0.0320351058328464,0.1225385762697822,0.2190892336770578,-0.1496979955728899,-0.0282544905529306,-2.4679877128708214,1.961154670470706,0.1291889299418924,0.222654864522134,-0.1709766882416748,1.637633111610341,1.1443475639824772,1.1443022300941366,-0.2507653629421805,10.268838149197109,-0.7992323657120751,0.3420982265381745,-0.9793686573240716
0.28,-0.0224670672088698,-2.4575458127604337,1.9548431085502365,-0.0640282405477801,0.1923900490365007,0.0328821881162188,0.1452187359201346,0.2386133279753151,-0.15504998022724,-0.0259680628375767,-2.4639346155863397,1.957901854548094,0.1589240182902811,0.2626548651181805,-0.1876484724638008,1.5200523343565484,1.1340079825176217,0.976204714912865,-0.2675992327175067,10.236590514667114,-0.797686861645835,0.3385768482471133,-0.9776954586359936
0.3,-0.0193273794324378,-2.452590732381774,1.9516809659394057,-0.0568687868637574,0.189892202901325,0.0337559113606558,0.167465876725029,0.2560738251289468,-0.16087599085846,-0.0236816351222227,-2.459881518301857,1.9546490386254816,0.1886591066386698,0.3026548657142269,-0.2043202566859268,1.4437335581053934,1.1123570402447185,0.8730248576815841,-0.2913005315609965,10.19979302952379,-0.7977887647004349,0.3359948655582818,-0.9748292970420636
0.32,-0.0159411040978067,-2.447573460262032,1.9485651051882853,-0.0511748361869625,0.1859665532304729,0.034577695374112,0.1877165005991125,0.2713646999855872,-0.1667916732274055,-0.0199084529894493,-2.453828420987573,1.9505626334917632,0.2183941949870584,0.3426548663102733,-0.2209920409080528,1.3027796427843177,1.012531193704176,0.7645437428320218,-0.2957841184472787,10.161073417310943,-0.8004995443651967,0.3344896437190918,-0.9690888609345693
0.34,-0.0119789375789535,-2.441988149274624,1.9451626568752471,-0.0463086967324058,0.1805242092350433,0.0354069183426956,0.2071070576715028,0.2864816988426694,-0.173115136687373,-0.0161352708566759,-2.447775323673288,1.9464762283580448,0.2481292833354471,0.3826548669063199,-0.2376638251301789,1.269353721537258,0.9695278536195144,0.7558499428541116,-0.3161731729983755,10.12257645423324,-0.8048955141992574,0.3342862323192104,-0.9612547947975922
0.36,-0.007652972997681,-2.436099709208253,1.941632932900932,-0.0422404695393487,0.1744053831319214,0.0361883304466747,0.2242903404188064,0.3015875461141308,-0.1795140975939454,-0.0116187115151928,-2.440722226344102,1.941973028618773,0.2778643716838358,0.4226548675023663,-0.2543356093523049,1.1878536614902755,0.8591641373651815,0.7552923635730707,-0.3199480453286163,10.095698710715624,-0.8110109505458528,0.3344101126684807,-0.952243716925768
0.38,-0.003005755336892,-2.4299131185589884,1.9379732805493128,-0.0385844993843485,0.1681103165924412,0.0369269318479737,0.2393901395078742,0.3162644627077381,-0.1860885283955498,-0.006358774965,-2.432669129000016,1.9370530342739485,0.3075994600322245,0.4626548680984127,-0.2710073935744309,1.1029947343380695,0.7549899544533902,0.7338458296803657,-0.3287215400802207,10.070026962421252,-0.8169317262990703,0.334614799993722,-0.9438061646287867
0.4,0.0016702804933471,-2.423769426606797,1.934372282403148,-0.0353550823101483,0.1623274332168038,0.0375859986156536,0.2519549433717081,0.3296492005316932,-0.192605678169094,0.0089637516385016,-2.4140998954236017,1.9286688541295356,0.239255056014214,0.4162644641978543,-0.2105940784373446,0.9740363749925288,0.6282401931916939,0.6692368911977525,-0.3258574886772086,10.040164337196074,-0.8227936386142148,0.3346615667542611,-0.9356959968399822
0.42,0.0069791044722292,-2.4170258335109778,1.9305644281149368,-0.0321664277659863,0.1526716803767236,0.0383653307103328,0.2776279510121888,0.3439635281693524,-0.187040879700868,0.0089637516385016,-2.4140998954236017,1.9286688541295356,0.239255056014214,0.4162644641978543,-0.2105940784373446,1.4958026933877353,1.283650382024032,0.7157163818829609,0.2782399234112956,10.005351693119335,-0.8378157090497329,0.3321579540586445,-0.923126894779266
0.44,0.0127399733992581,-2.410014550308915,1.926884517732616,-0.0295588611345133,0.1369443911824948,0.0392634708745475,0.2960940687182937,0.3565671694478299,-0.1812733135615933,0.0089637516385016,-2.4140998954236017,1.9286688541295356,0.239255056014214,0.4162644641978543,-0.2105940784373446,1.1544631823743607,0.9233058853052478,0.6301820639238759,0.2883783069637394,10.829417595142331,-0.8544856973589995,0.3379331493084818,-0.8973606888231371
0.46,0.0184700980414454,-2.4031273904362047,1.9234752309400989,-0.0278522270228127,0.1193005035423072,0.0401101063746142,0.3054935177955172,0.3678947812533485,-0.1777868759719568,0.0113563021986437,-2.4099372507816232,1.9265629133451616,0.239228039315482,0.4362644644958775,-0.2154951884457035,0.7563393405711987,0.4699724538611727,0.5663805902759278,0.1743218794818229,10.646644912137162,-0.8746554633977609,0.3430009265748635,-0.8690469231005066
0.48,0.0246129919946704,-2.3956529683044816,1.919939680966054,-0.026907030335309,0.1002777849293668,0.0409334907120476,0.3076974219807777,0.3789982850984125,-0.1760121979285225,0.016141403318928,-2.401611961497666,1.922351031776415,0.2391740059180179,0.476264465091924,-0.2252974084624214,0.5729190026805895,0.1101952092630254,0.5551751922532017,0.088733902171717,10.31031225400875,-0.8936556737528878,0.3470599500588738,-0.8430390841472858
0.5,0.0307265893595207,-2.387963690442273,1.9164171815949111,-0.0270459175526896,0.0826215751002849,0.0416448538453036,0.303168093547465,0.3894493255203276,-0.1764067554003544,0.0209265044392123,-2.393286672213709,1.918139150207668,0.2391199725205538,0.5162644656879705,-0.2350996284791393,0.5698568626328377,-0.2264664216656359,0.522552021095754,-0.0197278735915948,10.31031225400875,-0.909342967564972,0.3502212039862278,-0.8217645960724625
0.52,0.0363962939699776,-2.3804691628830907,1.9130428273345783,-0.0283436031035385,0.0683465602946316,0.042193917242588,0.293839405853497,0.3990703224198534,-0.1787510820100817,0.0257089038896234,-2.3829613828999494,1.9134371576380853,0.2390659391230898,0.5562644662840169,-0.2449018484958572,0.6802276506533501,-0.466434384698397,0.4810498449762918,-0.1172163304863679,10.172460521606808,-0.9226694687675124,0.3528561607494122,-0.8041799487972016
0.54,0.0421367413726661,-2.3723801610195774,1.9094328636107252,-0.0309755972289652,0.0565594587819023,0.0426328081646812,0.2806354047631256,0.4096531528513114,-0.182160671033578,0.0304913033400345,-2.3726360935861903,1.9087351650685025,0.2390119057256257,0.5962644668800634,-0.2547040685125751,0.8630863833427533,-0.6602000545185727,0.5291415215728984,-0.1704794511748139,10.062467172240758,-0.9329559435171532,0.3552339003633239,-0.7910329427067299
0.56,0.0475828100653568,-2.364049797976026,1.9057472317978368,-0.0339944603987327,0.048410843399068,0.042978728739066,0.2645450244539001,0.4228693979462369,-0.1862572232504456,0.0352723519555089,-2.361310804257529,1.9037881169985016,0.2389578723281616,0.6362644674761098,-0.2645062885292931,1.0610739995049543,-0.8045190154612747,0.6608122547462736,-0.2048276108433805,10.012988095399123,-0.9396125876248564,0.3575663793081376,-0.7822241197405151
0.58,0.052677494168837,-2.355438929229185,1.90197431862672,-0.0364552806993893,0.0445668551033457,0.0432496255894206,0.2459074810450574,0.4373622234255873,-0.1908227173421963,0.0400520497360468,-2.348985514913968,1.898596013428083,0.2389038389306975,0.6762644680721562,-0.2743085085460109,1.2023349689179936,-0.931877170442133,0.724641273967519,-0.2282747045875374,9.992647125556688,-0.9422978803998115,0.3587573100636981,-0.7793190724388005
0.6,0.0571744218655032,-2.346983250572134,1.8983038714288447,-0.038034010935179,0.0449633047926851,0.043427540405476,0.2288721196747883,0.4518062474008725,-0.1952879738280362,0.0649728682210898,-2.3335708180579062,1.89243318275961,0.2381144144875606,0.5373622249157034,-0.190443119195659,1.13882821476574,-0.8517680685134573,0.7222011987642635,-0.2232628242919934,9.983910324130193,-0.9426048918399093,0.3586526163165138,-0.7809192400369478
0.62,0.0615874342077943,-2.337712509241729,1.8944942443343704,-0.0367423910362389,0.0484896405748306,0.0437105227765443,0.2137535600387402,0.4739540538570384,-0.1845942841389058,0.0649728682210898,-2.3335708180579062,1.89243318275961,0.2381144144875606,0.5373622249157034,-0.190443119195659,1.4434777236382428,-0.7559279818024012,1.1073903228082935,0.5346844844565198,9.9661669259458,-0.9447179716688408,0.3566571745014062,-0.7812621161749728
0.64,0.0657282855165368,-2.32804017820198,1.8909221659232605,-0.0318170237623561,0.0540612836461765,0.0441893934946379,0.201452340320588,0.4912942274232573,-0.173254345722368,0.0649728682210898,-2.3335708180579062,1.89243318275961,0.2381144144875606,0.5373622249157034,-0.190443119195659,1.2047778105855498,-0.6150609859076117,0.867008678310946,0.5669969208268899,10.95521905190526,-0.9442723505472868,0.3561256628314498,-0.7795625562282772
0.66,0.0696533657341692,-2.318078356999413,1.887556001255304,-0.0262186748492208,0.0607033575675057,0.0447128859922005,0.1919527374858932,0.503970938749313,-0.1639084690369712,0.0673540123659654,-2.328197195808749,1.8905287515676537,0.2365558011760613,0.5573622252137266,-0.1903671995663516,0.9196288314854704,-0.474980141734739,0.6338355663027817,0.4672938342698426,10.83471625873426,-0.9425526820232476,0.3546903327010332,-0.7802142251537174
0.68,0.073231552122263,-2.3084049827565574,1.8845141725269696,-0.0214887812365948,0.0672581356320246,0.0451949063331496,0.1853342336319256,0.5138165524577233,-0.1567502931796493,0.0721163006557167,-2.317449951310435,1.8867198891837405,0.2334385745530625,0.597362225809773,-0.1902153603077366,0.6927845699865263,-0.3309251926983794,0.4922806854205153,0.3579087928660934,10.694281414724172,-0.939981903691083,0.3533332046812548,-0.7822652667807098
0.7000000000000001,0.0768851634936553,-2.298033173635748,1.8814448244986108,-0.0175299596000685,0.0738275079117309,0.0456668393797594,0.1805201377042196,0.5230165765966791,-0.1506313162795216,0.0768785889454679,-2.306702706812121,1.8829110267998272,0.2303213479300638,0.6373622264058195,-0.1900635210491217,0.6026148066194987,-0.240704796385302,0.460001206947791,0.305948845006386,10.490229559039108,-0.937130830535044,0.3525025886687886,-0.7846284094331024
0.72,0.0804621447183528,-2.287483341531292,1.8784840874658968,-0.0146589646716165,0.0796384772690334,0.0460970851937353,0.1775012344651189,0.5316897694245959,-0.145805898428054,0.0814850159040691,-2.2939554622840044,1.8791097563788448,0.2272041213070651,0.677362227001866,-0.1899116817905068,0.5187068248021757,-0.150945161955035,0.4336596413958393,0.2412708925733794,10.490229559039108,-0.9344730010135064,0.3523626402856463,-0.7865116937846691
0.74,0.0839950118704667,-2.2767639577358545,1.8756142180906887,-0.0128130212793854,0.0844032249773518,0.0464840138204091,0.1759230159775014,0.5400484348550347,-0.1414230755638009,0.0860914428626704,-2.281208217755888,1.8753084859578624,0.2240868946840664,0.7173622275979125,-0.1897598425318919,0.4784537533348712,-0.0789109243808733,0.4179332715219419,0.2191411432126533,10.41762799924345,-0.9325401785643376,0.3528211226960047,-0.7874252780076605
0.76,0.0873310852618268,-2.2664191008398435,1.8729668425281152,-0.0116855730934928,0.0878604324813899,0.0468282285847813,0.1752838646627789,0.5484800057564195,-0.1374669275448454,0.0906199391556967,-2.2674609732128705,1.871511011518345,0.2209696680610677,0.7573622281939588,-0.1896080032732769,0.4667735248920934,-0.0319575657361265,0.42157854506924,0.1978074009477748,10.399907038784477,-0.93148043692079,0.3540165280309347,-0.7867167701287102
0.78,0.0908346214714172,-2.255355830339088,1.8702595043893184,-0.0109174854759513,0.0903994272025002,0.0471782623367865,0.1750753450971355,0.557397337291783,-0.1334799520479232,0.0950705047831481,-2.252713728654952,1.8677173330602936,0.217852441438069,0.7973622287900053,-0.189456164014662,0.4885137043469247,-0.0104259782821719,0.4458665767681724,0.1993487748461114,10.388418434030427,-0.9312764032510876,0.3556545789008282,-0.7846879942216918
0.8,0.094336137433408,-2.2441127211132024,1.8676292878942131,-0.0104663238865635,0.0919134648165271,0.0475201283730057,0.1750368196989372,0.5664510323918277,-0.1297469905759628,0.099588388726274,-2.2274859634744986,1.863585506786922,0.1740437086038549,0.6573973387818991,-0.1423766260774523,0.4896577389412447,-0.0019262699099104,0.4526847550022361,0.1866480735980197,10.37700870230492,-0.9318867837144326,0.3575649843459835,-0.7815525823159531
0.8200000000000001,0.0978315720734122,-2.2326372460802038,1.865095608959905,-0.0086142828999574,0.0926859839931639,0.0479686008029642,0.1745065565691029,0.5798760517700838,-0.1237828855541094,0.099588388726274,-2.2274859634744986,1.863585506786922,0.1740437086038549,0.6573973387818991,-0.1423766260774523,0.734987879160452,-0.0265131564917184,0.6712509689128066,0.2982052510926716,10.359669983298772,-0.9344355470062524,0.3589145627379799,-0.7763284385833942
0.84,0.1011417962373576,-2.2215317979277907,1.862790326402031,-0.00572644186259,0.0930056296196621,0.0484754756501662,0.1739329940611813,0.5884145903876186,-0.1191733649102529,0.099588388726274,-2.2274859634744986,1.863585506786922,0.1740437086038549,0.6573973387818991,-0.1423766260774523,0.4860125930461172,-0.0286781253960782,0.4269269308767365,0.2304760321928244,10.493854989479589,-0.9357982289471288,0.3593811103290391,-0.7726277312444783
0.86,0.1046121896073385,-2.209688418959895,1.860445668595185,-0.0030739018176017,0.093044102324799,0.0489809752186312,0.1730975212646527,0.5955846431427193,-0.1155879928822815,0.1013288258123125,-2.2209119900866794,1.8621617405261477,0.1738373813051988,0.6773973390799223,-0.1441559608833581,0.4029967862267232,-0.0417736398264312,0.3585026377550371,0.1792686013985703,10.329885605348863,-0.9371881500030914,0.3595319042462215,-0.7696019917248265
0.88,0.1080628690922916,-2.197711067756646,1.858160113679309,-0.0012244394371438,0.0928936760943296,0.0494284229075054,0.171978512028377,0.6019303569803294,-0.1131886481968773,0.1048096999843896,-2.207764043311041,1.8593142080045983,0.1734247267078866,0.7173973396759687,-0.1477146304951697,0.3437918000006816,-0.0559504618137821,0.3172856918805034,0.1199672342702101,10.329885605348863,-0.938330775422912,0.3598055304508524,-0.7671679678193268
0.9,0.1114883168073524,-2.1856147818904934,1.8559116538692144,-0.0004171327423403,0.0926542882916324,0.0498018998914361,0.1705999381008265,0.6075599093143491,-0.1117657354669051,0.1082905741564667,-2.194616096535404,1.8564666754830492,0.1730120721105744,0.7573973402720152,-0.1512733001069814,0.2983999254034175,-0.0689286963775251,0.2814776167009869,0.0711456364986103,10.260857930506065,-0.9390780064423384,0.3603944160431761,-0.7653478510195906
0.92,0.1147148992555678,-2.174023942660466,1.8537956907921076,-0.000865766927574,0.0924159977721209,0.0500726327071529,0.1690959065798285,0.612426513715374,-0.1110314400805026,0.1117508155986782,-2.1794681497299635,1.8534412094809096,0.1725994175132622,0.7973973408680617,-0.154831969718793,0.2573185716515757,-0.0752015760499019,0.2433302200512466,0.036714769320123,10.2081439777985,-0.9397012730266868,0.361634601694804,-0.7635389780724505
0.94,0.1180788940513809,-2.161723881701433,1.8515803402850088,-0.0028566450928839,0.0922037026666397,0.0502552417322441,0.1673701392884544,0.6174881120698315,-0.1105495041831798,0.1152110570408897,-2.164320202924523,1.8504157434787705,0.17218676291595,0.8373973414641082,-0.1583906393306047,0.2684693318376939,-0.0862883645687068,0.2530799177228704,0.0240967948661414,10.170907715869362,-0.9402435364365312,0.3637763401701323,-0.7615446280503438
0.96,0.1214063990251715,-2.149299885612657,1.8493735652872376,-0.0059647328696375,0.0920505500884143,0.0503662669892149,0.1654492633733305,0.6249701311910614,-0.110150340553132,0.1186609821181684,-2.1481722561041816,1.8473013107363356,0.1717741083186378,0.8773973420601545,-0.1619493089424163,0.3867483226056251,-0.0960437957561913,0.374100956061496,0.0199581815023879,10.153161738172455,-0.9415385271832184,0.3669564020318157,-0.7580495897635146
0.98,0.1246934949667783,-2.13669889877949,1.8471750718356703,-0.0089124585703456,0.0919591374732366,0.0504952081546112,0.1633659859248849,0.6346479580750994,-0.1097146006716642,0.1221005908305142,-2.131024309268939,1.844097911253605,0.1713614537213255,0.917397342656201,-0.1655079785542279,0.4954549610431653,-0.1041638724222832,0.4838913442019033,0.0217869940733909,10.14601871240393,-0.9425540674525366,0.3699574375018207,-0.7548573710302814
1.0,0.1277766189545713,-2.1245374854532177,1.8450944768045767,-0.0110857250320972,0.0919327898958426,0.0506665352736442,0.1612932146689722,0.6448307880494111,-0.1093125897844878,0.1328617942630225,-2.104966500875735,1.8416893418020877,0.1536594123640509,0.7346479595652156,-0.1147379907263669,0.5199712004488457,-0.1036385627956312,0.5091414987155818,0.0201005443588205,10.146634797334627,-0.9436355340604996,0.3727459792139135,-0.7515877126125741
1.02,0.1309935205482494,-2.1114577747010004,1.8429776544904315,-0.0105744563264344,0.0915783124398541,0.0510484698974393,0.1605102566116749,0.6619918635998602,-0.1020221584263208,0.1328617942630225,-2.104966500875735,1.8416893418020877,0.1536594123640509,0.7346479595652156,-0.1147379907263669,0.9330942165127992,-0.0391479028648694,0.858053777522455,0.3645215679083511,10.577575367048668,-0.948643787391834,0.3741482752158213,-0.7445649562960533
1.04,0.1341920219630378,-2.0980731025771893,1.841010290370601,-0.0065564937227307,0.0906296301043547,0.0516745715470331,0.1593201808303334,0.6749215939997754,-0.0951617098302017,0.1328617942630225,-2.104966500875735,1.8416893418020877,0.1536594123640509,0.7346479595652156,-0.1147379907263669,0.7342682812157597,-0.0595037890670724,0.6464865199957592,0.3430224298059531,10.577575367048668,-0.9512474567516676,0.3743597745136668,-0.7394490610086893
1.06,0.1372023327530516,-2.085167543680953,1.839249417356732,-0.0019554832349112,0.0894469619119538,0.0523133215753965,0.1575615825942636,0.6828695332466391,-0.090519137034287,0.134398388386663,-2.097620021280082,1.840541961894824,0.1517180976518841,0.7546479598632387,-0.1157426687373075,0.468550659462539,-0.0879299118034901,0.3973969623431883,0.2321286397957332,10.36344463039677,-0.9538626394007028,0.3734321779642996,-0.7352981394424144
1.08,0.1403282515758316,-2.071447169703221,1.8374750284760064,0.0022835090706898,0.088142067277452,0.0529294346461068,0.1550651441213378,0.6888736498837655,-0.0872296261139319,0.137471576633944,-2.0829270620887783,1.8382472020802965,0.1478354682275506,0.7946479604592852,-0.1177520247591886,0.3643573237100419,-0.1248219236462885,0.3002058318563205,0.164475546017756,10.36344463039677,-0.9560969587191944,0.3723114843169296,-0.732185433274361
1.1,0.1433974953958249,-2.057620877357516,1.8357494948481603,0.0054097724699442,0.0869544516175373,0.0534562414607649,0.1519557648730305,0.6937571634621807,-0.0854719250914365,0.1405447648812251,-2.068234102897474,1.8359524422657687,0.143952838803217,0.8346479610553317,-0.1197613807810697,0.3025163510657389,-0.1554689624153685,0.2441756789207605,0.0878850511247718,10.182127816065076,-0.9577258321271006,0.3714886961530935,-0.7300250615589711
1.12,0.1462511539036015,-2.0444004787889494,1.8341326448984048,0.0073318862362578,0.0860419547712497,0.0538770067992673,0.1485762127570606,0.697884010640194,-0.0848009810464608,0.1434238216572894,-2.0515411436763675,1.833557214650148,0.1400702093788834,0.8746479616513781,-0.1217707368029508,0.2688047899811343,-0.1689776057984926,0.206342358900663,0.0335472022487855,10.182127816065076,-0.9589539514664024,0.3709589345779335,-0.7284527937378303
1.14,0.1491831804005701,-2.030404107759571,1.8324399462680383,0.0082026100093128,0.085359765765018,0.0542367269029985,0.1448015468898257,0.7016516626946201,-0.0845166800173011,0.1463028784333538,-2.034848184455261,1.8311619870345264,0.1361875799545499,0.9146479622474246,-0.1237800928248319,0.2670399384346401,-0.1887332933617452,0.1883826027213042,0.0142150514579809,10.122791789582152,-0.9596479281165762,0.3708740927385105,-0.7275369371813911
1.16,0.1520377353490656,-2.016327916435926,1.830750351030162,0.0079277869300271,0.08497648651739,0.0545171199646376,0.1408538234326203,0.7058439153461962,-0.0844621948996476,0.1490848694738097,-2.0171552252192533,1.828716525518358,0.1323049505302163,0.954647962843471,-0.125789448846713,0.28793433026153,-0.1973861728602713,0.2096126325788039,0.0027242558826794,10.099347545111414,-0.9602507405235672,0.3714642984919818,-0.726499413796972
1.18,0.1546755919821415,-2.002872968881422,1.8291451967574732,0.006849698126402,0.0848845041213805,0.0547287389289543,0.1370396447657986,0.7103022813790218,-0.0845003460042029,0.1517697947786574,-1.998462265968344,1.8262208301016425,0.1284223211058827,0.9946479634395174,-0.1277988048685941,0.2933702528029639,-0.1907089333410827,0.2229183016412839,-0.0019075552277689,10.080421095024576,-0.9606447473571318,0.3725273646485091,-0.7255198491543854
1.2,0.1573744860891762,-1.9886118842935687,1.8274545390697607,0.0050602394768327,0.0850319367805317,0.0549086383678621,0.1330730081653294,0.7156245721096737,-0.0845627805779887,0.1615275742204314,-1.967357854812471,1.8249201794572636,0.1148273201018019,0.810302282869138,-0.0846884128174828,0.3319069245201447,-0.1983318300234626,0.2661145365325912,-0.0031217286892905,10.080421095024576,-0.9609424628273308,0.3740924882114327,-0.7244096230431983
1.22,0.160014169321855,-1.9741802447291985,1.8258223749509357,0.0045783755120753,0.0848092067459695,0.055178537625722,0.1310925965363068,0.7268733683213777,-0.0783305704845841,0.1615275742204314,-1.967357854812471,1.8249201794572636,0.1148273201018019,0.810302282869138,-0.0846884128174828,0.6505726113992762,-0.0990205814511271,0.5624398105852024,0.3116105046702309,10.07772129647583,-0.9649991205322848,0.375357222227672,-0.7192117310039601
1.24,0.1626130429602843,-1.959548827551216,1.8243183486599637,0.0062374251037303,0.0836956500631319,0.0555890187157024,0.1287892308983414,0.735606399896658,-0.07240386556953,0.1615275742204314,-1.967357854812471,1.8249201794572636,0.1148273201018019,0.810302282869138,-0.0846884128174828,0.5401323099647175,-0.1151682818982702,0.4366515787640135,0.296335245752706,10.462230474739954,-0.9676861869963862,0.3765252167700972,-0.7140639798526646
1.26,0.1650318460771086,-1.9455041693399853,1.8229862385384623,0.0087061813335221,0.0820531102937764,0.0560287307178843,0.1258654929858427,0.7422550575283854,-0.0681013606539855,0.1626758474214494,-1.95925483198378,1.8240732953290888,0.1103848551690026,0.8303022831671611,-0.0847260261801388,0.4220913415162456,-0.1461868956249362,0.3324328815863697,0.2151252457772229,10.395239472490177,-0.9704327861755364,0.3768066762702949,-0.7093735531399592
1.28,0.1675095228819466,-1.9306086243116896,1.8216600902913136,0.0112794904860314,0.0799649404469925,0.0564744781743588,0.1219588318213457,0.7469986468886545,-0.0647863661083381,0.1649723938234855,-1.9430487863263968,1.8223795270727388,0.1014999253034039,0.8703022837632076,-0.0848012529054507,0.3491161350851571,-0.1953330582248488,0.2371794680134542,0.1657497272823709,10.308556003331432,-0.9729619874816212,0.3765850265727395,-0.7055146467845498
1.3,0.1698984398997406,-1.9156321834738863,1.8203880515158173,0.0131024654291705,0.0778058334663562,0.0568557621511138,0.1170290241426455,0.7505520791449988,-0.0626215238344221,0.1672689402255215,-1.926842740669014,1.8206857588163887,0.0926149954378052,0.910302284359254,-0.0848764796307627,0.3225539746318961,-0.24649038393501,0.1776716128172151,0.1082421136958014,10.234173083019414,-0.975157766702086,0.376409561091971,-0.702302304997898
1.32,0.1721772737389729,-1.9005950514654248,1.819148982348031,0.0137951037919719,0.0759393504780006,0.0571545668345217,0.1110350305794654,0.7531877724080326,-0.0613802754978134,0.1691212401342776,-1.908636694981829,1.818988229223774,0.0837300655722066,0.9503022849553006,-0.0849517063560746,0.3332249062021785,-0.2996996781590058,0.1317846631516905,0.0620624168304332,10.16933578244425,-0.9765903768476684,0.3764846063962047,-0.7001830331529587
1.34,0.1742233110814357,-1.8862669976821456,1.817991793737532,0.013086126037473,0.0747418670372607,0.0573486942724704,0.104676210497406,0.7551104507132353,-0.0604797943381009,0.1709735400430337,-1.890430649294644,1.8172906996311584,0.0748451357066079,0.990302285551347,-0.0850269330813866,0.3351945368748456,-0.3179410041029715,0.0961339152601381,0.0450240579856268,10.12295331185669,-0.9778058327797692,0.377136419316636,-0.6983669784609836
1.36,0.1762447673684508,-1.871135897072104,1.8167923256429988,0.010941999402032,0.0741338296876434,0.0574657415167272,0.0978386833832697,0.7580109546791731,-0.0595071492855912,0.1726037167051498,-1.8712246035925575,1.8155912893704107,0.0659602058410092,1.0303022861473934,-0.0851021598066985,0.3745355079666718,-0.3418763557068139,0.1450251982968886,0.0486322526254853,10.108216111912952,-0.9788601547621032,0.3786632627412371,-0.696434615196405
1.38,0.1781285781495616,-1.85592635375256,1.815614417696187,0.0079861252073093,0.0741219263730858,0.057535959617521,0.0909397858752651,0.7630213291554394,-0.0583246287026012,0.174011770120626,-1.8510185578755705,1.8138899984415295,0.0570752759754105,1.0703022867434395,-0.0851773865320105,0.4303980545598687,-0.3449448754002305,0.2505187238133144,0.0591260291494987,10.107039612978951,-0.9799280994760734,0.3807396060220998,-0.6942062410773283
1.4,0.1797912493690532,-1.8413641778562444,1.814519659851146,0.0053579957591647,0.0745646977735204,0.0576209244063386,0.0844882041329545,0.7695014574091139,-0.056970941397918,0.1826755674433249,-1.817775287294788,1.812698186261057,0.0756678027658505,0.8630213306455555,-0.0856692969866598,0.462188918302478,-0.3225790871155272,0.324006412683725,0.0676843652341621,10.11489865016847,-0.9806294375414124,0.3829557023881054,-0.6922644571505502
1.42,0.1813772051922858,-1.8258279259360857,1.8133606276180487,0.0053008611556403,0.0762906060371646,0.0579049663501139,0.0746647833837071,0.783095795727151,-0.0591896909083721,0.1826755674433249,-1.817775287294788,1.812698186261057,0.0756678027658505,0.8630213306455555,-0.0856692969866598,0.8459144148673341,-0.4911710374623707,0.6797169159018568,-0.1109374755227054,10.12564099577594,-0.979783124713404,0.3839651799660231,-0.6924850911074586
1.44,0.182782175516345,-1.8100617887733577,1.812141259179796,0.0085706358178061,0.0797713211225277,0.0584304637883935,0.0666073026118121,0.792433863668466,-0.0626606348540187,0.1826755674433249,-1.817775287294788,1.812698186261057,0.0756678027658505,0.8630213306455555,-0.0856692969866598,0.6406441312068125,-0.4028740385947485,0.4669033970657488,-0.1735471972823313,9.855426572756189,-0.9768488016646506,0.3816172864983694,-0.6982947006173759
1.46,0.1840486932277391,-1.7941539607764676,1.8108377337170405,0.0126993963400433,0.0842130911860675,0.0590308550443901,0.0606578031800375,0.797823688444655,-0.0675286286378549,0.1834322454709833,-1.8091450739883324,1.8118414932911904,0.0726134061439676,0.8830213309435787,-0.0911382306434715,0.4694254948502881,-0.297474971588731,0.2694912388094495,-0.2433996891918102,9.855426572756189,-0.9729333633776528,0.3785057287736981,-0.7058884533129341
1.48,0.1851607912487866,-1.7789650159088837,1.8094973965384031,0.0160911540417844,0.0887177221627359,0.0595761646265313,0.0568110713939117,0.800961163365346,-0.0733263621020042,0.1849456015263004,-1.791884647375421,1.810128107351457,0.0665046129002017,0.9230213315396252,-0.1020760979570949,0.3816241856646151,-0.1923365893062915,0.156873746034547,-0.2898866732074657,9.781565909131132,-0.9684118541125702,0.37536900199401,-0.7143063576044244
1.5,0.1862693886158093,-1.762921585345275,1.807957826547156,0.0186718408158963,0.0932782833877162,0.0600840901678729,0.0543465906864391,0.8034292260157493,-0.0803761185177073,0.1864589575816174,-1.77462422076251,1.808414721411724,0.0603958196564359,0.9630213321356716,-0.1130139652707184,0.3932685593985592,-0.1232240353736282,0.1234031325201667,-0.3524878207851543,9.721132877827586,-0.9636956610170564,0.3727192696936753,-0.7225893074326777
1.52,0.1873439101094983,-1.7468352227680333,1.806269352773625,0.0200774572296847,0.097290859010598,0.0605008906507941,0.0532466315505456,0.8053275899106086,-0.0881315635248678,0.1876668739747461,-1.7553637941197966,1.8061544421063096,0.0542870264126701,1.003021332731718,-0.1239518325843418,0.4029907655177472,-0.0549979567946778,0.0949181947429655,-0.3877722503580253,9.676589573708952,-0.9588774477353832,0.3706478105937721,-0.730539460800842
1.54,0.1884075629145832,-1.7307161098647743,1.8044202819319048,0.0201260422146142,0.1005474928799108,0.0608043185354631,0.0531556035444727,0.8067029816442419,-0.0964020457420418,0.1888747903678748,-1.7361033674770832,1.8038941628008955,0.0481782331689042,1.0430213333277647,-0.1348896998979652,0.4192280543553439,-0.0045514003036425,0.0687695866816662,-0.413524110858697,9.63367550377916,-0.9544748096677363,0.3693976813874405,-0.7373701864018171
1.56,0.1894225407955389,-1.7153701458887425,1.802508692714528,0.0189844856071319,0.102864770014252,0.0609881745054764,0.053654573966742,0.8086709428864808,-0.1044163936043968,0.1899299869299094,-1.7158429408194684,1.8013604368126404,0.0420694399251384,1.083021333923811,-0.1458275672115886,0.4133751764199455,0.0249485211134624,0.0983980621119429,-0.4007173931177513,9.63261294430322,-0.9504821497575304,0.3689654664277637,-0.743204683044254
1.58,0.190504371382414,-1.6991683232837085,1.8003313070318885,0.0168182236169497,0.1045075690091265,0.0610928654464324,0.0544761767316608,0.8114923126430515,-0.112909427568362,0.1908324636608498,-1.6945825141469528,1.7985532641415447,0.0359606466813726,1.1230213345198574,-0.156765434525212,0.4493517116905247,0.041080138245941,0.1410684878285384,-0.4246516981982626,9.63261294430322,-0.9471597119116396,0.3693021896034653,-0.7477128889450855
1.6,0.1916039741224434,-1.6828915544676293,1.7979859288547138,0.0142126602874584,0.1053952505055738,0.0611491395698255,0.0553775929577656,0.816127752131835,-0.1212134351238477,0.193228180218997,-1.658593707651556,1.79468583565347,0.0370609307367353,0.9114923141331676,-0.1266226858869651,0.4776410575642031,0.0450708113052387,0.231771974439171,-0.4152003777742816,9.635689851210373,-0.9448423225086132,0.3701307325963077,-0.7505958907245952
1.62,0.1926778325203198,-1.6672749292838571,1.7957079528072928,0.0137619069197133,0.1054345138033377,0.0613279680162486,0.0575472500174331,0.8265813457959549,-0.1181667352494483,0.193228180218997,-1.658593707651556,1.79468583565347,0.0370609307367353,0.9114923141331676,-0.1266226858869651,0.5551292920927475,0.1084828529833763,0.5226796832059954,0.1523349937199672,10.31714530182944,-0.9470456193967248,0.3705562830287138,-0.7485925333047018
1.64,0.1938509462184152,-1.650660435746412,1.7933719124799268,0.0158331305443203,0.1045963486581286,0.0616723070555699,0.0595751629956922,0.8341801152835486,-0.1156882094673686,0.193228180218997,-1.658593707651556,1.79468583565347,0.0370609307367353,0.9114923141331676,-0.1266226858869651,0.4123009180968792,0.1013956489129573,0.3799384743796874,0.1239262891039885,10.31714530182944,-0.9485458165865708,0.3709187874184298,-0.7454956673003025
1.66,0.1950594440086515,-1.6339199956848574,1.791066260500117,0.0190280741720283,0.1029968839023818,0.0620675799836125,0.0611105327499617,0.8391804320815498,-0.1150787506731015,0.1935987895263644,-1.6494787845102243,1.7934196087946004,0.0335778815377502,0.9314923144311908,-0.1293653375506857,0.2633057556558886,0.0767684877134706,0.2500158399000585,0.0304729397133517,10.22845616768609,-0.9499487848801924,0.3700766273660222,-0.74328698100615
1.68,0.1962923432071476,-1.6171101016890026,1.7887523439227042,0.0219470831240072,0.1007501662042441,0.0624125562231893,0.062003278849577,0.8417377598733013,-0.1163240763777,0.1943400081410991,-1.631248938227561,1.7908871550768612,0.02661178313978,0.9714923150272372,-0.1348506408781269,0.1490617082232798,0.0446373049807675,0.1278663895875775,-0.062266285229922,10.117584067764255,-0.9512993163461464,0.3688991360795561,-0.7416631120185789
1.7,0.1974719547524328,-1.601104885855505,1.7865179739761532,0.0239085660337586,0.0981625366435012,0.0626572249318907,0.0620264579915212,0.8431457432155619,-0.1187977314929059,0.1950812267558338,-1.6130190919448977,1.788354701359122,0.0196456847418098,1.0114923156232838,-0.1403359442055681,0.1423193942659334,0.0011589570972074,0.0703991671130277,-0.1236827557602959,10.02001924267188,-0.9528332790128936,0.3678433577289907,-0.7399347365382624
1.72,0.1987038636131234,-1.5842357963983424,1.7841056313873762,0.0248801732269693,0.0951720280319962,0.062818415026532,0.0610494391649274,0.8437995154390342,-0.1223416992792762,0.19547414045067,-1.592789245632432,1.7855479824750105,0.0126795863438396,1.05149231621933,-0.1458212475330093,0.1866928733142535,-0.048850941329686,0.0326886111736146,-0.1771983893185141,9.944986026429431,-0.954517168984102,0.3673668624795085,-0.7378266847836851
1.74,0.1999047397675717,-1.567361631250334,1.7816190571094317,0.0243442668287077,0.0921904454650124,0.0628670604210337,0.0589749133903148,0.8437325413925527,-0.1261359832837297,0.1958670541455062,-1.5725593993199662,1.7827412635908992,0.0057134879458694,1.0914923168153767,-0.1513065508604506,0.2162448486027237,-0.1037262887306291,-0.0033487023240741,-0.1897142002226765,9.891505317532392,-0.9559110136964925,0.3674673168113632,-0.736044960393422
1.76,0.2010507484254614,-1.550482085042407,1.7790577799659717,0.0222935109733554,0.0895919694232546,0.0628195310183768,0.0556503312053223,0.8443549617068763,-0.1297955530053908,0.1960858153803931,-1.5513295529925994,1.7797974121236018,-0.0012526104521007,1.131492317411423,-0.1567918541878918,0.2491621174062759,-0.1662291092496288,0.0311210157161789,-0.182978486083056,9.883061723872745,-0.9569364765556396,0.3682784369584631,-0.7345421842901811
1.78,0.2020665183269942,-1.5344201078666222,1.7765596795376812,0.0194385842877384,0.0878477983811523,0.0627317836211566,0.0513836600939068,0.8466173198071331,-0.1329743166179967,0.1961304241553308,-1.5290997066503316,1.7767164280731185,-0.0082187088500709,1.1714923180074694,-0.162277157515333,0.289081669479454,-0.2133335555707719,0.1131179050128383,-0.1589381806302914,9.891629178488074,-0.957624405525666,0.369628809808704,-0.7334034743280295
1.8,0.2030421158068726,-1.5174450340727177,1.7738676479732554,0.0164247052702444,0.0870211582419396,0.0626624223250945,0.0465037179193843,0.8507914150045267,-0.1360488757505454,0.2046357013316895,-1.4920892418762657,1.7699109637067814,0.0118907847563061,0.9466173212972492,-0.1297793579479318,0.3559839188893491,-0.243997108726128,0.2087047598696823,-0.1537279566274363,9.908787669678532,-0.9584618033685052,0.3712577437805274,-0.7320311076685591
1.82,0.2039553550541445,-1.5003165643932863,1.7712013559193145,0.0156853123965552,0.0861037728398791,0.0627502710597147,0.0451456938332231,0.861207680593404,-0.1299808189377935,0.2046357013316895,-1.4920892418762657,1.7699109637067814,0.0118907847563061,0.9466173212972492,-0.1297793579479318,0.6065561221342349,-0.0679012043080573,0.5208132794438658,0.3034028406375955,9.920792383526532,-0.963612429056928,0.3718404627625923,-0.7267032567760188
1.84,0.2048456483234359,-1.4830136651676644,1.7686662260296284,0.0177620531207193,0.0839195177520957,0.0630043671146046,0.0438201335467229,0.8683871790227071,-0.1238685723033275,0.2046357013316895,-1.4920892418762657,1.7699109637067814,0.0118907847563061,0.9466173212972492,-0.1297793579479318,0.4760826259433682,-0.0662780143250132,0.358974921465155,0.3056123317232997,10.470693363786268,-0.9669471930591004,0.3726174418108333,-0.7209261037319555
1.86,0.2056595567175785,-1.46646954872351,1.7663570664140291,0.0208198206072677,0.0807657727365284,0.0632841693256024,0.0418158883213779,0.8725031449666195,-0.1194930191875861,0.2047546091792526,-1.482623068663293,1.768613170127302,0.003992209688786,0.9666173215952724,-0.1291403662139189,0.3166371726575956,-0.1002122612672462,0.2057982971956196,0.2187776557870675,10.406426714552254,-0.9706927041471064,0.3724348016633809,-0.7150300379377723
1.88,0.2064638021654409,-1.4490007614740346,1.7640030332678416,0.0237409886826201,0.0765014069845232,0.0635144287918486,0.0385461442580797,0.8742798722437006,-0.1161863459231185,0.2049924248743787,-1.463690722237348,1.7660175829683435,-0.0118049404462542,1.0066173221913188,-0.127862382745893,0.2489079856821736,-0.1634872031649105,0.0888363638540556,0.1653336632233805,10.312260038553177,-0.9750311860963912,0.3719722259050388,-0.7088118074823463
1.9,0.2071855014882992,-1.4315099815661805,1.7617027842186457,0.0257046665193573,0.0715983630086927,0.0636406382529443,0.0335950616549098,0.874895193770696,-0.1140373568072339,0.2052302405695048,-1.444758375811403,1.7634219958093849,-0.0276020905812945,1.0466173227873652,-0.126584399277867,0.2716155083255842,-0.2475541301584949,0.0307660763497696,0.1074494557942319,10.231179583578523,-0.9793090818405484,0.3716284601909758,-0.7027717831673205
1.92,0.2077869772074096,-1.414017948342022,1.759435714000008,0.0263633128376082,0.0665772500904799,0.0636579851248678,0.0266315715615523,0.8745160894368619,-0.1127583129748223,0.204678198757879,-1.4238260293556555,1.7608903078238276,-0.0433992407163348,1.0866173233834115,-0.1253064158098411,0.354506232319867,-0.3481745046678785,-0.0189552166917073,0.0639521916205802,10.164432313898033,-0.9830837951144232,0.3716899946203266,-0.6973322038851812
1.94,0.2082096154419273,-1.397414950421093,1.7573043858312971,0.025431401685623,0.0622818556465874,0.0635744865960856,0.0180760551443882,0.8734297578703669,-0.1116440638376549,0.204126156946253,-1.4028936828999086,1.75835861983827,-0.0591963908513751,1.126617323979458,-0.1240284323418152,0.4347945738403507,-0.4277758208582013,-0.0543165783247479,0.05571245685837,10.120654210119936,-0.9864990969651212,0.3722819345919294,-0.6923695400801481
1.96,0.2084258924632192,-1.3834441664743016,1.7555272115652265,0.0234575376853188,0.0594947873580038,0.0634465235566922,0.0093121558356091,0.8730468587997802,-0.1105502955965595,0.2031791863812511,-1.38096133642926,1.7558588814394134,-0.0749935409864153,1.1666173245755045,-0.1227504488737893,0.4420092526121617,-0.4381949654389577,-0.0191449535293375,0.0546884120547666,10.120654210119936,-0.9885540032936572,0.3732133982425996,-0.6893006829371138
1.98,0.2084817791936804,-1.365971723908077,1.7533341665693298,0.0199903482820912,0.0577701446688709,0.0632662647360503,-0.0031563352911778,0.8745795163640293,-0.1088102364567259,0.2018372870628733,-1.3580289899437104,1.7533910926272571,-0.0907906911214556,1.2066173251715508,-0.1214724654057633,0.6341137831614588,-0.6234245563393502,0.076632878212457,0.087002956991683,10.138007937552176,-0.9906770433226648,0.3747817118961064,-0.6862929768029015
2.0,0.20830260438191,-1.3493202315265012,1.7512878252298445,0.0166895757192185,0.0580354902770395,0.0631375189882508,-0.0148510860477913,0.8781179639662698,-0.1066693294823771,0.2083239624291215,-1.3222427480898755,1.7478936547464936,-0.0306895144402095,0.9745795178541454,-0.1101970797292107,0.6202243331366653,-0.5847375378306742,0.1769223801120267,0.1070453487174362,10.17735785784498,-0.99238201904975,0.3768697648356101,-0.6836384610665176
2.02,0.2078422906605369,-1.3316394961270075,1.7491828162829808,0.0159308495841872,0.0610257681987871,0.0632336829523887,-0.0301517508800035,0.8890004253601481,-0.1039176853786369,0.2083239624291215,-1.3222427480898755,1.7478936547464936,-0.0306895144402095,0.9745795178541454,-0.1101970797292107,0.94882803443326,-0.765033241610608,0.5441230696939137,0.1375822051870125,10.17735785784498,-0.991706627426602,0.3778117644855124,-0.684402421271332
2.04,0.2071079815235013,-1.3137828733105423,1.7471318585194215,0.0184631459288131,0.0669948041321643,0.063608074009524,-0.042066052681821,0.8959247182207424,-0.1013199710839564,0.2083239624291215,-1.3222427480898755,1.7478936547464936,-0.0306895144402095,0.9745795178541454,-0.1101970797292107,0.7011500171162659,-0.5957150900908753,0.346214643029713,0.1298857147340251,10.224939354632625,-0.9900010674717992,0.3766966469033413,-0.688331772994278
2.06,0.2061744832426473,-1.2958251632165558,1.7451229535450743,0.0220803595790776,0.0744520068495599,0.0640996000967773,-0.0503561601903816,0.8993638215999717,-0.0997078522145113,0.2080170672847194,-1.3124969529113342,1.7467916839492017,-0.0361961502700158,0.9945795181521686,-0.1104744483837077,0.4559392552899498,-0.4145053754280328,0.1719551689614684,0.0806059434722554,10.190073979770204,-0.986645465816896,0.3747260175528907,-0.6949119905729173
2.08,0.2051666831026596,-1.2787263635615826,1.7432344812687182,0.025075880878536,0.0818511541090229,0.0645597599639201,-0.0551503620205511,0.9005718522892352,-0.0991706230995182,0.2074032769959153,-1.2930053625542512,1.7445877423546172,-0.0472094219296285,1.0345795187482152,-0.1110291856927016,0.2486580204648499,-0.2397100915084746,0.0604015344631725,0.0268614557496535,10.124213867951768,-0.9819346152316744,0.3725214969690928,-0.7033815134413106
2.1,0.2040357344286339,-1.26071160295817,1.7412496059874054,0.0272437025407774,0.0891492478493736,0.0649755798909603,-0.0575479808134268,0.9010649153226078,-0.0993905724258756,0.2067894867071111,-1.2735137721971683,1.742383800760033,-0.0582226935892411,1.0745795193442615,-0.1115839230016955,0.1228827158004141,-0.1198809396437822,0.0246531516686299,-0.0109974663178719,10.067794700396917,-0.9768730358567316,0.3707581058582727,-0.7118061595202394
2.12,0.2028806944400236,-1.24269239946386,1.7392539431098792,0.0281940153102913,0.0953712991667311,0.0652812510456433,-0.0577695094649888,0.9009631740035264,-0.1001984763423543,0.2056250328353262,-1.252022181810283,1.740152122299999,-0.0692359652488538,1.114579519940308,-0.1121386603106895,0.0421940451288106,-0.0110764325781026,-0.005087065954068,-0.040395195823932,10.030850806049784,-0.9723391002815166,0.3697963528886577,-0.7187492206325352
2.14,0.2017397939332847,-1.224682376367609,1.7372389581980998,0.0275326628791832,0.1001446313253461,0.065429546634127,-0.056382043549214,0.9003002073703115,-0.1012704541643635,0.2044605789635414,-1.230530591423398,1.7379204438399651,-0.0802492369084664,1.1545795205363545,-0.1126933976196834,0.0937246349029017,0.0693732957887414,-0.0331483316607483,-0.0535988911004606,10.010289599024873,-0.9681854424151553,0.3697746641345725,-0.7244566554945426
2.16,0.20068975474161,-1.2075753115616088,1.735306134789942,0.0254872852182338,0.103258538868997,0.0654242682186823,-0.0543085035915699,0.9005838893520866,-0.1021378211126169,0.2030207933002663,-1.2080390010216115,1.7356748969472062,-0.0912625085680791,1.1945795211324008,-0.1132481349286774,0.1132736602839882,0.103676997882204,0.0141840990887542,-0.0433683474126721,10.00825085865381,-0.9651252496224996,0.3709006119616517,-0.727935010549248
2.18,0.1996292529780414,-1.1895435965413077,1.7332573588447149,0.0224151126767049,0.105139748794413,0.0653112847070518,-0.051938163100725,0.9028645375635148,-0.1026736026451727,0.2013056758455008,-1.184547410604924,1.7334154816217229,-0.1022757802276917,1.2345795217284472,-0.1138028722376713,0.1666353215667256,0.1185170245422483,0.1140324105714185,-0.0267890766277895,10.0235558920549,-0.9634157920975226,0.3729149111116016,-0.7290524608800913
2.2,0.1986154996542484,-1.1714419409395225,1.731203721911997,0.0194457758107888,0.1057506902156018,0.065172941318859,-0.0496807365442662,0.9071130883096226,-0.1026679350035892,0.1970323448230052,-1.1444003696631315,1.728123678712456,-0.0640455372473057,1.002864539053631,-0.0986817342982432,0.2405524382656405,0.1128713278229356,0.2124275373053818,0.0002833820791789,10.047206950141115,-0.9630896976921174,0.375203043678416,-0.7280120732970945
2.22,0.1976614606609276,-1.1540946654672606,1.7292869802886304,0.0191990424198683,0.1062734327947994,0.0652167945973224,-0.0506181948429625,0.9176361328135528,-0.0991141777217189,0.1970323448230052,-1.1444003696631315,1.728123678712456,-0.0640455372473057,1.002864539053631,-0.0986817342982432,0.5573205641996741,-0.0468729149348146,0.5261522251965134,0.1776878640935113,10.297727748537,-0.963467448342192,0.3767053187812702,-0.7260407617731153
2.24,0.196648486332567,-1.1356649237188008,1.7273425883594495,0.0220070330297033,0.1075087836006014,0.0654841786071717,-0.0505182089754643,0.924536226182425,-0.0955362864200229,0.1970323448230052,-1.1444003696631315,1.728123678712456,-0.0640455372473057,1.002864539053631,-0.0986817342982432,0.3886598507680121,0.0049992933749118,0.3450046684436103,0.1788945650847993,10.297727748537,-0.9639843332370772,0.3760978753373755,-0.7253183504557963
2.26,0.1956486201593118,-1.1171378091677764,1.7254597976507249,0.0258227195587956,0.1090061830838302,0.0658216495891221,-0.0494094264939436,0.9276779109217346,-0.0929708767673833,0.1963918894505321,-1.1343717242725957,1.7271368613694738,-0.0664670120766218,1.0228645393516542,-0.0978833606288573,0.2102433606466226,0.0554391240760347,0.1570842369654768,0.1282704826319827,10.270508684892777,-0.9640422095959992,0.3747678001780448,-0.725540097784932
2.28,0.1946798815894877,-1.0985759981039869,1.7236163787836,0.0290841134629779,0.1104369534192467,0.0661132045037786,-0.0475212372250356,0.9285877320198488,-0.091493159339665,0.195110978705586,-1.1143144334915227,1.7251632266835089,-0.0713099617352541,1.0628645399477008,-0.0962866132900855,0.1282252114638092,0.0944094634454002,0.0454910549057108,0.073885871385914,10.209518896716872,-0.9635254586864764,0.3733623100150919,-0.7266999999583722
2.3000000000000003,0.1938001258794046,-1.0809352625313102,1.721885435973754,0.0312202668440194,0.1115305401543141,0.0663098490172343,-0.0452128169302389,0.9285840104734586,-0.0907785322650751,0.1938300679606399,-1.0942571427104502,1.723189591997544,-0.0761529113938864,1.1028645405437472,-0.0946898659513136,0.120825390161524,0.1154210147398363,-0.0001860773195083,0.0357313537294928,10.154362082947046,-0.9628013490815142,0.3722420563826998,-0.7280235287329616
2.32,0.1929249556244165,-1.0623716750419645,1.7200741654551803,0.0322987937023987,0.112280248543006,0.0664166258748444,-0.0424512387328453,0.9279024700625098,-0.0903982360116065,0.1923070097327621,-1.0721998518995752,1.7212957946785177,-0.0809958610525186,1.1428645411397935,-0.0930931186125418,0.1434872530268621,0.1380789098696769,-0.0340770205474405,0.0190148126734318,10.11726885176995,-0.9621152457387112,0.3717525859283089,-0.7289601286928117
2.34,0.1921075567689937,-1.043828777125723,1.7182699633218723,0.0318205056555974,0.1125603871803051,0.0663944549295768,-0.0394713828889743,0.9265809033677426,-0.0900322995552863,0.1907839515048844,-1.0501425610887003,1.7194019973594914,-0.0858388107111509,1.18286454173584,-0.09149637127377,0.1640121098351784,0.1489927921935526,-0.066078334738362,0.01829682281601,10.099595112164934,-0.961642605054242,0.3721271217638978,-0.7292194277936835
2.36,0.1913499184308241,-1.0253046654232751,1.7164766979747987,0.0297815200055116,0.1123584631064581,0.0662458146815583,-0.0365180188337353,0.9260347191727658,-0.089305279620618,0.1891398195355409,-1.027085270262924,1.7175481187239343,-0.0906817603697832,1.2228645423318865,-0.0898996239349982,0.1545091777454116,0.14766820276195,-0.0273092097488381,0.0363509967334155,10.103514286711288,-0.9616544762245508,0.3734520909390391,-0.7283870771368486
2.38,0.1906827907723347,-1.0077011873354742,1.7147920059638282,0.0269008006869078,0.1117653702756355,0.0660282969219704,-0.033935105998421,0.927270092058244,-0.0880553902794734,0.1873746138247315,-1.0030279794222468,1.7157341587718469,-0.0955247100284155,1.2628645429279328,-0.0883028765962264,0.1562034590375079,0.1291456417657134,0.0617686442739129,0.0624944670572301,10.122630241400657,-0.9623257691955568,0.3756619075783875,-0.7262289124274937
2.4,0.1900293467907327,-0.9891232797454036,1.7130502406888175,0.023854778158001,0.1107956261158976,0.0657932943709984,-0.0316046814925425,0.9304657395256116,-0.0861578642993375,0.1889860354724136,-0.961337682732562,1.7103892364498543,-0.0636761697124484,1.0272700935483603,-0.0806383149434939,0.2193379011854943,0.1165212252939251,0.1597823733683834,0.0948762990067936,10.151082443772792,-0.9636959470005064,0.3783062930621567,-0.7227466087526395
2.42,0.1894393768765549,-0.9704037180212092,1.7113645713486636,0.023334884191175,0.1087684441688065,0.0657120645333134,-0.0275517794806693,0.9402440568959352,-0.0825207950038594,0.1889860354724136,-0.961337682732562,1.7103892364498543,-0.0636761697124484,1.0272700935483603,-0.0806383149434939,0.5596199120222735,0.2026451005936607,0.4889158685161765,0.1818534647739081,10.180015601054038,-0.96910891700442,0.3804207208325105,-0.7147611117045488
2.44,0.1889547937157432,-0.9524789750945208,1.7098304253152905,0.0253835580448037,0.1050703179486904,0.0657615363216386,-0.0237991796962027,0.9459780001801674,-0.0791328553049622,0.1889860354724136,-0.961337682732562,1.7103892364498543,-0.0636761697124484,1.0272700935483603,-0.0806383149434939,0.3822245613920325,0.1876299892233278,0.2866971642116078,0.1693969849448563,10.262669648939664,-0.973110956060922,0.3806276798606397,-0.7085263527537942
2.46,0.1885089870050679,-0.9335230468079908,1.708279370860658,0.0285576974903694,0.0993893932536988,0.0658160488000653,-0.0213425360815023,0.949063816874134,-0.0761291630667208,0.1883492737752891,-0.9510649817970784,1.7095828533004196,-0.0696243824552539,1.0472700938463837,-0.079154899876298,0.2478887330057676,0.1228321807350201,0.1542908346983229,0.1501846119120693,10.2476351740861,-0.9772520954993468,0.3802233643746479,-0.7019825650813498
2.48,0.1881034424611828,-0.9154862126282968,1.706855105933061,0.0312355158419522,0.0930448170226359,0.0657900282676431,-0.0217092121954239,0.9495871993877196,-0.0739202509276756,0.1870757503810402,-0.9305195799261112,1.7079700870015495,-0.0815208079408649,1.08727009444243,-0.0761880697419063,0.1149747088066512,-0.01833380569608,0.0261691256792928,0.1104456069522641,10.16353079921646,-0.9822545454303484,0.379543303032813,-0.6946195629589272
2.5,0.1876413722756559,-0.8965027225861164,1.7053966428210092,0.0331040687636904,0.0862537475504464,0.0656688422292357,-0.0246948847277775,0.9489140923946696,-0.0720458778288293,0.1858022269867912,-0.909974178055144,1.70635732070268,-0.0934172334264758,1.1272700950384764,-0.0732212396075145,0.1794476804546544,-0.1492836266176798,-0.0336553496525116,0.0937186549423117,10.16353079921646,-0.9874077136112456,0.379018171073155,-0.6872697473980104
2.52,0.1870943973283088,-0.8775425464854765,1.703972236170523,0.0336739446319675,0.0800157873939836,0.0654615823040577,-0.0300101944992432,0.9472707950543414,-0.0704871212895206,0.1839338823182617,-0.8874287761543744,1.7048928959105296,-0.1053136589120868,1.1672700956345228,-0.0702544094731227,0.2888886726067899,-0.2657654885732826,-0.0821648670164043,0.0779378269654344,10.134003499502796,-0.9921595813256224,0.3789878462127294,-0.6803641797122751
2.54,0.1864174489946805,-0.858625100758385,1.7025783545637874,0.0324883732489885,0.0749529801790958,0.0651712834231609,-0.0375414126251994,0.944839846852798,-0.0689603543936632,0.1820655376497322,-0.864883374253605,1.7034284711183794,-0.1172100843976978,1.2072700962305694,-0.0672875793387309,0.4029881287755403,-0.3765609062978084,-0.1215474100771774,0.07633834479287,10.116445886516884,-0.9956173851683372,0.3795915283055818,-0.6750266004650285
2.56,0.1856135104769812,-0.8406890325225969,1.7012853640057262,0.0298135551872628,0.0718935134085436,0.0648544076355361,-0.0467745482814542,0.9435785833615664,-0.0672070034789993,0.1798997823440624,-0.8413379723379343,1.702038217079589,-0.1291065098833087,1.2472700968266155,-0.0643207492043391,0.4741197609019024,-0.4616567828127412,-0.0630631745615784,0.0876675457331985,10.142551243340677,-0.9980197666276912,0.3808492251747979,-0.6711130941926899
2.58,0.1845646971043925,-0.8218078698233198,1.6999657176142438,0.0263165875931722,0.0710933518318466,0.0645566444092154,-0.0573735461215491,0.9447791243044034,-0.0648104209535605,0.1774366164012523,-0.8167925704073624,1.700722133794158,-0.1410029353689197,1.287270097422662,-0.0613539190699473,0.5466343878018528,-0.5299498920047444,0.0600270471418529,0.1198291262719371,10.142551243340677,-1.000367739790281,0.3827064114720851,-0.6676322825807972
2.6,0.1833140721562659,-0.8028815604716861,1.698700789051267,0.0230649505992134,0.0723968854052694,0.0643360484268198,-0.0669026736524672,0.9477432612789736,-0.0617950239270373,0.181696019798315,-0.7745689136080995,1.6967251965665655,-0.088513694761228,1.0068186970499649,-0.0649844806753182,0.5212556923719887,-0.4764563765459049,0.1482068487285104,0.1507698513261605,10.187835268200615,-1.0015099358910766,0.3845826887802488,-0.6657960381233631
2.62,0.1819382649739683,-0.7846446913057726,1.697543903731807,0.0266666751739569,0.0752515515489339,0.064631012652073,-0.0769141105787872,0.9681576254446926,-0.0601997002335199,0.181696019798315,-0.7745689136080995,1.6967251965665655,-0.088513694761228,1.0068186970499649,-0.0649844806753182,1.1396492786241044,-0.5005718463160003,1.0207182082859534,0.0797661846758703,10.087463531577669,-1.0027084013056546,0.384093227924027,-0.6647799076747816
2.64,0.180317913124727,-0.7652018312936845,1.6963498152529668,0.0371185651776968,0.079490824597059,0.0654554975325162,-0.0843064600783393,0.9740551851102208,-0.059327813129059,0.181696019798315,-0.7745689136080995,1.6967251965665655,-0.088513694761228,1.0068186970499649,-0.0649844806753182,0.474837414950945,-0.369617474977605,0.2948779832764092,0.0435943552230467,10.087463531577669,-1.001504486567175,0.3788289274535344,-0.6698881650287675
