t,x,y,z,roll,pitch,yaw,v_x,v_y,v_z,ref_x,ref_y,ref_z,ref_v_x,ref_v_y,ref_v_z,a_com,a_x,a_y,a_z,thrust,wind_x,wind_y,wind_z
0.0,2.0470827869975907,-0.2769346451993158,2.855915276436655,0.0329896770931419,0.1000067968111695,0.043400941932295,0.0045234025031426,0.0042818619896759,0.0167018533340433,2.0472159395853344,-0.2767343222186657,2.8564236898504904,-0.095540094031983,0.1060561018116282,-0.0831162770934653,0.8912735510155737,0.2261701251571319,0.2140930994837987,0.8350926667021679,10.23621711746273,-0.9446107602310292,0.2567458580738686,-0.8695887222008462
0.02,2.0473367111516185,-0.2771673029379266,2.855991198318845,0.0239593319751614,0.0944484022130711,0.0426029494633299,0.0192224511704954,-0.0208373060948612,-0.0087919407653002,2.0472159395853344,-0.2767343222186657,2.8564236898504904,-0.095540094031983,0.1060561018116282,-0.0831162770934653,1.9345336483014228,0.73495243336764,-1.2559584042268608,-1.2746897049671793,10.23621711746273,-0.9453124234972898,0.2574290947719269,-0.8741753717298868
0.04,2.047792112604323,-0.2775878687889173,2.855537476602981,0.0079619377976415,0.0803517928203341,0.0413029057894989,0.0266894499016467,-0.0216121449788181,-0.0375839772910753,2.0472159395853344,-0.2767343222186657,2.8564236898504904,-0.095540094031983,0.1060561018116282,-0.0831162770934653,1.4877313371780816,0.3733499365575654,-0.0387419441978474,-1.439601826288754,8.592723691149786,-0.9470509710846436,0.2690638357572605,-0.8693731467341723
0.06,2.048316958624657,-0.2779621931606151,2.854467662033382,-0.0094124162667361,0.0599058522576516,0.0402155190289917,0.0244109454881495,-0.0154191528113289,-0.0678731585419343,2.0462605386450146,-0.2756737612005494,2.855592527079556,-0.1155400943300062,0.1260561021096514,-0.1031162773914885,1.5499832541001062,-0.1139252206748592,0.3096496083744629,-1.5144590625429533,8.592723691149786,-0.9544526294523376,0.2793731968539673,-0.8613212164673761
0.08,2.048694598052089,-0.2781747949591386,2.8528013664738445,-0.0261126437996411,0.0375732120475002,0.0396297783620602,0.0128566402016893,-0.005837463622726,-0.0972798949240267,2.044349736764375,-0.2735526391643169,2.8539302015376866,-0.1555400949260527,0.1660561027056979,-0.1431162779875349,1.6508080468406898,-0.5777152643230099,0.4790844594301453,-1.4703368191046209,8.58072101777634,-0.9663274465894702,0.2883887690696524,-0.8500567346735886
0.1,2.0487564256691706,-0.2781671961771976,2.850553313341459,-0.0419909080784539,0.0161788317647112,0.0395051139309152,-0.0064101336346627,0.0064216470933161,-0.1261131210593817,2.042438934883735,-0.2714315171280843,2.852267875995817,-0.1955400955220992,0.2060561033017443,-0.1831162785835814,1.8390549876103723,-0.9633386918176052,0.6129555358021086,-1.4416613067677448,8.639363812698775,-0.9794937230450832,0.2963055984988089,-0.8374491529147384
0.12,2.0483989351461567,-0.2779090580499781,2.847888487855714,-0.0563415438613382,-0.0016036355207344,0.0396822958353014,-0.0303169095204864,0.0203950789294931,-0.153004854587762,2.038528132973293,-0.2673103950620494,2.848605550424145,-0.2355400961181456,0.2460561038977907,-0.2231162791796278,1.929997449931414,-1.195338794291186,0.698671591808848,-1.3445866764190195,8.7018260976879,-0.9925551199234144,0.3033361130218433,-0.826274272398443
0.14,2.047490548601956,-0.2773262716494705,2.8445255049666605,-0.070718803978238,-0.0167740237721293,0.0400205541558983,-0.0593423533780394,0.0374298220167684,-0.181940623279082,2.0346173310628517,-0.2631892729960146,2.8449432248524738,-0.2755400967141921,0.2860561044938373,-0.2631162797756743,2.21919893933318,-1.4512721928776486,0.8517371543637656,-1.4467884345659958,8.779511555080717,-1.0033897249277288,0.3094304096868859,-0.818550795327436
0.16,2.0459652356746143,-0.2763757331906031,2.840579842620029,-0.0842942355781645,-0.0278153444760128,0.0403559815779538,-0.0917037820660986,0.0569929007998182,-0.2112037955953092,2.029706529137508,-0.2580681509150785,2.840280899265901,-0.3155400973102385,0.3260561050898837,-0.3031162803717208,2.390768376596406,-1.61807143440296,0.9781539391524926,-1.4631586158113634,8.779511555080717,-1.0107887318248436,0.3147210362556893,-0.8150145297174511
0.18,2.043759782223516,-0.2749838816267656,2.836045304393558,-0.096172357794969,-0.0340771760022705,0.040556760668952,-0.1270962638392009,0.0808007020908052,-0.2407912337743723,2.0237957271972635,-0.2519470288192413,2.834618573664427,-0.3555400979062849,0.3660561056859301,-0.3431162809677672,2.5955999626148,-1.769624088655114,1.1903900645493504,-1.4793719089531543,8.813400896274288,-1.0146944782919411,0.3196630464695808,-0.8158278948432919
0.2,2.0409941453963523,-0.2731973865736647,2.831189329248558,-0.1052903174647589,-0.035041369355402,0.0404806377794623,-0.1616049661362492,0.1056023585277787,-0.2687808736911348,2.037404969031556,-0.2709438465222253,2.824005742704839,-0.227096265329317,0.1808007035809214,-0.3407912352644885,2.5443037549170477,-1.725435114852414,1.2400828218486752,-1.3994819958381213,8.859472343097423,-1.0164382679561796,0.3232318357523401,-0.8190444584891686
0.22,2.03734181342396,-0.2706407664125119,2.8256477165369507,-0.1081768097417804,-0.0302005097254514,0.0402580443643735,-0.2006823555032108,0.1457653330187363,-0.2834663365310146,2.037404969031556,-0.2709438465222253,2.824005742704839,-0.227096265329317,0.1808007035809214,-0.3407912352644885,2.896450283761108,-1.9538694683480808,2.008148724547876,-0.7342731419939907,9.836075677366807,-1.0194788324662598,0.3237315112793781,-0.8167925563919817
0.24,2.033201463710084,-0.2675543967498864,2.820123776255216,-0.104892790258342,-0.0208041346354305,0.0399582678231927,-0.2324961026333344,0.1761416077207273,-0.2971081034302956,2.037404969031556,-0.2709438465222253,2.824005742704839,-0.227096265329317,0.1808007035809214,-0.3407912352644885,2.302677992775252,-1.590687356506179,1.5188137350995514,-0.6820883449640491,9.836075677366807,-1.0163475619897056,0.3199302995742846,-0.8238578100465572
0.26,2.028250136902243,-0.2637550789859413,2.814013743262924,-0.0991837154353763,-0.0081450079582527,0.0395597803108899,-0.2603718794888394,0.2018094813924212,-0.313226116365361,2.0351340063782626,-0.2691358394864162,2.8205978303521944,-0.2470962656273402,0.2008007038789446,-0.3607912355625117,2.058937235018884,-1.3937888427752496,1.2833936835846964,-0.8059006467532714,9.675802403634409,-1.009361694426903,0.3146337231171713,-0.8359116408867101
0.28,2.0227964724407497,-0.2594811654844729,2.80755703824414,-0.0932650770685181,0.0056238045772662,0.0391397998551835,-0.2831463943474254,0.2242037030457007,-0.3317356978420218,2.0305920810716764,-0.2655198254147977,2.8137820056469045,-0.2870962662233867,0.240800704474991,-0.4007912361585581,1.845795422671016,-1.1387257429293,1.1197110826639725,-0.925479073833041,9.485763239806149,-1.000422282578879,0.3097473275578257,-0.8494929677965639
0.3,2.016936284072972,-0.2547819140212433,2.8007017085059958,-0.0878980769500978,0.0191951972951508,0.0387735383808838,-0.3014480214360545,0.244674678852888,-0.3528765575309847,2.02605015576509,-0.2619038113431793,2.8069661809416147,-0.3270962668194331,0.2808007050710375,-0.4407912367546046,1.7327336444027568,-0.9150813544314546,1.0235487903593643,-1.0570429844481422,9.3178252374546,-0.9897569807594726,0.3052155699020892,-0.8644441548140394
0.32,2.0110663302828558,-0.2499507973412965,2.7937754580982745,-0.0835172899460376,0.0310827011884286,0.038520752229074,-0.3153868706244288,0.2629549652261852,-0.3751760181724314,2.019508230428701,-0.2562877972417585,2.798150356206522,-0.3670962674154795,0.3208007056670839,-0.480791237350651,1.601348128519712,-0.6969424594187174,0.9140143186648604,-1.1149730320723388,9.170393667727694,-0.9787508503612732,0.3013511370309745,-0.8791095048595091
0.34,2.004631639607208,-0.2444992986643573,2.7860105555114845,-0.0797185380339055,0.0419916262750483,0.0383755068738451,-0.3272087428175406,0.281326253332971,-0.4002460585695796,2.0129663050923123,-0.2506717831403378,2.78933453147143,-0.4070962680115261,0.3608007062631304,-0.5207912379466976,1.6626543645384029,-0.5910936096555908,0.9185644053392894,-1.253502019857408,9.045767066448208,-0.9682027367200218,0.297941033951362,-0.893081940262319
0.36,1.9979806650289311,-0.2386768889874804,2.777729743334868,-0.0764169591337891,0.0510682896850572,0.038371478744727,-0.3372555536022906,0.2999255911266997,-0.4266033921031169,2.0054243797410227,-0.2440557690240158,2.7795187067214373,-0.4470962686075725,0.4008007068591768,-0.5607912385427439,1.689365860543479,-0.5023405392375002,0.9299668896864344,-1.3178666766768654,8.965919201904399,-0.9583609542128008,0.2948444252388587,-0.9060287831742412
0.38,1.9911425007712165,-0.2324850253535254,2.76891142414266,-0.0732337735666871,0.0584718180849767,0.0385075219190551,-0.3460328678447284,0.3182078779995024,-0.4539302040300199,1.996882454374832,-0.2364397548927928,2.768702881956543,-0.4870962692036189,0.4408007074552232,-0.6007912391387904,1.701497802451037,-0.4388657121218886,0.914114343640135,-1.3663405963451505,8.917998257119507,-0.9498591024383096,0.2918644837528312,-0.9173779179260652
0.4,1.9844927468116285,-0.2262690871616259,2.7600195062439723,-0.0702194273593328,0.064138205388718,0.0387493772708089,-0.3534941351233503,0.3350687018259979,-0.4807082721450964,1.97384085737898,-0.2165746314535503,2.746214913941159,-0.4460328693348445,0.4058648080884993,-0.553930205520136,1.6255943693668098,-0.3730633639310948,0.8430411913247782,-1.3389034057538245,8.879325094700107,-0.9418466605834388,0.2886170771483497,-0.928324726371004
0.42,1.9773701736596816,-0.2193478139227087,2.750305268919837,-0.0662774961264276,0.0684688624366609,0.0391804993003891,-0.3583146198413455,0.3557092253621072,-0.4882354026339635,1.97384085737898,-0.2165746314535503,2.746214913941159,-0.4460328693348445,0.4058648080884993,-0.553930205520136,1.1246399181043862,-0.2410242358997588,1.0320261768054615,-0.3763565244433525,8.844098212511199,-0.9428432737123508,0.284586056913571,-0.9293347923169454
0.44,1.9701625167867145,-0.212051083291661,2.74044565001908,-0.0619757136614393,0.0707962798706873,0.0397722819347966,-0.3623482776734497,0.3728776345285812,-0.4976998595667488,1.97384085737898,-0.2165746314535503,2.746214913941159,-0.4460328693348445,0.4058648080884993,-0.553930205520136,1.0007504856937557,-0.2016828916052121,0.8584204583237026,-0.4732228466392679,10.066852763496172,-0.9389858338494652,0.2818244711713314,-0.9335614166680372
0.46,1.9628707754448127,-0.2044262401724489,2.7303437382851614,-0.0580748768063963,0.0712538277233208,0.0404455797239215,-0.3667597472461411,0.3887428950955068,-0.5120032593568886,1.969380528685632,-0.2125159833726653,2.740675611885957,-0.4660328696328678,0.4233961941062986,-0.5739302058181592,1.0905902097073366,-0.220573478634567,0.7932630283462805,-0.7151699895069891,9.799195194882486,-0.9364068304597344,0.279189823311113,-0.9369427109523104
0.48,1.955857598674153,-0.1968986885488582,2.720447572400213,-0.0547733309797276,0.0701486085222359,0.0411334326785136,-0.3713470417670111,0.402860102186152,-0.5289773981192236,1.9604598712989347,-0.2043986872108953,2.729597007775555,-0.5060328702289142,0.4584589661418974,-0.6139302064142057,1.1274530963463278,-0.2293647260435016,0.7058603545322562,-0.84870693811675,9.368566210885549,-0.9353624826678032,0.2764200704739519,-0.9392540562501912
0.5,1.948375822386392,-0.1886947328503649,2.7096535981264664,-0.0517789490603517,0.0674135763503963,0.0418908215720985,-0.376698481046073,0.4168171433949438,-0.5496513560101102,1.9515392139122376,-0.1962813910491254,2.718518403665152,-0.5460328708249607,0.4935217381774961,-0.6539302070102522,1.2755875475007117,-0.2675719639530977,0.6978520604395938,-1.0336978945443276,9.368566210885549,-0.9360515535213207,0.2738662758499156,-0.94000584932985
0.52,1.940778409371119,-0.1802183617788243,2.6984211997933154,-0.0492854800529434,0.0630853388808665,0.0426727335322206,-0.3829576607137283,0.4301813548071964,-0.5725394900700194,1.9406185564957383,-0.1864109562855754,2.705439799524947,-0.5860328714210071,0.5285845102130949,-0.6939302076062986,1.3616590593167448,-0.3129589833827634,0.6682105706126262,-1.1444067029954597,9.107122458111917,-0.938825617132328,0.2717488416122152,-0.9384599449940956
0.54,1.9330367204852277,-0.1714801391571126,2.686723562711639,-0.0472398840552842,0.0575124990880571,0.0434602492100459,-0.3911839234492668,0.4430330787772283,-0.596077943576373,1.9296978990792395,-0.1765405215220255,2.6923611953847417,-0.6260328720170536,0.5636472822486936,-0.7339302082023451,1.4025842230208272,-0.4113131367769224,0.642586198501599,-1.176922675317682,9.107122458111917,-0.9427421100066554,0.2698981936121213,-0.9358814737427624
0.56,1.925504117045686,-0.1629376870053271,2.675171809848609,-0.0454491889658354,0.0518565656611538,0.0441921585067653,-0.4014351893180895,0.4554288379256529,-0.6187085392284037,1.917777241647839,-0.1657935174575856,2.678282591229636,-0.6660328726131,0.5987100542842924,-0.7739302087983915,1.3882427348493074,-0.5125632934411373,0.6197879574212278,-1.131529782601537,9.0763888843303,-0.9478400927748764,0.2679346233843632,-0.9322879450844028
0.58,1.9173432500451728,-0.1536951342672517,2.6625426026589123,-0.0435295627243009,0.046237597246728,0.0449254487083391,-0.4142353465299538,0.4680784265675144,-0.6430375692610509,1.9048565842015373,-0.1541699440922558,2.6632039870596285,-0.7060328732091464,0.6337728263198911,-0.8139302093944379,1.5130745353304678,-0.6400078605932169,0.6324794320930777,-1.2164515016323596,9.065855910943355,-0.953140524749986,0.2658449900170455,-0.928530086252667
0.6,1.9089051884020167,-0.1442036917180995,2.649422603310225,-0.0415196374720509,0.0415410124876856,0.0456001400229142,-0.4290719373245309,0.4803183004896527,-0.6677542838874455,1.8966314827186752,-0.130291212938876,2.63039072419586,-0.51423534802007,0.5032767797984676,-0.743037570751167,1.5659301724200514,-0.7418295397288555,0.6119936961069106,-1.2358357313197288,9.038538206326848,-0.957646419991252,0.2636990667152757,-0.9255826988846446
0.62,1.9001024694942488,-0.1342906936487962,2.6360386458568965,-0.0337938430837242,0.0400265025109323,0.0465142455677934,-0.4499873139328394,0.5062894441130195,-0.6691551023540498,1.8966314827186752,-0.130291212938876,2.63039072419586,-0.51423534802007,0.5032767797984676,-0.743037570751167,1.6687686868985938,-1.045768830415425,1.2985571811683387,-0.0700409233302168,9.0235177569989,-0.9646344742116524,0.2563666623582706,-0.9217361931272589
0.64,1.8913727368683304,-0.1245251557087606,2.623282258709911,-0.0218047170625341,0.0425486755545944,0.0475511370752052,-0.4673785508683086,0.5194241636950793,-0.6735401450094176,1.8966314827186752,-0.130291212938876,2.63039072419586,-0.51423534802007,0.5032767797984676,-0.743037570751167,1.1115356266606635,-0.8695618467734562,0.6567359791029903,-0.2192521327683882,10.432950987783444,-0.9658860904806436,0.2471834844165334,-0.9210299292656215
0.66,1.881860688265213,-0.1140559984019558,2.6097109108974643,-0.0083293844411334,0.0477331279880446,0.0486654045145421,-0.4825472614211625,0.5264237527106118,-0.6836110601190564,1.8914891292384743,-0.1252584451408913,2.6229603484883484,-0.5342353483180932,0.5103164504446582,-0.7630375710491902,0.975329889535045,-0.758435527642698,0.3499794507766274,-0.5035457554819378,10.081086197511468,-0.9628466642684108,0.2363921055211495,-0.9263371152319624
0.68,1.872075116881852,-0.1034943487770663,2.5958763651674204,0.004459898479911,0.0542941381596169,0.0497652622569905,-0.4949540743441131,0.5293131379551723,-0.6993162898385628,1.881204422278073,-0.1151929095449219,2.6080995970733247,-0.5742353489141396,0.5243957917370395,-0.8030375716452367,1.0111031037177225,-0.6203406461475297,0.1444692622280252,-0.7852614859753193,9.72974762528338,-0.9574825108893804,0.2258171066924055,-0.9348721263105289
0.7000000000000001,1.8620685277357216,-0.0929061757431536,2.5816804925372945,0.0160105425519927,0.0613244425836336,0.0508323652203997,-0.5048769908781605,0.5294142372431659,-0.7194931522095251,1.870919715317672,-0.1051273739489526,2.593238845658301,-0.6142353495101861,0.5384751330294208,-0.8430375722412832,1.1242556078851258,-0.4961458267023683,0.0050549643996811,-1.0088431185481197,9.43783073630675,-0.950434374087394,0.2148546061510727,-0.9458708590730822
0.72,1.8523994237073007,-0.0828661279230978,2.5677854925491967,0.0256824931217206,0.0678398362860058,0.0517941328879697,-0.5123147177088319,0.5275493789686911,-0.7421419244227372,1.858635008327468,-0.0943578712883642,2.576378094213476,-0.6542353501062326,0.5525544743218022,-0.8830375728373296,1.1955797333903868,-0.3718863415335671,-0.09324291372374,-1.132438610660602,9.20831411855579,-0.9425978855042144,0.2044200029796372,-0.9578542839604052
0.74,1.8420881789488903,-0.0723521663841646,2.552672561307908,0.0344915161287584,0.074075604429923,0.0527248815234002,-0.5183184776200858,0.524015920157676,-0.7680583915230061,1.8463503013372644,-0.0835883686277758,2.5595173427686504,-0.694235350702279,0.5666338156141835,-0.923037573433376,1.3418212727487626,-0.3001879955626951,-0.1766729405507594,-1.295823355013448,8.933869472443348,-0.935545087076148,0.194877849457128,-0.968818702468868
0.76,1.8316688288728007,-0.0619213697006448,2.537025134591293,0.0420028868648445,0.0794907864955693,0.0535526249808327,-0.5232649035310951,0.5193630235669243,-0.7953977315439381,1.8330655943321597,-0.0724668824348778,2.5416565913089237,-0.7342353512983254,0.5807131569065647,-0.9630375740294224,1.4085063797845088,-0.2473212955504677,-0.2326448295375816,-1.3669670010465984,8.880079101552838,-0.9291729343799284,0.1863206521384567,-0.9787423695377984
0.78,1.8211598855324085,-0.051594275104846,2.5208194152719705,0.0484204086931728,0.0841445642844183,0.054274768233245,-0.5273433006088997,0.5136927012486527,-0.8238204374300807,1.8187808873121531,-0.0609934127096703,2.522795839834296,-0.7742353518943719,0.594792498198946,-1.003037574625469,1.4634173087396316,-0.2039198538902276,-0.283516115913579,-1.4211352943071298,8.880079101552838,-0.9236695719979138,0.1788610379349772,-0.9875096231647884
0.8,1.8111079333733129,-0.0418974351615414,2.504888449914674,0.0536010735101644,0.0879070289458062,0.054858436578322,-0.5305344169455223,0.5074277127437331,-0.8517099103919213,1.7947927205019636,-0.0259096400424134,2.4796283934004664,-0.6273433020990158,0.4995872052518795,-0.8987239777433246,1.438102922716134,-0.1595558168311306,-0.3132494252459816,-1.3944736480920317,8.799427430280048,-0.9187137229941156,0.171761436021949,-0.9957068076049032
0.8200000000000001,1.8004887854598384,-0.0317331892992731,2.4878301001728733,0.0616520282272999,0.0911922671809117,0.0556045835950635,-0.5309440190784577,0.5074080658542137,-0.8512606403671972,1.7947927205019636,-0.0259096400424134,2.4796283934004664,-0.6273433020990158,0.4995872052518795,-0.8987239777433246,0.0304139549667856,-0.0204801066467696,-0.0009823444759693,0.0224635012362084,8.799427430280048,-0.9169778736790112,0.1606096432731559,-1.003287604683024
0.84,1.7898808082562845,-0.0216566904639299,2.470793828951744,0.0725308597914303,0.0935759050967776,0.0564768117619189,-0.5298516707489384,0.4996256645992818,-0.8528496279800551,1.7947927205019636,-0.0259096400424134,2.4796283934004664,-0.6273433020990158,0.4995872052518795,-0.8987239777433246,0.4008861303399774,0.054617416475966,-0.3891200627465924,-0.0794493806428986,10.255750445350714,-0.913303646784525,0.1502052833253118,-1.0084104392103428
0.86,1.779301527283047,-0.0117933119978117,2.4536605316850597,0.0834260579665665,0.0947288876540926,0.0572338244978899,-0.5282610762456404,0.4869794279363987,-0.8604032018900509,1.7885192874809734,-0.0209137679898946,2.470641153623033,-0.647343302397039,0.4967661060525248,-0.9137046858059732,0.7407998572849139,0.0795297251648952,-0.6323118331441557,-0.377678695499789,9.964734657812189,-0.9100574032657875,0.1393439987106187,-1.01392080781211
0.88,1.7692826918019084,-0.0026875450145535,2.437201901246153,0.0927480225212757,0.0945553553745583,0.0577356127432168,-0.5265434700802235,0.4722617698904447,-0.8716986910991736,1.7759724214389931,-0.010922023884857,2.452666674068167,-0.6873433029930854,0.4911239076538155,-0.9436661019312708,0.9315950109496636,0.085880308270847,-0.735882902297702,-0.5647744604561356,9.964734657812189,-0.9083354060862118,0.1283230135819363,-1.0184960923547273
0.9,1.7587731454066993,0.0065772159064825,2.419613317846782,0.1011806696225976,0.0927980877828201,0.0579648110026224,-0.5245773881380723,0.4550726251543466,-0.8866879114821188,1.7634255553970128,-0.0009302797798194,2.4346921945133,-0.7273433035891319,0.4854817092551062,-0.9736275180565684,1.1445620370367444,0.0983040971075599,-0.8594572368049058,-0.7494610191472573,9.75153881303413,-0.9089091866662292,0.1183770342932268,-1.0209610105470548
0.92,1.7483050586183555,0.0154808568778253,2.401698717588113,0.1080671872397827,0.0889953520719224,0.0578091577908346,-0.5225059947700651,0.4364061820360254,-0.9039825417658622,1.7488786893252302,0.0087793544052826,2.415219644152169,-0.7673433041851784,0.479839510856397,-1.003588934181866,1.276549064691524,0.1035696684003606,-0.9333221559160608,-0.8647315141871725,9.593513627424729,-0.9113646511858108,0.1098369066972255,-1.021799548187983
0.94,1.7383903016100186,0.0235809709710673,2.3843575958344414,0.1132021207501402,0.0833225724612439,0.0572689948332888,-0.5216960800385704,0.4174299826577645,-0.9204993351068628,1.7343318232534477,0.0184889885903847,2.395747093791037,-0.8073433047812248,0.4741973124576876,-1.0335503503071637,1.2585274798202868,0.040495736574736,-0.9488099689130448,-0.8258396670500268,9.491471001602804,-0.9153528484292098,0.1015860142921152,-1.0218411683895805
0.96,1.727941230716154,0.0317084650498512,2.3657675143420094,0.1172280578681793,0.0759169986660082,0.056367161979993,-0.5235946544409925,0.3965074943000332,-0.937594232211272,1.7187849571667635,0.0280575678155191,2.3755255080267736,-0.8473433053772712,0.4685551140589784,-1.063511766432461,1.354243894993871,-0.0949287201211068,-1.0461244178865623,-0.8547448552204573,9.498996680615164,-0.9219820581380892,0.095028412649855,-1.018914447614086
0.98,1.7174259097964075,0.0394073625258117,2.346841120630943,0.1198919379547332,0.0678651127787631,0.0552273120931414,-0.5281311608657647,0.374673241962948,-0.9541273933621158,1.7022380910651789,0.0374850920806858,2.3545548868593773,-0.8873433059733177,0.462912915660269,-1.0934731825577586,1.3880380788196036,-0.2268253212386106,-1.0917126168542624,-0.8266580575421956,9.52063426209952,-0.929706521829957,0.0903794719559998,-1.0142179891461576
1.0,1.7067938272222865,0.0466580300246937,2.3275897276866657,0.1210754990148902,0.0597914743176893,0.0539295080433993,-0.5350808963007398,0.351809100400935,-0.9701434311257852,1.6910193517531191,0.0581410246239591,2.2991347509628373,-0.6281311623558808,0.3586609328438426,-0.9627375068860164,1.438385603403345,-0.3474867717487562,-1.143207078100647,-0.8008018881834722,9.555001125563647,-0.9380859746348842,0.0867851307069278,-1.0088704202377303
1.02,1.6965174624962225,0.0530636463173085,2.309315744450872,0.1202245817809159,0.0539903596724924,0.0527548190373684,-0.5463262631227742,0.3240449201641209,-0.9525819168399188,1.6910193517531191,0.0581410246239591,2.2991347509628373,-0.6281311623558808,0.3586609328438426,-0.9627375068860164,1.736170184052464,-0.5622683411017182,-1.3882090118407049,0.8780757142933304,9.585900715717798,-0.9462606371215464,0.081250519481499,-1.0080586177017037
1.04,1.6854584974184588,0.0592355318764504,2.2904537032048573,0.1166398907081283,0.0515603539919881,0.05175849019328,-0.5587894047986726,0.2953708680533726,-0.9346640445250176,1.6910193517531191,0.0581410246239591,2.2991347509628373,-0.6281311623558808,0.3586609328438426,-0.9627375068860164,1.801791686888718,-0.6231570837949174,-1.4337026055374151,0.895893615745047,11.803433328603203,-0.9519625568186048,0.0842608366511527,-1.0024479548464496
1.06,1.674165791131187,0.0648651450050062,2.271921939249389,0.1109036556321979,0.0518727195217524,0.0509210782520446,-0.569657966634701,0.2697277555776894,-0.919441738768656,1.6847380401295606,0.0617276339523976,2.289507375893977,-0.648131162653904,0.3554584710200216,-0.9644595295907964,1.5869888518545712,-0.5434280918014234,-1.2821556237841618,0.7611152878180816,11.373464800000876,-0.9548231077791548,0.0892847395253049,-0.9989737283789896
1.08,1.6632523437368638,0.0697646077262263,2.254572958174676,0.1041508986431504,0.0535266059886221,0.0501691506691456,-0.5784777976946021,0.2479201104459802,-0.9074366545017344,1.672175416882443,0.0689008526092744,2.2702526257562567,-0.6881311632499505,0.3490535473723794,-0.9679035750003566,1.320496927648497,-0.4409915529950514,-1.0903822565854593,0.6002542133460909,11.373464800000876,-0.9562154026662012,0.0956379637644596,-0.9969059684979452
1.1,1.6515980004465964,0.0745048614397185,2.236538732045382,0.0962332675640449,0.0558129722235344,0.0493558715617734,-0.5864147979483654,0.2277396219988206,-0.8966630886698043,1.659612793635325,0.0760740712661513,2.2509978756185363,-0.728131163845997,0.3426486237247373,-0.9713476204099168,1.2107000121098423,-0.3968500126881658,-1.0090244223579778,0.5386782915965005,11.189542544336293,-0.9566208513110264,0.1028253181890942,-0.9955453968217556
1.12,1.6397959435190488,0.0788685232515543,2.2187013126996527,0.0878247617499678,0.0580566153706913,0.0484811958937715,-0.5933669327672925,0.2100683559477504,-0.8876587438445861,1.6450501703584053,0.082927043740646,2.231570923210338,-0.7681311644420434,0.3362437000770952,-0.9747916658194772,1.0508140274564282,-0.3476067409463546,-0.8835633025535125,0.4502172412609084,11.044378005965882,-0.956624163135589,0.1103129680193308,-0.9946024447539732
1.14,1.628463471318119,0.0827096771590438,2.201918825516178,0.0796128108193866,0.0597806854969173,0.0475812387204858,-0.599219294124644,0.1955055981541957,-0.8793337474484325,1.6304875470814857,0.0897800162151408,2.21214397080214,-0.8081311650380899,0.329838776429453,-0.9782357112290372,0.8882983915986934,-0.2926180678675782,-0.7281378896777352,0.4162498198076791,10.921179361545,-0.9569141384053113,0.1174495976698455,-0.9935467520190444
1.16,1.6164148185232643,0.0864786247514437,2.1844241689818964,0.0710000052616956,0.0610835867637603,0.0465830526790002,-0.6053614995477279,0.1824543616090661,-0.8705563837355301,1.6149249237896643,0.0964728655984445,2.192630917258702,-0.8481311656341363,0.3234338527818109,-0.9816797566385974,0.8442505205282109,-0.3071102711541928,-0.6525618272564787,0.4388681856451193,10.894306359059556,-0.9574970263036716,0.1249363557538951,-0.9920726419031832
1.18,1.6042421417122363,0.0900096611813813,2.167103625547162,0.0625941538325827,0.0619843597901641,0.0455643106484183,-0.611622078173874,0.1715548888998397,-0.8619328868510759,1.598362300482942,0.1030055918905571,2.173031762580026,-0.8881311662301827,0.3170289291341687,-0.9851238020481576,0.7621647600576915,-0.3130289313073076,-0.5449736354613183,0.4311748442227092,10.894306359059556,-0.958788685598681,0.1324966009386483,-0.9895132494439532
1.2,1.5919423781683206,0.0933449053066962,2.149951991571978,0.0545293907130268,0.0626052125167836,0.0445503794684521,-0.6180600353091542,0.1627189139790254,-0.8536471298524326,1.5736610378035427,0.0985874056263733,2.1240069812046083,-0.7116220796639902,0.1543497530030378,-0.8333967626961506,0.6858854020853847,-0.3218978567640085,-0.4417987460407183,0.4142878499321656,10.848789023603786,-0.9602213276878409,0.1394128879316257,-0.9867936262106802
1.22,1.580133389744062,0.096433694247574,2.1339837758223084,0.0496831635643454,0.0633768536822309,0.0437921725527111,-0.6244987717954589,0.1613035714498288,-0.827714200626883,1.5736610378035427,0.0985874056263733,2.1240069812046083,-0.7116220796639902,0.1543497530030378,-0.8333967626961506,1.3378876449765804,-0.3219368243152332,-0.0707671264598266,1.2966464612774842,12.086293412022314,-0.964278254867634,0.1435512594480159,-0.9824847777307332
1.24,1.5675834825510937,0.0996052192118531,2.117705001608035,0.0472327029560477,0.064463711583655,0.0431885600902189,-0.6301046828118977,0.1557285194295292,-0.8016896938044704,1.5736610378035427,0.0985874056263733,2.1240069812046083,-0.7116220796639902,0.1543497530030378,-0.8333967626961506,1.3599470566009848,-0.2802955508219407,-0.2787526010149796,1.3012253411206265,12.086293412022314,-0.966523778497252,0.1470121243199539,-0.9777872545365244
1.26,1.5549297319778472,0.10265180219794,2.101920545236009,0.0456358082642302,0.0653280651668755,0.0426297307046231,-0.6350037989283397,0.1492136986104028,-0.7781540902047664,1.5665448170069027,0.1001309031564037,2.1156730135776467,-0.7316220799620133,0.1509087258236774,-0.8276895378651655,1.2453602549364011,-0.2449558058221002,-0.3257410409563219,1.1767801799851985,11.921379961642742,-0.9685367430199828,0.1494735158263549,-0.973699682073764
1.28,1.5421824977028402,0.1055678154107739,2.08658306318595,0.044369058985684,0.06564332042073,0.0420659245373119,-0.6395622064685124,0.1427461115802447,-0.7567543661207292,1.552312375413623,0.1032178982164645,2.099005078323724,-0.7716220805580598,0.1440266714649566,-0.8162750882031954,1.1407858608957864,-0.2279203770086335,-0.3233793515079075,1.0699862042018615,11.623214775693668,-0.9707775756651283,0.1513562076995875,-0.9697454409462456
1.3,1.5299883944324983,0.1082204905877239,2.072393904246393,0.0433443817232949,0.0652987576448258,0.0415127579856716,-0.643904407634707,0.1368400814109502,-0.7379021045904376,1.5380799338203432,0.1063048932765252,2.0823371430698008,-0.8116220811541063,0.1371446171062358,-0.8048606385412252,1.0113650035160802,-0.2171100583097329,-0.2953015084647237,0.9426130765145811,11.623214775693668,-0.9735546438587932,0.1529782524758125,-0.9654137428653108
1.32,1.5170615081337444,0.1108947614644507,2.057834620379244,0.0424396386765326,0.0641887912116197,0.0409099502790444,-0.6486363612452696,0.1309283293344176,-0.7190534721655523,1.5218474921972611,0.1090477856186499,2.0662399302989765,-0.8516220817501527,0.1302625627475151,-0.7934461888792551,1.015641597557108,-0.2365976805281278,-0.2955876038266289,0.9424316212442664,11.521167027629415,-0.9773480831886724,0.1545988941121121,-0.9598505273100963
1.34,1.504037353860743,0.1134530767574274,2.0436490243924603,0.0417204118602419,0.0622046892376697,0.0402837184936143,-0.6536294755332651,0.1252216107823675,-0.7004419133222834,1.505615050574179,0.1117906779607747,2.050142717528152,-0.8916220823461992,0.1233805083887943,-0.782031739217285,1.0048481844310553,-0.2496557143997768,-0.2853359276025036,0.9305779421634408,11.450597589714562,-0.9821278861223568,0.1559942089339335,-0.9533506758726966
1.36,1.4909030390785625,0.1158976006406052,2.0298345579213115,0.0411517775787777,0.0594174078915675,0.0396359840147221,-0.6596791219703068,0.1195475863131066,-0.6819197984386952,1.4883826089361958,0.1143615189439314,2.0343308659988764,-0.9316220829422456,0.1164984540300735,-0.7706172895553148,1.0147185760739563,-0.3024823218520822,-0.283701223463046,0.9261057441794118,11.432758750052017,-0.987080722502857,0.1570413767912509,-0.9469109725460764
1.38,1.478300352975688,0.1181147592362622,2.0170531813036328,0.0407011986408376,0.0563504045243405,0.0390115428922038,-0.6667271840324073,0.1141511506535165,-0.6644008740973092,1.4701501672833113,0.11676030856812,2.0188043757111505,-0.9716220835382922,0.1096163996713527,-0.7592028398933447,0.9819742954101752,-0.3524031031050256,-0.2698217829795055,0.8759462170693011,11.423883022996051,-0.9927856550035808,0.1580249100436507,-0.9396172935172626
1.4,1.4648746623801097,0.1203380114953025,2.003958718029069,0.0402806855410872,0.0530799295025889,0.0383587225275328,-0.6756119660543152,0.1084795517002165,-0.6459573270929148,1.4449639937740677,0.123822316768938,1.9838331375987672,-0.7667271855225234,0.0780185355939023,-0.6300426706862069,1.0621567826446323,-0.444239101095395,-0.2835799476650018,0.9221773502197216,11.41568407622708,-0.998776171592981,0.1590043782193378,-0.9319101212927078
1.42,1.4512205830299456,0.1224970985220283,1.991277512119586,0.0415550012061908,0.0513308341264057,0.0378859198125818,-0.6893623879940943,0.1072940465417538,-0.6228541470014982,1.4449639937740677,0.123822316768938,1.9838331375987672,-0.7667271855225234,0.0780185355939023,-0.6300426706862069,1.3455820825381923,-0.6875210969889578,-0.0592752579231352,1.155159004570827,11.413705046314137,-1.003523769263566,0.1590294066247757,-0.9252437958287338
1.44,1.4372996670858786,0.1246100261109442,1.979058416884196,0.0453830389098889,0.0520857287207936,0.0376910239076376,-0.7017445124993192,0.1033257502971818,-0.6002374855951487,1.4449639937740677,0.123822316768938,1.9838331375987672,-0.7667271855225234,0.0780185355939023,-0.6300426706862069,1.304394261254085,-0.6191062252612456,-0.1984148122285978,1.1308330703174774,11.768108663546627,-1.007355329191999,0.1573244357967623,-0.9193915673409654
1.46,1.4238633128428693,0.1265071414830317,1.9678559768808228,0.049655757849516,0.054077644112719,0.0376082305308836,-0.7118381973727606,0.0964458127146424,-0.5800887281678495,1.4372967219188424,0.124602502124877,1.9775327108919047,-0.7867271858205466,0.0707920125819795,-0.6231710300039864,1.1781218541900909,-0.5046842436720655,-0.3439968791269711,1.007437871364958,11.570400851548584,-1.0088711677643452,0.1546878686757064,-0.9165624564000636
1.48,1.4095300083742972,0.1283433157380787,1.956466595779542,0.053944548661648,0.0567391995816219,0.0375393950526196,-0.7208402072900313,0.0874963672409661,-0.5599531809575864,1.421962178208392,0.1261628728367551,1.9649318574781809,-0.826727186416593,0.0563389665581338,-0.6094277486395455,1.1901355157015534,-0.4501004958635368,-0.447472273683816,1.0067773605131558,11.570400851548584,-1.0093779859163536,0.1520167498923209,-0.9150958638195424
1.5,1.3950309860971128,0.1299871617492833,1.945467497824384,0.057685712230123,0.059404575225872,0.0374384703853515,-0.7285448583481388,0.0773725330665425,-0.5410081364793439,1.4066276344979416,0.1277232435486331,1.9523310040644568,-0.8667271870126395,0.0418859205342881,-0.5956844672751046,1.1410175027152425,-0.3852325529053735,-0.5061917087211799,0.9472522239121262,11.493679631073064,-1.0094143268945657,0.1497130245491395,-0.9143588482380332
1.52,1.3811246343045516,0.1313527254444699,1.9353588162600144,0.0605929438862902,0.0615787925482271,0.0372810131507261,-0.7349050073668012,0.0669964441003756,-0.5240003208260179,1.3892930907576888,0.1285609619593189,1.9404173147189547,-0.906727187608686,0.0274328745104425,-0.5819411859106637,1.045682206828303,-0.3180074509331221,-0.518804448308345,0.8503907826662993,11.416598516452725,-1.0093358023274406,0.1476749487067735,-0.9138150614733798
1.54,1.36636352094202,0.1325729590520249,1.925062960588304,0.0630088115246732,0.0632546020226926,0.0370354161668018,-0.7408853331336984,0.055646526218962,-0.5064913076645018,1.371958547017436,0.1293986803700047,1.9285036253734529,-0.9467271882047325,0.0129798284865968,-0.5681979045462228,1.085300043862513,-0.299016288344861,-0.5674958940706767,0.8754506580758048,11.355652752885362,-1.0096178559220284,0.146042272256735,-0.9129635577263072
1.56,1.351482402576083,0.133557503184746,1.9151115880036744,0.0646686879147416,0.0643295523863508,0.0367000095186442,-0.7469587539070516,0.0435576648655276,-0.4895081547888363,1.3536240032622822,0.1298750726300943,1.9169335180620612,-0.9867271888007788,-0.0014732175372488,-0.5544546231817818,1.085650139675508,-0.3036710386676577,-0.6044430676717193,0.8491576437832715,11.33154217566971,-1.0099608713999224,0.144835899296458,-0.9122311096160198
1.58,1.3372311712694818,0.1342625667450349,1.9059686989347373,0.0653716592380019,0.0650171223370229,0.0362992787578019,-0.7528797592981886,0.0314093709869241,-0.4737369878228924,1.334289459492227,0.1299901387395878,1.9057069927847812,-1.0267271893968253,-0.0159262635610945,-0.5407113418173409,1.0384713001215666,-0.2960502695568523,-0.6074146939301753,0.788558348297197,11.30463273083933,-1.0109707360170452,0.1443374686599627,-0.9106596375338862
1.6,1.3221073169673871,0.1347514658565983,1.8966666702253816,0.0649359365248819,0.0655477505604849,0.0357843901517211,-0.7592019848344472,0.0182345473605649,-0.4572896843529097,1.2995871833045722,0.1358330352943811,1.882281849543593,-0.8528797607883047,0.0099434119595146,-0.452434565314295,1.1000685259913336,-0.3161112768129304,-0.6587411813179612,0.8223651734991344,11.285292232378197,-1.0124192301146435,0.1448957623543429,-0.908421134074332
1.62,1.306837132608419,0.1349120366701406,1.887665048586988,0.0609978110562583,0.0666195248323846,0.0350638920050728,-0.7674491895798414,-0.0001853341496211,-0.4437187718803129,1.2995871833045722,0.1358330352943811,1.882281849543593,-0.8528797607883047,0.0099434119595146,-0.452434565314295,1.216016124790944,-0.4123602372697099,-0.9209940755093065,0.678545623629842,11.276724940247732,-1.011721337149436,0.1472395670530854,-0.909282620359935
1.64,1.2914150690828237,0.134778573575866,1.878930653956452,0.0540227780806801,0.0684282255320099,0.0341815144188838,-0.77428443130599,-0.0115901474187106,-0.4303425799706992,1.2995871833045722,0.1358330352943811,1.882281849543593,-0.8528797607883047,0.0099434119595146,-0.452434565314295,0.9430175040269594,-0.3417620863074289,-0.5702406634544719,0.6688095954806822,11.120885475364048,-1.0122889249535074,0.1528238671195212,-0.9073770280721204
1.66,1.27664690181921,0.134486631812917,1.8708774061683304,0.0470534902107537,0.0701489081111063,0.0333229975759848,-0.7799066964189916,-0.0184407281814993,-0.4180307572281345,1.2910583856966893,0.1359324694139762,1.8777575038904497,-0.8728797610863279,0.0056502201540327,-0.4481740808125756,0.7584874768786573,-0.2811132556500784,-0.3425290381394374,0.615591137128238,11.07946168788476,-1.0126258611328411,0.1590828762446434,-0.9054389861869464
1.68,1.260993410573653,0.1340670499360821,1.8626490722689883,0.0402717689585231,0.0716093076753127,0.0324475823071134,-0.7851446278068378,-0.0231178943992507,-0.4054744449477172,1.2740007904809232,0.1361313376531665,1.868708812584164,-0.9128797616823744,-0.0029361634569311,-0.4396531118091366,0.7193274413221303,-0.2618965693923114,-0.2338583108875712,0.6278156140208629,11.034335740746428,-1.0132860343059098,0.1649771568889937,-0.9030351571573424
1.7,1.245239298974802,0.1335739543462826,1.8546664004010864,0.0344002703582678,0.0725005526351935,0.0316231059339936,-0.790036351074942,-0.0260009659219721,-0.3934484549270102,1.256943195265157,0.1363302058923568,1.8596601212778776,-0.9528797622784207,-0.0115225470678949,-0.4311321428056976,0.6649539343348947,-0.2445861634052082,-0.1441535761360662,0.6012995010353489,10.999566855934972,-1.0143694389199955,0.1701831760094492,-0.9001426598730004
1.72,1.2293888982574102,0.1330384068040586,1.846919186460487,0.029565916199614,0.0727349583239201,0.0308628385222445,-0.7948389108340693,-0.0275780953914782,-0.3818766629547119,1.2378856000195886,0.1360997549509989,1.851037478421764,-0.9928797628744672,-0.0201089306788587,-0.4226111738022587,0.6313839700485803,-0.2401279879563678,-0.0788564734753053,0.5785895986149175,10.962168964543707,-1.0159348497551834,0.1743724363311629,-0.8968445800925379
1.74,1.2142405687963524,0.1325093978490768,1.8397700719335284,0.0258988034910647,0.0723661660518226,0.030203551707894,-0.7995620710279292,-0.0282018186883863,-0.371241759768742,1.2188280047740203,0.135869304009641,1.84241483556565,-1.0328797634705138,-0.0286953142898225,-0.4140902047988197,0.5826629358877238,-0.2361580096929938,-0.0311861648454061,0.531745159298494,10.907579051506218,-1.018119953420837,0.1780042434710404,-0.8928571225546678
1.76,1.1981900592876404,0.13194382336672,1.8324608005339729,0.0228828869286558,0.0715676919798311,0.0295755225826476,-0.8053004082148698,-0.0284154518291296,-0.3602510623209276,1.1987704095135507,0.135424193478009,1.834005216934622,-1.0728797640665602,-0.0372816979007864,-0.4055692357953808,0.6200193206248583,-0.2869168593470306,-0.0106816570371636,0.5495348723907223,10.907579051506218,-1.0205672008322029,0.1808875577580971,-0.888712060277763
1.78,1.182016496441698,0.1313784398438297,1.82536910751212,0.0206070490877896,0.0706927165856775,0.0290149389541997,-0.8117987891611982,-0.0282086554735303,-0.3494726914908465,1.17771281423818,0.1347644233561029,1.82580862252868,-1.1128797646626063,-0.0458680815117502,-0.3970482667919419,0.6293746845223357,-0.3249190473164187,0.0103398177799614,0.5389185415040548,10.879763920755067,-1.0230433785901216,0.1830935304940782,-0.8846678901330598
1.8,1.1657060785713356,0.1308218107590455,1.8184907387165896,0.0190222726338769,0.0700184891860787,0.0285227736117074,-0.8188962183617416,-0.0275851306375463,-0.3388941054080842,1.141426556983638,0.1299680070701532,1.8078954729375776,-0.9013236617622304,-0.0378988908424378,-0.3310984160747107,0.6377083345625727,-0.3548714600271729,0.0311762417992028,0.5289293041381149,10.879763920755067,-1.0256084557981295,0.1849142862842475,-0.8805177870370898
1.82,1.150037649951799,0.1302760032267945,1.8121582625926151,0.0171864701839754,0.0709990416807457,0.0280755799957871,-0.8296279923256685,-0.0293985504065711,-0.3281736577214225,1.141426556983638,0.1299680070701532,1.8078954729375776,-0.9013236617622304,-0.0378988908424378,-0.3310984160747107,0.7638511999629868,-0.5365886981963441,-0.0906709884512423,0.5360223843330819,10.866027863892668,-1.0254111785694575,0.1863349349623781,-0.880207748400641
1.84,1.1333499653811254,0.1296906272488712,1.8057111022127263,0.0148761500349204,0.0742449999945508,0.0276268503581247,-0.8382889494696388,-0.0289873494481739,-0.3171205508517449,1.141426556983638,0.1299680070701532,1.8078954729375776,-0.9013236617622304,-0.0378988908424378,-0.3310984160747107,0.7024109131242057,-0.4330478571985152,0.0205600479198613,0.5526553434838821,10.94229803106009,-1.0259019159014733,0.188989706429568,-0.8781988691628966
1.86,1.116513859065189,0.1291277734767829,1.799475309185393,0.0128640529593452,0.0784817299658224,0.0272209505906156,-0.8446945423666607,-0.0273672188310988,-0.3070598027336339,1.1324133203660156,0.1295890181617288,1.8045844887768303,-0.9192286362824368,-0.0398369379162193,-0.3274235609914835,0.6018203558264609,-0.3202796448510958,0.0810065308537534,0.5030374059055487,10.896113006590896,-1.0245708511892675,0.191255624563295,-0.8784525331474132
1.88,1.0995713636714706,0.1286067265156112,1.7934285553747424,0.0114240152828387,0.0828675308918547,0.026864307076743,-0.8491290750431468,-0.0249249686172108,-0.2981190957310446,1.114386847130771,0.1288310403448801,1.7979625204553362,-0.9550385853228498,-0.0437130320637823,-0.3200738508250292,0.5137263568092637,-0.221726633824304,0.122112510694403,0.4470353501294627,10.82234336667898,-1.0227458873912971,0.1929422597601476,-0.8794480547372706
1.9,1.0834095911894976,0.1281637218847376,1.7878408908388612,0.0107811931309847,0.0866331974753415,0.0265803611576985,-0.8518603860232719,-0.0219325182831348,-0.2905077685197108,1.0963603738955263,0.1280730625280313,1.791340552133842,-0.9908485343632628,-0.0475891262113452,-0.3127241406585749,0.4311238818195257,-0.1365655490062511,0.149622516703797,0.3805663605666948,10.755014152242438,-1.0208274015960197,0.1940867764571898,-0.8806236694392966
1.92,1.066353444068985,0.1277629472377291,1.7821089804375532,0.0110883086861261,0.0898107780603248,0.0263533834547276,-0.8535923782736778,-0.0183868164011542,-0.283114647568067,1.076543403208261,0.1271212800038044,1.7850860693206707,-1.0266584834036756,-0.0514652203589082,-0.3053744304921206,0.4190168146894014,-0.0865996125202994,0.1772850940990306,0.3696560475821869,10.699882854461066,-1.0193854730509102,0.1944070950213227,-0.8814280277845641
1.94,1.0492709698461349,0.1274342816193971,1.7765197119371725,0.012579214638221,0.0919792477179041,0.0262110505156005,-0.8545978598345915,-0.0147758278001117,-0.2762020313991759,1.0567264325209955,0.1261694974795775,1.778831586507499,-1.0624684324440885,-0.0553413145064712,-0.2980247203256663,0.3931745609287665,-0.0502740780456811,0.1805494300521278,0.3456308084445553,10.663508269031809,-1.0186287023070515,0.1937563324434112,-0.8816646377471111
1.96,1.0321683684098206,0.1271718329668919,1.771065484269067,0.0152608043537792,0.0932175971896454,0.0261522638682877,-0.8556629288785867,-0.0119966251473625,-0.2695676077860353,1.03601421310772,0.1251208126016615,1.772760846448489,-1.0982783814845014,-0.0592174086540342,-0.2906750101592119,0.3635722628726071,-0.053253452199764,0.1389601326374582,0.3317211806570325,10.623666363217126,-1.0183790920143043,0.1920711333984406,-0.8817470529941092
1.98,1.0158993842031498,0.1269530579644138,1.766005771242508,0.0182610104972122,0.0937922957612841,0.0261277439382358,-0.8568446465752281,-0.0112848958808531,-0.2633653525407033,1.0144067449684342,0.1239752253700565,1.7668738491436402,-1.1340883305249143,-0.0630935028015972,-0.2833252999927576,0.3176908300203538,-0.0590858848320663,0.0355864633254714,0.3101127622665955,10.623666363217126,-1.0186561562705232,0.1898257660574815,-0.8814090914380788
2.0,0.9987477316391,0.1267229103497681,1.760807145115396,0.0212924462160251,0.0939810511837011,0.0260926767947944,-0.8582889426789408,-0.0118002944968953,-0.2568202656772626,0.9730571518743883,0.1263888131703711,1.7528375036154726,-0.8591819314270474,-0.0336309472906937,-0.2398722581709342,0.3361167543376955,-0.0722148051856386,-0.0257699308021113,0.327254343172037,10.619747305985584,-1.0193511957134316,0.1876634445763365,-0.8806063464355992
2.02,0.9814770861882344,0.1264861630749878,1.7557527677933102,0.0244857490240848,0.0967751528160983,0.0261363511466816,-0.868283323456324,-0.0121058239485841,-0.2488549818681806,0.9730571518743883,0.1263888131703711,1.7528375036154726,-0.8591819314270474,-0.0336309472906937,-0.2398722581709342,0.639192344933037,-0.4997190388691563,-0.0152764725844402,0.3982641904540979,10.622064016943114,-1.0145362076539446,0.1846924262895735,-0.8866033645910706
2.04,0.964046203355739,0.1262274509431546,1.750852767951704,0.0278389278003725,0.1039300107515926,0.026320161478696,-0.8736959168932359,-0.0138253378735586,-0.2416007857648196,0.9730571518743883,0.1263888131703711,1.7528375036154726,-0.8591819314270474,-0.0336309472906937,-0.2398722581709342,0.4606415552181032,-0.2706296718455958,-0.0859756962487245,0.3627098051680502,10.776337172063904,-1.011774965385631,0.1826092463009053,-0.889857719875809
2.06,0.947430056601526,0.1259401474239144,1.7463245348154448,0.0308267348858356,0.1126781626734522,0.0265661706971189,-0.8747234324914861,-0.0163286971369525,-0.235429628256874,0.964465332560118,0.1260525036974642,1.7504387810337634,-0.8596493883974112,-0.0381001575726618,-0.2351736392969804,0.3369190588781725,-0.0513757799125103,-0.125167963169695,0.308557875397282,10.68025642563407,-1.0053732656591234,0.1803690642661549,-0.8972739495215057
2.08,0.9299553143287864,0.1255801296947488,1.7416783682592232,0.0336624288599325,0.122711519852363,0.0268640938924948,-0.8723294536936679,-0.019546996607141,-0.2295605759904605,0.947281693931577,0.1253798847516503,1.7456413358703446,-0.8605843023381389,-0.047038578136598,-0.2257764015490728,0.3554376192460216,0.1196989398909109,-0.1609149735094239,0.2934526133206744,10.63240595543084,-0.9970249175039584,0.178175078596296,-0.9067275859653836
2.1,0.9125605604024424,0.1251500871187663,1.7371420965421842,0.0361496906059091,0.1329022743894712,0.0271769679574411,-0.8669536121890133,-0.0232828716593298,-0.2244138166358731,0.930098055303036,0.1247072658058364,1.740843890706926,-0.8615192162788666,-0.0559769987005342,-0.2163791638011651,0.4163699260956718,0.2687920752327266,-0.1867937526094421,0.2573379677293694,10.602216757247334,-0.9881282177167996,0.1761991701803589,-0.9165774545910294
2.12,0.8953011514711796,0.1246407489113222,1.732702166046217,0.0382759083319407,0.1428762869765208,0.0274866176865946,-0.8589773111681654,-0.0274188058547229,-0.2198732535915571,0.9128676709774588,0.1235877258318257,1.736516307430903,-0.8624541302195944,-0.0649154192644705,-0.2069819260532575,0.5033488909375137,0.3988150510423949,-0.2067967097696563,0.2270281522158024,10.575441721654895,-0.9783362160358632,0.1743164539674358,-0.9271395417798836
2.14,0.8790750165236423,0.1240772993245557,1.7285649940931749,0.0399872921633741,0.1519755581106895,0.0277682179441576,-0.849216449971729,-0.0316411469204022,-0.2158799224123171,0.8956372866518814,0.122468185857815,1.7321887241548797,-0.863389044160322,-0.0738538398284067,-0.1975846883053499,0.567999272178474,0.4880430598218244,-0.2111170532839604,0.1996665589619972,10.560950077093366,-0.968476829497701,0.1726954401541077,-0.9374446600252572
2.16,0.8622174583777776,0.1233930552394561,1.7242903891437262,0.0414258209643657,0.1610705347433009,0.0280401330983953,-0.8368163272481637,-0.0365499953734072,-0.2118223545014657,0.8783835294777859,0.121125185369706,1.7280960718225538,-0.8643239581010498,-0.0827922603923429,-0.1881874505574422,0.6970001686607057,0.6200061361782638,-0.2454424226502514,0.2028783955425703,10.562217563507147,-0.9587070466618428,0.1713394218614499,-0.9473912977419918
2.18,0.8456292549459873,0.122604965691146,1.7200952668033895,0.0423169713336578,0.1696367582783955,0.0282674598795509,-0.8224086960485896,-0.0419827575739549,-0.2079254718829802,0.8611063994551722,0.1195587243674985,1.7242383504339258,-0.8652588720417774,-0.0917306809562792,-0.1787902128095346,0.79416691578801,0.7203815599787056,-0.2716381100273859,0.1948441309242765,10.576498134541907,-0.9490452617061584,0.170403812595261,-0.956949921272132
2.2,0.829349167216271,0.1217038918429412,1.7159776876935302,0.0424557238374507,0.1776718716096273,0.0284291259437839,-0.806123686303468,-0.0477645330202224,-0.2040668335240331,0.8045088201435578,0.1205058278124483,1.7096989932092406,-0.7804157076111754,-0.0590395281966852,-0.1889536673535517,0.8853241774837404,0.8142504872560796,-0.2890887723133756,0.1929319179473518,10.609353091151206,-0.9400728499890376,0.170118737415622,-0.9655248913368404
2.22,0.8141849792052162,0.1207097952478428,1.7120478952039269,0.0406976898596812,0.1848721502921778,0.0284326372037112,-0.7907639823554234,-0.0560469728486125,-0.2098060481893477,0.8045088201435578,0.1205058278124483,1.7096989932092406,-0.7804157076111754,-0.0590395281966852,-0.1889536673535517,0.9185013607189696,0.7679851974022267,-0.4141219914195047,-0.2869607332657301,10.609353091151206,-0.927623930574268,0.1703478436562424,-0.9778037987794724
2.24,0.7985549781880532,0.1195271267798044,1.7077973297949791,0.0367796110486018,0.1920292270508216,0.0282600374332739,-0.7728564291276973,-0.0612409980544746,-0.2148576405368157,0.8045088201435578,0.1205058278124483,1.7096989932092406,-0.7804157076111754,-0.0590395281966852,-0.1889536673535517,0.9658894161444864,0.8953776613863096,-0.2597012602931055,-0.2525796173733996,10.044862273291074,-0.9175025217414736,0.1729951921086171,-0.9871184854608014
2.26,0.783303283727945,0.1182779057770381,1.7034687972336418,0.0326091931773753,0.1987253833257894,0.028032944051398,-0.7530511386118648,-0.0634070200407092,-0.2177942889596311,0.7967046630674461,0.1199154325304814,1.7078094565357052,-0.7720171099236925,-0.0624508823212312,-0.185159306447666,1.0069323309197578,0.9902645257916232,-0.1083010993117278,-0.1468324211407662,10.27992806295788,-0.9083178950537998,0.1763179851631713,-0.9949670204559136
2.28,0.7684662346270181,0.1170036197338796,1.69909965851594,0.0289770464817073,0.2049615889263019,0.0278123390311958,-0.7314948894140578,-0.0640341953246014,-0.2190221672622774,0.7810963489152226,0.1187346419665477,1.704030383188634,-0.755219914548727,-0.0692735905703233,-0.1775705846358946,1.0800149460086057,1.0778124598903482,-0.0313587641946132,-0.0613939151323156,10.27992806295788,-0.900107969141017,0.1793146669218013,-1.001617451654585
2.3000000000000003,0.7547858440254774,0.1157903436427327,1.6949401463077791,0.0262396313129895,0.2104757578719049,0.0276310818296791,-0.7095020248419706,-0.0638063629654045,-0.2188016335769994,0.7654880347629991,0.117553851402614,1.700251309841563,-0.7384227191737612,-0.0760962988194154,-0.1699818628241232,1.0997575127913548,1.0996432286043634,0.0113916179598487,0.011026684263897,10.394571752290176,-0.8919089460429501,0.1820322192770563,-1.0079764581342103
2.32,0.7408580606259411,0.1145222894466829,1.6905778854140854,0.024105389830005,0.2156795317903471,0.0274721758611602,-0.6843147626859623,-0.0631257648985139,-0.2174053381144282,0.7507195803795239,0.1160319254262257,1.6968516725850806,-0.7216255237987955,-0.0829190070685075,-0.1623931410123518,1.261755750594128,1.2593631078004153,0.0340299033445304,0.0698147731285625,10.496339738628194,-0.8846332978708406,0.1843130256909296,-1.0132872001754731
2.34,0.7274591356909128,0.1132737247895019,1.6862527445928843,0.0227531252271996,0.2197537352139648,0.0273410871778117,-0.6568945722898338,-0.0618980055203235,-0.215203086353965,0.7359511259960486,0.1145099994498374,1.6934520353285982,-0.7048283284238299,-0.0897417153175996,-0.1548044192005804,1.3767935096330994,1.371009519806421,0.0613879689095188,0.1101125880231604,10.649683012935384,-0.8784907344490002,0.1860844632809161,-1.0174254228818025
2.36,0.7146270441001542,0.1120535275024442,1.6819801135201533,0.0222562304336218,0.2222071688760232,0.0272374689722481,-0.6278423930981125,-0.06028968119834,-0.2121710588036246,0.7216026014969475,0.1128175057672218,1.69024211611741,-0.6880311330488642,-0.0965644235666917,-0.147215697388809,1.4627106805333987,1.4526089595860658,0.0804162160991731,0.1516013775170174,10.649683012935384,-0.8741456432450952,0.1870731030634461,-1.0201124966916886
2.38,0.7029854101534494,0.1109262263739685,1.6779872311693904,0.0226824901028306,0.2227522805589228,0.0271678113811713,-0.5992030652958797,-0.0585621004308564,-0.2082751555210326,0.7076740068822206,0.1109544443783789,1.6872219149515162,-0.6712339376738986,-0.1033871318157838,-0.1396269755770376,1.4477341733371096,1.4319663901116386,0.0863790383741833,0.1947951641296005,10.71523391667506,-0.8716359572245533,0.1871177615121462,-1.0214704522808844
2.4,0.6913249619647572,0.1097731308063857,1.6738761873553378,0.0241361882500663,0.2211991948411515,0.0271199884983738,-0.568420073784375,-0.0569362759151571,-0.2029640637646624,0.6730252568886554,0.1079981213524257,1.6675734733933387,-0.604733971205716,-0.0591373257072632,-0.1824580406612132,1.5640041299480372,1.5391495755752382,0.0812912257849629,0.2655545878185117,10.78928865947364,-0.8717548271744266,0.1863456800682413,-1.0206117810936572
2.42,0.6803534237120569,0.1085711938459318,1.6697623170076783,0.0239679408860299,0.2141156416010482,0.0268252944217102,-0.5316085496275362,-0.0624211885614797,-0.2084926369370102,0.6730252568886554,0.1079981213524257,1.6675734733933387,-0.604733971205716,-0.0591373257072632,-0.1824580406612132,1.8813144997642717,1.8405762078419372,-0.2742456323161293,-0.2764286586173906,10.86854799759567,-0.8770438951708928,0.1866765102497374,-1.015453790861246
2.44,0.6700584883089753,0.1072846594920649,1.6655743264616631,0.0209738133253237,0.2004615836993691,0.0262081404916372,-0.5007733246291242,-0.0655150101636225,-0.2098167382362105,0.6730252568886554,0.1079981213524257,1.6675734733933387,-0.604733971205716,-0.0591373257072632,-0.1824580406612132,1.5509159205604337,1.5417612499206037,-0.154691080107143,-0.0662050649600176,10.268192542091128,-0.884792807111902,0.1885434723191985,-1.0084543685218386
2.46,0.6607833178338868,0.1060390307571202,1.6616192501950238,0.0171133833952263,0.1841104436776312,0.0255521023440532,-0.4778115083600748,-0.0652943663943382,-0.2063347644921323,0.6669779171765983,0.1074067480953531,1.6657488929867266,-0.6058401523876833,-0.0592523707625446,-0.1772946176892493,1.1612685210589264,1.148090813452468,0.0110321884642189,0.1740986872039135,10.463314837596954,-0.8978435721473697,0.1920718460870747,-0.9958824682739108
2.48,0.6514218027420821,0.1047544241064986,1.6575673487561748,0.0132579074863469,0.1656196629994926,0.024947782689265,-0.4601865564812775,-0.0631966541034994,-0.1988248852661548,0.654883237752484,0.1062240015812078,1.6620997321735025,-0.6080525147516178,-0.0594824608731073,-0.1669677717453216,0.9636358383406856,0.8812475939398628,0.1048856145419392,0.3754939612988714,10.852266146203874,-0.9139320014926824,0.1960059879472986,-0.9796154178118904
2.5,0.6423456572996662,0.1035241478306014,1.6537010418490083,0.0100778525513666,0.1476186792687906,0.0244845944182058,-0.448723997661088,-0.0600824035054731,-0.1881395159894002,0.6427885583283697,0.1050412550670625,1.658450571360278,-0.6102648771155523,-0.0597125509836701,-0.1566409258013938,0.7988521891974512,0.573127941009477,0.155712529901314,0.5342684638377323,10.852266146203874,-0.9305584548725347,0.1997399893357107,-0.961960169527904
2.52,0.6334409165231021,0.1023619816907036,1.650070523219891,0.0076484085408422,0.1313702537689401,0.0241596112330628,-0.442562631077835,-0.0564508597258652,-0.1754144103024613,0.6305832607860586,0.1038470040473891,1.6553177528442502,-0.6124772394794868,-0.0599426410942328,-0.146314079857466,0.729861053797569,0.3080683291626501,0.1815771889803953,0.6362552843469427,11.09088157619317,-0.9457843289493716,0.2029768468498248,-0.9449814981450324
2.54,0.6250526651692827,0.1013283289387335,1.6468656783310354,0.0060024032771356,0.1182905788720348,0.023959970789771,-0.4407888926168553,-0.0526663678294621,-0.1625529506603892,0.6183779632437476,0.1026527530277157,1.6521849343282222,-0.6146896018434214,-0.0601727312047955,-0.1359872339135382,0.676176144149122,0.0886869230489861,0.1892245948201542,0.6430729821036069,11.09088157619317,-0.9603170462577316,0.2060399993765759,-0.9279175551240229
2.56,0.6162265712580175,0.1003208209073086,1.6437602582310653,0.004963646072004,0.1073729294449641,0.0238460132379665,-0.4419976328178864,-0.0483231204159754,-0.1486351785798334,0.6061173566423382,0.1014527497552782,1.6493102869607923,-0.6169019642073559,-0.0604028213153583,-0.1256603879696105,0.7314868943710592,-0.0604370100515588,0.2171623706743369,0.6958886040277903,11.12120437341764,-0.9728123911701672,0.2086619862523968,-0.9124793769383598
2.58,0.6073456393517808,0.0994054926726599,1.640934112510217,0.0048170436534025,0.0996706085598097,0.023827802234205,-0.4460508261486682,-0.0435392280220281,-0.1346550593137609,0.5938014409818304,0.1002469942300767,1.646693810741961,-0.6191143265712904,-0.060632911425921,-0.1153335420256827,0.7660902970720417,-0.20265966653909,0.2391946196973637,0.6990059633036241,11.130235756406364,-0.98127667016805,0.2103474644556072,-0.901418268839838
2.6,0.5988095741086619,0.0986256506857735,1.6385066357495095,0.0056371366133199,0.0958187060328344,0.0239009503158535,-0.4522375751081109,-0.0389006892738859,-0.1215524824620749,0.5850430980443474,0.0972285312715585,1.634201359544529,-0.4620499440148267,-0.0657049325405847,-0.1103127254158126,0.760705962510351,-0.3093374479721356,0.2319269374071113,0.6551288425842995,11.131735761973689,-0.9872793445958458,0.2113146862186105,-0.8930211797832535
2.62,0.5896756194644333,0.097958158210502,1.636166945321651,0.0095212646774215,0.0960271134324569,0.0242166795698717,-0.4603665430674731,-0.0293272356410519,-0.1133710847396053,0.5850430980443474,0.0972285312715585,1.634201359544529,-0.4620499440148267,-0.0657049325405847,-0.1103127254158126,0.7494437991563946,-0.4064483979681066,0.478672681641697,0.4090698861234795,11.121156283218625,-0.9884634945195792,0.2101384495394583,-0.8899484528739767
2.64,0.5804096759861729,0.097416213678826,1.6339817509320251,0.0159782417222959,0.0997670459170366,0.0247573381108288,-0.4653982080153625,-0.0258227988559057,-0.1055106299147485,0.5850430980443474,0.0972285312715585,1.634201359544529,-0.4620499440148267,-0.0657049325405847,-0.1103127254158126,0.4984613309538677,-0.2515832473944712,0.1752218392573116,0.3930227412428426,10.727182651231487,-0.9887203329969682,0.2061574911846395,-0.8897202409639227
