t,x,y,z,roll,pitch,yaw,v_x,v_y,v_z,ref_x,ref_y,ref_z,ref_v_x,ref_v_y,ref_v_z,a_com,a_x,a_y,a_z,thrust,wind_x,wind_y,wind_z
0.0,-0.1635634796187557,-1.2199408366838087,2.3010764611844787,0.024765707449886,0.0998456271190624,0.0424380985794697,0.0044092520796161,-0.0060596112905515,0.0105256769456525,-0.1634297992968592,-1.2201585266102848,2.30139392643026,0.0980331146899115,0.0930488973729176,-0.0894323919929676,0.6460461826727626,0.2204626039808075,-0.3029805645275754,0.5262838472826256,10.247243919972789,-0.9428252418807116,0.2597883026629121,-0.8735234879494044
0.02,-0.1635756250823412,-1.2202844539450095,2.3010608984835925,0.0153447213747373,0.1026371641830046,0.0418405092459451,-0.0054678147250391,-0.0242309104517536,-0.0130993024370818,-0.1634297992968592,-1.2201585266102848,2.30139392643026,0.104445106703366,0.0930488973729176,-0.0894323919929676,1.569946028295364,-0.493853340232766,-0.9085649580601076,-1.1812489691367196,10.246850092593377,-0.9265526077043548,0.2650099311486711,-0.8900304071086805
0.04,-0.1637588577152952,-1.2207910752540745,2.3005108643379004,-0.0009371521677036,0.109895216162807,0.0407791383129417,-0.0117853681846369,-0.0244196506017714,-0.0406250075901199,-0.1634297992968592,-1.2201585266102848,2.30139392643026,0.104445106703366,0.0930488973729176,-0.0894323919929676,1.4121008716900243,-0.3158776729798869,-0.0094370075008898,-1.3762852576519031,8.907740667904818,-0.9162425414740812,0.2712157777190622,-0.9055093505775148
0.06,-0.1640095874528764,-1.2211908559370843,2.299477229895491,-0.0171224809603228,0.118769276287873,0.0396075043474493,-0.0139416950934376,-0.0173124345869003,-0.066860867656298,-0.1634297992968592,-1.2201585266102848,2.30139392643026,0.104445106703366,0.0930488973729176,-0.0894323919929676,1.3633438841977266,-0.1078163454400354,0.355360800743555,-1.3117930033089056,8.790588545449737,-0.9016553689895642,0.2798165448929591,-0.9236287659447022
0.08,-0.1642822876476489,-1.2214188689196257,2.297854255263951,-0.0334542192599355,0.1289281935522232,0.0382660679536238,-0.0128698809071598,-0.0055883726447326,-0.094092734898598,-0.1623853482298256,-1.2192280376365556,2.3004996025103304,0.1244451070013892,0.1130488976709409,-0.1094323922909908,1.483388863022725,0.0535907093138862,0.5862030971083848,-1.3615933621149985,8.803551434175006,-0.8848701576924689,0.2888428399299872,-0.9427953904630731
0.1,-0.1645027084622935,-1.221360749208079,2.29569309788095,-0.0481684279013605,0.139219863215967,0.0368889393321879,-0.0089188015173722,0.0107423188578947,-0.1206853795418891,-0.1602964460957582,-1.2173670596890973,2.298710954670471,0.1644451075974356,0.1530488982669873,-0.1494323928870373,1.5727931065645204,0.1975539694893799,0.8165345751313724,-1.3296322321645535,8.858196743411554,-0.8670463442115598,0.2979240658260343,-0.9613473986223676
0.12,-0.1646163485021291,-1.2209417099497637,2.293009234135369,-0.0606685801950831,0.1492654965656971,0.0355555810699471,-0.0023674859824485,0.0300139156736943,-0.1464470758057343,-0.1582075439616909,-1.215506081741639,2.2969223068306115,0.2044451081934821,0.1930488988630338,-0.1894323934830837,1.6416296578853342,0.3275657767461871,0.9635798407899804,-1.288084813192261,9.018710065876803,-0.8496706704283535,0.3057995023462936,-0.9783585352409168
0.14,-0.164581585314075,-1.2201686846726,2.2899813247421448,-0.0705936855084074,0.1584120110592624,0.0343600988487308,0.0059193007712595,0.0501024980538827,-0.1710483134905226,-0.1541186417978213,-1.2116451037643785,2.29313365896095,0.2444451087895285,0.2330488994590802,-0.2294323940791302,1.6412212467934495,0.4143393376854031,1.0044291190094197,-1.2300618842394182,9.018710065876803,-0.8310104275356608,0.3132983375577959,-0.9955399430244484
0.16,-0.1643543454627086,-1.2189321890749905,2.286284446868361,-0.0793071971494305,0.1675460612904783,0.0331880770444915,0.0165985380557399,0.0723681565665259,-0.1974006891595659,-0.1500297396339516,-1.2077841257871176,2.2893450110912883,0.284445109385575,0.2730489000551267,-0.2694323946751767,1.805722404871703,0.5339618642240196,1.113282925632158,-1.3176187834521638,9.049999718129584,-0.812616345781546,0.3198443376238518,-1.0118227064970762
0.18,-0.1638933834614246,-1.2172259314501903,2.2820613798212146,-0.0861329923421579,0.1761476851878263,0.0321403447736565,0.0291881412130904,0.0966815489352868,-0.2236239336767775,-0.1449408374551808,-1.2029231477949558,2.2845563632067254,0.3244451099816214,0.3130489006511731,-0.3094323952712231,1.8955854696810412,0.6294801578675288,1.2156696184380442,-1.311162225860578,9.11126906757545,-0.796120704198839,0.3249492822367735,-1.0259548472034972
0.2,-0.1632046182921853,-1.2151442089380695,2.277566979080923,-0.0908421406889567,0.1838256619998484,0.0312845269567937,0.0428692716418002,0.120798339552767,-0.2481823208844779,-0.1388519352615089,-1.197062169787893,2.278767715307261,0.3644451105776679,0.3530489012472195,-0.3494323958672695,1.8519633512424705,0.6840565214354904,1.2058395308740124,-1.2279193603850214,9.165271259521433,-0.7791629697720932,0.3290665680959554,-1.040095825163556
0.22,-0.1621811550077828,-1.2124565295343113,2.272333830675936,-0.0941918007905915,0.1914024285314941,0.0305302765288435,0.0589547040479109,0.1464294610204832,-0.2738423990644597,-0.1610611547100953,-1.2091042919604311,2.2651578630366997,0.12549302161319,0.2207983410428832,-0.348182322374594,1.983768595115841,0.8042716203055331,1.2815560733858096,-1.2830039089990863,9.165271259521433,-0.7634809872610681,0.3323141673690961,-1.0522648500972505
0.24,-0.1608017552579609,-1.2091488361257443,2.266686784959406,-0.0930913574059896,0.1984519076344958,0.0301450211047967,0.0785113685066533,0.1821397858442603,-0.2889496054771484,-0.1610611547100953,-1.2091042919604311,2.2651578630366997,0.12549302161319,0.2207983410428832,-0.348182322374594,2.171357933049668,0.977833222937121,1.785516241188853,-0.7553603206344378,9.204243409186349,-0.7516166946630161,0.3317856553353492,-1.0615386262997482
0.26,-0.1591110833833917,-1.2054033857720117,2.261055349470606,-0.0872840441044038,0.2046676996007626,0.0301963159047284,0.0986480212715187,0.2092844778725121,-0.3030758142225997,-0.1610611547100953,-1.2091042919604311,2.2651578630366997,0.12549302161319,0.2207983410428832,-0.348182322374594,1.8315764135038584,1.0068326382432693,1.3572346014125891,-0.706310437272567,9.92421519952677,-0.738820763410656,0.3285813626468178,-1.069272572717154
0.28,-0.1569060916394619,-1.2009700053712378,2.2548222130029485,-0.0800157609496095,0.2107582200889357,0.0304233370744649,0.1209255122455233,0.2323774537166715,-0.3195921925005829,-0.1598062244939634,-1.2068963085500024,2.2616760398129534,0.142017771607468,0.2407983413409064,-0.3681823226726173,1.8044132625712572,1.1138745487002295,1.1546487922079711,-0.8258189138991567,9.82804554867289,-0.7287778626105372,0.324207314957611,-1.0747112772805898
0.3,-0.1542381301873952,-1.1961075352499575,2.248240688759535,-0.0729913722811958,0.2161965242277669,0.0307352964693471,0.1448392635843538,0.2526466243500319,-0.3378163197249658,-0.1572963640616996,-1.2024803417291448,2.2547123933654616,0.1750672715960239,0.2807983419369528,-0.4081823232686637,1.8130261955844649,1.195687566941526,1.013458531668017,-0.9112063612191468,9.63163490522129,-0.7205073063224434,0.3191245691467826,-1.0799695819603643
0.32,-0.1510769832104997,-1.1908592987493043,2.241279639811727,-0.0666847499678964,0.2205975982420313,0.0311128366429276,0.1700959459801557,0.2711695478930767,-0.3574395809300361,-0.1547865036294358,-1.198064374908287,2.2477487469179698,0.2081167715845798,0.3207983425329993,-0.4481823238647102,1.848019942090932,1.2628341197900932,0.92614617715224,-0.9811630602535149,9.63163490522129,-0.7135967646933603,0.3148741265303659,-1.084204060196657
0.34,-0.1475968075466624,-1.1855434028370797,2.2342918203345863,-0.0614973484409776,0.2235901310414803,0.0315211972534927,0.1948977755482723,0.2875747535785107,-0.3771358054208983,-0.1506241681977442,-1.191648408057627,2.238785100440676,0.2411662715731357,0.3607983431290457,-0.4881823244607566,1.7833975879635895,1.2400914784058317,0.8202602842717011,-0.9848112245431084,9.567464870848198,-0.7084707211420536,0.3114311530903477,-1.0865612661491195
0.36,-0.1434215055047454,-1.1796206278529089,2.2265266740795937,-0.0568842910767116,0.2255039751854266,0.0319857099346242,0.2212641321160579,0.3039125405073085,-0.3983609434959102,-0.1464618327660526,-1.1852324412069672,2.2298214539633814,0.2742157715616917,0.4007983437250922,-0.5281823250568032,1.8792382277759048,1.3183178283892802,0.8168893464398919,-1.061256903750596,9.49400282978695,-0.7044055431807417,0.3086092246139332,-1.088410918678085
0.38,-0.1387103985350372,-1.1733694066370717,2.2183340727315963,-0.0528184694789255,0.2260248904946241,0.0325014953282707,0.2483918945859692,0.3203209572398471,-0.4198140072342469,-0.1414732598346471,-1.177816474341406,2.219857807471186,0.3072652715502476,0.4407983443211387,-0.5681823256528495,1.914017750736466,1.3563881234955624,0.8204208366269283,-1.0726531869168332,9.49400282978695,-0.7021220777097746,0.3058609706156793,-1.0895982839366944
0.4,-0.1334509142706494,-1.166793552252881,2.20971057695062,-0.0489404981103891,0.2248218007362416,0.0330978138099974,0.2760868473644621,0.3363248850217827,-0.441434745073983,-0.1356584494035277,-1.1694005074609437,2.208894160964089,0.3403147715388034,0.4807983449171851,-0.608182326248896,1.930409554075872,1.3847476389246465,0.80019638909678,-1.0810368919868083,9.490413113803696,-0.7018646329597112,0.3034846701045113,-1.0893557708569384
0.42,-0.1279378174570452,-1.1602555779523875,2.201115385004112,-0.0453269955391776,0.2216692007013578,0.0337519515927535,0.3027223247154941,0.3509668612498399,-0.4622049499474393,-0.1196465719024262,-1.149977308001792,2.1876388396969206,0.2849815693418748,0.4363248865118988,-0.5208460058576554,1.8406775464931904,1.3317738675516,0.7320988114028593,-1.0385102436728133,9.482470862228183,-0.703811006075906,0.3011507092263701,-1.0875636376575262
0.44,-0.1214174324569158,-1.1530677604303654,2.1918608957580514,-0.0416429347127506,0.211930272295969,0.0346970793252735,0.3471202570086109,0.3670208933045177,-0.4606731943275993,-0.1196465719024262,-1.149977308001792,2.1876388396969206,0.2849815693418748,0.4363248865118988,-0.5208460058576554,2.361807894598816,2.219896614655839,0.8027016027338907,0.076587780991999,9.465608465558034,-0.712942445989506,0.2962108791244783,-1.084864553000589
0.46,-0.1140766058628767,-1.1455770157158114,2.182666697687589,-0.0384840748875253,0.1934765085993733,0.0359175606832463,0.3833118698799497,0.3813231366806845,-0.4588971551117773,-0.1196465719024262,-1.149977308001792,2.1876388396969206,0.2849815693418748,0.4363248865118988,-0.5208460058576554,1.9477816376047536,1.8095806435669408,0.7151121688083406,0.0888019607911017,11.071995952284851,-0.7351701798488445,0.3025803273042765,-1.0574445339905274
0.48,-0.1061266867940013,-1.1378076067487533,2.1734674044490614,-0.0360130387039352,0.1698547233635604,0.0372253205125165,0.4087036138029895,0.3949753027548332,-0.4608776905915567,-0.1167967562090075,-1.1456140591366728,2.182430379638344,0.2867605137373574,0.456324886809922,-0.5367282580143898,1.4448571025849144,1.269587196151989,0.6826083037074354,-0.0990267739889722,10.73177442060114,-0.7611604528646846,0.3081089910926968,-1.0284235055687247
0.5,-0.0982051531786341,-1.1301806463626294,2.164657149816776,-0.0341774766027551,0.1453619652226966,0.038451240472846,0.4231041960192032,0.4072374284939311,-0.4662909982485204,-0.11109712482217,-1.1368875614064349,2.172013459521191,0.2903184025283225,0.4963248874059685,-0.5684927623278588,0.983667112894804,0.7200291108106854,0.6131062869548953,-0.2706653828481842,10.387260782580595,-0.7892815057522813,0.3126220289998222,-0.9984611616966296
0.52,-0.0896671948528137,-1.121910379456082,2.155237461756057,-0.0328504840162661,0.1196706848406417,0.0396525680337986,0.4291911928885249,0.4191465875301578,-0.4755218145902152,-0.1053974934353325,-1.128161063676197,2.1615965394040377,0.2938762913192875,0.5363248880020149,-0.6002572666413277,0.8125385685790103,0.304349843466084,0.5954579518113345,-0.4615408170847379,10.084077960581451,-0.8167988157622538,0.3160855123174628,-0.9695977075014082
0.54,-0.0810938070295312,-1.1134112728346597,2.14559467968964,-0.032349294955598,0.0957783845136163,0.0407150861983135,0.427333623142567,0.4301967456434301,-0.488439139877828,-0.0995199676089467,-1.1174345659161566,2.1495913940712112,0.2974341801102526,0.5763248885980614,-0.6320217709547966,0.8550056319630571,-0.0928784872978955,0.5525079056636156,-0.6458662643806429,9.59791241774019,-0.8417009331378783,0.3184966104216212,-0.9439569908271253
0.56,-0.0726287348900712,-1.1046990159849026,2.1356656973809622,-0.0328830680984666,0.0749452271363848,0.0416113011791792,0.4191057916826335,0.4405952341158199,-0.5037980258983104,-0.093642441782561,-1.1067080681561163,2.1375862487383848,0.3009920689012177,0.6163248891941079,-0.6637862752682656,1.0145456530310282,-0.4113915729966749,0.5199244236194916,-0.7679443010241149,9.59791241774019,-0.8611908860645106,0.3199466163635912,-0.9246694606183796
0.58,-0.0647850627316834,-1.0962229179270877,2.1259325999662133,-0.0341756238705251,0.058577123431067,0.042320520448104,0.4069558765146281,0.4511100279759956,-0.5199699564667544,-0.0876759687364011,-1.094981570381175,2.124786990797721,0.3045499576921828,0.6563248897901542,-0.6955507795817345,1.1398603717366955,-0.6074957584002671,0.525739693008781,-0.8085965284222008,9.394859654003994,-0.877755860144013,0.3208909437813597,-0.9091206540265996
0.6,-0.05680984019221,-1.087079464113673,2.1153411639166126,-0.0360211902260489,0.0451071213640006,0.0429385297535468,0.3911712511082916,0.4627030159114265,-0.5383849614172536,-0.0816205484704671,-1.0822550725913322,2.1111936202492214,0.3081078464831479,0.6963248903862007,-0.7273152838952034,1.3441206938146604,-0.7892312703168258,0.5796493967715477,-0.9207502475249596,9.394859654003994,-0.8903616493896185,0.3213803111210176,-0.8982120055051087
0.62,-0.0491755394855885,-1.0776942445587965,2.104369496777949,-0.0379929663627841,0.0354527488228134,0.0434423499208718,0.3730432729152608,0.4752857474009702,-0.5579039215686238,-0.0372512776367954,-1.0639443133181017,2.0884219158457498,0.305812154581192,0.5627030174015426,-0.5771799557715016,1.4730398250690069,-0.90639890965154,0.6291365744771821,-0.9759480075685112,9.279585767367736,-0.898934381947667,0.3213448538358497,-0.8919673796429393
0.64,-0.0417758248536515,-1.0679797279073937,2.0933567104214714,-0.0379942396120318,0.0252451785973166,0.0441219922338545,0.3667513355447548,0.494737051664336,-0.5423275188533938,-0.0372512776367954,-1.0639443133181017,2.0884219158457498,0.305812154581192,0.5627030174015426,-0.5771799557715016,1.285073961847556,-0.3145968685252992,0.9725652131682944,0.7788201357614988,9.279585767367736,-0.907485755631758,0.3126688491109941,-0.8982689205581567
0.66,-0.034914330373516,-1.0584152600707704,2.083167279070157,-0.0356156999455684,0.0124227989726964,0.0450316891162618,0.3551874650405259,0.5108707821795095,-0.5310886731650301,-0.0372512776367954,-1.0639443133181017,2.0884219158457498,0.305812154581192,0.5627030174015426,-0.5771799557715016,1.1405393612033603,-0.5781935252114456,0.8066865257586736,0.5619422844181876,11.330019352389172,-0.9236200910176264,0.3178083216089112,-0.8699809650452051
0.68,-0.0279930157330173,-1.048050779175106,2.0726225308857225,-0.0318604715185074,-0.0023139289813508,0.0460651021882858,0.3370181053290347,0.5243648379701052,-0.5241868779571957,-0.0341931560909835,-1.0583172831440864,2.082650116288035,0.2887403352757721,0.5827030176995658,-0.5849389546423512,1.1830574279131116,-0.9084679855745598,0.6747027895297852,0.3450897603917202,10.944267849645255,-0.9393861110445136,0.3197169587511665,-0.8455966767003764
0.7000000000000001,-0.0214940602059505,-1.0374483103639875,2.0621656716859804,-0.0282003712536268,-0.0167145029995097,0.0470134970520431,0.3134085245204441,0.5351939969847107,-0.5220377571238582,-0.0280769129993597,-1.0470632227960557,2.0711065171726046,0.2545966966649323,0.6227030182956123,-0.6004569523840504,1.3031708553344683,-1.1804790404295329,0.541457950730273,0.1074560416668701,10.631529150762615,-0.953941216205426,0.3195903880381827,-0.8255861989043485
0.72,-0.0155172433917587,-1.0266476624147314,2.05170624230153,-0.0251888616209223,-0.0295240436498658,0.0478141506400112,0.2853241237141295,0.5444814877398129,-0.5239970642041215,-0.0219606699077358,-1.0358091624480246,2.059562918057175,0.2204530580540924,0.6627030188916587,-0.6159749501257497,1.4822532993812163,-1.404220040315729,0.4643745377551078,-0.097965354013163,10.370425793966206,-0.9658437914404372,0.3182086766321665,-0.8111880288344455
0.74,-0.0103925659560621,-1.0162245213603496,2.041705562346068,-0.0230647463609612,-0.0395228918004239,0.0484306275489418,0.2555325033905078,0.5524144328828104,-0.5286006107257317,-0.017551608746654,-1.0225551020701913,2.04724341905466,0.1863094194432526,0.7027030194877052,-0.6314929478674489,1.5585769957923703,-1.4895810161810852,0.3966472571498791,-0.2301773260805106,10.1722127400908,-0.9760014952486108,0.3157800401421212,-0.8010425515187009
0.76,-0.0056334097097535,-1.0050978573691192,2.0310755798127547,-0.0216980127354018,-0.0473830108454101,0.0489330090858022,0.2218498249954305,0.5599279158444532,-0.5341844726182229,-0.0131425475855721,-1.0093010416923582,2.0349239200521447,0.1521657808324127,0.7427030200837517,-0.6470109456091481,1.7479665069127617,-1.6841339197538665,0.375674148082139,-0.279193094624558,10.017605420779546,-0.9833666935953804,0.3127114695215349,-0.7961947260180657
0.78,-0.0015816234597153,-0.993819980388842,2.020328231204051,-0.0211592852156624,-0.051732285173258,0.0492890428974471,0.1850334139069071,0.5675194875385046,-0.5402782095285853,-0.0095870773897613,-0.995046981299624,2.0222164711060877,0.1180221422215729,0.782703020679798,-0.6625289433508473,1.9040835825652336,-1.8408205544261689,0.3795785847025668,-0.3046868455181206,10.017605420779546,-0.9875830835632688,0.3100811524952491,-0.7952614733498408
0.8,0.0015724258870843,-0.9829654732406082,2.0100042659729835,-0.0212273925401661,-0.051871069032129,0.0494963590800029,0.1493501103307868,0.5747223578024185,-0.5460799347725752,-0.0068851981592214,-0.9797929208919884,2.0091210722164874,0.083878503610733,0.8227030212758445,-0.6780469410925465,1.8431220184452528,-1.7841651788060118,0.3601435131956987,-0.2900862621994959,10.033806702518632,-0.9897692062555892,0.3064806193071145,-0.7990448982581008
0.8200000000000001,0.0041793960053448,-0.9713909455862506,1.9990207982348085,-0.0218716665425885,-0.0484633563176234,0.0495933122930126,0.1136305493525615,0.5823984217309239,-0.551909362135719,0.0090399314036236,-0.9542293553504873,1.9827002692343547,0.1126823275174762,0.6747223592925347,-0.5591297747683767,1.8498589252249944,-1.7859780489112664,0.3838031964252697,-0.2914713681571867,10.034010310748272,-0.9891302986747648,0.3034449474164374,-0.8059047581373908
0.84,0.0060084024012721,-0.9596028461670388,1.9880871057636524,-0.021217867205207,-0.0398302899499198,0.0496607294203199,0.0718250161074279,0.59564146458931,-0.5400967358286282,0.0090399314036236,-0.9542293553504873,1.9827002692343547,0.1126823275174762,0.6747223592925347,-0.5591297747683767,2.2708032358231702,-2.090276662256678,0.6621521429193034,0.5906313153545395,11.306832883915376,-0.9843507676718216,0.2956196300900723,-0.8247369164573678
0.86,0.0070369209720111,-0.948183121046323,1.9779467198012088,-0.0186636892882924,-0.0264209073849726,0.049763230876088,0.0393558847050338,0.6055634908853145,-0.5278986938025246,0.0090399314036236,-0.9542293553504873,1.9827002692343547,0.1126823275174762,0.6747223592925347,-0.5591297747683767,1.8038038482018528,-1.6234565701197043,0.4961013148002235,0.6099021013051764,11.09716712795489,-0.9774057220893566,0.2929937464136708,-0.8346004272126939
0.88,0.0075287032696391,-0.9359889729381232,1.9675074225162748,-0.0156645987504475,-0.0097864549868475,0.0498829523402985,0.0122451285480624,0.6133488549712452,-0.5167341088738366,0.0101667546787984,-0.947482131757562,1.977108971486671,0.1053487709548141,0.6947223595905578,-0.5617397427675369,1.5167835623311197,-1.355537807848572,0.3892682042965389,0.5582292464343996,11.09716712795489,-0.9668422824736392,0.2904159502080675,-0.8479799643052577
0.9,0.0075417644874542,-0.9236531685832956,1.957270826346523,-0.0132456490978169,0.0077472391271819,0.049987659240953,-0.0089960066797115,0.6199970879112405,-0.5075636554208711,0.0124204012291479,-0.9339876845717112,1.9659263759913037,0.0906816578294898,0.7347223601866043,-0.5669596787658575,1.2036216634827863,-1.0620567613887009,0.332411646999764,0.458522672648276,10.917384143504933,-0.9544137038437244,0.2884630093366896,-0.8627003036813468
0.92,0.0071832104045151,-0.9111913717069464,1.9471968339364376,-0.0117079813440607,0.0252489135334941,0.0500589778488683,-0.0252872233384685,0.6260735194228861,-0.5002924087943059,0.0146740477794974,-0.9204932373858604,1.954743780495936,0.0760145447041656,0.7747223607826508,-0.5721796147641781,0.942334584479708,-0.8145608329378509,0.3038215755822804,0.3635623313282599,10.771197599216976,-0.9417136882466433,0.2872564126828646,-0.8770583081522472
0.94,0.0065823577365834,-0.8992445341649347,1.9377468326135925,-0.0112561253242328,0.0413963119082476,0.0500718494396719,-0.0367493617338332,0.6313674045827337,-0.4948233907462286,0.0161943386735807,-0.9049987901702076,1.943300188200652,0.0613474315788413,0.8147223613786972,-0.5773995507624987,0.6879607457739523,-0.5731069197682324,0.2646942579923761,0.2734509024038628,10.659954295701027,-0.9279609794689256,0.2868773588491197,-0.8918020996771286
0.96,0.0057547174761192,-0.8865631671400841,1.9279062411880672,-0.0121528227464099,0.0576477314907744,0.0499882406895975,-0.0449902186296961,0.6366553380818862,-0.4895608932573415,0.0177146295676641,-0.8895043429545545,1.9318565959053688,0.0466803184535171,0.8547223619747437,-0.5826194867608193,0.5558053681148059,-0.4120428447931434,0.2643966749576287,0.2631248744443565,10.57643483407901,-0.914235974142966,0.2875035002637287,-0.9059546199247686
0.98,0.0048002347882619,-0.8737637082604437,1.9181663733119556,-0.0143890660084078,0.0729973985444858,0.0497902021115053,-0.0496707116121085,0.6431529448603698,-0.4847193539607313,0.0188682426336143,-0.8730098957240003,1.920282505210127,0.0320132053281928,0.8947223625707901,-0.5878394227591398,0.4678846309904502,-0.2340246491206211,0.3248803389241772,0.2420769648305093,10.560815429933427,-0.9012397708576856,0.2896876132225793,-0.917970619964458
1.0,0.0038003178572189,-0.8608107999680141,1.9085191437069815,-0.0172755114307618,0.086915460321824,0.0495229997602531,-0.0498959590819846,0.6519846487582763,-0.4802890171954098,0.0196551778714314,-0.855515448478545,1.908577916114928,0.0173460922028686,0.9347223631668364,-0.5930593587574604,0.494159928609005,-0.0112623734938047,0.4415851948953275,0.2215168382660753,10.541688984495522,-0.8903417220508973,0.2927094862624617,-0.9268856675063114
1.02,0.0028816303943753,-0.8483217405634113,1.8994317021246527,-0.0197713935556254,0.0981566866189741,0.0492822633889543,-0.0467430625396446,0.6621164637389068,-0.4765365081205842,0.0013055199031197,-0.8282115675301003,1.8845046928472116,-0.0211679172841082,0.7519846502483924,-0.478794193822487,0.5627516231986268,0.1576448271170011,0.5065907490315213,0.187625453741283,10.541688984495522,-0.8804004404132763,0.2965407990677609,-0.9334123995745284
1.04,0.001970798485995,-0.8348873590761681,1.8900545432829603,-0.0195658297379853,0.1089646375858753,0.0492234388700588,-0.0441233228673567,0.6801245046849514,-0.4607500505608297,0.0013055199031197,-0.8282115675301003,1.8845046928472116,-0.0211679172841082,0.7519846502483924,-0.478794193822487,1.2045381033314275,0.1309869836143937,0.9004020473022345,0.789322877987722,10.532378977449298,-0.871438362502264,0.2967217231089879,-0.9413959296650594
1.06,0.0011415631004876,-0.8211279433506044,1.8810019812889511,-0.0156050439979215,0.1198662743024495,0.0494432178341842,-0.0385480566546597,0.6941899617342538,-0.4454540213789389,0.0013055199031197,-0.8282115675301003,1.8845046928472116,-0.0211679172841082,0.7519846502483924,-0.478794193822487,1.0757429805504943,0.2787633106348469,0.70327285246512,0.7648014590945384,11.364269707637504,-0.864283296504124,0.2984692596090385,-0.9417822137346894
1.08,0.0004537636407017,-0.8071401594031745,1.872229378899065,-0.0105463461402981,0.1305114714411692,0.0497872427151314,-0.0301958290032054,0.7037429172915551,-0.4325832336871862,0.0010938407302786,-0.8206917210276163,1.8797167509089865,-0.0154223089245329,0.7719846505464156,-0.4784952291479024,0.9037088060150594,0.4176113825727148,0.4776477778650645,0.643539384587638,11.082720176604198,-0.8559853292056295,0.2986410336863529,-0.9442868098824712
1.1,-1.085139268480517e-05,-0.7936998683367921,1.864113035790981,-0.0060950662828981,0.1398719994754128,0.0501376116837404,-0.0190035740127744,0.7106626835525025,-0.4224324963389833,0.0006704823845964,-0.8056520280226486,1.8701408670325368,-0.0039310922053824,0.8119846511424621,-0.4778972997987333,0.8309440498450759,0.5596127495215512,0.3459883130473684,0.5075368674101438,10.96193361695623,-0.8478430508315197,0.2984748882155085,-0.9474870047704844
1.12,-0.0002412266226782,-0.7794228962572767,1.855761091019284,-0.0022544289391676,0.1482739937943105,0.0504874592832476,-0.0045197978154644,0.7168048069285163,-0.4133809254958524,0.0002471240389143,-0.7906123350176807,1.860564983156087,0.007560124513768,0.8519846517385086,-0.4772993704495641,0.907519128211848,0.7241888098655005,0.3071061688006915,0.4525785421565453,10.96193361695623,-0.8405287556706458,0.2986863714742897,-0.950229082013992
1.14,-0.0001573850335862,-0.7650302680773658,1.8475742529898211,0.0005879835538811,0.1547002375938144,0.0507900239056609,0.0120904470172817,0.7223862173277844,-0.405756168741294,0.0003983265291896,-0.7735726419829105,1.851018995747096,0.0190513412329186,0.891984652334555,-0.476701441100395,0.95549632523497,0.830512241637308,0.2790705199634036,0.3812378377279213,10.811743355508042,-0.8356047145128576,0.2997791496431799,-0.950599683607708
1.16,0.0002737995522438,-0.7505287492141319,1.8395351935714344,0.0025169565631296,0.1589418863722341,0.0510337911865632,0.0300327970638311,0.7276974799852517,-0.3985209564306271,0.000549529019465,-0.7565329489481403,1.8414730083381048,0.0305425579520691,0.9319846529306016,-0.4761035117512259,1.0031023544359088,0.8971175023274732,0.2655631328733643,0.3617606155333436,10.811743355508042,-0.8326284853370349,0.3014264324488254,-0.9494368807520552
1.18,0.0010232248084625,-0.736647737531114,1.832030890573551,0.0038001989056344,0.1608969196064895,0.0512209807403545,0.0477536087611071,0.7331964693022464,-0.3917470285006789,0.0009880119277191,-0.738493255898469,1.831941969162843,0.0420337746712197,0.971984653526648,-0.4755055824020567,0.9876134748965144,0.8860405848637997,0.2749494658497331,0.3386963964974093,10.800302504180763,-0.8316837678219385,0.3039096569689644,-0.945853120717214
1.2,0.0021768366416335,-0.7219231812499657,1.824270738324689,0.0047892488341169,0.1608102291005594,0.0513803244350466,0.0665872666224774,0.7389576173605187,-0.384605519800059,0.001713775253952,-0.7194535628338965,1.8224258782213096,0.0535249913903702,1.0119846541226942,-0.4749076530528876,1.0474953960632931,0.9416828930685124,0.2880574029136162,0.3570754350309957,10.7968621996406,-0.8329966682428961,0.3067541911002928,-0.9401648399048268
1.22,0.003709312962688,-0.7070829545312669,1.8166527543587403,0.0054801075488414,0.1583374628192381,0.0515015816422109,0.0856045998366361,0.7447584109606085,-0.37752630071418,0.0055061999727574,-0.6849753003819398,1.805040462334686,0.0528149699032243,0.8164272419394715,-0.3681626248644511,1.055252945784875,0.9508666607079386,0.2900396800044891,0.3539609542939498,10.779131893138585,-0.8367982323203995,0.3100087652217639,-0.931988729832502
1.24,0.0057086655634115,-0.6920105155478855,1.8092757480517667,0.0095727729935309,0.1505778536535753,0.0518075142639236,0.1121611221704127,0.7596997740399147,-0.3603810722709908,0.0055061999727574,-0.6849753003819398,1.805040462334686,0.0528149699032243,0.8164272419394715,-0.3681626248644511,1.7481791008798078,1.3278261166888288,0.7470681539653135,0.8572614221594582,10.779131893138585,-0.846670419456797,0.3089919730472935,-0.9214040184135625
1.26,0.0080427713289572,-0.6775106322372058,1.802586457575184,0.0159936361571929,0.1376991596856098,0.0521430902614287,0.1313264419896146,0.7655223743112264,-0.3445058657137274,0.0055061999727574,-0.6849753003819398,1.805040462334686,0.0528149699032243,0.8164272419394715,-0.3681626248644511,1.2779224750816789,0.958265990960095,0.2911300135655825,0.7937603278631744,11.288254780710304,-0.8621449863388831,0.3125523627025179,-0.8968345194058075
1.28,0.0108157495390109,-0.6621783311346139,1.795858078835047,0.0225770862497947,0.1209599961853628,0.052307201093648,0.1441522589560377,0.7673700394526057,-0.3291701181427963,0.0060343496717897,-0.676811027962545,1.8013588360860415,0.0500605105593737,0.8319211668552621,-0.3648740458773295,1.003868269358802,0.6412908483211562,0.0923832570689675,0.7667873785465545,11.288254780710304,-0.880083331703888,0.3148529556537511,-0.8712087454479358
1.3,0.0137675893558204,-0.6468371882485677,1.7894173881290176,0.0280555423925973,0.1030702848639985,0.0522394137377738,0.1497368648631352,0.7667813281898276,-0.3157042629086348,0.0070906490698541,-0.6604824831237556,1.7939955835887529,0.0445515918716725,0.8629090166868432,-0.3582968879030864,0.7294923941959628,0.279230295354875,-0.0294355631389076,0.673292761708072,11.129524722548922,-0.898218789288858,0.3156143917690589,-0.8475894390257219
1.32,0.0167605338690244,-0.631524427230971,1.7832272844497865,0.0321669424674391,0.0857088970968101,0.0519875450334844,0.1487897514035423,0.7647319653249208,-0.3040214611404137,0.0081469484679186,-0.6441539382849661,1.7866323310914636,0.0390426731839712,0.8938968665184243,-0.3517197299288432,0.5949469917836225,-0.0473556729796473,-0.1024681432453378,0.5841400884110587,10.974905205388495,-0.9158973376073988,0.3162958248619368,-0.8249207832237957
1.34,0.0196728821484955,-0.6162635647984863,1.777252906599858,0.0348698628521369,0.0701592777790164,0.0516269005586743,0.1422763013357633,0.7618248630400632,-0.2939574814321787,0.0089278019315981,-0.6262760009545977,1.779597936492887,0.03353375449627,0.9248847163500054,-0.3451425719546,0.6167656829133707,-0.3256725033889504,-0.1453551142428788,0.5031989854117458,10.84976586855555,-0.9306993953126036,0.3169043048277465,-0.8059178160917835
1.36,0.0222768707002441,-0.6018257695669224,1.7717560372845176,0.0361970845349481,0.0577929234939295,0.0512476327492833,0.1321084416972846,0.7583532092443058,-0.2851390008908788,0.0097086553952775,-0.6083980636242291,1.77256354189431,0.0280248358085688,0.9558725661815866,-0.3385654139803569,0.6949880372400054,-0.5083929819239343,-0.1735826897878711,0.4409240270649955,10.753141388199763,-0.9436022093456288,0.3174178492552754,-0.7894872489857553
1.38,0.0247784850000831,-0.5866981331184739,1.7661469426319676,0.036338751440863,0.0476780526790977,0.0508556434184444,0.1185239523334571,0.7546903331157803,-0.2762388826724035,0.0103517858917644,-0.5897454300480711,1.7656935762450892,0.0225159171208676,0.9868604160131677,-0.3319882560061137,0.8324168383563957,-0.6792244681913772,-0.183143806426278,0.445005910923768,10.68574947905563,-0.9537014178673482,0.3180297796959513,-0.7767321136854528
1.4,0.0269803560134588,-0.5716444590032458,1.7607120605907118,0.035209806158212,0.0408396849174802,0.0505005821987038,0.1022013996546221,0.7509673272570934,-0.2677040933878784,0.0108571934210587,-0.5703181002261236,1.7589880395452244,0.0170069984331663,1.0178482658447487,-0.3254110980318705,0.93958651372346,-0.8161276339417468,-0.186150292934345,0.4267394642262528,10.678223689162223,-0.9607348625175872,0.3192706222766255,-0.7674129305536382
1.42,0.0288274928071957,-0.5566627697680181,1.7554452521095147,0.0327884524276492,0.0380437315319119,0.0502117283458751,0.0836047795168953,0.7476392889207368,-0.2593763022613905,0.0320904259961899,-0.5340960926403912,1.747326855921318,0.0533731293683005,0.7813670502355661,-0.2610386116677587,1.032305943944883,-0.9298310068863384,-0.1664019168178265,0.4163895563243952,10.678223689162223,-0.9645336282268944,0.3203696655661072,-0.7630073899334028
1.44,0.0302652474689484,-0.5422754783264114,1.7506182314728949,0.0360561460356492,0.037997407591854,0.0504186684705424,0.06894988118312,0.7635870979492637,-0.2492389161372205,0.0320904259961899,-0.5340960926403912,1.747326855921318,0.0533731293683005,0.7813670502355661,-0.2610386116677587,1.195685217160195,-0.7327449166887656,0.7973904514263441,0.5068693062085017,10.671190938760446,-0.9696467753845004,0.3185369411499064,-0.7581893094757813
1.46,0.0314976182064956,-0.5269615993257594,1.7457321379646982,0.045936740096187,0.0389525557745202,0.0511150466293164,0.055211091716114,0.7659160026205799,-0.2399831214160963,0.0320904259961899,-0.5340960926403912,1.747326855921318,0.0533731293683005,0.7813670502355661,-0.2610386116677587,0.8364327063583554,-0.686939473350303,0.1164452335658094,0.4627897360562086,10.637111359772462,-0.9710507774373048,0.3133766832464867,-0.7575451874279197
1.48,0.0324665948189796,-0.5116946571578346,1.7410069126229408,0.0566461222210291,0.0405739943515157,0.0518970478345475,0.042480030446731,0.7605124283342862,-0.2331104908415676,0.0326241572898729,-0.5262824221380354,1.7447164698046405,0.0436074753110361,0.7874469948312606,-0.2597055153237347,0.77219101769935,-0.6365530634691484,-0.2701787143146839,0.3436315287264319,10.50527485722614,-0.9710610356482624,0.3062590368304388,-0.7605606346026997
1.5,0.033190890810619,-0.4965847884216767,1.7363946261823155,0.0660480371902974,0.0426046724005315,0.0526132626735336,0.0306698314336248,0.7510479155825575,-0.2284494499090887,0.033691619877239,-0.5106550811333241,1.7394956975712852,0.0240761671965075,0.7996068840226497,-0.2570393226356869,0.791806644533652,-0.5905099506553121,-0.4732256375864385,0.233052046623948,10.50527485722614,-0.9698497823287724,0.2987316045332373,-0.7661228183290393
1.52,0.0336886368355041,-0.481689463062154,1.7318594369121152,0.0735197506966853,0.044800742181465,0.0532090247392873,0.0197485261133522,0.7393925493155383,-0.225290815231606,0.034759082464605,-0.4950277401286128,1.7342749253379302,0.0045448590819788,0.8117667732140388,-0.254373129947639,0.8140937380651816,-0.5460652660136259,-0.5827683133509565,0.1579317338741323,10.401038796208924,-0.9678272198357196,0.291674520271574,-0.7731268140489493
1.54,0.03396717939684,-0.4677673892688644,1.727600227513684,0.0787669884919127,0.0468518804616484,0.0536445749509558,0.0101391706888673,0.7271092667226456,-0.2231887516369105,0.0348499796462445,-0.478792404664332,1.7291874627389774,-0.0149864490325497,0.8239266624054279,-0.2517069372595911,0.7868249714629733,-0.4804677712242485,-0.6141641296446343,0.1051031797347765,10.331742476632826,-0.96537476444906,0.2850700016773341,-0.7807788211425194
1.56,0.0340705908175584,-0.4533689089631985,1.7231558711908417,0.0825393097843911,0.0488110650017304,0.0539635976572392,0.0007311886614751,0.7136894254023264,-0.2213569468166556,0.0349408768278841,-0.4625570692000512,1.7241000001400246,-0.0345177571470784,0.836086551596817,-0.2490407445715432,0.8245571171692588,-0.4703991013696089,-0.670992066015963,0.0915902410127456,10.292563544866423,-0.9632044157549317,0.2797214431502247,-0.7875305949504119
1.58,0.0339897277705345,-0.4392410875233856,1.718746215827318,0.0847733986247722,0.0505155288666721,0.0541502493551268,-0.0083431232491889,0.7001353945449098,-0.219676657584552,0.0345434913066605,-0.4460177365059858,1.719079192358273,-0.054049065261607,0.848246440788206,-0.2463745518834953,0.8198753884575137,-0.4537155955332034,-0.6777015428708288,0.084014461605178,10.282148512277672,-0.9619580171329318,0.2757733664032351,-0.7925389459959508
1.6,0.0337475390996487,-0.4260737230134081,1.7145880753399654,0.0856604215061566,0.0519482804710384,0.0542205237010162,-0.0166865930613421,0.6867874382325181,-0.2180962603906272,0.0336578230825736,-0.4291744065821355,1.7141250393937226,-0.0735803733761357,0.8604063299795951,-0.2437083591954474,0.7910105585805962,-0.4171734906076588,-0.6673978156195859,0.0790198596962415,10.282148512277672,-0.9607690700207758,0.2722258802385504,-0.7976753886975689
1.62,0.0333244280895024,-0.412491513866183,1.7102441559025718,0.0850976333540058,0.0532899450315814,0.0541700977830814,-0.0251688727175852,0.672282000525967,-0.2163660709637877,0.0329132094465816,-0.3917343511017822,1.703683262320434,-0.0325511962827585,0.693240660362012,-0.2175865110493368,0.8446158101144235,-0.4241139828121559,-0.7252718853275553,0.0865094713419736,10.302253308153922,-0.959705624214614,0.2696862890442262,-0.8023802942221274
1.64,0.0326639580308135,-0.399093058814551,1.705943274697651,0.0863123466590402,0.0565329479939867,0.0544004521821284,-0.0397150333243052,0.6670887359047591,-0.2138908586481947,0.0329132094465816,-0.3917343511017822,1.703683262320434,-0.0325511962827585,0.693240660362012,-0.2175865110493368,0.7821244495437496,-0.7273080303360004,-0.2596632310603919,0.12376061577965,10.341402514133732,-0.9576707794662128,0.268513390414015,-0.805553149225237
1.66,0.0317984559645626,-0.3865127025307709,1.701897520848237,0.0900102851629144,0.0623034190404731,0.0550333155387868,-0.050241277270111,0.6570006288575696,-0.212138518791313,0.0329132094465816,-0.3917343511017822,1.703683262320434,-0.0325511962827585,0.693240660362012,-0.2175865110493368,0.7342383985739652,-0.5263121972902892,-0.5044053523594771,0.0876169928440848,10.310025231366126,-0.9533372198778056,0.2623871511371259,-0.8156933459453882
1.68,0.0307099354246962,-0.3735182144980467,1.697666806418514,0.0940349875506063,0.0698138343906965,0.0558537526805718,-0.0577199793401975,0.6430285485378296,-0.2110566762320069,0.032587697483754,-0.3848019444981621,1.7015073972099408,-0.0357241169270418,0.6945313047879108,-0.2174845611810787,0.7942298100007122,-0.3739351035043258,-0.6986040159869977,0.0540921279653078,10.310025231366126,-0.9473210817071074,0.2562812718345225,-0.8273137951085079
1.7,0.0295077032630842,-0.3608217992019571,1.69345117832284,0.0972244954286798,0.0776899069147265,0.0566662153871522,-0.0618888308570777,0.627507443301213,-0.2105811188058741,0.0319366735580988,-0.3709371312909219,1.697155666988954,-0.0420699582156084,0.6971125936397085,-0.2172806614445625,0.8039125972415682,-0.208442575844012,-0.7760552618308325,0.0237778713066405,10.277624664526227,-0.9400372794713614,0.2501855114811112,-0.8404152901328261
1.72,0.0282538237804979,-0.3484453091819171,1.6892407818531372,0.0992204577770749,0.0850649364406421,0.0573541018211153,-0.0631932253259101,0.6112462955032372,-0.2104825624245868,0.0312856496324437,-0.3570723180836816,1.6928039367679673,-0.048415799504175,0.699693882491506,-0.2170767617080463,0.8156838940395768,-0.0652197234416181,-0.8130573898987914,0.0049278190643625,10.258557615397876,-0.9328590325877636,0.2451874969344429,-0.8525512365020261
1.74,0.0270610447590714,-0.3369945206544923,1.6852411289461326,0.0998667589214386,0.0910845203977975,0.0578196583001527,-0.0622865886640515,0.59513513120463,-0.2105461541534642,0.0303173336423602,-0.3430784404338515,1.6884624015338063,-0.0547616407927416,0.7022751713433035,-0.2168728619715301,0.8068389693757384,0.0453318330929319,-0.8055582149303575,-0.0031795864438702,10.255354966309824,-0.9255332186770476,0.2408764368007664,-0.8644827556383763
1.76,0.0258409076546484,-0.3252756460267259,1.6810296587414937,0.0989212124785944,0.0960801257515411,0.0580503346561168,-0.0597567260212857,0.5777655025466575,-0.2105944894012977,0.0293490176522767,-0.3290845627840214,1.6841208662996454,-0.0611074820813082,0.7048564601951012,-0.216668962235014,0.8776481940437544,0.1264931321382851,-0.8684814328986268,-0.0024167623916729,10.265799311335286,-0.9192279760998396,0.2380204561195873,-0.8746054752785103
1.78,0.0246831036897767,-0.3139036962983777,1.676820032933756,0.0960623572563152,0.0995891846169235,0.0579827405177651,-0.0561989596005407,0.5606961469583288,-0.2103228463968162,0.028222055629979,-0.3150261529128963,1.6797844285588972,-0.0674533233698748,0.7074377490468987,-0.2164650624984978,0.8719151220549969,0.1778883210372527,-0.8534677794164336,0.0135821502240743,10.31512139672941,-0.9145464007880966,0.2372689000450258,-0.8819370186205026
1.8,0.0236023147959912,-0.3028476217725731,1.672623685074642,0.0919356788203985,0.1016176969408392,0.057667622063429,-0.0521978019402888,0.5461348799315361,-0.2093054077757619,0.0269364475754672,-0.3009032108204763,1.675453088311562,-0.0737991646584414,0.7100190378986964,-0.2162611627619816,0.7567610940636522,0.2000578830125957,-0.7280633513396362,0.0508719310527122,10.31512139672941,-0.9117185737825048,0.2382205060491014,-0.8862117782172402
1.82,0.0226496559849175,-0.2925942714802053,1.66866222112246,0.0877477721396935,0.102308128043261,0.0572257971913764,-0.0484083267986117,0.5340308526277949,-0.2077380069801791,0.0209924246989767,-0.2755408777759963,1.662158414685854,-0.0494278486018594,0.5378122256395487,-0.1863171517087244,0.6389920658214274,0.189473757083856,-0.605201365187058,0.0783700397791437,10.350376520389544,-0.9099961503964368,0.2399423121349325,-0.8888136129331451
1.84,0.0217002947936171,-0.2819651875193366,1.6645875444457323,0.0858981003986192,0.1026269215709095,0.0568962040914358,-0.0466590647563882,0.5285975120345223,-0.1996077716612714,0.0209924246989767,-0.2755408777759963,1.662158414685854,-0.0494278486018594,0.5378122256395487,-0.1863171517087244,0.496693653159774,0.0874631021111717,-0.2716670296636303,0.4065117659453818,10.382552436273729,-0.9128889136341664,0.2418614627665672,-0.8853151211093705
1.86,0.020791334112201,-0.2714814069102283,1.6606862873380173,0.0873879356171646,0.1032094900217346,0.0568117867505567,-0.044267644941053,0.5198133654677216,-0.190964591047577,0.0209924246989767,-0.2755408777759963,1.662158414685854,-0.0494278486018594,0.5378122256395487,-0.1863171517087244,0.6276637052617395,0.1195709907667607,-0.4392073283400355,0.4321590306847228,10.763505824366804,-0.913663422326052,0.2411545599785849,-0.8842683587906167
1.88,0.019936758120936,-0.2612010964228582,1.6569542174373004,0.0905293674946102,0.1037839381717879,0.0568285848654778,-0.0412806738220623,0.5082846695198622,-0.182717719992772,0.0204981462129581,-0.2701627555196008,1.6602952431687668,-0.0488738579341736,0.5361476947811512,-0.1817195004953168,0.724299159392125,0.1493485559495362,-0.5764347973929718,0.4123435527402491,10.769109070825834,-0.913646356640936,0.2387616329133709,-0.8847862667069016
1.9,0.0191852905557891,-0.2516806755418747,1.6535562133616442,0.0935669400979971,0.1041557777996127,0.0568189354244411,-0.0380010430418182,0.4945549981988121,-0.1753674186497353,0.019509589240921,-0.2594065110068099,1.6565689001345922,-0.0477658765988018,0.5328186330643562,-0.1725241980685018,0.7957493048571193,0.1639815390122031,-0.6864835660525009,0.367515067151837,10.75335531132896,-0.9137719329642636,0.2358625723442572,-0.8855407793804179
1.92,0.0184639501512083,-0.2419553326977823,1.650128542782137,0.0960370772565155,0.1042705471276662,0.0567176058143741,-0.0343397792565686,0.4788586628009731,-0.1677700841361683,0.0185210322688838,-0.2486502664940189,1.6528425571004175,-0.0466578952634301,0.5294895713475612,-0.1633288956416868,0.8909254866958137,0.1830631892624823,-0.7848167698919495,0.3798667256783461,10.739468581021356,-0.9142256191512104,0.2333880224974129,-0.8859926960289004
1.94,0.0178172336450841,-0.2325550495005174,1.646852200574832,0.0974175758387446,0.1040450099780489,0.0564934907918061,-0.0305865992988362,0.462205969380678,-0.1602170845036934,0.0175878743636152,-0.2380604750670676,1.649575979187584,-0.0455499139280584,0.5261605096307663,-0.1541335932148718,0.9333359006724626,0.1876589978866183,-0.8326346710147564,0.3776499816237455,10.73934409150479,-0.9148065066205016,0.2315673168156702,-0.8862915004731469
1.96,0.0172452898252332,-0.2234961856142407,1.6437300135672237,0.0973986590024587,0.1034752693535138,0.0561264610022897,-0.0268740129083601,0.4447531975959561,-0.1523524465043046,0.0166547164583466,-0.2274706836401164,1.64630940127475,-0.0444419325926866,0.5228314479139713,-0.1449382907880567,0.9749808607580004,0.1856293195238048,-0.8726385892360966,0.3932318999694401,10.743047026669956,-0.9155327784741136,0.2306637092758202,-0.8863448321491636
1.98,0.0167692033877302,-0.2152183558550826,1.640913482518548,0.0957409388758443,0.1026425713540328,0.0556281662447255,-0.0235012555212076,0.4277230611588954,-0.1444883037615262,0.0157492580864623,-0.2169641187560851,1.643272705922587,-0.0433339512573149,0.5195023861971764,-0.1357429883612417,0.952950392906534,0.1686378693576278,-0.851506821853032,0.3932071371389206,10.767553320323714,-0.9167300841400868,0.2311312927244258,-0.8855785021943452
2.0,0.0163337526312074,-0.2068452241926206,1.638116442768111,0.0922411986773624,0.1015117477218196,0.0549560943269206,-0.0203099096997934,0.4110646040551849,-0.135540570312037,0.0148714992479622,-0.2065407804149736,1.6404658931310938,-0.0422259699219432,0.5161733244803813,-0.1265476859344267,0.9588415081637954,0.1595672910707057,-0.832922855185525,0.4473866724744618,10.79459669026528,-0.9191220894633876,0.2337307432276955,-0.8825851216777132
2.02,0.0159568547611819,-0.1987764297042294,1.6355065334937668,0.0879436709889203,0.100178339536704,0.0542149749252268,-0.017612471164463,0.3968816277973261,-0.1258508777597496,0.0153182571462177,-0.1862919939898613,1.631339414252509,-0.028480483671959,0.395976620484192,-0.1079419117354293,0.8693720894138568,0.1348719267665197,-0.7091488128929402,0.4844846276143705,10.84924679087635,-0.9218477248956988,0.2373225086562392,-0.8786489434763084
2.04,0.0156422489434361,-0.1909306236606719,1.6330697278915662,0.0847809903097203,0.0980990809033893,0.0534960577671452,-0.0140425882739638,0.3876664960602158,-0.1183799366854553,0.0153182571462177,-0.1862919939898613,1.631339414252509,-0.028480483671959,0.395976620484192,-0.1079419117354293,0.6194305395275431,0.1784941445249621,-0.4607565868555152,0.3735470537147109,10.84924679087635,-0.9253749338698524,0.2409671290014053,-0.8728850414351561
2.06,0.015406873445341,-0.1836655742122182,1.6308965229058403,0.0829207580862787,0.0948689349762925,0.0527924150362725,-0.011030856213155,0.3774342006610752,-0.1107376426345431,0.0153182571462177,-0.1862919939898613,1.631339414252509,-0.028480483671959,0.395976620484192,-0.1079419117354293,0.6560774678000822,0.1505866030404409,-0.5116147699570334,0.3821147025456106,10.719162200522987,-0.9298771140628608,0.2429088574765172,-0.867196384260612
2.08,0.0152100414676082,-0.1762348000724339,1.6287737082640197,0.0813846685300789,0.0902525271829705,0.0519865671357477,-0.0089828102643348,0.3661976454043152,-0.1018904300133857,0.0150334523094981,-0.1823322277850194,1.6302599951351548,-0.0301145984663921,0.3929590237699934,-0.1024221800201077,0.7223708144205886,0.1024022974410107,-0.5618277628379992,0.4423606310578691,10.719162200522987,-0.9361637836234044,0.2449859797568441,-0.859156932335448
2.1,0.0150354138679257,-0.1690301705139422,1.6268351149177172,0.0800218440353997,0.0847153910467176,0.0511252746881563,-0.0088580398376817,0.3548635769847771,-0.0923665365561376,0.0144638426360589,-0.1744126953753356,1.6281011569004462,-0.0333828280552584,0.3869238303415963,-0.0913827165894646,0.7402385108584126,0.0062385213326509,-0.5667034209769051,0.4761946728624073,10.761030449509237,-0.9432993828060467,0.2471915353214309,-0.849791792940189
2.12,0.0148357345672958,-0.1620526517629741,1.6250928333652337,0.0787011509337842,0.0789725510170272,0.0502591280121081,-0.0112813992653901,0.3435227029252163,-0.0823112739930566,0.0138942329626197,-0.1664931629656517,1.6259423186657376,-0.0366510576441246,0.3808886369131991,-0.0803432531588216,0.7674574915967355,-0.12116797138542,-0.5670437029780401,0.5027631281540518,10.790630415644046,-0.9506331875293824,0.2491646473985117,-0.8403481860663772
2.14,0.0145776610098347,-0.1556336746015995,1.623627529248513,0.0774144194803286,0.0740007114735221,0.0494809732497021,-0.015900860308173,0.3327935522940296,-0.0724129464215656,0.0131612118097372,-0.1588753902273877,1.6243354536025612,-0.0399192872329908,0.3748534434848019,-0.0693037897281785,0.7655569578826591,-0.2309730521391448,-0.536457531559334,0.4949163785745482,10.812402834875684,-0.9580652767169092,0.2511512856097491,-0.8307517001706299
2.16,0.0141871838030149,-0.1490952711151277,1.6222906303220146,0.075986486267821,0.0700214225096815,0.0487631834299878,-0.0230717156200641,0.3216693381080708,-0.0617769665891124,0.0124281906568548,-0.1512576174891237,1.6227285885393847,-0.0431875168218571,0.3688182500564047,-0.0582643262975354,0.8489602083659672,-0.3585427655945538,-0.5562107092979385,0.5317989916226614,10.830024711277474,-0.9645744019211688,0.2529562418341249,-0.8224124045296353
2.18,0.0136294238040738,-0.1427789983919549,1.6211665908458686,0.0744039113621697,0.0681803656062388,0.0482055179131836,-0.0322750929369697,0.3106240952340396,-0.0511363471150219,0.0116134637642506,-0.1437907245865697,1.6213977100619743,-0.0464557464107233,0.3627830566280075,-0.0472248628668923,0.8943186330610361,-0.4601688658452804,-0.5522621437015623,0.5320309737045236,10.843086427625169,-0.9694342931180684,0.2543000940386553,-0.8166160324402438
2.2,0.0129295617750555,-0.1369789790699397,1.6202965155488276,0.0727382423805894,0.06859548115058,0.0478311854349165,-0.0406862523560399,0.3005812505322681,-0.0409570869710277,0.0107170311319248,-0.1364747115197256,1.62034281817033,-0.0497239759995895,0.3567478631996104,-0.0361853994362492,0.8294933235958261,-0.420557970953507,-0.5021422350885735,0.5089630071997087,10.841876565263192,-0.973313219584236,0.2555006839205025,-0.8125136717556918
2.22,0.012033800340607,-0.1310731369956598,1.6195914362651125,0.0709163377809821,0.0706664278869946,0.047554275392281,-0.0482532234904699,0.2906185062703631,-0.0300672378073804,0.0108952491572535,-0.1219499165433262,1.6182486612002762,-0.0465195270408863,0.280207039980887,-0.054543429305775,0.8293131799634108,-0.3783485567215017,-0.498137213095251,0.5444924581823678,10.830966866719791,-0.9755882004510484,0.2568664553738596,-0.810117948715355
2.24,0.0109775967128921,-0.1253137356235407,1.6189761627259789,0.0703019133225072,0.0741914272862809,0.0474662901498547,-0.0567875136368398,0.2855784310545539,-0.0327376248251781,0.0108952491572535,-0.1219499165433262,1.6182486612002762,-0.0465195270408863,0.280207039980887,-0.054543429305775,0.5132432009005681,-0.4267145073184964,-0.2520037607904618,-0.1335193508898895,10.82746905860131,-0.9718281734168815,0.2597487244921446,-0.8108832814089069
2.26,0.0097698481522575,-0.1196595757371805,1.6182783449630542,0.0717152486808567,0.078902137980459,0.0476079801303438,-0.0633018241082202,0.2798748709983628,-0.0368664027823806,0.0108952491572535,-0.1219499165433262,1.6182486612002762,-0.0465195270408863,0.280207039980887,-0.054543429305775,0.4796187174516735,-0.3257155235690201,-0.2851780028095524,-0.2064388978601228,9.947280184708688,-0.9675849769143672,0.2549896335848322,-0.8205462473772756
2.28,0.0085229582396189,-0.1144062200245959,1.6175412577992965,0.0744409325995676,0.0837913357884652,0.0478782777686378,-0.0674641093334931,0.2731374906551221,-0.0405552292112991,0.0104300538868446,-0.1191478461435174,1.6177032269072185,-0.0476861819778556,0.2761321978706108,-0.0572606977727245,0.4368190489456076,-0.2081142612636435,-0.3368690171620336,-0.1844413214459234,9.95780361377092,-0.961924287521374,0.248722496299421,-0.8322882710085663
2.3000000000000003,0.0071456522901483,-0.1090423329543581,1.616689317885016,0.0777981346093047,0.0888499324904852,0.0482035090041379,-0.0699038440696552,0.2635031024407988,-0.0444644279789708,0.0094996633460269,-0.1135437053438996,1.616612358321103,-0.0500194918517941,0.2679825136500584,-0.0626952347066234,0.5339840279734367,-0.1219867368081058,-0.4817194107161665,-0.195459938383586,9.982812833701246,-0.9558511778163716,0.2420416436885248,-0.8443019148757612
2.32,0.0057378732237542,-0.1038899355859173,1.6157594514465488,0.0807768954214397,0.0934316203096281,0.0484766807709206,-0.0706657612408888,0.2522831069432906,-0.048332698051306,0.0085692728052092,-0.1079395645442819,1.6155214897349874,-0.0523528017257327,0.2598328294295059,-0.0681297716405223,0.5946266267424642,-0.0380958585616771,-0.5609997748754092,-0.193413503616761,10.002321942276469,-0.949954427970754,0.2357778935545001,-0.855601139278496
2.34,0.0043999271167048,-0.0992124298656,1.6148057694658746,0.0829455432384436,0.0970882413379089,0.0486399517389575,-0.0701341598273808,0.2408158358904625,-0.0518709884925985,0.0075222167706945,-0.1027429079556918,1.614158894302177,-0.0546861115996712,0.2516831452089534,-0.0735643085744213,0.6006255170836793,0.0265800706753964,-0.5733635526414051,-0.1769145220646247,10.047086210578527,-0.9450633874166624,0.2307249423659605,-0.8648587103517078
2.36,0.0030802931764211,-0.0947566342421895,1.613781253622156,0.084423818654894,0.0999536509759116,0.0486910788062054,-0.068826278233184,0.2289425304489686,-0.0557975121227428,0.0064751607361799,-0.0975462513671017,1.6127962988693665,-0.0570194214736098,0.243533460988401,-0.0789988455083202,0.6286961193405158,0.0653940797098441,-0.5936652720746962,-0.1963261815072142,10.047086210578527,-0.940233391041056,0.2260993944154637,-0.8737119783671102
2.38,0.0017232436634145,-0.0903161184762292,1.6126186151394175,0.0851054250647018,0.1021294677862421,0.0486114134833776,-0.0669599994611565,0.2158035479831755,-0.0602789508812658,0.0053697719548168,-0.0925533368840254,1.6112978400132083,-0.0593527313475484,0.2353837767678485,-0.0844333824422191,0.7003555347781065,0.0933139386013706,-0.6569491232896546,-0.224071937926152,10.036332807355391,-0.935364942902824,0.2215729010286244,-0.8828179863821776
2.4,0.0004069993931437,-0.0861450071019915,1.6113642824531689,0.0845780784681745,0.1035156268289817,0.0483769488450798,-0.0647885786400466,0.2020751723450499,-0.0649348781574422,0.0042060504266052,-0.0877641645064629,1.6096635177337033,-0.0616860412214869,0.2272340925472961,-0.089867919376118,0.7329069259545755,0.1085710410554975,-0.6864187819062811,-0.2327963638088199,10.036714126825244,-0.9315469557241196,0.2182529568104186,-0.8903153908457874
2.42,-0.0008021357623518,-0.0824385470169958,1.6100862682199155,0.0827227948769965,0.1041971046255639,0.0480034356220782,-0.0626326044564024,0.1888900303768867,-0.0693544407995883,-0.0028324295388585,-0.076041248484739,1.6081175385452966,-0.0513882176981597,0.1827400290769415,-0.0652926832684221,0.7036134012172625,0.1077987091822121,-0.6592570984081558,-0.2209781321073023,10.036714126825244,-0.9282106281214356,0.2159954816930703,-0.8971314487578514
2.44,-0.0020455827043263,-0.0788076571061391,1.6087134204908695,0.0792997907539205,0.1050312974077442,0.0475159842156356,-0.0617595125373372,0.1754102038714304,-0.0673187225934396,-0.0028324295388585,-0.076041248484739,1.6081175385452966,-0.0513882176981597,0.1827400290769415,-0.0652926832684221,0.6830303081327826,0.0436545959532595,-0.6739913252728171,0.1017859103074357,10.47371984142046,-0.9268110379361528,0.2156096759573013,-0.9012995675894336
2.46,-0.0032665757805547,-0.0754166919418274,1.6073956300184005,0.0753769108583343,0.1065577058605756,0.047047313850605,-0.0602819379088315,0.1644962430307639,-0.0646086972219178,-0.0028324295388585,-0.076041248484739,1.6081175385452966,-0.0513882176981597,0.1827400290769415,-0.0652926832684221,0.5671022957295663,0.0738787314252805,-0.5456980420333268,0.1355012685760881,10.47371984142046,-0.9259704231175,0.2176532220660965,-0.9026116308854916
2.48,-0.0044495666399885,-0.0722273683712087,1.606128821422229,0.0716168433778863,0.1084060869486056,0.0466116512442616,-0.0580166816837972,0.1550346388147539,-0.062229292720969,-0.0033463117158401,-0.0742138481939696,1.6074646117126123,-0.0487081455097823,0.1788730004233198,-0.065364244290618,0.5007866458997527,0.1132628112517165,-0.4730802108004986,0.1189702250474381,10.456039395401604,-0.9246646712875553,0.2196379136152129,-0.9041752270313732
2.5,-0.0055243548707252,-0.0693622504170624,1.604965841687222,0.0684029220624582,0.1101894476719786,0.0462221976966179,-0.0551934702396038,0.1470084432697275,-0.0603167149163791,-0.0043740760698033,-0.0705590476124308,1.606158758047244,-0.0433480011330276,0.1711389431160765,-0.06550736633501,0.4360283581495489,0.1411605722096729,-0.4013097772513199,0.0956288902294957,10.41130993223851,-0.9230058994505848,0.2215618663009679,-0.9059752105907984
2.52,-0.0065918147590437,-0.0665035400239063,1.6037779834754793,0.0654479177143017,0.1119062965454021,0.045829300562058,-0.0516668259263627,0.1392772591299659,-0.0585905181224009,-0.0054018404237665,-0.066904247030892,1.6048529043818756,-0.0379878567562728,0.1634048858088331,-0.0656504883794019,0.4335556010668002,0.1763322156620544,-0.3865592069880796,0.0863098396989135,10.41130993223851,-0.9212947272027396,0.2232604773702931,-0.90771709522139
2.54,-0.0075837065931168,-0.0637934148488056,1.602621823508426,0.0629219234806172,0.1133350172265909,0.0454468074305389,-0.0476837949650049,0.1321059735482033,-0.0571291871920841,-0.006161597558892,-0.0636361493147153,1.6035398946142876,-0.032627712379518,0.1556708285015898,-0.0657936104237938,0.4166154120475862,0.1991515480678895,-0.3585642790881319,0.0730665465158399,10.395198492307829,-0.9197076046979902,0.22471026431327,-0.909268088885804
2.56,-0.0084919519951213,-0.0612217354305454,1.6014950068930456,0.0607959733291463,0.1143953381345572,0.0450696617896564,-0.0433548900555279,0.1253735717885543,-0.0556326796289318,-0.0069213546940174,-0.0603680515985386,1.6022268848466996,-0.0272675680027633,0.1479367711943464,-0.0659367324681858,0.4071369120308016,0.2164452454738476,-0.3366200879824504,0.0748253781576134,10.386906724689652,-0.9184978348163612,0.225861578265567,-0.910411720282686
