t,x,y,z,roll,pitch,yaw,v_x,v_y,v_z,ref_x,ref_y,ref_z,ref_v_x,ref_v_y,ref_v_z,a_com,a_x,a_y,a_z,thrust,wind_x,wind_y,wind_z
0.0,1.228290309903406,-0.5316550448305815,2.6748448628290777,0.0283308709251937,0.0998487857587343,0.0428661669674309,0.0034480567086603,0.0075223013665735,0.0142057404339582,1.2283967989860822,-0.5314310599106737,2.675275408370415,-0.0964790935329862,0.1075147660830677,-0.0856850112376221,0.8220054351898903,0.1724028354330169,0.3761150683286776,0.7102870216979129,10.23786276006831,-0.9444909260320888,0.2601380303176163,-0.8688570579266313
0.02,1.2285226660745294,-0.5318282134733863,2.674874352451355,0.0200024108250302,0.0943095158275857,0.0421524747475409,0.0181414496514416,-0.0179931255814705,-0.0109690746785268,1.2283967989860822,-0.5314310599106737,2.675275408370415,-0.0964790935329862,0.1075147660830677,-0.0856850112376221,1.9369461301619624,0.734669647139064,-1.275771347402206,-1.2587407556242565,8.90011931104209,-0.9450969967581354,0.2600135206418706,-0.8740333879531879
0.04,1.2289577086089825,-0.5321914916367193,2.674384032967589,0.0042787489318775,0.0802338413968205,0.040935911613727,0.0256251655623368,-0.0183857101587522,-0.0392752239723019,1.2283967989860822,-0.5314310599106737,2.675275408370415,-0.0964790935329862,0.1075147660830677,-0.0856850112376221,1.4640681458924547,0.3741857955447591,-0.0196292288640861,-1.4153074646887536,8.90011931104209,-0.947054170620754,0.2716619019460108,-0.8687993504733429
0.06,1.229461220990129,-0.5324951950450346,2.6732839119234173,-0.0128896958704697,0.0598060442890793,0.0399465091701873,0.0233393977486966,-0.0116044027308938,-0.0692498809533603,1.2274320080507524,-0.530355912249843,2.674418558258038,-0.1164790938310094,0.1275147663810909,-0.1056850115356453,1.5408527882808254,-0.1142883906820062,0.3390653713929241,-1.498732849052922,8.61977112689874,-0.954495404776912,0.2820163248003454,-0.8605002849086093
0.08,1.229817196216414,-0.5326251479583273,2.671592084625232,-0.0294084319769868,0.0374893553604048,0.0394588964136312,0.0117619792976343,-0.0014196748476664,-0.0984716703369529,1.2255024261800926,-0.5282056169281817,2.672704858033286,-0.1564790944270559,0.1675147669771373,-0.1456850121316918,1.6520277500888318,-0.5788709225531163,0.5092363941613663,-1.461089469179626,8.596428687448224,-0.965643602824486,0.2906286583417243,-0.849750257856293
0.1,1.2298567975957018,-0.5325230128650007,2.6693215597239925,-0.0451186860016065,0.0161116179972663,0.0394239485524703,-0.007536593855494,0.0114243527117584,-0.1271778232336214,1.223572844309433,-0.5260553216065204,2.6709911578085337,-0.1964790950231023,0.2075147675731838,-0.1856850127277382,1.8448896876377368,-0.9649286576564186,0.6422013779712455,-1.4353076448334283,8.709691616349119,-0.9795757844214116,0.2989884087427953,-0.8362034901110883
0.12,1.2294775811924432,-0.5321644284467993,2.666637726654649,-0.0593195888509717,-0.0016530362001235,0.0396741092704477,-0.0314753848969697,0.0259339199939494,-0.1539473267977763,1.2196432624089708,-0.5219050262550566,2.667277457553979,-0.2364790956191488,0.2475147681692302,-0.2256850133237846,1.9366204973581973,-1.1969395520737844,0.725478364109552,-1.338475178207743,8.709691616349119,-0.992630484320997,0.3060016381031503,-0.8248866518567809
0.14,1.2285456736600002,-0.5314651626038362,2.6632570651953227,-0.0735481026275475,-0.0168025149127228,0.0400748057118667,-0.0605338080114888,0.0435078349024747,-0.1827734492953714,1.2157136805085087,-0.5177547309035929,2.6635637572994244,-0.2764790962151953,0.2875147687652767,-0.2656850139198312,2.2272066458688022,-1.452921155725957,0.8786957454262627,-1.4413061248797543,8.78137903544075,-1.0034535170631087,0.3120820542458488,-0.8170234478742141
0.16,1.2269927784087618,-0.530374198398013,2.659294664199732,-0.0865511927732505,-0.027725057487651,0.0404781010269602,-0.0930752150708196,0.064613398678863,-0.2120372073938279,1.2107840985931455,-0.5126044355372281,2.6588500570299685,-0.3164790968112417,0.3275147693613232,-0.3056850145158776,2.4293803395954887,-1.6270703529665378,1.0552781888194176,-1.463187904922826,8.78683551911854,-1.010863218296704,0.3171481231613796,-0.8132538297587971
0.18,1.2248886732127502,-0.5289118198610164,2.6549853705489697,-0.0970219032633417,-0.0337104051913356,0.0407444030405384,-0.1266781144041912,0.087819553902,-0.2401050993849386,1.2048545166628812,-0.5064541401559621,2.653136356745611,-0.3564790974072881,0.3675147699573696,-0.345685015111924,2.477643560257253,-1.6801449666685837,1.1603077611568486,-1.4033945995555352,8.818732441235625,-1.0145732053501917,0.3214527738370684,-0.8145193193005156
0.2,1.2219717718572352,-0.5268820345086883,2.649871127812134,-0.1058508357423791,-0.0348582095846539,0.040735938564844,-0.1626912434983328,0.1136695550260894,-0.2697517217715775,1.2185547674925403,-0.5245208421659164,2.642980115579723,-0.2266781158943074,0.1878195553921161,-0.3401051008750547,2.6665006301343177,-1.800656454707078,1.2925000562044695,-1.4823311193319435,8.86474295844937,-1.016169677526968,0.3242744713826602,-0.8184439601432417
0.22,1.2183039453163491,-0.5241794669744738,2.6442998262157302,-0.1084655946993278,-0.0302368522818627,0.0405570669391405,-0.2015956072781216,0.1534977241948595,-0.284802218137792,1.2185547674925403,-0.5245208421659164,2.642980115579723,-0.2266781158943074,0.1878195553921161,-0.3401051008750547,2.883725897738786,-1.945218188989442,1.9914084584385023,-0.7525248183107264,8.880738906727856,-1.0196326225205148,0.3247248054670185,-0.8153821660882727
0.24,1.2139096949784614,-0.5207600851919127,2.638459660010504,-0.1044256471051614,-0.0203729743255075,0.0402885118760987,-0.2351160382444544,0.1852876400070403,-0.2984205734596809,1.2185547674925403,-0.5245208421659164,2.642980115579723,-0.2266781158943074,0.1878195553921161,-0.3401051008750547,2.4081515946818235,-1.676021548316639,1.58949579060904,-0.6809177660944438,9.86939653959871,-1.016503215172885,0.3204752325012578,-0.822803407515142
0.26,1.2091684370931963,-0.5169904246160267,2.6326405723199007,-0.0984987874950971,-0.0082737538734275,0.0399464444298234,-0.2617526913517907,0.2095754765990797,-0.3133348787347017,1.2162879863335976,-0.5226426466119952,2.639579064570972,-0.2466781161923306,0.2078195556901393,-0.360105101173078,1.9505427430068585,-1.3318326553668116,1.2143918296019711,-0.74571526375104,9.708624391404555,-1.009610721682925,0.314862993848786,-0.834779343914732
0.28,1.2036860487527656,-0.5125650961666839,2.6261861707012937,-0.0921606788217342,0.005608102973298,0.0395588847626535,-0.2846141009909677,0.2316076044375019,-0.3314367887902191,1.2117544240157114,-0.5188862555041529,2.632776962553471,-0.286678116788377,0.2478195562861858,-0.4001051017691244,1.8273873805496736,-1.1430704819588522,1.101606391921113,-0.9050955027758684,9.515224050162033,-1.000180713230561,0.309364686439415,-0.8492984696291405
0.3,1.1977962363512908,-0.507721741802791,2.619339656026558,-0.0864914791343679,0.0193192180263988,0.0392192743294734,-0.3029334418413721,0.2517184435042632,-0.352315254353174,1.2072208616978253,-0.5151298643963106,2.62597486053597,-0.3266781173844235,0.2878195568822322,-0.4401051023651708,1.7146095921710287,-0.9159670425202217,1.0055419533380614,-1.043923278147746,9.33457003949934,-0.9899156014334312,0.3048208465657914,-0.8637998065398381
0.32,1.191898322232229,-0.5027603973455477,2.612425734656777,-0.0818920579623471,0.0313484575152557,0.0389882452439945,-0.3168403249714633,0.2696488720601355,-0.3744533484107443,1.2006872993501367,-0.509373473258666,2.6171727584886666,-0.3666781179804699,0.3278195574782787,-0.4801051029612173,1.5850842841100643,-0.6953441565045598,0.8965214277936173,-1.106904702878514,9.180332581595394,-0.978793989459744,0.300774417216213,-0.8786608799580977
0.34,1.1854354020174336,-0.4971791441106931,2.6046766173495963,-0.0779181078546577,0.0424017754833343,0.0388622215197912,-0.3285770439654633,0.2876340636337553,-0.3994015121265594,1.1941537370024484,-0.5036170821210213,2.608370656441363,-0.4066781185765165,0.3678195580743252,-0.5201051035572638,1.6459256981065673,-0.5868359496999986,0.8992595786809887,-1.2474081857907549,9.051113726459334,-0.9681084822007648,0.2972153585387072,-0.892840069187268
0.36,1.1787584293579962,-0.491235031074402,2.596413568942312,-0.0744951444117173,0.0516034521416909,0.0388732342466952,-0.3384916522014281,0.3058216566927798,-0.4256795010250035,1.1866201746398588,-0.4968606909684755,2.5985685543791583,-0.4466781191725629,0.4078195586703716,-0.5601051041533102,1.6730366839224515,-0.4957304117982397,0.9093796529512256,-1.313899444922209,8.968950983216018,-0.9580942442008454,0.2940023766383481,-0.9060232021904538
0.38,1.1718971967161609,-0.4849296335918227,2.5876142764347674,-0.0712342640583536,0.0591051609553225,0.0390206073375617,-0.3471113716524565,0.3236959697028716,-0.4529568918347038,1.178086612262368,-0.4891042998010285,2.587766452302053,-0.4866781197686093,0.447819559266418,-0.6001051047493566,1.686599150941245,-0.4309859725514203,0.8937156505045896,-1.3638695404850103,8.879251120108165,-0.949478994841408,0.2909369642613024,-0.9175284654969617
0.4,1.1652286130635063,-0.4786134004090593,2.5787410652040195,-0.0681783752762472,0.0648384092414416,0.039270171664539,-0.354407392833436,0.3401672038076627,-0.4797162141958536,1.154541628133538,-0.4687448351066791,2.564966431843032,-0.4471113731425726,0.4236959711929877,-0.5529568933248199,1.6129125915839866,-0.3648010590489747,0.8235617052395533,-1.337966118057493,8.879251120108165,-0.9413613890872364,0.2876229762046267,-0.9286157810878912
0.42,1.1580913485082476,-0.4716307135257253,2.5690498017968912,-0.0653723118049771,0.0692138042439029,0.039624426832724,-0.3589072276989221,0.3574049992918515,-0.4869722230972813,1.154541628133538,-0.4687448351066791,2.564966431843032,-0.4471113731425726,0.4236959711929877,-0.5529568933248199,0.9618208930837424,-0.2249917432743053,0.8618897742094428,-0.3628004450713817,8.8427806805621,-0.9421611953772095,0.2843064205324214,-0.9299990800547308
0.44,1.15087445615891,-0.4643169208261238,2.559215627714671,-0.0635174854449923,0.0715655598552121,0.0400444650308573,-0.362706518882892,0.3732806252597262,-0.496453153957126,1.154541628133538,-0.4687448351066791,2.564966431843032,-0.4471113731425726,0.4236959711929877,-0.5529568933248199,0.9438725593818332,-0.1899645591984966,0.7937812983937337,-0.4740465429922375,10.070874645723052,-0.9384345989643486,0.2836372257955336,-0.9335212412695998
0.46,1.143944656032641,-0.4570747742329147,2.549649734601416,-0.062638662650049,0.0720403299822943,0.0404888756824702,-0.3666798763981573,0.3883261033398135,-0.5099963880182058,1.1500705144021124,-0.4645078753947492,2.559436862909784,-0.4671113734405959,0.443695971491011,-0.5729568936228431,1.0314712422502292,-0.1986678757632615,0.7522739040043636,-0.6771617030539884,9.794924937498765,-0.935759930851001,0.2834005387847839,-0.9363268027243492
0.48,1.136563911909728,-0.4491463614229644,2.539267750040066,-0.0625087843023611,0.070876165486951,0.0409992658776765,-0.3712746121049825,0.4037611564306491,-0.5276403790614977,1.141128286939261,-0.4560339559708894,2.5483777250432875,-0.5071113740366423,0.4836959720870574,-0.6129568942188895,1.1944275617092237,-0.2297367853412613,0.7717526545417824,-0.8821995521645976,9.558528585055685,-0.9347852036163428,0.2835661326311267,-0.937713049080132
0.5,1.1290855846314762,-0.440910784704878,2.528504455870293,-0.0632313307651864,0.0680412773863125,0.0415505921004416,-0.3764436287238868,0.4190735007882101,-0.5479038547079673,1.1321860594764095,-0.4475600365470297,2.537318587176791,-0.5471113746326888,0.5236959726831039,-0.652956894814936,1.2959504888363844,-0.2584508309452171,0.7656172178780507,-1.0131737823234788,9.37472286369939,-0.9357826533875444,0.2843548573222206,-0.9370613784205069
0.52,1.1214947202868035,-0.432368242872143,2.517314151953804,-0.0647907247846232,0.0635739101231405,0.0421481111785356,-0.3825970594187469,0.4344925457507293,-0.5701010146231023,1.1212438319837557,-0.4370861170933676,2.524259449280492,-0.5871113752287352,0.5636959732791503,-0.6929568954109825,1.3859343104659634,-0.3076715347430009,0.7709522481259584,-1.1098579957567467,9.242935458923055,-0.9385971204908647,0.2858259576993229,-0.9342305856918208
0.54,1.114150755202748,-0.4239629762255082,2.5062676334078944,-0.0669650015129195,0.0581815986764639,0.0427499267423121,-0.3903980574572445,0.4496876670942448,-0.5915864868279357,1.1103016044911018,-0.4266121976397055,2.5112003113841936,-0.6271113758247817,0.6036959738751968,-0.732956896007029,1.3723818700579238,-0.3900499019248826,0.7597560671757736,-1.0742736102416717,9.149299245732436,-0.9429812270208932,0.2878675167338453,-0.929792040750784
0.56,1.1062322781699885,-0.4147818922250864,2.4941946876722416,-0.069264163201536,0.0521280060281386,0.0434213571350363,-0.4011990220548297,0.4675222752252708,-0.6145640464529508,1.098359376983547,-0.4151382781711423,2.497141173472994,-0.6671113764208281,0.6436959744712432,-0.7729568966030753,1.5513722391375608,-0.5400482298792614,0.8917304065513026,-1.1488779812507566,9.132794275723429,-0.9480416672290964,0.2898690341356533,-0.9244560444714992
0.58,1.0984873381800264,-0.4057182205725955,2.482299045946592,-0.070846932734603,0.0467104763090676,0.0440879349803607,-0.4135776877574881,0.4854525046365458,-0.6364379380379451,1.085417149461091,-0.4026643586876779,2.4820820355468927,-0.7071113770168745,0.6836959750672896,-0.8129568971991218,1.5436900793157982,-0.6189332851329193,0.8965114705637489,-1.0936945792497157,9.122530810374885,-0.9536925770782392,0.2913405174042344,-0.9186645521921284
0.6,1.0900609644903994,-0.3958055179298818,2.4693244751138086,-0.071611675621183,0.0419225184271795,0.0447904417246486,-0.428551796507752,0.5047772170981172,-0.6598778410373033,1.077808453792152,-0.3814455953407682,2.4504771490446946,-0.5135776892476043,0.585452506126662,-0.7364379395280612,1.6934413904874748,-0.7487054375131946,0.966235623078568,-1.1719951499679082,9.126859914671511,-0.9587694333545604,0.2920604020091377,-0.9135199833405796
0.62,1.0812719785949418,-0.3854587164592167,2.4560948099414777,-0.070208766302516,0.0402846316479211,0.0454121980779987,-0.449571350869019,0.5286542016418058,-0.6607054217457138,1.077808453792152,-0.3814455953407682,2.4504771490446946,-0.5135776892476043,0.585452506126662,-0.7364379395280612,1.5910821366877428,-1.0509777180633475,1.1938492271844292,-0.0413790354205245,9.108633919614022,-0.9658277897986078,0.2895399198126009,-0.9085085518099612
0.64,1.0725436536338524,-0.3752106460468818,2.443517385193493,-0.0666141686296243,0.0430407499588932,0.0458490630001359,-0.467599740701661,0.5483818085681013,-0.6632348908874532,1.077808453792152,-0.3814455953407682,2.4504771490446946,-0.5135776892476043,0.585452506126662,-0.7364379395280612,1.342199248561056,-0.9014194916321022,0.9863803463147748,-0.126473457086973,10.230467496588972,-0.9672861376615116,0.2882353582299001,-0.90488530612435
0.66,1.0630211336057274,-0.3640549780460665,2.4301776808662976,-0.0621746997217157,0.0487253942693407,0.0461726729363837,-0.483312910268159,0.5659802240729274,-0.6708113945232593,1.072672676899676,-0.3755910702795016,2.443112769649414,-0.5335776895456275,0.6054525064246852,-0.7564379398260844,1.2389626038034838,-0.7856584783248965,0.8799207752413052,-0.3788251817903043,10.230467496588972,-0.96445301431933,0.2857872677397925,-0.9071206316261156
0.68,1.053216327323486,-0.3525672757380929,2.416635661258058,-0.0578323512933315,0.0559340180094339,0.0464085449617118,-0.4960695015415277,0.5818383346655889,-0.6831983433619592,1.0624011231147237,-0.3638820201569683,2.428384010858853,-0.5735776901416739,0.6454525070207316,-0.7964379404221309,1.1912669663193032,-0.6378295636684378,0.7929055296330756,-0.619347441934992,9.901768244082632,-0.958894043416787,0.2828866698770218,-0.9132267499230624
0.7000000000000001,1.0431851049303449,-0.3407762876281087,2.402797748017251,-0.0538501291994459,0.0636791964864967,0.0466052959369402,-0.506178590261811,0.5964762133865124,-0.6999579055059078,1.0521295693297716,-0.3521729700344351,2.4136552520682915,-0.6135776907377204,0.6854525076167781,-0.8364379410181774,1.2220311897205172,-0.5054544360141633,0.731893936046174,-0.837978107197429,9.626514808640422,-0.9521294768460316,0.2800004830327292,-0.9211339923102964
0.72,1.0334906744125092,-0.3293126543171035,2.3893083948031766,-0.0504810781005999,0.0708837857701698,0.0467855515201984,-0.5136476825536211,0.6095256801847422,-0.7191434624472943,1.0398580155150172,-0.3384639198820995,2.396926493247928,-0.6535776913337669,0.7254525082128246,-0.8764379416142238,1.2187714290760867,-0.3734546145905071,0.6524733399114913,-0.9592778470693286,9.402480390768687,-0.9443126029837542,0.2769703976221466,-0.930511391943679
0.74,1.0231535449074771,-0.3169860425136278,2.3746947964141447,-0.047438872149858,0.0778213786534975,0.0469827327705598,-0.5195541089142811,0.6224928429088111,-0.7413031785577155,1.0275864617002628,-0.324754869729764,2.3801977344275644,-0.6935776919298133,0.7654525088088711,-0.9164379422102704,1.3172757869565923,-0.2953213180329983,0.6483581362034474,-1.1079858055210612,9.124457321585396,-0.9375050744239476,0.2742723728640819,-0.9386695018419294
0.76,1.0127110703668063,-0.3043959778878116,2.3596213540715256,-0.0446238376749029,0.0838874459742842,0.0472104256156872,-0.5243230488599452,0.6357320027879771,-0.7649318802320777,1.0143149078706073,-0.3100458195625272,2.3624689755923,-0.7335776925258597,0.8054525094049174,-0.9564379428063168,1.3750760754658944,-0.2384469972832037,0.6619579939583009,-1.1814350837181076,9.124457321585396,-0.931732080654216,0.2717766110093295,-0.9455515210248888
0.78,1.00271135528017,-0.2921924045116338,2.3448527571880744,-0.0418701461965587,0.0888823231056254,0.047468272455049,-0.5279871627628271,0.648036338142231,-0.7884775239801238,1.0000433540260507,-0.2943367693803894,2.343740216742134,-0.7735776931219062,0.8454525100009639,-0.996437943402363,1.3409136239082842,-0.1832056951440952,0.6152167677126952,-1.1772821874023065,9.061868761352343,-0.926783718844976,0.2692491206256272,-0.9516127305138324
0.8,0.9921180742640212,-0.2791010257032107,2.32881086120452,-0.0388683176185186,0.0933770681436422,0.0477782898518966,-0.5310930413501151,0.6603258793526317,-0.8145341096842992,0.9763119971420288,-0.2597905876045223,2.3054288809890684,-0.6279871642529432,0.6707296778775006,-0.8377315502440761,1.4488141388046851,-0.1552939293644029,0.61447706052003,-1.3028292852087675,9.007027164770989,-0.9221114120836128,0.266405721271287,-0.9575394466194046
0.8200000000000001,0.9815060729466812,-0.2655256735911476,2.3126022425186656,-0.0284153306413829,0.0967105824156688,0.0486508969382497,-0.5295778253700812,0.6925048857039692,-0.8028401994376819,0.9763119971420288,-0.2597905876045223,2.3054288809890684,-0.6279871642529432,0.6707296778775006,-0.8377315502440761,1.7135721943366662,0.075760799001695,1.6089503175668762,0.5846955123308628,11.33987170009368,-0.9236100834546416,0.2555903744624641,-0.9610152044087228
0.84,0.970944444420162,-0.2515172656045529,2.2966670694227904,-0.0113096608291214,0.0984601104056357,0.0500294102554157,-0.5267505399785191,0.7056816771336255,-0.7917476159742634,0.9763119971420288,-0.2597905876045223,2.3054288809890684,-0.6279871642529432,0.6707296778775006,-0.8377315502440761,0.8727353306686292,0.1413642695781092,0.6588395714828166,0.5546291731709285,11.33987170009368,-0.921664892205626,0.2435895463128525,-0.9632342469115708
0.86,0.9609652556798772,-0.238053388518215,2.2816614902644266,0.0055103258072983,0.0986154970393693,0.0513688430894454,-0.5239480787542796,0.710499295054873,-0.7883186931642354,0.9700321254994994,-0.2530832908257473,2.2970515654866275,-0.6479871645509664,0.6752683458245545,-0.8475823554968666,0.3271878015208552,0.1401230612119719,0.2408808960623731,0.1714461405013967,10.926646387012624,-0.9199247845557492,0.2292194146504484,-0.9668825217357732
0.88,0.9505175385823468,-0.2238290552252254,2.265880626682166,0.0225792710523749,0.0970328813591786,0.0526625667045898,-0.5210421395814689,0.7112605658675818,-0.7901918301112358,0.9574723822144404,-0.2396686972681973,2.280296934481746,-0.6879871651470129,0.6843456817186623,-0.8672839660024474,0.1770074698181973,0.1452969586405339,0.0380635406354412,-0.093656847350021,10.495009538675731,-0.9200077620420456,0.2146697318015799,-0.9693740844230432
0.9,0.9401267797465458,-0.2096267163814617,2.250013175600494,0.0388091795517692,0.0933127507607179,0.0537505613683103,-0.5182901656063581,0.708554854457784,-0.7966377812858086,0.9449126389293816,-0.2262541037106473,2.2635423034768647,-0.7279871657430593,0.6934230176127701,-0.8869855765080283,0.3756478455208213,0.1375986987555422,-0.1352855704898903,-0.3222975587286403,10.17733918108388,-0.9221872608973288,0.2002993460854117,-0.970155363983526
0.92,0.9297807274384392,-0.1955180013517798,2.2339769851101687,0.0539985926389444,0.0872480087486057,0.0545401722184753,-0.5169430337349925,0.7022106946032893,-0.8066508737968323,0.9303528956145204,-0.2123856433583919,2.245802591946704,-0.7679871663391058,0.702500353506878,-0.9066871870136092,0.5965005242507103,0.0673565935682796,-0.3172079927247329,-0.5006546255511835,9.761762235883907,-0.9254916110205996,0.1866749911790045,-0.9703075293459498
0.94,0.919952857979607,-0.1822751835370464,2.218547503143357,0.0669466181072985,0.0799332152706723,0.05495624340519,-0.5179845500292023,0.6922117805053566,-0.8169964072218562,0.9157931522996592,-0.1985171830061364,2.228062880416544,-0.8079871669351523,0.7115776894009858,-0.92638879751919,0.7212716221667617,-0.0520758147104893,-0.4999457048966371,-0.5172766712511934,9.733945199250227,-0.9314076218439662,0.1726888548248103,-0.9689076966100146
0.96,0.9095561511398472,-0.1685688162218026,2.20209020555826,0.0787560019619749,0.0714242365030374,0.0550553828602415,-0.5219433642928839,0.6789944284651747,-0.8281922402174131,0.9002334089698968,-0.1844217892565283,2.2098306286237435,-0.8479871675311986,0.7206550252950936,-0.9460904080247712,0.8884217492171604,-0.1979407131840804,-0.6608676020090964,-0.5597916497778466,9.733945199250227,-0.9386579141209894,0.1601471117398583,-0.9659483801934736
0.98,0.8990512840177134,-0.1551533274167439,2.1854072249305223,0.0886822853876302,0.0628548166685633,0.054869945755526,-0.5285932420021143,0.6633430129024573,-0.8395351559201242,0.8836736656252333,-0.1700994621095676,2.191105836568304,-0.8879871681272451,0.7297323611892014,-0.965792018530352,1.0220682698618997,-0.3324938854615211,-0.782570778135866,-0.5671457851355532,9.731231895959354,-0.9467192736834212,0.1493220620735646,-0.96167664000385
1.0,0.888387618546488,-0.1420740054655207,2.1684965371668814,0.0966859434397216,0.0548053307659118,0.054471012304253,-0.5376069508468652,0.6457092263414432,-0.8509387593630419,0.8726216219176077,-0.121986176771621,2.143430467134516,-0.6285932434922304,0.6148650242123195,-0.8535471638942124,1.1426280531089998,-0.4506854422375417,-0.8816893280507054,-0.5701801721458843,9.737855310307168,-0.9544026775408202,0.1405117423731646,-0.9573354067477908
1.02,0.8780256921981552,-0.1299087794509533,2.152437538984728,0.1059639067643458,0.0496088816161243,0.0543524855055451,-0.5525696552163747,0.6336817564519557,-0.8390783992294482,0.8726216219176077,-0.121986176771621,2.143430467134516,-0.6285932434922304,0.6148650242123195,-0.8535471638942124,1.1282848670553107,-0.7481352184754764,-0.6013734944743776,0.5930180066796853,9.747555549824938,-0.9642489310489912,0.1297673564999905,-0.9514708688027108
1.04,0.866810668811682,-0.1174454940680391,2.1357658474982064,0.117462938414995,0.0484923633233363,0.0547289382155216,-0.5676387327897532,0.6129045522060509,-0.8289446738041614,0.8726216219176077,-0.121986176771621,2.143430467134516,-0.6285932434922304,0.6148650242123195,-0.8535471638942124,1.3797297798696369,-0.7534538786689249,-1.0388602122952395,0.5066862712643394,11.223823429465485,-0.9685648552694744,0.1196925150890979,-0.9484137264602572
1.06,0.8553233649668626,-0.1054353888820177,2.119260989548553,0.1287911577356038,0.0503431002045197,0.0553995575975177,-0.5800384265006457,0.5888808590238237,-0.8221966786276718,0.8663356894826855,-0.1158375265294978,2.1348949954955736,-0.6485932437902536,0.605169426474292,-0.85634956548903,1.3932207983120124,-0.6199846855446278,-1.2011846591113595,0.3373997588244803,10.988548255480964,-0.9691223365020764,0.1089395256854875,-0.9499301953151272
1.08,0.844204466930891,-0.0944926481755055,2.103677198447985,0.1390651028997324,0.0535824946895215,0.0561797817123126,-0.5895507718872611,0.5639849451359583,-0.8185518370622993,0.8537638246128408,-0.1035402260452515,2.117824052217689,-0.6885932443863001,0.5857782309982368,-0.8619543686786653,1.3449685062325236,-0.4756172693307692,-1.2447956943932692,0.182242078268624,10.634216806085533,-0.9679749185781612,0.0987675977605494,-0.9532826459730502
1.1,0.8323292487704148,-0.0835247752558656,2.087324008076304,0.1486605612753138,0.0575716571337506,0.0569925556759087,-0.5973210995694054,0.5342465897855998,-0.8170349861872785,0.8411919597429962,-0.0912429255610051,2.1007531089398053,-0.7285932449823466,0.5663870355221816,-0.8675591718683006,1.5387077433752203,-0.3885163841072125,-1.4869177675179257,0.0758425437510368,10.634216806085533,-0.9657941105046808,0.0885418646763759,-0.9580928148791494
1.12,0.8203188152555277,-0.0731776630239732,2.070980973944065,0.1563055629943668,0.0614500694363687,0.0576452687236385,-0.6032586186818403,0.502253352177851,-0.8173732861604841,0.8266200948433493,-0.0799151848505614,2.0834019255024394,-0.768593245578393,0.5469958400461264,-0.8731639750579359,1.6270647134550835,-0.2968759556217448,-1.5996618803874374,-0.0169149986602779,10.445480338046764,-0.962898953611122,0.0793768509808899,-0.9638487930210414
1.14,0.8082070428054057,-0.0634894957419389,2.054626051311307,0.1617104067346347,0.0647136514064338,0.0580281732105535,-0.6076623112156548,0.4687347794200164,-0.818029101644112,0.8120482299437023,-0.0685874441401178,2.0660507420650736,-0.8085932461744395,0.5276046445700713,-0.8787687782475712,1.69064878197927,-0.2201846266907281,-1.6759286378917326,-0.0327907741813959,10.445480338046764,-0.9604080759229632,0.0719699727095015,-0.9692769192310948
1.16,0.7966257412527185,-0.0549181037609007,2.039078489543063,0.164759338065594,0.0671077549589586,0.0581076654856513,-0.6112468199572907,0.4358090608120598,-0.8184430777104099,0.7964763650291542,-0.0577444833165755,2.0485594385479664,-0.8485932467704859,0.5082134490940162,-0.8843735814372063,1.656142373825898,-0.1792254370817925,-1.646285930397831,-0.0206988033148947,10.489830531771076,-0.9576318671496886,0.0656042204162845,-0.9752492912950572
1.18,0.7843660010650484,-0.0465765340139621,2.0227076018324324,0.1657690379502442,0.0689406986927167,0.0578935563583675,-0.6145609647772201,0.4003773386389768,-0.8185661066571236,0.779904500099705,-0.0473863023799347,2.030928014951119,-0.8885932473665323,0.488822253617961,-0.8899783846268416,1.779329668835803,-0.165707240996471,-1.771586108654147,-0.0061514473356838,10.489830531771076,-0.9553245885840572,0.0611405648550563,-0.9806306178934612
1.2,0.7720437205727974,-0.038958931284006,2.006337546827199,0.1639079613070237,0.0701249259994617,0.057338638046301,-0.617543273337116,0.3635094880853392,-0.8183573603017595,0.7536379528261874,-0.0265576670820132,1.981779296499576,-0.6521093764147647,0.3564977924139059,-0.7768638249734402,1.84944325665365,-0.1491154279947948,-1.8433925276818808,0.0104373177682026,10.525588851990506,-0.9536812354978256,0.0591368899073905,-0.9853075479894838
1.22,0.7595698072754943,-0.0321153374351495,1.990158155738816,0.1585323791085132,0.074158376396294,0.0569681281119836,-0.6287160016540794,0.3241794586131373,-0.7993154045239949,0.7536379528261874,-0.0265576670820132,1.981779296499576,-0.6521093764147647,0.3564977924139059,-0.7768638249734402,2.2551480861416247,-0.5586364158481683,-1.9665014736100963,0.9520977888882344,10.56708254942805,-0.9514390069004672,0.0595623925483711,-0.9912414710193724
1.24,0.7475625261753658,-0.0263021505202271,1.9751685326288204,0.1514762459997163,0.0820456458219962,0.0570690639504323,-0.6341310407914876,0.2904691778750548,-0.7794182458995702,0.7536379528261874,-0.0265576670820132,1.981779296499576,-0.6521093764147647,0.3564977924139059,-0.7768638249734402,1.9758558889918525,-0.2707519568704131,-1.6855140369041233,0.9948579312212324,11.865029394474732,-0.9471596737103,0.0658753041108032,-0.9953709369894408
1.26,0.7348617946035286,-0.0208397764645541,1.9597993064607049,0.1429100015426906,0.0923715504390593,0.0573104046785018,-0.6351933472567806,0.2581605228466807,-0.758496004182411,0.7471168590620397,-0.0229926891578742,1.9740106582498416,-0.6596190587422737,0.3477218831688917,-0.7685233686367036,1.9253037963136637,-0.0531153232646464,-1.615432751418705,1.046112085857959,11.825655326210835,-0.9403038603107078,0.0739345341307076,-1.0010521462928954
1.28,0.7221810942436717,-0.0159919318649861,1.944843290936927,0.133575025808247,0.1035041336590848,0.057498164032585,-0.632440852263434,0.2288092277016092,-0.7381352595852639,0.7340746715337445,-0.0158627333095961,1.958473381750373,-0.6746384233972915,0.3301700646788633,-0.7518424559632302,1.7913923885707943,0.1376247496673255,-1.4675647572535755,1.0180372298573548,11.77134902481157,-0.9315248440620668,0.0825308823951011,-1.0083943594744669
1.3,0.709592807929978,-0.0116993253813433,1.9302866659420297,0.1237379421898093,0.1146426940647686,0.0575270937364267,-0.6262201797940925,0.202496620580217,-0.7185039157686035,0.7210324840054492,-0.0087327774613179,1.942936105250904,-0.6896577880523094,0.3126182461888349,-0.7351615432897568,1.6706583429470947,0.3110336234670774,-1.315630356069608,0.9815671908330216,11.708472786512177,-0.9220917903191982,0.0910092870815552,-1.0161882196294183
1.32,0.6977889003843223,-0.0080779743057326,1.9168151293615263,0.1142260632409308,0.1243863512405103,0.0573267775531277,-0.6165073507464047,0.180418280295407,-0.7005240906733867,0.7072393282444029,-0.0024804125375412,1.9282328743851087,-0.7046771527073272,0.2950664276988065,-0.7184806306162834,1.504215965458467,0.4856414523843888,-1.1039170142405006,0.8989912547608392,11.65185643852783,-0.9126272327227656,0.100264688464886,-1.0235431302988982
1.34,0.6855963396200104,-0.0046868499958215,1.9030051197669489,0.1043501924570263,0.1328912393048816,0.0568229353950435,-0.603171048718988,0.1601710409000347,-0.6814174174552088,0.6934461724833568,0.0037719523862354,1.913529643519314,-0.7196965173623451,0.2775146092087781,-0.70179971794281,1.5434317415796497,0.6668151013708379,-1.0123619697686173,0.9553336609088968,11.601106413316302,-0.9043466516512256,0.1094230318024983,-1.029571667395763
1.36,0.6736942665675489,-0.0016740344488049,1.8895784256850083,0.0947767164124649,0.1391157146187855,0.0560223846986403,-0.5877310612604604,0.1424093887617278,-0.6622028754651913,0.6792775326059352,0.0095855218477614,1.899243435470356,-0.7347158820173629,0.2599627907187498,-0.6851188052693368,1.5191018096953344,0.7719993729263797,-0.8880826069153441,0.9607270995008744,11.618515336676865,-0.8979417643213509,0.118432276105489,-1.033623798125679
1.38,0.6621166901407399,0.0010097527684349,1.8765382394313308,0.0855975057396994,0.1428382802015683,0.054961738004778,-0.5710155814554174,0.1270822085377618,-0.6427721085024196,0.6647334086121381,0.0149602958470366,1.8853742502382345,-0.7497352466723808,0.2424109722287214,-0.6684378925958634,1.493221704480176,0.8357739902521477,-0.7663590111983004,0.9715383481385842,11.645652066968978,-0.8939369865471019,0.1266760176314667,-1.0355201856270615
1.4,0.6514330382097441,0.003297966946463,1.8645130864052484,0.0773710977281324,0.1440569197487166,0.0537695594882268,-0.5546191336592832,0.1146744920622408,-0.6239976428765784,0.633565911067969,0.007363863195323,1.8443996340062097,-0.5673584241553773,0.1276760843636326,-0.5707629101348239,1.3921884642570512,0.8198223898067125,-0.6203858237760498,0.9387232812920588,11.645652066968978,-0.8921620864976544,0.1349420676924744,-1.0352634366796931
1.42,0.640451234860172,0.0054225188700576,1.8522674058852957,0.0679034237922626,0.1454145968231538,0.0524536677090422,-0.5443492883021724,0.0993647943398264,-0.6013354173387586,0.633565911067969,0.007363863195323,1.8443996340062097,-0.5673584241553773,0.1276760843636326,-0.5707629101348239,1.4606788099524828,0.5134922678555365,-0.7654848861207166,1.1331112768909912,11.66411002001132,-0.8873724705694328,0.1426528724799411,-1.038794578186596
1.44,0.6296959590487348,0.0072971439895691,1.8404967366779497,0.057719104884281,0.1486320908921486,0.0512003829227523,-0.5314200308506736,0.0892374440430842,-0.5768131528595491,0.633565911067969,0.007363863195323,1.8443996340062097,-0.5673584241553773,0.1276760843636326,-0.5707629101348239,1.4756950713717607,0.6464628725749433,-0.5063675148371117,1.2261132239604733,11.902533040980416,-0.8873715723461936,0.1530981205748905,-1.0355673851511984
1.46,0.6192294649184965,0.009008691292494,1.8292279281786592,0.0479723732471397,0.1521579128630717,0.0499718751724718,-0.5158196782372512,0.0826003057001219,-0.5513082060404028,0.6278923268264153,0.0086406240389593,1.8386920049048616,-0.5666269926953693,0.1277948595288067,-0.5563610704613048,1.5312779950863111,0.7800176306711204,-0.3318569171481156,1.2752473409573195,11.973896491982488,-0.8857201873142403,0.1636189096227084,-1.0335064859357526
1.48,0.6095951339821566,0.0105396805285266,1.8190008932080688,0.039493436367012,0.1549277160069992,0.0488137771761989,-0.4991443765350507,0.0789182919514194,-0.5265084797038414,0.6165451583433077,0.011194145726232,1.827276746702165,-0.5651641297753532,0.128032409859155,-0.5275573911142666,1.5055309183751242,0.833765085110022,-0.1841006874351236,1.2399863168280678,12.059360031616052,-0.8839878838033285,0.1733653719907991,-1.0314350266773162
1.5,0.599808805602028,0.0120989007076741,1.8087511815603965,0.0315587035008174,0.1566876209985325,0.0476113271293195,-0.4804182478340816,0.077233295266706,-0.4997410747833512,0.6051979898602001,0.0137476674135046,1.8158614884994688,-0.5637012668553372,0.1282699601895033,-0.4987537117672282,1.635543545835936,0.9363064350484536,-0.0842498342356716,1.3383702460245088,12.107682515214949,-0.8828921754072818,0.1820833179527624,-1.0288991932986915
1.52,0.5904047956748488,0.0136455397536341,1.7990419815436374,0.0247340747778091,0.1569432799429916,0.0464452125310907,-0.4610265933209751,0.0774810379424631,-0.4724984229136901,0.5939239645230934,0.0163130666172947,1.805886414264124,-0.5622384039353211,0.1285075105198516,-0.46995003242019,1.6720195289534032,0.9695827256553268,0.0123871337878569,1.3621325934830537,12.107682515214949,-0.8830958865123915,0.1898562895994757,-1.025173555778827
1.54,0.58183523212139,0.0151359648753178,1.7903287025146413,0.0193537094373533,0.155507030788329,0.0453900807441051,-0.4421395333053073,0.0792260451725535,-0.4460456234978942,0.5826499391859866,0.0188784658210848,1.7959113400287794,-0.560775541015305,0.1287450608502,-0.4411463530731517,1.6275108933589637,0.9443530007833878,0.0872503615045199,1.3226399707897962,12.136846237554892,-0.884958722163523,0.1962896588914671,-1.0201682976963091
1.56,0.5732021157655948,0.0167515511956999,1.7817073377626491,0.0147895037189465,0.1518986041168682,0.0443436455031725,-0.4222987744649401,0.0821315351893309,-0.4174298717161985,0.5714124854218803,0.0214498037831335,1.7866563577771108,-0.5593126780952891,0.1289826111805483,-0.4123426737261134,1.7471110680426294,0.9920379420183616,0.1452745008388704,1.4307875890847837,12.17172818839208,-0.8893596724363247,0.202170444097471,-1.0126849889487362
1.58,0.5649574488998442,0.0184350204248888,1.7736657351031333,0.0113086719520833,0.1458986797264125,0.0433722773081413,-0.4036001690730104,0.085910850797646,-0.3880998051134325,0.5602116032307743,0.024027080503441,1.7781214675091184,-0.557849815175273,0.1292201615108966,-0.3835389943790752,1.7494098126175657,0.9349302695964872,0.1889657804157549,1.4665033301383024,12.2169388815837,-0.8954743397770694,0.2070880055995302,-1.0036651496507918
1.6,0.5570553098318567,0.0202004826383377,1.7662194781647462,0.0088795251935129,0.1380702975518314,0.042488931096215,-0.387985385343739,0.0901848828462152,-0.3579455550902319,0.5447774404461937,0.0227305629647711,1.7542607448474616,-0.4311701522275457,0.0875045840040374,-0.3465278080073572,1.711262410711613,0.7807391864635693,0.2137016024284593,1.50771250116003,12.27551389623386,-0.9035513944279308,0.2110090336160437,-0.992891010016625
1.62,0.5497948700279035,0.0219794896483602,1.759543514959797,0.0080655997030417,0.129381020341809,0.0417688539700035,-0.3774522060349426,0.096433065786255,-0.3462644514784631,0.5447774404461937,0.0227305629647711,1.7542607448474616,-0.4311701522275457,0.0875045840040374,-0.3465278080073572,0.8462207720097913,0.526658965439819,0.3124091470019879,0.5840551805884414,11.050500571564951,-0.9079600560227584,0.2135090504262788,-0.9855905921732204
1.64,0.5423336167791539,0.0239724643260112,1.7527566574914362,0.0091189775006976,0.1193271655692192,0.0411438486973052,-0.3695983124425132,0.1023531608200827,-0.3328531689024097,0.5447774404461937,0.0227305629647711,1.7542607448474616,-0.4311701522275457,0.0875045840040374,-0.3465278080073572,0.8315552749299187,0.3926946796214692,0.2960047516913887,0.6705641288026698,11.050500571564951,-0.9183942030529688,0.2134264602537934,-0.9741758680810028
1.66,0.5349931689929444,0.026075818727724,1.7462612403789164,0.0119567417185156,0.1091557445072755,0.0406260313552,-0.3651390227898615,0.10730222221278,-0.3172505993553292,0.5404657389239182,0.0236056088048115,1.7507954667673882,-0.4366841488584527,0.0878233306453156,-0.3382134085861422,0.8482609406108705,0.2229644826325871,0.2474530696348627,0.7801284773540224,11.1726613296496,-0.9297139113684788,0.2118900310981347,-0.9618724376429504
1.68,0.5277086487125054,0.0282479932295663,1.7400970104965496,0.0157461520296058,0.0996141770515256,0.0401481795490561,-0.3637284490072698,0.1094073444129924,-0.2999302675149523,0.5318423358793674,0.0253557004848923,1.743864910607241,-0.4477121421202668,0.0884608239278722,-0.321584609743712,0.8752359009643312,0.0705286891295814,0.1052561100106208,0.8660165920188478,11.371654047335142,-0.9407408755980308,0.2097912663225746,-0.9497060319627786
1.7,0.5207888535857856,0.0303293713530893,1.7345730016760212,0.0193277445569499,0.0915927030941227,0.0396765218966812,-0.364841897995596,0.1095475479174826,-0.2823860723040361,0.5232189328348165,0.027105792164973,1.736934354447094,-0.4587401353820809,0.0890983172104287,-0.3049558109012819,0.8790025757513589,-0.055672449416308,0.0070101752245109,0.8772097605458079,11.371654047335142,-0.9520809500710472,0.2078138559160701,-0.9366993743989768
1.72,0.5134597666303918,0.0325096241564949,1.7291274565022503,0.0227250213698903,0.0845516014813961,0.0391544101184318,-0.3681719260252927,0.1084638194879091,-0.2630351014666972,0.5140441301271749,0.0288877585091816,1.7308352382290682,-0.4697681286438951,0.0897358104929852,-0.2883270120588518,0.9832644943441892,-0.1665014014848337,-0.054186421478676,0.9675485418669472,11.430401802253073,-0.9624042149209084,0.2062621189216015,-0.9243791891571485
1.74,0.5060394675458832,0.0346580295003139,1.7240681346230116,0.0256086432610881,0.079355346829381,0.0386215427881593,-0.3738566060812458,0.106465373066443,-0.2438670720607385,0.5048693274195333,0.0306697248533902,1.7247361220110426,-0.4807961219057092,0.0903733037755418,-0.2716982132164217,1.0046426314188988,-0.2842340027976564,-0.0999223210733063,0.95840147029793,11.478627507000963,-0.9706788404190334,0.2051048993817986,-0.9140223792979651
1.76,0.4984811623812133,0.0367595031143457,1.7193874162404263,0.0279560319037329,0.0766773665882983,0.0381101331038384,-0.3817274079460092,0.1038372414356773,-0.2251657659783511,0.4954188248803463,0.0324676285296627,1.7190527257640775,-0.4918241151675233,0.0910107970580983,-0.2550694143739915,1.0229802625785778,-0.3935400932381705,-0.1314065815382847,0.9350653041193702,11.458934817439513,-0.9772917687487344,0.2044533419140777,-0.9052707945833242
1.78,0.4907623813063695,0.0388036151267226,1.7150755591054148,0.0297772567948672,0.0767697995713964,0.0376434913261447,-0.3894285274613693,0.1008258500217201,-0.2069164679171468,0.485692622509614,0.0342814695379991,1.7137850494881737,-0.5028521084293375,0.0916482903406548,-0.2384406155315614,1.0017641935163586,-0.3850559757680033,-0.1505695706978581,0.9124649030602184,11.427625752743552,-0.9824780164167728,0.204518692319445,-0.8978211284083298
1.8,0.4832998184088224,0.0406867687201178,1.7113132074542865,0.0310324810040824,0.0787457085048581,0.0372328794359135,-0.3954913897075421,0.0976185897932519,-0.190010351757745,0.471290954933301,0.0438449076278087,1.7047297357095574,-0.4026622878331735,0.0821731948374512,-0.1864121273877049,0.9122247261288842,-0.3031431123086431,-0.1603630114234124,0.845305807970087,11.38118403840781,-0.9855987166655712,0.2048451354789046,-0.8926473660494914
1.82,0.4752955578044234,0.0426461042959529,1.7076287616274732,0.0332037720645472,0.083222065777065,0.0369493493711529,-0.4042477792899219,0.0978984292195989,-0.1797001636192671,0.471290954933301,0.0438449076278087,1.7047297357095574,-0.4026622878331735,0.0821731948374512,-0.1864121273877049,0.6764847523665218,-0.4378194791189893,0.0139919713173522,0.5155094069238947,11.335119695974754,-0.9818459184504428,0.204014425675075,-0.8952670145609147
1.84,0.4671489894360076,0.0445826004117385,1.7041318491625113,0.0364506590858029,0.0901837869896494,0.036848373670692,-0.4095374257958762,0.095540416468441,-0.1704807871930597,0.471290954933301,0.0438449076278087,1.7047297357095574,-0.4026622878331735,0.0821731948374512,-0.1864121273877049,0.544374609025545,-0.264482325297713,-0.1179006375578987,0.4609688213103688,10.807409710592763,-0.9798837052074506,0.2020744242468661,-0.8971515957198927
1.86,0.4589358796373985,0.0464527537109782,1.700815844684208,0.0397352967061159,0.09818054316335,0.0368208939095503,-0.4112132236316296,0.0915719516376443,-0.1615918245412447,0.4672643320549693,0.0446666395761832,1.7028656144356804,-0.4053090399075343,0.0784426638005974,-0.1823112592818166,0.4938893310372,-0.0837898917876722,-0.1984232415398329,0.4444481325907537,10.807409710592763,-0.9756633534837198,0.199792398346061,-0.901600988669718
1.88,0.4511341188647828,0.0481462554171286,1.697826719563111,0.0425337356549513,0.1057547788707958,0.0368024382411503,-0.4097869165989424,0.0869374100333729,-0.1535143358040498,0.4592110862983058,0.0463101034729322,1.6991373718879264,-0.410602544056256,0.0709816017268898,-0.1741095230700398,0.4710603781170882,0.0713153516343628,-0.2317270802135715,0.4038744368597427,10.76601526797731,-0.9703346936044916,0.1975788696333743,-0.9072562087819236
1.9,0.4429784511191986,0.0498284771517915,1.6948432599368437,0.0450505226198479,0.112978839341776,0.0367495764347944,-0.4057117492206799,0.0815564387344535,-0.1452830326217079,0.4511578405416424,0.0479535673696812,1.6954091293401723,-0.4158960482049778,0.0635205396531822,-0.1659077868582631,0.5322503953974114,0.2037583689131233,-0.2690485649459666,0.4115651591170957,10.76601526797731,-0.964748720284426,0.1955139845764334,-0.913168570237984
1.92,0.4349272157978432,0.0513983739214388,1.692021124674307,0.0471154483207904,0.1189504638198697,0.0366319480887212,-0.3995558833481899,0.0757457793649996,-0.1373673550138856,0.4428399195775428,0.0492239781627449,1.692090973603007,-0.4211895523536995,0.0560594775794746,-0.1577060506464864,0.5794747598879718,0.3077932936245003,-0.2905329684726954,0.3957838803911151,10.75979241051391,-0.9595385273102108,0.1936372811105462,-0.9186467542051194
1.94,0.4270158334594361,0.052848194079048,1.6893523476943526,0.0487218891011883,0.1233696500918586,0.0364265257240023,-0.3919620512379894,0.069590669958151,-0.1299205085193459,0.4345219986134432,0.0504943889558085,1.6887728178658417,-0.4264830565024212,0.0485984155057671,-0.1495043144347096,0.6144248950063502,0.3796916055100241,-0.3077554703424301,0.3723423247269833,10.752882900153963,-0.9552902717481048,0.1920779358478896,-0.923055021726998
1.96,0.4196479375200351,0.0541062845699907,1.6869518102595156,0.0497471108283066,0.1261088293262069,0.0361371970787952,-0.3840794499543681,0.0632053261806181,-0.1231464104397568,0.4260717400456256,0.0515782731970295,1.6856597055339708,-0.4317765606511428,0.0411373534320595,-0.1413025782229329,0.6099106962206033,0.3941300641810669,-0.3192671888766457,0.3387049039794573,10.736702473987862,-0.9517620048748272,0.1907083697286452,-0.9267197396196756
1.98,0.4120559435095773,0.0552954994938726,1.6845631927410418,0.0501316685359273,0.1276036328857517,0.0357247832263876,-0.3756139496922975,0.0560909736015563,-0.1160724076874033,0.41748914387409,0.0524756308864077,1.6827516366073945,-0.4370700647998645,0.0336762913583519,-0.1331008420111562,0.656353986516848,0.4232750131035273,-0.3557176289530887,0.3537001376176719,10.728719617924073,-0.9494659687090836,0.1899015814780224,-0.9290130271481496
2.0,0.4046328088147058,0.0563389867180964,1.6823162867344017,0.0496339380846641,0.1278679239111763,0.0351986771237865,-0.3672589663576688,0.0487146820266599,-0.1089666484998709,0.3932752460249624,0.0581000481739504,1.6787595723566715,-0.3629935807198768,0.0479264038660293,-0.1109626528307275,0.6608843271538022,0.4177491667314348,-0.3688145787448221,0.3552879593766232,10.733242532145596,-0.9484151998292184,0.1898545200255708,-0.9298754994065848
2.02,0.3973221931732777,0.0571885034943202,1.680158626906452,0.0466300521615915,0.1286233487066997,0.0345328299581121,-0.3639192545404821,0.0376519649892332,-0.1071011479890528,0.3932752460249624,0.0581000481739504,1.6787595723566715,-0.3629935807198768,0.0479264038660293,-0.1109626528307275,0.5852723200098628,0.1669855908593392,-0.5531358518713361,0.0932750255409023,10.738866869973208,-0.942781041429219,0.1906868722507767,-0.9357556467701706
2.04,0.3904488501616643,0.0578409883790069,1.6781441394383536,0.0418624836137732,0.1307193453286096,0.033840774320159,-0.3595842502185898,0.0319409652478892,-0.1050220806856641,0.3932752460249624,0.0581000481739504,1.6787595723566715,-0.3629935807198768,0.0479264038660293,-0.1109626528307275,0.3732636513527534,0.2167502160946133,-0.2855499870672007,0.1039533651694346,10.445862910888536,-0.9414407141192376,0.1945285943671999,-0.9363542236230292
2.06,0.383318405253384,0.0584469333947944,1.6760699808425503,0.0367765047153883,0.133670569040015,0.033144173956732,-0.353538437072705,0.0290086501702492,-0.1025049501217443,0.3896453102177636,0.0585793122126107,1.6776499458283645,-0.3604695069253927,0.0462934899189239,-0.1099407018593923,0.3587696844262578,0.302290657294238,-0.1466157538819949,0.1258565281959917,10.461035850377812,-0.9386422417028064,0.1984692915323078,-0.9382873389913926
2.08,0.3763244569806345,0.059014364269274,1.6740475794016556,0.0323369169009143,0.1368302579787787,0.032504423321817,-0.3460490225257978,0.0278200645977196,-0.099875207444774,0.3823854386033661,0.0595378402899313,1.67543069277175,-0.3554213593364244,0.0430276620247131,-0.107896799916722,0.401309146624302,0.3744707273453607,-0.0594292786264835,0.1314871338485172,10.474646213730011,-0.9350647766996262,0.201902656166697,-0.9409824766053116
2.1,0.3694941899539541,0.0595706013157154,1.672078316364165,0.0287876879322087,0.139759301692815,0.0319252051264888,-0.3373078720274776,0.0276803292705075,-0.0972064156834141,0.3751255669889686,0.0604963683672519,1.6732114397151354,-0.3503732117474561,0.0397618341305023,-0.1058528979740516,0.457027590691898,0.4370575249160097,-0.0069867663606022,0.1334395880679906,10.48240734544106,-0.9314248949736088,0.2044951973835597,-0.9438252349550376
2.12,0.3631770225945996,0.060102347727242,1.6702571563307955,0.0262185162026077,0.1420685814425032,0.0314255232610834,-0.328093211761341,0.028126656098241,-0.0946448490058661,0.3681181027540194,0.0612916050498619,1.6710943817556545,-0.3453250641584879,0.0364960062362914,-0.1038089960313813,0.4787243343015814,0.4607330133068327,0.0223163413866741,0.1280783338774037,10.48952783207551,-0.927946514068322,0.2066649283576029,-0.9464053589906376
2.14,0.3567227230542473,0.0606737959705463,1.6683916937729288,0.0242540576069232,0.1438643674195147,0.0309458764204054,-0.3178212165435732,0.0288845000913856,-0.0920490790461854,0.3611106385190703,0.062086841732472,1.6689773237961734,-0.3402769165695196,0.0332301783420806,-0.1017650940887109,0.531098472402644,0.5135997608883863,0.0378921996572306,0.1297884979840312,10.497394013282246,-0.9250867464784882,0.2083674357139861,-0.9482790930428274
2.16,0.3504786287305202,0.0612639249828438,1.6665774674053029,0.0229886932639786,0.1449438433280718,0.0305111099904942,-0.3071311455935814,0.0300476407905963,-0.0895089759422571,0.3542293779738454,0.0628004327177267,1.6669113633852592,-0.3352287689805513,0.0299643504478698,-0.0997211921460406,0.5524550592143372,0.534503547499593,0.0581570349605341,0.127005155196419,10.49631945163037,-0.9229667659783444,0.2094991100351668,-0.9495061676697752
2.18,0.3447469305216395,0.0618511964336171,1.6649012527644966,0.0225712512665514,0.1452754506333276,0.0301499796202323,-0.2968105487235626,0.0316142877932696,-0.0870646517244794,0.3474743211183447,0.0634323780056262,1.6648965005229115,-0.330180621391583,0.026698522553659,-0.0976772902033702,0.5360592865207197,0.5160298435009397,0.0783323501336634,0.1222162108888827,10.49701902272136,-0.92126703583643,0.2100617389752521,-0.9503237269645664
2.2,0.338924043766005,0.062502823869159,1.6631878745588888,0.0230754149015159,0.1449678265104458,0.0298337632237799,-0.2860836989901747,0.0333895885773764,-0.0843968136024538,0.3299064030854614,0.0634319108232806,1.6605480201782727,-0.2912822705403706,0.025652456134191,-0.0915497336057641,0.5597641430148669,0.5363424866693944,0.08876503920534,0.1333919061012822,10.50126228649333,-0.9201653240022352,0.2098346465876142,-0.9506844104544694
2.22,0.3333269022464076,0.0631793983839277,1.661497976936838,0.0242833951203887,0.1435181041770761,0.0295508760866503,-0.2742768174214766,0.034192454633661,-0.0847223129246089,0.3299064030854614,0.0634319108232806,1.6605480201782727,-0.2912822705403706,0.025652456134191,-0.0915497336057641,0.5919311532820376,0.5903440784349068,0.0401433028142311,-0.0162749661077578,10.327472114105149,-0.9205371716987848,0.2090929249643575,-0.9497695772865212
2.24,0.3282252435893297,0.063836169232405,1.6598854194647008,0.025914396151133,0.1405872532405981,0.0292843575993704,-0.2634500309365308,0.0348297866416185,-0.0849870052961555,0.3299064030854614,0.0634319108232806,1.6605480201782727,-0.2912822705403706,0.025652456134191,-0.0915497336057641,0.5424379220946087,0.5413393242472891,0.0318666003978743,-0.0132346185773304,10.327472114105149,-0.9213345329106256,0.2074420225809078,-0.9489489908866656
2.26,0.323066895112053,0.0645332113033952,1.6581855085293289,0.0280974401056749,0.1359980315426745,0.0289979466360561,-0.2531151737390446,0.0346508854332005,-0.0849673676769691,0.3269935803800577,0.0636884353846225,1.659632522842215,-0.2901766149037322,0.0244600898023753,-0.0924467499820211,0.5168212083760049,0.5167428598743112,-0.0089450604208989,0.0009818809593241,10.336991528224644,-0.9235589229586376,0.2054134361702957,-0.9467788115335684
2.28,0.318095259959232,0.0652118531216935,1.6564896382296688,0.0303110618279199,0.1302907294860996,0.0286780386986867,-0.2448592883508936,0.0331842450504691,-0.0845902571027392,0.3211679349692503,0.0642014845073063,1.6578015281701,-0.2879653036304553,0.0220753571387438,-0.094240782734535,0.4196810989898736,0.4127942694075487,-0.073332019136571,0.0188555287114901,10.364549270014322,-0.9266704889517212,0.2034807487372772,-0.9435718398323844
2.3000000000000003,0.3132613796270852,0.0658516563682785,1.6548049412021566,0.0322565587641015,0.1243123054577794,0.0283263393844928,-0.2391028710069814,0.0309098477152159,-0.0838801747963022,0.3153422895584429,0.0647145336299901,1.6559705334979846,-0.2857539923571786,0.0196906244751124,-0.0960348154870488,0.311502169967621,0.2878208671956095,-0.1137198667626578,0.0355041153218514,10.364549270014322,-0.9307088926027408,0.2018261607906614,-0.939526413531089
2.32,0.3087540310436213,0.0664118805246893,1.6532197390616583,0.0337731514789008,0.1190369275175921,0.027979975024577,-0.2357534824678954,0.0282252561116487,-0.0830051968026439,0.3096272097112993,0.0651083461194924,1.6540498371882435,-0.2835426810839018,0.0173058918114809,-0.0978288482395627,0.2190377944162272,0.1674694269542975,-0.1342295801783599,0.043748899682916,10.376728638145323,-0.9349966138369884,0.2003412346638775,-0.9352412520293004
2.34,0.3040565955953499,0.0669418791588464,1.6515690125948743,0.0349637322605959,0.1145437942815367,0.0276246535711338,-0.234325836028175,0.0249179898741079,-0.0821102683687972,0.3039121298641558,0.0655021586089946,1.6521291408785028,-0.2813313698106249,0.0149211591478495,-0.0996228809920766,0.1855874539437619,0.0713823219860215,-0.1653633118770415,0.0447464216923342,10.384998424488003,-0.938461949641862,0.1991306811984224,-0.931815135521563
2.36,0.2993658772335961,0.0673990994036984,1.6499348666499016,0.0355645392326929,0.1118705420406272,0.0272985016362644,-0.2348686801456782,0.0210339090671048,-0.0813417138536518,0.2982523327988441,0.0658363527819061,1.650163593749949,-0.2791200585373481,0.0125364264842181,-0.1014169137445905,0.1998214171078016,-0.027142205875158,-0.1942040403501545,0.0384277257572722,10.382857021644668,-0.9403996605724486,0.1983186886547338,-0.9300140714224931
2.38,0.2948918838957538,0.0677584384098141,1.6483948747812676,0.0354416529081299,0.1114423757199017,0.0270254640746344,-0.2357734609738188,0.0170668659986226,-0.0807965514243745,0.2926478185153644,0.0661109286382268,1.6481531958025823,-0.2769087472640713,0.0101516938205866,-0.1032109464971044,0.205263617870163,-0.0452390414070344,-0.1983521534241111,0.0272581214638648,10.380196564317885,-0.9420721578572376,0.1979508625281614,-0.9287068148418915
2.4,0.2901768768821207,0.0680563078670438,1.646782781782444,0.0345079325614341,0.1127038878254113,0.0267549611440232,-0.2354990262640131,0.0129995117324229,-0.0804522775061799,0.2831032108470628,0.0686117817097452,1.6443550472100488,-0.2344182057183432,0.0053590953604547,-0.0757157187902533,0.2045556749852493,0.0137217354902893,-0.2033677133099864,0.0172136959097291,10.36218449124408,-0.9417694541283304,0.198278406632503,-0.9292535415029094
2.42,0.2854963973649888,0.0682878900821368,1.645217821443247,0.0331545826901252,0.1147120461160897,0.0264932141034575,-0.2324327550570099,0.0103382545219375,-0.07585047920548,0.2831032108470628,0.0686117817097452,1.6443550472100488,-0.2344182057183432,0.0053590953604547,-0.0757157187902533,0.3068422096761684,0.15331356035016,-0.1330628605242662,0.2300899150349949,10.343481503776276,-0.9423320623771612,0.199063370964584,-0.9288337628562928
2.44,0.2811171199080525,0.0684632936276038,1.6438199830007956,0.0318698495543471,0.1165705794981094,0.0262538683393927,-0.2286744539157943,0.0082420845020692,-0.0715480014300725,0.2831032108470628,0.0686117817097452,1.6443550472100488,-0.2344182057183432,0.0053590953604547,-0.0757157187902533,0.3042616933994981,0.1879150570607751,-0.1048085009934142,0.2151238887703764,10.574143288806226,-0.941177696286923,0.2006602657750362,-0.9290140606623086
2.46,0.2765906702453999,0.0686101066174506,1.6424318702783096,0.0306041949839139,0.1182822162551884,0.0260119363087723,-0.2241440980180491,0.0065597152782614,-0.0675142801675517,0.2807590287898794,0.0686653726633498,1.6435978900221462,-0.2341471546672481,0.0030175412328212,-0.0746995522634291,0.3147435384132754,0.226517794887264,-0.0841184611903948,0.2016860631260386,10.574143288806226,-0.9399646282573928,0.2021759810352993,-0.9292602254203663
2.48,0.2721599197354936,0.0687298297407868,1.641119160840968,0.0296068435718849,0.1195985131554924,0.0257891523150306,-0.2191735588487832,0.0054627757769301,-0.0639597741422099,0.2760706646755125,0.0687725545705589,1.6420835756463412,-0.2336050525650578,-0.0016655670224459,-0.0726672192097806,0.3104192688404616,0.2485269584632951,-0.0548469750665612,0.1777253012670912,10.544367033976414,-0.9389156082767584,0.2034060858303992,-0.9294203413822612
2.5,0.2680452756052464,0.0688278936103139,1.639934552990166,0.0290671192438007,0.1204249816854166,0.025605276234288,-0.2142240077420044,0.0048667816116745,-0.0609151892270978,0.2713823005611457,0.068879736477768,1.640569261270536,-0.2330629504628676,-0.006348675277713,-0.0706348861561321,0.292073460404064,0.2474775553389388,-0.0297997082627796,0.1522292457556039,10.498971115646782,-0.9380203518211656,0.2043318068964009,-0.9294573633818418
2.52,0.2638162381380931,0.0689216018012465,1.6387476749693823,0.0290646689898394,0.1208553774009897,0.0254506757760854,-0.2089668620672772,0.0044958763276261,-0.0579436694157472,0.2667210415518883,0.0687527629722137,1.6391565635474137,-0.2325208483606773,-0.0110317835329802,-0.0686025531024836,0.3025106666065165,0.2628572837363618,-0.0185452642024237,0.1485759905675308,10.498971115646782,-0.9374421299301507,0.2047783541992226,-0.929264550783905
2.54,0.2596921273598495,0.0690083996748151,1.6376196006417154,0.0297271320800211,0.1208779874854489,0.0253422001834344,-0.2037406505345161,0.0041466765774213,-0.0550119871938607,0.262059782542631,0.0686257894666595,1.6377438658242909,-0.231978746258487,-0.0157148917882473,-0.0665702200488352,0.3001249244099563,0.2613105766380533,-0.017459987510236,0.1465841110943218,10.485423597839144,-0.9372303747960492,0.2046432708877978,-0.9288554270735464
2.56,0.255671379363262,0.0690845647466629,1.6365499635367164,0.0310227703039279,0.1205501692283486,0.0252774078479223,-0.1986439479531869,0.0034268276005229,-0.0520967208658743,0.2574120760859283,0.0683817382547235,1.6363819764275092,-0.2314366441562968,-0.0203980000435145,-0.0645378869951867,0.2957758336779771,0.2548351290664594,-0.0359924488449237,0.1457633163993221,10.484204072987268,-0.9373085014864412,0.203991272496293,-0.9283309176315276
2.58,0.2519440448478253,0.0691376346842833,1.6355875952583705,0.0326975301671112,0.1199895541349852,0.0252465454107214,-0.194002094575669,0.0021592665831574,-0.0493483381315328,0.2527779221817806,0.0680206093364059,1.635070895357069,-0.2308945420541065,-0.0250811082987816,-0.0625055539415382,0.2770700334100809,0.2320926688758953,-0.063378050868274,0.1374191367170738,10.483132346905222,-0.9376520385411362,0.2029265383822723,-0.9275843432579546
2.6,0.2481130449141154,0.0691589530826688,1.634630851964353,0.0347031535850038,0.1192221187578559,0.0252314225298466,-0.1893781011152895,-6.687747532921608e-05,-0.0464709086426915,0.2422439401190418,0.0692455980134412,1.633120178351794,-0.1949101598137052,-0.0158013078947535,-0.0495616995786277,0.2941795087783218,0.2311996730189766,-0.1113072029243324,0.1438714744420675,10.48163770033807,-0.9381720172901102,0.2015998549155924,-0.9267749787708994
2.62,0.2443732093471995,0.0691304896842711,1.6337216358078173,0.0367555976302943,0.1182602688472416,0.0252181226273344,-0.1848982769847794,-0.0027667610113357,-0.044594433882811,0.2422439401190418,0.0692455980134412,1.633120178351794,-0.1949101598137052,-0.0158013078947535,-0.0495616995786277,0.2778459684464027,0.223991206525502,-0.134994176800327,0.0938237379940244,10.480786801830618,-0.938782564053952,0.2003327917295977,-0.9258583628332598
2.64,0.2408995710986811,0.0690453946330493,1.6328902657836335,0.0386100519742073,0.1171809062058733,0.0251970043067792,-0.1810157054033049,-0.0060578747863371,-0.0430059765720243,0.2422439401190418,0.0692455980134412,1.633120178351794,-0.1949101598137052,-0.0158013078947535,-0.0495616995786277,0.2665942075208573,0.1941285790737282,-0.1645556887500711,0.0794228655393327,10.410407151461186,-0.939482530249356,0.1988562110995347,-0.9250959680720092
