t,x,y,z,roll,pitch,yaw,v_x,v_y,v_z,ref_x,ref_y,ref_z,ref_v_x,ref_v_y,ref_v_z,a_com,a_x,a_y,a_z,thrust,wind_x,wind_y,wind_z
0.0,-1.4577819247359625,0.7824227567487665,2.703513796453272,0.0244201792646105,0.1003896132897608,0.0432876016110545,0.0041379649549144,0.0056374672662797,0.0289247060646221,-1.4576511690148397,0.7825025146223414,2.704387011014424,0.0668790424871564,-0.0965464862281491,-0.0709399706920052,1.4879032328004944,0.2068982477457201,0.2818733633139885,1.4462353032311075,10.223497488706016,-0.9485832736268396,0.2674671780257867,-0.8591786818036288
0.02,-1.4578178224448068,0.7827567102028236,2.7038850468977764,0.0331899978591967,0.1032217965043941,0.0439787332060424,-0.0072321104066121,0.0239165486028871,0.006978133273924,-1.4576511690148397,0.7825025146223414,2.704387011014424,0.0668790424871564,-0.0965464862281491,-0.0709399706920052,1.5370877378133854,-0.5685037680763252,0.9139540668303672,-1.0973286395349038,8.908889547320086,-0.9371440576775047,0.2666467322723344,-0.8642072065265973
0.04,-1.4580420382560988,0.7832618764921438,2.703709803281092,0.0477139161705827,0.1104613162254045,0.0452682099416336,-0.013969263025683,0.0250211991438606,-0.0233776376894427,-1.4576511690148397,0.7825025146223414,2.704387011014424,0.0668790424871564,-0.0965464862281491,-0.0709399706920052,1.5557010549995742,-0.3368576309535491,0.0552325270486752,-1.5177885481683435,8.908889547320086,-0.9218948757936566,0.2465063208007183,-0.893811206596139
0.06,-1.458332388004046,0.7836975965709505,2.702979989760716,0.0618441710521671,0.119310234988198,0.0467079060692149,-0.0158801801385423,0.0205064509559207,-0.0520021535711973,-1.456982378589968,0.78153704976006,2.703677611307504,0.0793949241447568,-0.1165464865261723,-0.0909399709900284,1.4520653092040534,-0.0955458556429617,-0.2257374093969944,-1.431225794087729,8.610026951961117,-0.9037612628357032,0.2232626853789356,-0.9273623636281288
0.08,-1.45863768115533,0.7840288765782633,2.701629408924793,0.07619594562464,0.1294371107868896,0.048359347714525,-0.0141777423036963,0.0125479988532678,-0.0815925561281687,-1.455644797740225,0.779606120035497,2.702258811893664,0.1044266874599576,-0.1565464871222188,-0.1309399715860749,1.534460147686599,0.0851218917422963,-0.3979226051326444,-1.4795201278485677,8.67630742799156,-0.8843288458546961,0.201032480387589,-0.9591899824311904
0.1,-1.4588739952215544,0.7841714937977342,2.6996971397481806,0.0898855905975426,0.139689997901198,0.0500977848344966,-0.0092343511660871,0.0018264395240976,-0.1102715810238123,-1.4543072168904818,0.777675190310934,2.700840012479824,0.1294584507751584,-0.1965464877182652,-0.1709399721821214,1.550705822644365,0.2471695568804628,-0.5360779664585087,-1.4339512447821798,8.751093837454391,-0.8643917503199967,0.1796153050712884,-0.9890929935855604
0.12,-1.4589810730155768,0.784072233870109,2.6971995162308544,0.1029150290754817,0.1496872223314374,0.0518797871882365,-0.0014496750683055,-0.0114892608317914,-0.1381748091461846,-1.4517180478749787,0.7737442605565688,2.697421213036181,0.1544902140903592,-0.2365464883143117,-0.2109399727781678,1.5941292274815306,0.389233804889079,-0.6657850177944545,-1.3951614061186146,8.841524088572896,-0.8449027611780626,0.1594417981502024,-1.016579831197657
0.14,-1.4589153751883637,0.7837084660646201,2.694308288453576,0.1147025627661259,0.1587775429665521,0.0535802938208378,0.0081907523503792,-0.0263626414258399,-0.1648759628365724,-1.4491288788594756,0.7698133308022034,2.694002413592539,0.17952197740556,-0.2765464889103581,-0.2509399733742143,1.6024254268982834,0.4820213709342419,-0.743669029702426,-1.3350576845193889,8.931129074836917,-0.8238692658140544,0.1384954298506683,-1.0444725291327763
0.16,-1.4586260510459876,0.782997283433548,2.690712320094967,0.1265136819279108,0.1678421524580066,0.0553505582663161,0.0204681918305261,-0.0442226592896302,-0.1934033395688457,-1.4459139157610923,0.7648824010329369,2.6895836141339955,0.2045537407207609,-0.3165464895064045,-0.2909399739702608,1.791317239846578,0.6138719740073424,-0.8930008931895131,-1.426368836613666,8.968117863178122,-0.8037951458745425,0.1193745319527652,-1.0687504806608823
0.18,-1.4580684973871727,0.7819054069022316,2.686547690116192,0.1377375369827681,0.1763626313337971,0.0570771007075206,0.0348836285403664,-0.0643054549618856,-0.2217471658890306,-1.4420731585798292,0.7589514712487693,2.6841648146605506,0.2295855040359617,-0.356546490102451,-0.3309399745663072,1.8804892900637475,0.7207718354920157,-1.0041397836127723,-1.4171913160092475,9.057169262638126,-0.7838131656905232,0.1003255370129428,-1.0921107052042511
0.2,-1.4571866393788957,0.780389603221393,2.6818187704886327,0.1483857001240589,0.1838787049692374,0.0586717155656669,0.052633027357275,-0.086498676434124,-0.2498331937169007,-1.4563243159601544,0.7786901341541373,2.67546033182174,0.089550415926307,-0.1643054564520017,-0.3217471673791467,1.9977519846225824,0.8874699408454318,-1.1096610736119172,-1.4043013913935003,9.057169262638126,-0.7663260973174285,0.0824774983831901,-1.11240259214119
0.22,-1.455928608005853,0.7783896748723586,2.6769072507562117,0.1542319568767745,0.1882697536217315,0.0594837872432689,0.0784438246888459,-0.120545775199611,-0.2654436185157718,-1.4563243159601544,0.7786901341541373,2.67546033182174,0.089550415926307,-0.1643054564520017,-0.3217471673791467,2.274361204623986,1.2905398665785452,-1.7023549382743524,-0.7805212399435559,9.12655432802967,-0.7563107687683462,0.0662964541404568,-1.1287575649794854
0.24,-1.4540782075773422,0.7756609611428137,2.67142829999792,0.1561426651506115,0.1888992277804081,0.0593848514181777,0.1050490616390198,-0.1502149628488955,-0.2816890115175175,-1.4563243159601544,0.7786901341541373,2.67546033182174,0.089550415926307,-0.1643054564520017,-0.3217471673791467,2.1517505215083137,1.3302618475086925,-1.483459382464225,-0.8122696500872856,9.967626263360216,-0.7481005723651939,0.0605259145464826,-1.1376430745065027
0.26,-1.4517005256353648,0.7723525013855385,2.665608061421902,0.1557922655604051,0.1857089879057982,0.0584818886852658,0.1309868177018481,-0.1788944938792591,-0.299442282442651,-1.4554288118008911,0.7770470795896174,2.6722428601479487,0.1004837734034951,-0.184305456750025,-0.34174716767717,2.127475803762268,1.2968878031414135,-1.433976551518179,-0.8876635462566757,9.889623507893702,-0.7453692731853687,0.0576209782147833,-1.1421778341664974
0.28,-1.448988507370971,0.7686830625406404,2.659739650966163,0.1536678328160231,0.1797672894861177,0.0570125830809849,0.1527465266603686,-0.2057478056592013,-0.3173212652636902,-1.4536378034823654,0.7737609704605773,2.665807916800365,0.1223504883578713,-0.2243054573460714,-0.3817471682732164,1.9456639703616057,1.0879854479260278,-1.3426655889971093,-0.8939491410519584,9.730433838900352,-0.7456676764325063,0.056146489104734,-1.1451857883599688
0.3,-1.4457264351547858,0.7642857758174745,2.653186758789281,0.1499832918623874,0.1717578413341579,0.0550860699782573,0.1719227708114953,-0.2321297329817468,-0.3369894241670173,-1.4518467951638392,0.7704748613315373,2.6593729734527827,0.1442172033122475,-0.2643054579421179,-0.4217471688692629,1.9043180561832471,0.958812207556331,-1.3190963661272743,-0.9834079451663564,9.730433838900352,-0.7492033944311692,0.056398955092238,-1.145923200174206
0.32,-1.4421189892338764,0.7593856300486502,2.646231268724556,0.1459010070366596,0.1630497446275953,0.0530375769497689,0.1875871002721967,-0.2564443135460088,-0.3575266165872862,-1.4489624510975945,0.765188752172695,2.6509380300753973,0.1660839182666237,-0.3043054585381643,-0.4617471694653093,1.7736588722021325,0.7832164730350727,-1.2157290282130986,-1.0268596210134455,9.645657369452238,-0.7540408903992747,0.0567079602820454,-1.1460155852153715
0.34,-1.4382312022983983,0.7540128006768088,2.6388604276518017,0.1419661639252059,0.1544799121662446,0.0510365862917348,0.200227278344773,-0.2795882738094153,-0.3785101357756297,-1.446078107031349,0.7599026430138526,2.6425030866980124,0.187950633221,-0.3443054591342108,-0.5017471700613558,1.685026020502473,0.6320089036288153,-1.1571980131703268,-1.0491759594171757,9.572696551810624,-0.7595147796071986,0.0567700782543017,-1.146045571576699
0.36,-1.4343253667466027,0.7484791044168592,2.6314640303696617,0.1382536403359711,0.1469239078261625,0.0492358464497814,0.2101611216465001,-0.3015520293460762,-0.3989709543124763,-1.442647095091245,0.7536165338401091,2.6330681433057257,0.2098173481753762,-0.3843054597302572,-0.5417471706574022,1.5809276511080723,0.4966921650863556,-1.0981877768330457,-1.023040926842328,9.531591509534335,-0.7655002587194377,0.0569578705577521,-1.1455648280407842
0.38,-1.430029738824403,0.7422105479622467,2.623251964125582,0.1342245212433745,0.1398109859286731,0.0474638987552161,0.218749051257667,-0.3239713551130259,-0.4211687505726956,-1.438669415277281,0.7463304246514644,2.622633199898538,0.2316840631297524,-0.4243054603263037,-0.5817471712534487,1.6348706842294702,0.429396480558343,-1.120966288347483,-1.109889813010964,9.495654548190942,-0.7708097079784928,0.0573104873570517,-1.1455435464413142
0.4,-1.4255797701351252,0.7354995744676949,2.6145889433497937,0.1300089742250211,0.1337051200156768,0.0458297312203155,0.2257483509846454,-0.3457600250582237,-0.4439865139639529,-1.4190922862615196,0.7260119802065954,2.602193526596947,0.2719621297863097,-0.423971356603142,-0.5211687520628117,1.6158485857501077,0.349964986348919,-1.0894334972598922,-1.1408881695628648,9.411345291282489,-0.7749057527549497,0.0576752248249742,-1.1463791374825931
0.42,-1.421235992747846,0.7287207162716385,2.6061334340915385,0.1264675111138368,0.1298004269542237,0.0445657944877729,0.2310774382520662,-0.3669211501890745,-0.4449479716359327,-1.4190922862615196,0.7260119802065954,2.602193526596947,0.2719621297863097,-0.423971356603142,-0.5211687520628117,1.0921501599623586,0.2664543633710409,-1.0580562565425415,-0.0480728835989929,9.411345291282489,-0.7751483844986201,0.0532452828713686,-1.1549115879455425
0.44,-1.416576225524939,0.7211605035920671,2.597192314828321,0.1236775354548413,0.1291180725813839,0.0437314914590569,0.2349471850698536,-0.3880818368728702,-0.4494431685537733,-1.4190922862615196,0.7260119802065954,2.602193526596947,0.2719621297863097,-0.423971356603142,-0.5211687520628117,1.0988134471939544,0.19348734088937,-1.0580343341897809,-0.2247598458920308,10.719115704918297,-0.777236893311696,0.0558027654510428,-1.153230660550008
0.46,-1.411823477834299,0.7131766295897328,2.5881129304417665,0.1214506009014105,0.1313220535261966,0.0432792963958542,0.2404216421257966,-0.4091835507584725,-0.4584468889007532,-1.4163726649636563,0.721772266640564,2.596981839076319,0.2826047454920382,-0.4439713569011652,-0.5411687523608348,1.1793207674905577,0.273722852797148,-1.0550856942801194,-0.4501860173489913,10.142513786236124,-0.7754827662515331,0.0571405805984556,-1.1548961423975328
0.48,-1.406941463732198,0.7047765353608082,2.578813767809448,0.1193609279450191,0.1351996460294224,0.0430200084374698,0.2477588315779663,-0.4296865609264521,-0.4710114953278391,-1.4109334223679302,0.7132928395085012,2.5865584640350625,0.3038899769034953,-0.4839713574972116,-0.5811687529568813,1.257057188111257,0.3668594726084856,-1.025150508398978,-0.628230321354295,10.142513786236124,-0.771074987359116,0.057783548826977,-1.1589529036604258
0.5,-1.4021497138641836,0.6964234004190882,2.569722137266928,0.1174113646836883,0.1395746992083534,0.0428380005065709,0.2564193749429175,-0.4484950290373319,-0.4853813157373344,-1.405494179772204,0.7048134123764384,2.5761350889938064,0.3251752083149523,-0.5239713580932581,-0.6211687535529278,1.260213496451427,0.4330271682475628,-0.9404234055439914,-0.7184910204747652,9.958842759798245,-0.7647502450476745,0.0579879845860463,-1.1648691485640883
0.52,-1.39691241421046,0.6872537378559646,2.5598357377912957,0.1154537800822923,0.1442819411265571,0.04264264361048,0.266980641684888,-0.4674417831476735,-0.5026125666669992,-1.398990675605905,0.6943339852145732,2.563711713922748,0.3464604397264094,-0.5639713586893046,-0.6611687541489742,1.3851316319341904,0.5280633370985222,-0.947337705517079,-0.8615625464832383,9.823791426722892,-0.7575360374502873,0.0577581149968681,-1.1717599339336744
0.54,-1.3914478288682333,0.6777103235320637,2.549593171730428,0.1136267873504099,0.1486371067208442,0.0423937277596374,0.2790091082267057,-0.4859265198086492,-0.5207959242084123,-1.392487171439606,0.683854558052708,2.5512883388516894,0.3677456711378665,-0.6039713592853511,-0.7011687547450207,1.429164081073365,0.6014233270908859,-0.9242368330487832,-0.9091678770706546,9.711148098429476,-0.7500942926763502,0.0569997146612826,-1.1792247181891191
0.56,-1.385726542788719,0.6677920726814304,2.5389799462808784,0.1116050989860835,0.1522370770436522,0.0420247044702874,0.2924929468986451,-0.504740665423372,-0.5396107364738552,-1.3854515364880204,0.6723751308759417,2.53786496376573,0.3890309025493235,-0.6439713598813974,-0.7411687553410671,1.4914616497975604,0.6741919335969709,-0.9407072807361416,-0.9407406132721452,9.661745899526068,-0.7435483822624457,0.0563868394414826,-1.1860476999315992
0.58,-1.3800320505521106,0.658023662289826,2.528542999623423,0.1092721791074806,0.1546768553250919,0.0415182335418903,0.3061790325426073,-0.5223340279974484,-0.5580604332903003,-1.3778837707511489,0.6598957036842742,2.523441588664869,0.4103161339607806,-0.6839713604774439,-0.7811687559371135,1.4467434633820948,0.6843042821981116,-0.8796681287038199,-0.9224848408222576,9.661745899526068,-0.7375249877904534,0.0561810635459735,-1.1927031581644971
0.6,-1.3737537102118034,0.6473882517551584,2.5171699777531904,0.1064224233519187,0.1561226262716063,0.0408194639178852,0.3208648385864519,-0.5400947330067439,-0.5782977953562385,-1.3647230989249803,0.6319069608899536,2.500639977958908,0.3524744071744891,-0.6031807399906659,-0.6580604347804164,1.533514236135835,0.7342903021922281,-0.8880352504647748,-1.011868103296909,9.638705318365282,-0.7325794201324567,0.0564356449856826,-1.1986903403765887
0.62,-1.3671153797019957,0.6363250897326199,2.505622539398386,0.1014402687364095,0.155672654144278,0.0397612555969669,0.3423868627780554,-0.5642912480891716,-0.5740271332189835,-1.3647230989249803,0.6319069608899536,2.500639977958908,0.3524744071744891,-0.6031807399906659,-0.6580604347804164,1.6331774417746994,1.076101209580174,-1.2098257541213853,0.213533106862751,9.596471191953242,-0.731748054428133,0.0559912430500782,-1.2048065649271005
0.64,-1.3600463945607275,0.6248370743532139,2.4941678078218783,0.0946037893926587,0.1523356546659396,0.038293109727936,0.3631822711202466,-0.5828766366183118,-0.5717301123234897,-1.3647230989249803,0.6319069608899536,2.500639977958908,0.3524744071744891,-0.6031807399906659,-0.6580604347804164,1.399233700898376,1.0397704171095616,-0.9292694264570078,0.1148510447746886,11.21702809051203,-0.7363225908190995,0.0646850692989007,-1.1998150556874556
0.66,-1.3529695283763872,0.6136126597372318,2.483276267724124,0.0879003165707336,0.1466353418299926,0.0366808998963698,0.3802316611724549,-0.5975325015354246,-0.5747919855443627,-1.3611983548532354,0.625875153490047,2.494059373611104,0.3617334821008654,-0.6193500823893094,-0.6780604350784396,1.1345165768309602,0.8524695026104145,-0.7327932458556397,-0.1530936610436517,10.864577700956032,-0.7422243502015344,0.0729001218962578,-1.194988745244888
0.68,-1.345213256683347,0.601522643329551,2.4717023163065406,0.0811631489653584,0.1389447330239492,0.0349152044228765,0.3940956294335276,-0.6105844869796312,-0.5826242697960967,-1.3541488667097457,0.6138115386902336,2.480898164915496,0.3802516319536181,-0.6516887671865964,-0.7180604356744861,1.029452058839764,0.6931984130536334,-0.6525992722103302,-0.3916142125866995,10.50660119523218,-0.7500851002773374,0.0800418336058953,-1.1896450010474415
0.7000000000000001,-1.337220714409355,0.5891907256571463,2.4599259736559507,0.0749886256033956,0.1305162248340186,0.0331949294912079,0.4041454742316412,-0.6218887324704402,-0.5947730851322708,-1.347099378566256,0.6017479238904203,2.467736956219887,0.3987697818063708,-0.6840274519838834,-0.7580604362705325,0.9700245623888925,0.5024922399056803,-0.5652122745404498,-0.6074407668087034,10.20370486327647,-0.7586915527285895,0.0860921939380145,-1.184292338818817
0.72,-1.3290646615942294,0.576649138105101,2.447863555862965,0.0694687896299146,0.1221456118352933,0.0315886983276011,0.4107690784201611,-0.6317280560814406,-0.6108270072558003,-1.3391239829301285,0.5880673748507427,2.4525757474944765,0.4172879316591235,-0.7163661367811703,-0.798060436866579,0.9980140744454934,0.3311802094259936,-0.4919661805500186,-0.8026961061764759,9.732510492244728,-0.7665600182957532,0.0905631066914812,-1.1801108310606925
0.74,-1.321220439352702,0.564563505412092,2.4360870325580435,0.0648649653589843,0.114787101501844,0.0302009990698478,0.4145160608797748,-0.6400102772152139,-0.627993431328824,-1.3311485872940012,0.5743868258110649,2.4374145387690658,0.4358060815118761,-0.7487048215784574,-0.8380604374626255,0.971237844089003,0.1873491229806845,-0.4141110566886652,-0.8583212036511856,9.732510492244728,-0.7739524115174029,0.0938254962642374,-1.1771688465282373
0.76,-1.3129060311996066,0.5516743831799744,2.423321865375602,0.0604906226513717,0.107967564712308,0.0288792233539191,0.4166138802282362,-0.6483886565285211,-0.6476850737789562,-1.322710237911555,0.5598978096514551,2.421253330028754,0.4543242313646288,-0.7810435063757444,-0.8780604380586718,1.075126583617346,0.1048909674230713,-0.4189189656653602,-0.9845821225066108,9.524816930205816,-0.7802839955285977,0.0962574016849121,-1.1753005064836193
0.78,-1.304567318981064,0.5386234579588578,2.4101472545448237,0.0563643743859117,0.1022364329632939,0.0276807457642859,0.4170294782366655,-0.6561829501416746,-0.6688447343209577,-1.31380893478279,0.5446003263719131,2.404092121273541,0.4728423812173815,-0.8133821911730313,-0.9180604386547184,1.1276690215721437,0.0207799004214664,-0.3897146806576768,-1.0579830271000734,9.446106654507275,-0.7849946699293084,0.0980949077063477,-1.1750374660619765
0.8,-1.296238896494833,0.525424089804033,2.3965338014960054,0.052397630492863,0.0978788165250637,0.0266047453979661,0.4157207373300861,-0.6632571239327432,-0.6914337257298886,-1.2837158450692308,0.505814310451774,2.376705017828775,0.4849324902739427,-0.7007410691704813,-0.7688447358110738,1.1853472808206351,-0.0654370453289726,-0.353708689553428,-1.1294495704465446,9.37555761159365,-0.7877967809328437,0.0996039183820239,-1.176119105643743
0.8200000000000001,-1.2884009367840132,0.5126591564097672,2.383448417616369,0.0460308072163298,0.0974993282709581,0.0256188514862983,0.4099811254380233,-0.6779889407808781,-0.6846937641015111,-1.2837158450692308,0.505814310451774,2.376705017828775,0.4849324902739427,-0.7007410691704813,-0.7688447358110738,0.8593553616963462,-0.2869805946031395,-0.736590842406748,0.3369980814188766,9.37555761159365,-0.7844001745868956,0.1001942687660939,-1.1867719813080977
0.84,-1.280245333469504,0.4990069470904005,2.369787573513916,0.0369084196058219,0.1023909164159776,0.0246535146390603,0.4064689692366838,-0.6858632145292793,-0.6821312420423727,-1.2837158450692308,0.505814310451774,2.376705017828775,0.4849324902739427,-0.7007410691704813,-0.7688447358110738,0.4497386673139693,-0.1756078100669716,-0.3937136874200608,0.1281261029569158,11.251655295036471,-0.7827114969472878,0.1115004842358959,-1.1840101793213134
0.86,-1.272116275576162,0.4852502498587295,2.3561109791502077,0.0275003066722921,0.1105438362837602,0.0237470213848374,0.4070799572226249,-0.6891484251270925,-0.6859172785754148,-1.2788665201664913,0.4988068997600692,2.3690165704706643,0.4985130926813981,-0.7096526929762427,-0.788844736109097,0.2524875621712771,0.0305493992970556,-0.1642605298906585,-0.1893018266521051,10.760658487817636,-0.7760167955179869,0.1220749097441692,-1.1856211725664785
0.88,-1.2639393364576028,0.4714630008961822,2.342299004223825,0.0186859791981045,0.1202054066690079,0.0228603365736193,0.4109848218342553,-0.6893597212799942,-0.6950923418095589,-1.2691678703610123,0.4847920783766596,2.353639675754443,0.525674297496309,-0.7274759405877653,-0.8288447367051435,0.4986842664701187,0.1952432305815155,-0.0105648076450859,-0.4587531617072038,10.366170938164942,-0.7651390969070365,0.1319115240249773,-1.1911712357706197
0.9,-1.2560723189321472,0.4583834991991825,2.3289702745986567,0.0111780419381274,0.129888325091685,0.0220274123065386,0.417221897919513,-0.6874754923785573,-0.7075005707263838,-1.2594692205555336,0.47077725699325,2.338262781038221,0.5528355023112199,-0.745299188199288,-0.8688447373011899,0.7007417168590608,0.3118538042628849,0.0942114450718456,-0.6204114458412457,10.082046543095204,-0.752117085984839,0.1403164737412869,-1.1989689950105522
0.92,-1.2476388794570663,0.4446713052033096,2.3146542751138983,0.0042951994468731,0.1400941329227894,0.0211660520429677,0.4260739248003165,-0.683879377393908,-0.7236116133925858,-1.2484125105093091,0.4558712732292642,2.320885886292198,0.5799967071261308,-0.7631224358108106,-0.9088447378972364,0.9365576846535792,0.4426013440401777,0.1798057492324645,-0.8055521333101001,9.88104368659151,-0.7381024788536232,0.1473140191542832,-1.207902750540457
0.94,-1.239004282311536,0.4310457330000995,2.300000820650102,-0.0015002250020364,0.1500224191107547,0.0203340863880051,0.437202636300892,-0.6789433221673705,-0.7409938250904619,-1.237355800463085,0.4409652894652785,2.303508991546174,0.6071579119410417,-0.7809456834223334,-0.9488447384932828,1.0610774528424496,0.5564355750287769,0.2468027613268753,-0.8691105848938008,9.726839082427432,-0.7244772553070865,0.1525780846803926,-1.2170212611342186
0.96,-1.2301163705369056,0.4175268566018584,2.284991883966909,-0.0063271186095446,0.1592502816790648,0.0195394740273284,0.451187579714468,-0.6732932485358688,-0.7590748201637864,-1.2256200602964875,0.4256137245110046,2.285132096785249,0.6343191167559525,-0.798768931033856,-0.9888447390893292,1.1773108735205589,0.6992471706787962,0.2825036815750859,-0.9040497536662252,9.69043353851248,-0.7107709986833899,0.1571557321964509,-1.226071666117868
0.98,-1.2213880933438666,0.4047954902988353,2.2703919652691185,-0.0101853007147095,0.1668404475654339,0.0188259053040486,0.4669140598151576,-0.6672280167320201,-0.7768890095513492,-1.2132052900095176,0.4098165783664428,2.265755202009423,0.6614803215708634,-0.8165921786453787,-1.0288447396853757,1.2262285234895678,0.7863240050344833,0.3032615901924329,-0.8907094693781425,9.67876232693743,-0.6981901969149744,0.160984417047695,-1.234334506939419
1.0,-1.211859331204477,0.3915245562522267,2.2546490209830945,-0.013563241155387,0.1732327487273788,0.0181331478888803,0.4851700879086043,-0.660244310182996,-0.7965256204090918,-1.1980423903531088,0.3714340894622343,2.231547514791551,0.548450255987395,-0.6571953843438456,-0.8768890110414653,1.3853259588360525,0.9128014046723336,0.3491853274512069,-0.98183054288713,9.6370219786877,-0.6870541621654553,0.1641089816462386,-1.2417937954087654
1.02,-1.2018924609368684,0.3782476237483562,2.2388003841252155,-0.0213366749272983,0.1777119023263196,0.0171588816431402,0.5104184016597549,-0.664330191890374,-0.7873676572427292,-1.1980423903531088,0.3714340894622343,2.231547514791551,0.548450255987395,-0.6571953843438456,-0.8768890110414653,1.3583446414291198,1.2624156875575303,-0.2042940853689001,0.4578981583181318,9.6370219786877,-0.6783305316796874,0.1691070009886395,-1.2509770850675066
1.04,-1.191961474842813,0.3656721091844545,2.223882975257779,-0.0325167091945777,0.1802872599858094,0.0160019799647763,0.5335578406666547,-0.6583683014641485,-0.7834326867065013,-1.1980423903531088,0.3714340894622343,2.231547514791551,0.548450255987395,-0.6571953843438456,-0.8768890110414653,1.2108486364213054,1.1569719503449871,0.2980945213112762,0.1967485268113911,11.420251180008565,-0.6754780934878202,0.1854795861091577,-1.2466690262072606
1.06,-1.181043219824926,0.3526303708497252,2.208199134794753,-0.0447688883683537,0.1814924556269282,0.0148167110032513,0.5569005553192057,-0.645835371409948,-0.7854340179937686,-1.1925578877932348,0.3648621356187959,2.2227786246811365,0.5647574952218425,-0.6551888578662107,-0.8968890113394885,1.3284972619611384,1.16713573262755,0.6266465027100265,-0.1000665643633602,10.99476789005348,-0.6734934347581981,0.2021397638100499,-1.2423841696254894
1.08,-1.1696682040271502,0.3398837187478732,2.192411516633998,-0.056017789872395,0.181202916211346,0.0138084216193042,0.5793145272071957,-0.6295037714875676,-0.793194293169922,-1.181588882673487,0.3517182279319189,2.205240844460307,0.5973719736907375,-0.6511758049109408,-0.936889011935535,1.4399037837907096,1.1206985943994996,0.8165799961190157,-0.3880137588076704,10.322196727498522,-0.6732230391532161,0.2167334617767118,-1.2376154478829249
1.1,-1.158454336095567,0.3281024699902433,2.177228470049816,-0.0652805125897899,0.1794854097760214,0.0130848355865369,0.5998768339784109,-0.6116306257155023,-0.8046056548202853,-1.170619877553739,0.338574320245042,2.1877030642394777,0.6299864521596324,-0.6471627519556711,-0.9768890125315814,1.476886060482022,1.0281153385607589,0.8936572886032668,-0.5705680825181692,10.322196727498522,-0.6742566723549084,0.2298409433574564,-1.232938800733392
1.12,-1.1462382084262537,0.3160840249218695,2.160978810589805,-0.073441721894704,0.1760559282873056,0.0126101802169758,0.6205204638982452,-0.5912855621569393,-0.819879016795395,-1.1580201485105464,0.3256310652059286,2.168165283988846,0.6626009306285274,-0.6431496990004013,-1.0168890131276278,1.6381061118649909,1.0321814959917186,1.0172531779281513,-0.7636680987554822,10.092284672652568,-0.6765591233560592,0.2406736417354675,-1.2286422498274825
1.14,-1.1336205951789116,0.304488146147515,2.144404506407308,-0.079960685423734,0.1709158696870836,0.0124547613525752,0.6399176187884374,-0.5695208602841652,-0.8367953380093098,-1.1454204194673538,0.3126878101668152,2.1486275037382145,0.6952154090974224,-0.6391366460451314,-1.0568890137236744,1.6853143541022184,0.9698577445096112,1.0882350936387064,-0.8458160606957421,9.906838133760177,-0.6798070912737191,0.2487664491044616,-1.2252726937906924
1.16,-1.1206354654463286,0.2933404181207029,2.127478927923442,-0.0847989358375373,0.1643420082234456,0.0126095685211714,0.657283951567612,-0.5467233225762618,-0.8548453788168889,-1.1320053284624387,0.2998448814515835,2.128089723472682,0.7278298875663174,-0.6351235930898617,-1.0968890143197207,1.6934588959401846,0.8683166389587271,1.139876885395169,-0.9025020403789552,9.825868982787142,-0.6847043208855612,0.2554441308409371,-1.2213016998435045
1.18,-1.1079996993158014,0.2831780989837533,2.1110550666559167,-0.0879443594111927,0.1571933466503145,0.0129995019058059,0.6716593748415499,-0.5245052521665768,-0.8730188771003208,-1.1177748754958017,0.2871022790602336,2.106551943192248,0.7604443660352123,-0.6311105401345918,-1.136889014915767,1.6051257636806011,0.7187711636968963,1.1109035204842466,-0.9086749141715922,9.761952776115322,-0.6908935635565416,0.2601762323698554,-1.2171468154219052
1.2,-1.0944287109442346,0.2729371348055436,2.093382020729906,-0.0898897120603837,0.1491337652685244,0.0136083501973301,0.68441045192681,-0.5010139134427327,-0.8933453349932413,-1.074416730573724,0.2569528363754244,2.067404122800901,0.725392343708375,-0.5069612303366141,-0.9115582681113203,1.6789861913855155,0.6375538542630066,1.1745669361922062,-1.0163228946460268,9.692847425611037,-0.6976888022325001,0.2630734320746337,-1.2133324832734136
1.22,-1.080522684666937,0.2632144186409179,2.0757119595659046,-0.090236514769412,0.1395020584461383,0.0145124785551334,0.7053620678064638,-0.4724248615725065,-0.8703701349674939,-1.074416730573724,0.2569528363754244,2.067404122800901,0.725392343708375,-0.5069612303366141,-0.9115582681113203,2.111968223618757,1.0475807939826889,1.42945259351131,1.1487600012873689,9.611827025367347,-0.7103436700712336,0.2603887013205054,-1.2103867715746988
1.24,-1.066233139731127,0.2540748696723356,2.058538028215691,-0.0884134466897598,0.127584713430523,0.015790124518594,0.7218754725749353,-0.4433556542517816,-0.8483007690373756,-1.074416730573724,0.2569528363754244,2.067404122800901,0.725392343708375,-0.5069612303366141,-0.9115582681113203,2.002977947869204,0.8256702384235759,1.4534603660362435,1.1034682965059162,12.10094224911245,-0.7244196304583737,0.2630535660529726,-1.1953762010107756
1.26,-1.0524047690770797,0.2459271415883438,2.042572894084116,-0.084287450146909,0.1152013309624459,0.0172424755384321,0.7324884238713587,-0.4167378209862573,-0.833183294890498,-1.0671628071366404,0.2518832240720582,2.058288540119788,0.7361389374817401,-0.5034524259706216,-0.9192661463135204,1.619939665198228,0.5306475648211684,1.330891663276215,0.7558737073438793,11.65288033766592,-0.7409595416200483,0.2631863604116549,-1.1780154327759913
1.28,-1.0376824572355692,0.2378571472093796,2.0260317185805232,-0.0783275443145024,0.1019214561344799,0.0188420088693529,0.7387339521278544,-0.3922199507794773,-0.8218720877886908,-1.0526549602624728,0.241743999465326,2.040057374757561,0.7576321250284701,-0.4964348172386364,-0.9346819027179204,1.3857091945815776,0.3122764128247857,1.225893510338999,0.565560355090361,11.65288033766592,-0.7573493500018819,0.2605216120130161,-1.1624545020482993
1.3,-1.022884075291337,0.2302485798693845,2.0096698188317315,-0.0714525859111585,0.0891343739172555,0.0203815233184388,0.7404430078514371,-0.3703386617638089,-0.8150134137293639,-1.0381471133883051,0.2316047748585937,2.0218262093953348,0.7791253125752001,-0.4894172085066514,-0.95009765912232,1.1497315885736192,0.0854527861791354,1.0940644507834218,0.342933702966347,11.303171460003796,-0.772220343223492,0.2557390311754813,-1.150006226043594
1.32,-1.008095063720465,0.2230518328298069,1.993400972052269,-0.064020425590985,0.0774559645745665,0.0217878310424438,0.7381897811328002,-0.3508990351850566,-0.8121389986754614,-1.0225646071368013,0.2218164306884607,2.002824256212888,0.8006185001219301,-0.4823995997746663,-0.96551341552672,0.988987328115244,-0.1126613359318462,0.9719813289376128,0.1437207526951256,11.004060887908054,-0.7846234388962916,0.2500009219694978,-1.14047167766311
1.34,-0.9941176420631248,0.2165523930668223,1.9779860624842776,-0.0567552456708275,0.0677925411457609,0.0229630859772297,0.7331547372771491,-0.3345465918351745,-0.8105860417903558,-1.0069821008852973,0.2120280865183276,1.983822303030442,0.8221116876686603,-0.4753819910426812,-0.98092917193112,0.8590194194929948,-0.2517521927825561,0.8176221674941087,0.0776478442552797,10.763215146913351,-0.7955773863503715,0.2428455445619645,-1.133339601438202
1.36,-0.9795296461281918,0.2100243358486819,1.9617839825358545,-0.0491257367085443,0.0593046933207708,0.0240259735598441,0.7258103796823329,-0.3193940684740475,-0.8097211896290493,-0.9908622649451252,0.2024151825664942,1.9644349559378853,0.8436048752153903,-0.4683643823106961,-0.9963449283355198,0.843039918910947,-0.367217879740811,0.7576261680563495,0.0432426080653247,10.62801765597942,-0.8047150917395832,0.2353044813030092,-1.127896446215464
1.38,-0.9651086943834688,0.2037788715637028,1.945589924795508,-0.0416473398871255,0.0526096810369165,0.0249245330198666,0.7165272567402169,-0.3061523435707294,-0.8097568292068695,-0.9742050993162846,0.1929777188329604,1.9446622149352195,0.8650980627621203,-0.461346773578711,-1.0117606847399196,0.8085804229529372,-0.4641561471057986,0.6620862451659021,-0.0017819788910133,10.62801765597942,-0.811509720483566,0.2276783106968415,-1.1245058412832514
1.4,-0.9508955908681732,0.1977782387426833,1.929384804123551,-0.0344193039032371,0.048079577128764,0.0256663018536005,0.7052005145337616,-0.294778791858498,-0.8107431084733611,-0.929282331546458,0.1884712543851663,1.9051020833351648,0.7462589867394015,-0.3143071837793195,-0.7916458051549649,0.8040919013921978,-0.5663371103227621,0.5686775856115711,-0.0493139633245764,10.57255260687998,-0.8154497202485829,0.2203946622924757,-1.1235297405573783
1.42,-0.9375544300402264,0.1922926820718856,1.9142790897090636,-0.0275401837576854,0.0446472963398833,0.0263052590335278,0.6995611577506042,-0.2836196645626413,-0.7792506784474953,-0.929282331546458,0.1884712543851663,1.9051020833351648,0.7462589867394015,-0.3143071837793195,-0.7916458051549649,1.694182410387772,-0.2819678391578706,0.5579563647928332,1.5746215012932885,10.525787018373194,-0.8240132744245866,0.2095787211315256,-1.1218246977051074
1.44,-0.9236402232620043,0.1867213551097307,1.8990276848969292,-0.0203511178753227,0.0406177980055134,0.0269490706338715,0.6919551415711623,-0.2743429763660337,-0.7478149299820174,-0.929282331546458,0.1884712543851663,1.9051020833351648,0.7462589867394015,-0.3143071837793195,-0.7916458051549649,1.682345615207982,-0.3803008089720949,0.4638344098303826,1.571787423273896,12.766249375966254,-0.8295048820021542,0.2049385020088716,-1.114186561948514
1.46,-0.90990310563779,0.1813144332424229,1.8843559858421768,-0.0134214958643071,0.0368640512577617,0.0275313213763146,0.6820231071826912,-0.2670250459250596,-0.7208895647431728,-0.921819741679064,0.1853281825473731,1.897185625283615,0.7522053327392384,-0.3159381518210375,-0.788023600344584,1.4808550792345356,-0.4966017194235561,0.3658965220487059,1.3462682619422297,12.482455250120438,-0.8350088034189551,0.2009154002793704,-1.106280293794847
1.48,-0.8970582528635874,0.1762949869354376,1.8708827250224305,-0.0071701716649137,0.0342634854001438,0.0280184748627747,0.6705046041848893,-0.2618302693637337,-0.6986759816276851,-0.906894561944276,0.1790420388717867,1.881352709180516,0.7640980247389123,-0.3192000879044735,-0.7807791907238221,1.2777958460383574,-0.5759251498900941,0.2597388280662943,1.1106791557743856,12.19262728927697,-0.83977120155628,0.1965960864187865,-1.0993747373820872
1.5,-0.8837872912950594,0.1711002575751309,1.8571308176985115,-0.0010425545013033,0.0331604785848153,0.0284669980608252,0.6573647824508116,-0.2580208411065213,-0.6777700658998248,-0.8919693822094881,0.1727558951962003,1.8655197930774163,0.7759907167385861,-0.3224620239879095,-0.7735347811030602,1.249223730232683,-0.6569910867038842,0.1904714128606183,1.0452957863930137,11.967680357925929,-0.8431528118893166,0.1921758805011083,-1.094206986318926
1.52,-0.8707772804320294,0.1659653144626766,1.84377450524169,0.0045245432835456,0.0336719426941167,0.0288644889226831,0.6444491216461664,-0.2557173805220133,-0.658975268885836,-0.8764495678747164,0.1663066547164421,1.8500490974553552,0.7878834087382599,-0.3257239600713455,-0.7662903714822983,1.1460416871585355,-0.6457830402322617,0.1151730292254016,0.9397398506994392,11.655534780105882,-0.8445365579817864,0.1879493202034493,-1.0911908222896796
1.54,-0.8580193753147435,0.1608615911988269,1.830788151077101,0.0094359820402036,0.0355682221641582,0.0292214894941031,0.6322094291032805,-0.2547336511659334,-0.640572446419025,-0.8609297535399446,0.1598574142366839,1.834578401833294,0.7997761007379338,-0.3289858961547815,-0.7590459618615364,1.106166433832806,-0.6119846271442964,0.0491864678039938,0.920141123340551,11.637200781659883,-0.8443188434394746,0.1839253157077202,-1.0900697782692756
1.56,-0.8461148494036199,0.1560197837957249,1.8187915753398836,0.0134334088849046,0.0383318437765864,0.0295273508502093,0.6216840775385831,-0.2548870459940559,-0.623133095231741,-0.8451126219051811,0.1533266253548398,1.819288816451752,0.8116687927376076,-0.3322478322382176,-0.7518015522407746,1.01850076750977,-0.526267578234868,-0.0076697414061244,0.8719675593642007,11.637200781659883,-0.8431377976975487,0.1807784565507587,-1.089664935097077
1.58,-0.8337861715018663,0.1509118483371375,1.8065212720149717,0.0169236630326436,0.0418874634724529,0.0298149335196087,0.6119034310029882,-0.2558351690580662,-0.604810691102828,-0.8289981729704257,0.1467142880709099,1.804180341310729,0.8235614847372815,-0.3355097683216536,-0.7445571426200127,1.0395557669768856,-0.489032326779748,-0.0474061532005132,0.9161202064456476,11.62745849019666,-0.8412276776324868,0.1782522888395907,-1.0895794377446424
1.6,-0.8216392366075781,0.145776957898941,1.7946141635568629,0.0196618994409835,0.0457955042132084,0.0300631445871823,0.603430160349008,-0.2574532394818047,-0.5868079667160566,-0.8031909999517168,0.1381200898842342,1.77628073745983,0.6441167426453965,-0.2639472680797394,-0.566005262210454,0.9981389592860224,-0.423663532699009,-0.0809035211869257,0.9001362193385709,11.619148729761037,-0.8389306911330797,0.1765905009674894,-1.089565260847038
1.62,-0.8096085894317429,0.1405747786802886,1.7832021668628626,0.0207938550287936,0.0487607793625652,0.0301847317708782,0.5998413358397735,-0.2621311065141951,-0.5552870621653432,-0.8031909999517168,0.1381200898842342,1.77628073745983,0.6441167426453965,-0.2639472680797394,-0.566005262210454,1.6033788736805112,-0.1794412254617239,-0.2338933516195185,1.5760452275356718,11.594199966739325,-0.8388340997249871,0.1748079795958178,-1.0898297656603793
1.64,-0.7982507990655016,0.135554653960566,1.772939363019157,0.0200718056297632,0.0501277869711466,0.0301452943881679,0.5957976814515068,-0.2658603239676766,-0.5266094506260983,-0.8031909999517168,0.1381200898842342,1.77628073745983,0.6441167426453965,-0.2639472680797394,-0.566005262210454,1.4600202115235688,-0.2021827194133352,-0.1864608726740796,1.4338805769622431,12.517118653788202,-0.8401011662347857,0.1785750873572256,-1.0836366559403847
1.66,-0.7863871928155869,0.1302016540552304,1.762705989272989,0.0176881484794532,0.0506924408106667,0.0299746837809379,0.5907064822277468,-0.269043688907447,-0.4983081758535327,-0.7967498325252629,0.1354806172034368,1.7706206848377255,0.6505594049738782,-0.265569687884074,-0.5582441764319792,1.44656167828063,-0.254559961188,-0.1591682469885197,1.4150637386282776,12.370217590544598,-0.8423947929924699,0.1838055051545602,-1.076683566207746
1.68,-0.7746343673721413,0.1248083253843811,1.7530175589876615,0.0141860753182571,0.0508445677475343,0.0297241394698875,0.5847866487262782,-0.2697970433497439,-0.4720187424555158,-0.7838674976723549,0.1302016718418421,1.7593005795935164,0.6634447296308416,-0.2688145274927433,-0.5427220048750295,1.3479116068845254,-0.2959916750734315,-0.0376677221148424,1.314471669900849,12.09084361699388,-0.8451513432907066,0.1900506321037839,-1.0692724212928546
1.7,-0.763007819810678,0.1194243882970106,1.7438340817441442,0.0105713679166498,0.0509541844069397,0.029472928314424,0.5781826862139172,-0.2684791009194853,-0.4476184495179902,-0.770985162819447,0.1249227264802473,1.7479804743493073,0.6763300542878049,-0.2720593671014126,-0.52719983331808,1.26562592079098,-0.3301981256180475,0.0658971215129283,1.22001464687628,12.09084361699388,-0.8475073856154788,0.1961525586831882,-1.06233544111436
1.72,-0.7520894964270365,0.1143479303849006,1.7355477473290537,0.0074355241876875,0.051246123235414,0.0292646576612537,0.5714912194654482,-0.2659676054638841,-0.4258315961047884,-0.7574585617336909,0.119481539138219,1.7374364776829456,0.6892153789447683,-0.2753042067100819,-0.5116776617611304,1.1464622958450403,-0.3345733374234494,0.1255747727800626,1.0893426706600873,11.968052377761524,-0.8495973639535128,0.2020103856558475,-1.0557406648590977
1.74,-0.7407354068553768,0.1090654872446312,1.727267458458003,0.0045987861264659,0.0518872882229145,0.0290875745267619,0.5643192801068884,-0.2624262143005356,-0.4033504124157186,-0.7439319606479347,0.1140403517961907,1.726892481016584,0.7021007036017316,-0.2785490463187511,-0.4961554902041807,1.1930861092104807,-0.3585969679279932,0.1770695581674225,1.1240591844534908,11.867822770270324,-0.8514196301625537,0.2071655764166011,-1.0496960855108342
1.76,-0.729522990394895,0.1038610513906691,1.719431007131866,0.0022669857266719,0.0528831645941628,0.0289539750819755,0.5573413002831935,-0.2582275699392819,-0.3814351407969423,-0.7300832264457545,0.1085180434639458,1.7167365386391462,0.714986028258695,-0.2817938859274204,-0.4806333186472311,1.1689738523775062,-0.3488989911847429,0.2099322180626861,1.095763580938816,11.8348184666238,-0.8528217954690314,0.2115847121230847,-1.0442899699408486
1.78,-0.7184473123803032,0.0987468753525069,1.7120262808447415,0.0004401841207314,0.0541653641453553,0.0288623024347233,0.5506513170335011,-0.2534887624642487,-0.3601182665085072,-0.7159123591271502,0.102914614141484,1.706968650550632,0.7278713529156583,-0.2850387255360897,-0.4651111470902815,1.1419515112249086,-0.3344991624846194,0.2369403737516623,1.0658437144217547,11.789813399195737,-0.8539328085347138,0.2157059255536183,-1.039060886293232
1.8,-0.7080458582128331,0.0939812761939321,1.7053819724257264,-0.0008187971386624,0.0555743980831137,0.0288139456073549,0.5446342678069898,-0.2484429830114941,-0.3403362183490772,-0.6909147465286282,0.0860724372292944,1.6940203675193162,0.5790330670211034,-0.224569523867094,-0.3533867726442987,1.0641830212211,-0.3008524613255681,0.2522889726377264,0.9891024079714984,11.746530986267317,-0.8550531249526738,0.2194023407531668,-1.0337558814688588
1.82,-0.6971960306269694,0.0889820590886458,1.6987551467575448,-0.004474196235853,0.0565517871975399,0.028608947136667,0.5405692155668498,-0.2502859220885063,-0.323581097613523,-0.6909147465286282,0.0860724372292944,1.6940203675193162,0.5790330670211034,-0.224569523867094,-0.3533867726442987,0.8669705084656072,-0.2032526120069988,-0.0921469538506108,0.837756036777712,11.708308540138203,-0.8571281026576247,0.2254709402183609,-1.0268660065817357
1.84,-0.6864377148283337,0.0840132689890711,1.692438869944579,-0.0106832754046406,0.0566603476148423,0.0282439892097137,0.5353846680367321,-0.2459539817352328,-0.3088534130314748,-0.6909147465286282,0.0860724372292944,1.6940203675193162,0.5790330670211034,-0.224569523867094,-0.3533867726442987,0.8101696326459465,-0.2592273765058828,0.216597017663675,0.7363842291024075,11.405989056705948,-0.8591143284309171,0.2331483582038345,-1.0205057262159996
1.86,-0.6763232347532424,0.0794150132884524,1.6866970561702,-0.016774060865651,0.0564864988859106,0.0279051922410757,0.5295469435273756,-0.2382268944362237,-0.2962720959982823,-0.6851244158584171,0.0838267419906235,1.6904864997928732,0.5847094170186238,-0.2187856761476631,-0.352040473871457,0.7938457719597505,-0.2918862254678245,0.3863543649504558,0.6290658516596243,11.29926259302647,-0.8616142731664376,0.2415582916118741,-1.0130711064159514
1.88,-0.6658035795186412,0.0747571890554362,1.680900391509585,-0.0225680396030806,0.0563684558267271,0.0276110616133845,0.5227264663346781,-0.2279609449083156,-0.2840923596819721,-0.6735437545179951,0.0793353515132816,1.6834187643399872,0.5960621170136647,-0.2072179807088013,-0.3493478763257737,0.8663928173474621,-0.3410238596348758,0.5132974763954051,0.6089868158155098,11.20805158647454,-0.8642471768013208,0.2496497737025801,-1.0050268867142376
1.9,-0.6554256369373384,0.0703221461345306,1.6753365695441238,-0.0274283563821247,0.0565640613918704,0.0273943928761953,0.5154441417580157,-0.2161391570744302,-0.2729261662244913,-0.661963093177573,0.0748439610359397,1.6763510288871013,0.6074148170087056,-0.1956502852699394,-0.3466552787800903,0.8908855077381591,-0.3641162288331223,0.5910893916942717,0.5583096728740411,11.139970770479522,-0.8666391471038828,0.2570292695523418,-0.9969788048037556
1.92,-0.6451962243563905,0.0661361319828787,1.6699867729047595,-0.031235778334984,0.057233295650557,0.0272548441999694,0.5079578935311794,-0.2032583011077877,-0.262586388150158,-0.6498147968373988,0.0709309553305409,1.6694179233114996,0.6187675170037464,-0.1840825898310776,-0.3439626812344069,0.9067405549186338,-0.374312411341815,0.6440427983321214,0.5169889037166642,11.076061102197857,-0.8683604215256344,0.2630171602244732,-0.990136437947334
1.94,-0.6356165322784013,0.0624047443733827,1.6650895112461852,-0.0339318055898046,0.0583520236499106,0.0271846047847764,0.5009040346129303,-0.190361073674386,-0.2534082615236812,-0.6376665004972247,0.0670179496251421,1.6624848177358975,0.6301202169987874,-0.1725148943922157,-0.3412700836887235,0.8665065052829874,-0.3526929459124528,0.6448613716700857,0.4589063313238412,11.026276163142027,-0.8700112720356028,0.2688458113154302,-0.982511003481488
1.96,-0.6256728760917831,0.0587468071742178,1.660118608197756,-0.0358537142723879,0.0599673382263115,0.0271720750713973,0.4939207080508648,-0.1762588925316474,-0.2441658460551927,-0.6252343866571747,0.0633941363057149,1.6556190270989382,0.6414729169938282,-0.1609471989533539,-0.3385774861430401,0.9124974062253766,-0.3491663281032731,0.7051090571369295,0.4621207734244237,10.979716169942549,-0.8714535770354073,0.2739318307706815,-0.9750207186173264
1.98,-0.6158635113558351,0.0553784132326146,1.6553281107372144,-0.0367377586250953,0.0618904734815819,0.0272330669949664,0.4874469137795099,-0.1613794432401258,-0.2353475453170791,-0.6125184553172485,0.0600595153722592,1.6488205514006204,0.6528256169888692,-0.149379503514492,-0.3358848885973567,0.9234046396280028,-0.3236897135677458,0.7439724645760842,0.4409150369056827,10.945183263099352,-0.8726676609685722,0.2781411423532,-0.9678810524087827
2.0,-0.6061780607386741,0.052317026317981,1.650709669872197,-0.0361934647233794,0.0639942652571669,0.0273994137791496,0.4815082782228146,-0.1457301139486323,-0.2269096317884437,-0.5914911656668596,0.0473094410706083,1.6435607334713604,0.506991682858003,-0.1430917845487195,-0.2349995748851757,0.9372396762109052,-0.2969317778347663,0.7824664645746728,0.4218956764317688,10.912045273168587,-0.8736517476610637,0.2809774714122083,-0.9615877628974224
2.02,-0.5970420904422793,0.0497532083056085,1.6465325124761208,-0.0324873873768646,0.0648464666449784,0.027830382554763,0.4802703421951053,-0.1263697478498449,-0.2131370923205438,-0.5914911656668596,0.0473094410706083,1.6435607334713604,0.506991682858003,-0.1430917845487195,-0.2349995748851757,1.1895788167274133,-0.0618968013854664,0.9680183049393678,0.688626973394997,11.251047620304234,-0.8786346352235722,0.280721159202183,-0.9522531455360256
2.04,-0.5874592954875646,0.0473805854154996,1.6424143486294902,-0.0260074957409897,0.063635631540734,0.0285312152786185,0.4779096139809606,-0.1124283725057726,-0.1994581459782023,-0.5914911656668596,0.0473094410706083,1.6435607334713604,0.506991682858003,-0.1430917845487195,-0.2349995748851757,0.9836774842676108,-0.1180364107072312,0.6970687672036152,0.6839473171170729,11.251047620304234,-0.8830281194658062,0.2805930638838656,-0.9409282589931806
2.06,-0.5779403933654895,0.0452431461009441,1.6385525744872764,-0.01914994954033,0.0609894368708208,0.0292800904270356,0.4739327455060402,-0.102195873644988,-0.1874574587230893,-0.5864212488382795,0.0458785232251211,1.6412107377225087,0.5109006366737017,-0.1394342528104382,-0.234929980798795,0.8132281512555471,-0.1988434237460201,0.5116249430392301,0.6000343627556511,11.1398902748997,-0.8888809870368862,0.2793247457810103,-0.9297484039080696
2.08,-0.5685221105700479,0.0432832573612506,1.634911438999742,-0.012770026479042,0.0576336886050076,0.0299858309415983,0.4679530712198338,-0.0943108918138874,-0.1772257308160527,-0.5762814151811195,0.0430166875341467,1.6365107462248052,0.5187185443050989,-0.1321191893338757,-0.2347907926260337,0.7117192195830038,-0.2989837143103191,0.3942490915550295,0.5115863953518304,11.01869914488634,-0.8944951610735599,0.277832890958291,-0.920167809155938
2.1,-0.5597063722446549,0.0415509549904929,1.6316273304712114,-0.0074265195275223,0.0545214841500978,0.0305839675195271,0.460216792501339,-0.0883609598639385,-0.1689639556839908,-0.5661415815239594,0.0401548518431723,1.6318107547271017,0.5265364519364961,-0.1248041258573132,-0.2346516044532723,0.6393524594306603,-0.3868139359247402,0.2974965974974451,0.4130887566030916,10.909328531259234,-0.89990961885155,0.2762583020299494,-0.9114598973573124
2.12,-0.5506064459359279,0.0398376897443285,1.6283276442699262,-0.002615759235613,0.0521443807224452,0.0311340082790714,0.4500562457231095,-0.0832399323565036,-0.1614875054672257,-0.5556108524852295,0.0376587693260261,1.6271177226380362,0.5343543595678933,-0.1174890623807508,-0.234512416280511,0.6807329531620027,-0.5080273389114792,0.2560513753717484,0.3738225108382564,10.74417263209125,-0.9039331356762896,0.2745907509251929,-0.9052082615776612
2.14,-0.541724342854802,0.0382169003449046,1.6251674341996314,0.0013805611170402,0.0513893394780072,0.031615509421247,0.4388390286417112,-0.0790278995116872,-0.1549258710781322,-0.5450801234464996,0.0351626868088798,1.6224246905489708,0.5421722671992906,-0.1101739989041882,-0.2343732281077496,0.6830487273854615,-0.5608608540699139,0.2106016422408159,0.3280817194546759,10.74417263209125,-0.9064880412898032,0.2726349222466019,-0.9018577816419716
2.16,-0.5330626309328819,0.0366739910240185,1.6221310103060278,0.0046468437558242,0.0521945337985977,0.032048939509174,0.4280891944436005,-0.0753724507888281,-0.1490256532301979,-0.5343539467169847,0.0328494808786476,1.6177351381642244,0.5499901748306879,-0.1028589354276258,-0.2342340399349883,0.6397925665897585,-0.5374917099055326,0.1827724361429597,0.2950108923967132,10.646001819262892,-0.9076387876992464,0.2707643436705735,-0.9003383108734744
2.18,-0.5250250355417542,0.0352718349732422,1.619351192419037,0.0071975056719805,0.0540560780174808,0.0324324920865718,0.4186703516049179,-0.0723236337430855,-0.1438711158572219,-0.5234323222966849,0.0307191515353295,1.613049065483797,0.5578080824620851,-0.0955438719510633,-0.2340948517622269,0.5580751323245379,-0.4709421419341331,0.1524408522871265,0.2577268686487999,10.646001819262892,-0.9074727522671268,0.269194914793664,-0.9003230852998778
2.2,-0.5167465899956476,0.0338553553844831,1.616527416789986,0.0093952776705616,0.05680230168969,0.0328156540685018,0.4098167372203142,-0.0694397824756678,-0.1387890365382837,-0.5040915179615083,0.0316556532860879,1.6121576366261758,0.4308282611770423,-0.0597357744477769,-0.1432261881874397,0.5304022436034459,-0.4426807192301846,0.1441925633708846,0.2541039659469113,10.61264706539896,-0.9063967440534344,0.267948847714488,-0.9012638341571796
2.22,-0.5085941827466021,0.0324916828669111,1.6138893162994892,0.0111050940496288,0.0589150038780763,0.0331656232605242,0.4056477453227562,-0.0669839531948381,-0.1252629840632965,-0.5040915179615083,0.0316556532860879,1.6121576366261758,0.4308282611770423,-0.0597357744477769,-0.1432261881874397,0.7182716868542701,-0.2084495948778991,0.1227914640414877,0.6763026237493586,10.58728655151208,-0.909137705509127,0.2667037122935477,-0.8987184981497748
2.24,-0.5009323451829878,0.0312385931767997,1.611626740912696,0.012262448425799,0.0596272664270076,0.0334557384972713,0.4009708731248254,-0.0650276160514806,-0.1136835008181666,-0.5040915179615083,0.0316556532860879,1.6121576366261758,0.4308282611770423,-0.0597357744477769,-0.1432261881874397,0.6320301037104626,-0.233843609896539,0.0978168571678761,0.5789741622564972,11.095563265523197,-0.9114401784005788,0.2691972374058414,-0.8918951964585273
2.26,-0.4929730905161285,0.0299562979797883,1.6094629820193038,0.0128637807059386,0.0596090771364967,0.033712511364866,0.395124625750706,-0.0632717999913579,-0.103363803019583,-0.4997832353497379,0.0310582955416102,1.610725374744301,0.4332598430914672,-0.0572182025887152,-0.1430972026534833,0.599494914595767,-0.2923123687059714,0.0877908030061346,0.5159848899291802,10.971881726392894,-0.914466723797374,0.2717261586238748,-0.8848393423442459
2.28,-0.4851406339246683,0.0287074594280218,1.6074858961397724,0.0127456418556942,0.0592808592674123,0.0339198457879265,0.3883902263045605,-0.0616320416389102,-0.0948364101386885,-0.491166670126197,0.0298635800526546,1.6078608509805523,0.4381230069203171,-0.0521830588705918,-0.1428392315855704,0.5494482976126985,-0.3367199723072756,0.0819879176223815,0.4263696440447252,10.858149719621906,-0.9174846299191864,0.2742509370984596,-0.8784627224714268
2.3000000000000003,-0.4774507389967954,0.0274931979048808,1.6056643247120983,0.0119000387056366,0.0590044477038055,0.0340833582737244,0.3809521786628467,-0.0598083967023786,-0.0877290956599667,-0.4825501049026562,0.0286688645636991,1.6049963272168035,0.4429861707491668,-0.0471479151524683,-0.1425812605176575,0.5224082519313555,-0.3719023820856898,0.0911822468265797,0.3553657239360894,10.754168143730569,-0.9200072804249384,0.2767299251345201,-0.8732481934426989
2.32,-0.4702880078743266,0.0263778515924515,1.6040543300015777,0.0104932249996523,0.0590131991193896,0.0342068241572717,0.3734354816132875,-0.0576346929179168,-0.0820851656444497,-0.4736903814876729,0.0277259062606497,1.6021447020064503,0.4478493345780166,-0.0421127714343449,-0.1423232894497447,0.482389025314345,-0.3758348524779603,0.1086851892230907,0.2821965007758504,10.595976894740488,-0.9222154154691302,0.2794563159018836,-0.86861563824334
2.34,-0.4629045038489269,0.0252555852311297,1.6024697645361472,0.0085311031440583,0.0594295404088164,0.0343153331677177,0.3653541006172359,-0.0546257487803708,-0.0766821541095301,-0.4648306580726895,0.0267829479576004,1.5992930767960971,0.4527124984068664,-0.0370776277162215,-0.1420653183818318,0.5088098792100305,-0.40406904980258,0.1504472068773018,0.2701505767459776,10.595976894740488,-0.92407585043591,0.282333691941329,-0.8645618549122536
2.36,-0.4556824364779469,0.0242082429219857,1.6009878569911882,0.0064857533328244,0.0602874841144066,0.0344294566543304,0.3573168891141568,-0.0502281785742896,-0.0717941582175334,-0.4558493555619849,0.0259658682475041,1.596447900862442,0.4575756622357162,-0.032042483998098,-0.1418073473139189,0.5192010600499961,-0.4018605751539533,0.2198785103040605,0.2443997945998331,10.560381835502085,-0.9255133045774852,0.2852912635142849,-0.8609047324628518
2.38,-0.4486193087680538,0.0232600137527637,1.5995980696422465,0.0048255442332344,0.0615510177351699,0.0345796730104546,0.3494883258514365,-0.0449170426007877,-0.0674203699436872,-0.4467464739555591,0.0252746671303609,1.5936091742054843,0.462438826064566,-0.0270073402799746,-0.141549376246006,0.5211156108577896,-0.391428163136015,0.2655567986750942,0.2186894136923134,10.525385342111804,-0.9263428497593504,0.2876865854886432,-0.858278826614019
2.4,-0.4420510850567342,0.0224641800495045,1.5983545934044752,0.0037950068344781,0.0630564649305601,0.0347672626690908,0.3423724392131768,-0.0391988973513286,-0.0636849060420193,-0.4311448924754819,0.0210141616227243,1.5962270511450618,0.3683983017377814,-0.027326227399386,-0.0824544038605778,0.4931701488916858,-0.3557943319129869,0.285907262472955,0.1867731950833943,10.493364218199533,-0.9268738749776572,0.2897807617749591,-0.8560074318708235
2.42,-0.435276027389328,0.0217451866155188,1.59714799184373,0.0033868341880315,0.0648511664030375,0.0350177276454843,0.3355845244204148,-0.0330259701488818,-0.057024597406272,-0.4311448924754819,0.0210141616227243,1.5962270511450618,0.3683983017377814,-0.027326227399386,-0.0824544038605778,0.5668785773953582,-0.3393957396380986,0.3086463601223405,0.3330154317873625,10.464509777502826,-0.9281468461697836,0.2909371124270812,-0.8537346921701583
2.44,-0.4286352957121059,0.0211516656008801,1.5960637447716093,0.0037130156817977,0.0668478901527277,0.0353251112700432,0.3289253405638119,-0.0266975001102137,-0.0517407521765801,-0.4311448924754819,0.0210141616227243,1.5962270511450618,0.3683983017377814,-0.027326227399386,-0.0824544038605778,0.529889807124318,-0.3329591928301456,0.3164235019334046,0.2641922614845967,10.63703166115647,-0.9284683605289222,0.2927820659557834,-0.8508643451222632
2.46,-0.422446700920271,0.0207051541892808,1.595116874694667,0.0047465407254353,0.0689567133515621,0.0356732431352771,0.3229273623821291,-0.0206945789173114,-0.0481856369465164,-0.4274609094581041,0.0207408993487304,1.595402507106456,0.3721802969150504,-0.0238080643591056,-0.0854612106439559,0.460026220489573,-0.2998989090841369,0.300146059645115,0.177755761503184,10.53068270354288,-0.9281835544106604,0.2936592302218952,-0.8494114764946028
2.48,-0.4160504592608,0.0203542461833593,1.5941810510334222,0.0065667957697158,0.0713533393415279,0.0360971392193241,0.3170978346139934,-0.0147829603991615,-0.0456348157750982,-0.4200929434233485,0.0201943748007427,1.5937534190292444,0.3797442872695883,-0.0167717382785449,-0.0914748242107122,0.4342732899688672,-0.2914763884067889,0.2955809259074916,0.127541058570911,10.439164336764406,-0.927260570460267,0.2935195362267786,-0.8494673445739156
2.5,-0.4097648731269597,0.0201129318866379,1.5932847212720485,0.0089527610910582,0.0738701761929398,0.0365673545584372,0.3118413892572504,-0.0098461959249914,-0.0441712507558367,-0.4127249773885929,0.019647850252755,1.5921043309520329,0.3873082776241263,-0.0097354121979843,-0.0974884377774684,0.3679126385008376,-0.2628222678371483,0.2468382237085078,0.0731782509630761,10.305329196633464,-0.925612179096146,0.2924345454639412,-0.8511479936779176
2.52,-0.4035778484488562,0.0199546008706532,1.5924069486317598,0.0113492872510085,0.0764409301480587,0.0370448600154513,0.3072086139248667,-0.0062342203222703,-0.0436779855697256,-0.4049788118361103,0.0194531420087953,1.5901545621964834,0.3948722679786643,-0.0026990861174236,-0.1035020513442247,0.2947553459176958,-0.2316387666191854,0.180598780136052,0.0246632593055535,10.255852067774867,-0.923717457844402,0.2910648574996456,-0.8535373165989981
2.54,-0.3977798788488231,0.0198633496100291,1.5915760739001448,0.0133448110282739,0.078867369391183,0.0374836699182245,0.3033984230646086,-0.0034960898372307,-0.0438089826372014,-0.3972326462836278,0.0192584337648356,1.588204793440934,0.4024362583332023,0.004337239963137,-0.1095156649109809,0.2346916763350625,-0.1905095430129039,0.1369065242519807,-0.0065498533737873,10.255852067774867,-0.9215323504915872,0.2895824227397726,-0.8565199317411795
2.56,-0.3917478538043299,0.0198205533132434,1.5906934964545982,0.0151130578228852,0.0813128798690537,0.0379250988208289,0.3000641856015144,-0.0009062504047863,-0.0444686010741279,-0.3892973809722818,0.0192396336728899,1.586104684346216,0.4100002486877402,0.0113735660436977,-0.1155292784777372,0.213655705683689,-0.1667118731547096,0.1294919716222196,-0.0329809218463254,10.223601211832827,-0.9192681317843304,0.2882439060660714,-0.8596324609196049
2.58,-0.3857757924444641,0.0198258196644818,1.589791814298462,0.0165442838110794,0.0835422870046174,0.0383428125344689,0.2973454604792974,0.0013168980230654,-0.0456714614764606,-0.3811730159020724,0.0193967417329583,1.5838542349123286,0.4175642390422782,0.0184098921242584,-0.1215428920444934,0.18561201718864,-0.1359362561108523,0.1111574213925942,-0.060143020116635,10.170045208111333,-0.916916471588604,0.2870427127078331,-0.8628792337615376
2.6,-0.3798526614600264,0.0198714858908109,1.5888609325987637,0.0175687341499521,0.0854947096940507,0.0387294694642542,0.2951272115215852,0.0031563092346761,-0.0473629601803668,-0.3709085194204993,0.0198916645656351,1.5875082412246388,0.3262676793086908,-0.0006088457439948,-0.0601229149387036,0.1670720646091569,-0.1109124478856082,0.0919705605805327,-0.0845749351953112,10.146665855679204,-0.9147069607458844,0.2860974696784498,-0.8659405510839897
2.62,-0.3742537944177727,0.0200078036287582,1.5880268160592077,0.020104278338371,0.0869149566285461,0.0391981267202991,0.2943469232639728,0.0098745852573199,-0.0403646526315398,-0.3709085194204993,0.0198916645656351,1.5875082412246388,0.3262676793086908,-0.0006088457439948,-0.0601229149387036,0.4866220068733201,-0.0390144128806196,0.3359138011321914,0.3499153774413475,10.146665855679204,-0.9170307204468708,0.2841453388672681,-0.8646451108955505
2.64,-0.3683774609872995,0.0202369732199221,1.5872841979309225,0.0243988874310124,0.0879670891972837,0.0397939392943006,0.2933204453101024,0.0124071932207176,-0.0343838539228576,-0.3709085194204993,0.0198916645656351,1.5875082412246388,0.3262676793086908,-0.0006088457439948,-0.0601229149387036,0.3287769505296204,-0.0513238976935198,0.126630398169886,0.2990399354341116,10.564429206235218,-0.9174759557875236,0.2833392870715046,-0.8621815507807751
