t,x,y,z,roll,pitch,yaw,v_x,v_y,v_z,ref_x,ref_y,ref_z,ref_v_x,ref_v_y,ref_v_z,a_com,a_x,a_y,a_z,thrust,wind_x,wind_y,wind_z
0.0,0.3778169199488621,-0.846219415715456,2.7548707243486588,0.0291841585852365,0.100138883038654,0.0430765876205023,0.0049670224107188,-0.0076690976894961,0.0175097719344278,0.3779616714640516,-0.8463911363059504,2.755402418635151,-0.0584807974382139,0.093714418611766,-0.0823342380717147,0.9875202329513256,0.2483511205359415,-0.3834548844748053,0.8754885967213943,10.239769264712775,-0.9443224750058032,0.2579864950611928,-0.8711744243012027
0.02,0.3779734314452529,-0.8466009207992735,2.754978199558059,0.0190448086325658,0.0977340939185662,0.04231020583117,0.0110878990811614,-0.0269011585980893,-0.0059736914680855,0.3779616714640516,-0.8463911363059504,2.755402418635151,-0.0584807974382139,0.093714418611766,-0.0823342380717147,1.548233147319709,0.3060438335221329,-0.9616030454296616,-1.1741731701256717,10.239769264712775,-0.9407147297619864,0.2620047228532625,-0.8774278445228723
0.04,0.3782386055757837,-0.8471477281802925,2.754560814393511,0.0021822119636173,0.0902777559534084,0.0410952219640195,0.0143247468912555,-0.0260794208330495,-0.0346356250426159,0.3779616714640516,-0.8463911363059504,2.755402418635151,-0.0584807974382139,0.093714418611766,-0.0823342380717147,1.442791454898278,0.1618423905047013,0.0410868882519911,-1.4330966787265198,8.889953645296373,-0.9377424733347128,0.2725432565377709,-0.8797204263459586
0.06,0.3785079834955422,-0.8475987698039192,2.753564058057748,-0.0149906983909234,0.0797060138478643,0.0400561602803434,0.0119369535743165,-0.0187153948476068,-0.0636097638585741,0.3773768634896694,-0.8454539921198327,2.754579076254434,-0.0711500239654279,0.1137144189097892,-0.1023342383697379,1.499525888210259,-0.1193896658469485,0.3682012992721336,-1.4487069407979078,8.686999747381833,-0.938109422894266,0.2823106069804211,-0.8804950301452623
0.08,0.3786747548369457,-0.8478653276019813,2.751991268853199,-0.0314624362358298,0.0681999543446574,0.0393195772073793,0.0045601906461393,-0.0079868010029797,-0.0922564141767606,0.3762072475409052,-0.8435797037475975,2.752932391493,-0.096488477019856,0.1537144195058357,-0.1423342389657844,1.5733323962484516,-0.3688381464088577,0.5364296922313564,-1.432332515909328,8.691355935970023,-0.9408365332263052,0.2910539964269059,-0.8795248071891321
0.1,0.3786561307081513,-0.8478933729471319,2.7499697175528923,-0.0463516297671209,0.0578289539602424,0.0388718339751299,-0.0062640263982163,0.0047669024329254,-0.1191435860222143,0.3750376315921409,-0.8417054153753621,2.751285706731565,-0.1218269300742841,0.1937144201018821,-0.1823342395618308,1.5833040104487943,-0.5412108522177846,0.6376851717952572,-1.3443585922726826,8.76384818514589,-0.9448168041703092,0.2998392820448317,-0.8776581596600695
0.12,0.378383589828418,-0.8476348579337616,2.7472901373450176,-0.0612501275289011,0.0484156775871282,0.0385852516985491,-0.0205261099670046,0.0207113228438793,-0.1474290822736995,0.3726010929906552,-0.8378311269733245,2.7476390219403286,-0.1471653831287122,0.2337144206979285,-0.2223342401578772,1.77320392803333,-0.7131041784394154,0.7972210205476983,-1.414274812574262,8.76384818514589,-0.9483693284386264,0.3079806624554351,-0.8768704702751298
0.14,0.3777999333243396,-0.8470251981977766,2.744038473885304,-0.0751884878155592,0.0410962030450633,0.0384043422996937,-0.0371923479305095,0.0396203721630522,-0.176384663934478,0.3701645543891695,-0.8339568385712869,2.743992337149092,-0.1725038361831403,0.273714421293975,-0.2623342407539237,1.919466946397552,-0.833311898175248,0.945452465958642,-1.4477790830389248,8.789297738967434,-0.9501983555575222,0.3156652496429219,-0.8781306363388911
0.16,0.3768551318781102,-0.845987932364305,2.7401996108734616,-0.0872409416793594,0.0365602404088062,0.0382627737031123,-0.0564179663347242,0.0627025863392799,-0.2060671319249535,0.3670945544613231,-0.8290825501543481,2.7393456523429545,-0.1978422892375684,0.3137144218900214,-0.3023342413499701,2.111552699027025,-0.961280920210732,1.1541107088113856,-1.4841233995237737,8.782075625149446,-0.9497441445178422,0.3221404774149989,-0.8815878303350454
0.18,0.3755848092808344,-0.84455311695872,2.7359987039368443,-0.096435930008055,0.035543223963502,0.0380560761025513,-0.0759436830432755,0.0866806784332838,-0.2346219560294059,0.363391093207116,-0.823208261722508,2.7336989675219154,-0.2231807422919965,0.3537144224860679,-0.3423342419460166,2.1045073610511253,-0.9762858354275674,1.1989046047001926,-1.4277412052226213,8.790955653239962,-0.947181894410929,0.3263942585304289,-0.8895968542080509
0.2,0.3738628204166857,-0.8425426913813768,2.730987999803459,-0.1039229295885215,0.0375844400631734,0.0377090328692645,-0.0948716558773341,0.1128018204193128,-0.2649292310536574,0.3717876251286706,-0.8402190830370558,2.724267606135374,-0.1085707552285535,0.1866806799233999,-0.334621957519522,2.2130934987347284,-0.94639864170293,1.3060570993014518,-1.5153637512125755,8.803350542484168,-0.9421617239657047,0.3293944992043435,-0.8999997777503999
0.22,0.3717286411903518,-0.8398610978293233,2.725516967722009,-0.1054295928260277,0.0436599813050395,0.0373573014580059,-0.1169241898745413,0.1524408299994418,-0.2795942763480226,0.3717876251286706,-0.8402190830370558,2.724267606135374,-0.1085707552285535,0.1866806799233999,-0.334621957519522,2.383604880048977,-1.1026266998603595,1.9819504790064504,-0.7332522647182566,8.801993694034081,-0.9386754814027866,0.3293066844151266,-0.9057275535440606
0.24,0.3692031303973595,-0.8364675639341164,2.719777425207686,-0.1004785593428263,0.0540547964007515,0.0370294229486739,-0.1338042271892312,0.1836517778071214,-0.2936837619439933,0.3717876251286706,-0.8402190830370558,2.724267606135374,-0.1085707552285535,0.1866806799233999,-0.334621957519522,1.9089084100331328,-0.8440018657344929,1.5605473903839788,-0.7044742797985393,9.848645453760128,-0.929830381582814,0.3243561208712826,-0.9180350384611063
0.26,0.3663971462546393,-0.8325262670525345,2.7137283458832364,-0.0936289524293356,0.0666488483152659,0.0366855081289669,-0.1454139399175248,0.2085564680435477,-0.310472956082675,0.370701917576385,-0.8383522762378218,2.7209213865601787,-0.115096169665609,0.2066806802214231,-0.3546219578175453,1.610051292065097,-0.5804856364146834,1.245234511821315,-0.8394597069340842,9.664906205059197,-0.9189960209828016,0.3185232964108365,-0.9316373904228672
0.28,0.3635601677391983,-0.8283572611322373,2.7076454047585488,-0.0871367738988486,0.0792682443024366,0.036380345768322,-0.1522919848132909,0.2290224700466454,-0.3290123900861518,0.368530502471814,-0.8346186626393539,2.7142289474097883,-0.1281469985397202,0.2466806808174696,-0.3946219584135917,1.4229154514132625,-0.3439022447883036,1.0233001001548836,-0.9269717001738398,9.31632244823777,-0.905348639497764,0.3122356510469856,-0.948098182222824
0.3,0.3604756095095019,-0.823571456571044,2.700835656348159,-0.0810163150521486,0.0921662738962145,0.0361266779579853,-0.1555013266887671,0.2485185808471426,-0.3511469663185183,0.3663590873672429,-0.8308850490408859,2.707536508259398,-0.1411978274138314,0.286680681413516,-0.4346219590096382,1.483524247025806,-0.1604670937738112,0.9748055400248632,-1.1067288116183238,9.31632244823777,-0.8906084330025922,0.3063340310477037,-0.9653511689569826
0.32,0.3573639652121271,-0.8184095099023289,2.693557809597384,-0.0758255306431737,0.1038184858893979,0.0359786868804614,-0.1553160614545782,0.2667727853087629,-0.3756669949356284,0.3635351308189663,-0.8251514354126156,2.6988440690792053,-0.1542486562879426,0.3266806820095624,-0.4746219596056846,1.528465003784462,0.0092632617094481,0.912710223081016,-1.2260014308555027,9.070619569863084,-0.8756409241766819,0.3010410952093136,-0.9824564653344822
0.34,0.3542865883314662,-0.8128920956924126,2.685774258413156,-0.0715567008598917,0.1136546138632264,0.0359541959734195,-0.1524104133768074,0.2842053329510608,-0.4015066003243577,0.3607111742706896,-0.8194178217843453,2.690151629899012,-0.1672994851620537,0.366680682605609,-0.5146219602017311,1.565264925418449,0.14528240388854,0.8716273821148923,-1.2919802694364684,9.029378495577475,-0.8633300473301279,0.2968773899211067,-0.9960220355533784
0.36,0.3514347835065186,-0.8073246422054454,2.6778935539814115,-0.0679871997313177,0.1211258302490224,0.0360622577510404,-0.1479520205559552,0.3009111863504666,-0.4267755757487938,0.3575609470005602,-0.8126842081411738,2.6804591907039184,-0.1803503140361649,0.4066806832016554,-0.5546219607977775,1.5309179626519982,0.2229196410426098,0.835292669970289,-1.2634487712218034,9.029378495577475,-0.8519112105657257,0.293146952817639,-1.0082138436771582
0.38,0.3485357271710191,-0.801125869448761,2.6690709847227647,-0.0644540816029023,0.1270602407707584,0.0363132020298191,-0.1421961763188805,0.3180077813439102,-0.4542012059446478,0.354084449008578,-0.8049505944831011,2.669766751493924,-0.1934011429102761,0.4466806837977018,-0.594621961393824,1.6413321532303,0.2877922118537351,0.8548297496721813,-1.371281509792699,9.01001627603273,-0.8422675283766885,0.289710457481289,-1.0184635514694818
0.4,0.34575971747456,-0.7945899986556927,2.659693820543066,-0.0610384163791786,0.1311642484904183,0.0366873970868244,-0.1357353039079576,0.3346206489375778,-0.4821689734539588,0.3414259183550751,-0.7852254803815655,2.646360924425532,-0.15517366186386,0.4180077828340263,-0.554201207434764,1.6582568117226522,0.3230436205461456,0.8306433796833823,-1.3983883754655506,8.979193881878018,-0.8344631577142563,0.2863391224538443,-1.0270296016159082
0.42,0.3431136678918373,-0.7877219218070945,2.649947600517644,-0.0578384461048359,0.1345666477040915,0.0370972073670982,-0.1289866529247878,0.3513963376431934,-0.4900518346560582,0.3414259183550751,-0.7852254803815655,2.646360924425532,-0.15517366186386,0.4180077828340263,-0.554201207434764,0.9862904267657662,0.3374325491584895,0.8387844352807761,-0.3941430601049706,8.963599754417373,-0.8264646735774356,0.2814884685092135,-1.03849054027789
0.44,0.3407359418546902,-0.7809036071333102,2.6405456858599448,-0.0554738236319018,0.1379481364870975,0.037434868438791,-0.1215714851630035,0.3657433166942198,-0.4993656300394979,0.3414259183550751,-0.7852254803815655,2.646360924425532,-0.15517366186386,0.4180077828340263,-0.554201207434764,0.9321578531431476,0.3707583880892123,0.7173489525513194,-0.4656897691719841,10.17690735008182,-0.8218419016744338,0.2806122517802056,-1.0409803714035009
0.46,0.3383947436323687,-0.7734316354738883,2.6304171583148803,-0.0537306570003132,0.1412005126859879,0.0377576457938021,-0.1129056856537333,0.3807613995422944,-0.5131837046829377,0.3398741817364364,-0.7810454025532252,2.6408189123511847,-0.157769158972856,0.4380077831320495,-0.5742012077327872,1.1085780085521446,0.4332899754635084,0.7509041424037327,-0.6909037321719907,9.931390139585346,-0.817726466494635,0.2802915733619153,-1.043109249316756
0.48,0.3362339813668339,-0.7656617673771788,2.619976483629001,-0.052578422648963,0.1437719949399074,0.038076017336279,-0.1036144302185151,0.3954862587672467,-0.5303237176764776,0.3367707084991593,-0.7726852468965447,2.6297348882024894,-0.1629601531908478,0.478007783728096,-0.6142012083288336,1.2216064752773794,0.4645627717609124,0.7362429612476129,-0.8570006496769922,9.706818173465765,-0.8139220985076829,0.2801715304657634,-1.0455176911995976
0.5,0.334263073485021,-0.7576019896631657,2.609162979909331,-0.0520477598094232,0.1454421624445968,0.0383969401232246,-0.0940154565488366,0.4098052890696038,-0.5501608534271808,0.3336672352618821,-0.7643250912398641,2.618650864053794,-0.1681511474088396,0.5180077843241424,-0.6542012089248801,1.314046117058711,0.4799486834839259,0.7159515151178547,-0.9918567875351614,9.407707911393118,-0.8105817538503419,0.2804715442075103,-1.0476544557643035
0.52,0.3325687873591959,-0.749682540840485,2.598504235188016,-0.052191824957548,0.1461518039407917,0.0387002925577597,-0.0848999390094245,0.4231623664151419,-0.5708144051397271,0.3303042123137052,-0.7539649355533813,2.6055668398752965,-0.1733421416268314,0.5580077849201889,-0.6942012095209266,1.311557636523118,0.4557758769706058,0.6678538672769047,-1.0326775856273174,9.309335399228075,-0.8089009191745387,0.2817064731414633,-1.0478221956524512
0.54,0.3309708477947113,-0.7410739277441855,2.5868518148870803,-0.0531428553245036,0.146018824592362,0.0390086135323582,-0.0754376534801353,0.4370674420592784,-0.5933717876093934,0.3269411893655285,-0.7436047798668984,2.592482815696799,-0.1785331358448233,0.5980077855162353,-0.734201210116973,1.4068772867504804,0.473114276464457,0.6952537822068255,-1.1278691234833105,9.309335399228075,-0.8080033359336076,0.2834495252059122,-1.0476501033764614
0.56,0.3295618544229412,-0.7321732344825271,2.5747441251843357,-0.0546117658512151,0.1449478995368703,0.0393318258590498,-0.0660114178962754,0.4522597014444974,-0.6162548608184025,0.3234483915619019,-0.7322446241655145,2.5783987915034,-0.1837241300628151,0.6380077861122817,-0.7742012107130194,1.451975982927297,0.4713117791929975,0.7596129692609505,-1.1441536604504587,9.26677116882911,-0.8084870570088126,0.2855866478332236,-1.046247386140064
0.58,0.328396591865584,-0.7234248700206607,2.5628155695029218,-0.0559417571862955,0.1429530688696558,0.0396998314179236,-0.0571965329366497,0.467767105270888,-0.6382220463010546,0.3198258189028255,-0.7198844684492293,2.5633147672951004,-0.1889151242808069,0.6780077867083282,-0.8142012113090659,1.4148666088322872,0.4407442479812826,0.7753701913195327,-1.0983592741326045,9.242054326356993,-0.8103868363916297,0.2878422653246601,-1.0435587669808482
0.6,0.3273461199826039,-0.7138902014228705,2.5498035989809598,-0.0568616641167731,0.1397182885964723,0.0401876857937865,-0.0484134472321722,0.4848256085975472,-0.6618248758455142,0.3255367652187516,-0.7000365147571163,2.530904467187869,-0.109977131338673,0.5677671067610042,-0.7382220477911707,1.520878605233381,0.4391542852238736,0.8529251663329601,-1.180141477222979,9.242054326356993,-0.8137634216776664,0.2897264335627929,-1.0396254303190415
0.62,0.3265347951967475,-0.7039599721911585,2.5365311526901166,-0.0558739584684286,0.1339150468900779,0.0409519808859866,-0.0334149454647753,0.50704599268299,-0.6630271929570821,0.3255367652187516,-0.7000365147571163,2.530904467187869,-0.109977131338673,0.5677671067610042,-0.7382220477911707,1.341776891483803,0.7499250883698464,1.1110192042721372,-0.0601158555783964,10.609202986243872,-0.8157242818345327,0.286385034812204,-1.0432720692405484
0.64,0.3259984296472966,-0.6936084547967623,2.523238488259843,-0.0525175450264861,0.1246623640371289,0.0420450819772364,-0.0216436378957447,0.5265265113617112,-0.6662111318649955,0.3255367652187516,-0.7000365147571163,2.530904467187869,-0.109977131338673,0.5677671067610042,-0.7382220477911707,1.1491211390080356,0.5885653784515322,0.9740259339360624,-0.1591969453956676,10.293401916280343,-0.8252101363654941,0.2875547768786504,-1.030460650514448
0.66,0.3256620828970573,-0.6834454870672116,2.51050844243521,-0.0484925936696774,0.1138196757501136,0.0431973161746609,-0.014815213280048,0.5420557689994995,-0.673562353374559,0.3244369939053648,-0.6943588436895062,2.523522246709957,-0.1205332510190777,0.5877671070590273,-0.7582220480891939,0.92442642107921,0.341421230784835,0.7764628818894115,-0.3675610754781788,10.293401916280343,-0.8379395720237008,0.2872292281297932,-1.0157671474776186
0.68,0.3254014385483624,-0.6724540658181417,2.49691954530768,-0.0443228816181612,0.10133272390798,0.0443899256298734,-0.0120754002316527,0.5561930390601438,-0.6850820965411738,0.3222374512785914,-0.6830035015542861,2.5087578057541338,-0.141645490379887,0.6277671076550738,-0.7982220486852404,0.9220540425220684,0.1369906524197619,0.7068635030322179,-0.5759871583307374,9.999901384163422,-0.8522755909977449,0.2867588524719621,-0.9996310368079626
0.7000000000000001,0.3251504265522522,-0.661195156758312,2.483064383060594,-0.0405734039017482,0.0886386965512899,0.0454940398486434,-0.0135424574536451,0.5689661675537732,-0.6999715641131427,0.3200379086518179,-0.6716481594190661,2.4939933647983104,-0.1627577297406964,0.6677671082511203,-0.8382220492812869,0.9836174472121736,-0.0733528610996183,0.6386564246814663,-0.7444733785984425,9.753003894460562,-0.866394016972522,0.28564393196793,-0.984881781319662
0.72,0.3248293041884279,-0.6496930492355861,2.468878618850391,-0.0373624681975932,0.0764560963765147,0.0464790954354307,-0.0187544072399533,0.5806638007862825,-0.7178255599998709,0.3167827540570039,-0.6582928172540436,2.477228923812685,-0.1838699691015057,0.7077671088471668,-0.8782220498773333,1.0985947989825615,-0.2605974893154124,0.5848816616254693,-0.8926997943364101,9.554544605940464,-0.8791208104358154,0.2841907575945547,-0.9723793161769648
0.74,0.32439748013895,-0.6385575374590918,2.4550580741849046,-0.0348441552035888,0.0658229953656318,0.0472958844682823,-0.026593883718081,0.5909971898797763,-0.73606051119117,0.31352759946219,-0.6449374750890212,2.460464482827059,-0.204982208462315,0.7477671094432132,-0.9182220504733798,1.118871939229101,-0.3919738239063838,0.5166694546746897,-0.9117475595649572,9.394449418466138,-0.8910972763318528,0.2821107682622175,-0.9617860617851488
0.76,0.3237542367037246,-0.6266227199918332,2.4401248434236096,-0.0325208997231647,0.0559754027644672,0.0480463168267818,-0.0374682318195673,0.601878619912108,-0.7563422887020327,0.3097446388833559,-0.6305821329090977,2.4427000418265323,-0.2260944478231244,0.7877671100392596,-0.9582220510694262,1.2727995376147845,-0.5437174050743154,0.5440715016165831,-1.0140888755431343,9.320038999687313,-0.9017969002136544,0.2798677032453346,-0.9527801087645172
0.78,0.3228695811153245,-0.6144731888188586,2.424775848120302,-0.0302714942424186,0.0477776543752127,0.0487027783763128,-0.0505270384425452,0.612435505721974,-0.7775707245491612,0.3054338723205015,-0.615226790714273,2.423935600811104,-0.2472066871839337,0.8277671106353061,-0.9982220516654726,1.353353942003471,-0.6529403311488956,0.5278442904933012,-1.0614217923564262,9.257564025532702,-0.9109075002257906,0.2772174063595413,-0.9458285661915136
0.8,0.3217040591552523,-0.6021179416550023,2.408992336092763,-0.0280091042171256,0.0414358951954825,0.0492726992843548,-0.0654723984993152,0.622460338104796,-0.7997544330136869,0.3203432291931973,-0.5838514135327599,2.385897311892844,-0.1295731239194206,0.7124355072120901,-0.8545549959562886,1.4282664078956329,-0.747268002838498,0.5012416191410962,-1.1091854232262832,9.15937931323242,-0.9177151086613068,0.2744514850882715,-0.9413024348935524
0.8200000000000001,0.3203188014673456,-0.5901822695777984,2.3938563067826246,-0.0254827598993407,0.0373189265740545,0.0497602403519103,-0.0796358033603032,0.6331842532316894,-0.7907941704672824,0.3203432291931973,-0.5838514135327599,2.385897311892844,-0.1295731239194206,0.7124355072120901,-0.8545549959562886,0.9948501115816024,-0.7081702430494003,0.5361957563446706,0.4480131273202237,11.172382834286507,-0.9169880353787608,0.2635805598812609,-0.9573827556913124
0.84,0.3185597776952086,-0.5774266648222116,2.3781260961323425,-0.0228495362311726,0.0351973890235962,0.0501895883842884,-0.0955116206809422,0.6418765865233187,-0.783156931139161,0.3203432291931973,-0.5838514135327599,2.385897311892844,-0.1295731239194206,0.7124355072120901,-0.8545549959562886,0.9822495332221762,-0.7937908660319494,0.4346166645814664,0.3818619664060718,10.791021136605195,-0.9218022433866568,0.2634908064366354,-0.9495759115964908
0.86,0.3164849703524175,-0.5645067321798679,2.362486198785282,-0.0208296476249522,0.0351556277853811,0.0505097367934427,-0.1109928405066952,0.6497896228533228,-0.781439592347153,0.3190474979540031,-0.576727058460639,2.377351761933281,-0.1453823410147956,0.7324355075101133,-0.869951850237714,0.8735467414222693,-0.7740609912876478,0.3956518165002032,0.0858669396003986,10.791021136605195,-0.9250641843012656,0.2635190810144761,-0.9437471924248622
0.88,0.314109877239755,-0.5514358861935668,2.346824199474438,-0.0195367609035897,0.0365384705985655,0.0507360284445525,-0.1255730787853353,0.6570305430892588,-0.7848071242187263,0.3164560354756147,-0.5624783483163972,2.3602606620141557,-0.1770007752055458,0.7724355081061598,-0.9007455588005652,0.831195742637035,-0.729011913932006,0.3620460117968016,-0.1683765935786674,10.151560430095742,-0.9268347376516044,0.2635886364215458,-0.9402533876352462
0.9,0.3115928760489057,-0.5388906766536606,2.331846671893295,-0.0191861295053783,0.0386727684096289,0.0508633319000204,-0.1385263258030573,0.6632893329134736,-0.791591751727354,0.3138645729972262,-0.5482296381721554,2.3431695620950297,-0.2086192093962959,0.8124355087022063,-0.931539267363416,0.7952833281237653,-0.6476623508860996,0.3129394912107397,-0.3392313754313814,10.151560430095742,-0.9272816567567266,0.2637192039668425,-0.93901623009633
0.92,0.3086880088433587,-0.5255617726704154,2.315911560564626,-0.0200432215539213,0.0413689625873848,0.0508922277798761,-0.1511796778496758,0.669398228736824,-0.8016935283786555,0.3096921888093003,-0.5319809279981113,2.324538776747761,-0.240237643587046,0.8524355092982527,-0.9623329759262668,0.8652627024623679,-0.6326676023309232,0.3054447911675195,-0.505088832565076,9.936444343913536,-0.9268270429621958,0.2644517595883395,-0.9392003697190024
0.94,0.3055401121208858,-0.5121118653117683,2.299759355130294,-0.0224467596899015,0.0441984346187036,0.0507980426551497,-0.1629112689926411,0.6755724762395402,-0.8130095612903812,0.3055198046213744,-0.5157322178240671,2.3059079914004927,-0.2718560777777962,0.8924355098942992,-0.993126684489118,0.8714989441040052,-0.5865795571482659,0.3087123751358112,-0.5658016455862835,9.763509793702724,-0.9258595474898672,0.2660382112906836,-0.940165904965577
0.96,0.3021617384605684,-0.4985104198866672,2.283374780833662,-0.025735717344713,0.0470379108388994,0.0506278110090746,-0.1742614312156046,0.684445480494367,-0.8248818962417087,0.3005569595786797,-0.4984835076351218,2.2865073633391533,-0.3034745119685463,0.9324355104903456,-1.023920393051969,0.9334194183086691,-0.5675081111481767,0.4436502127413422,-0.5936167475663778,9.682724901576876,-0.9248760594762652,0.2686869589621656,-0.9406146402247428
0.98,0.2987460048299288,-0.4854056080274664,2.267584363545604,-0.0286917360095671,0.0497482509891933,0.0504644945797909,-0.1846417354178544,0.6945043280702593,-0.8366703647881851,0.2948036536812163,-0.4802347974312754,2.2663368925637424,-0.3350929461592964,0.972435511086392,-1.0547141016148198,0.9326027028664764,-0.5190152101124917,0.502942378794613,-0.5894234273238208,9.682724901576876,-0.9237976899256992,0.2713199564133229,-0.9410025887537898
1.0,0.2949428499937845,-0.4713962202331608,2.2507132861005714,-0.0313174570835291,0.0525919552755048,0.0503141178745447,-0.1950486067379514,0.7058515248315025,-0.8498501710711156,0.2895139180590361,-0.4506803916239535,2.2257508453061945,-0.204492572484624,0.7478590756636622,-0.8504519868403778,1.0133720179023569,-0.520343566004848,0.5673598380621592,-0.6589903141465236,9.65557399690988,-0.9227419486782232,0.2736200434125323,-0.94131532357487
1.02,0.2908640374429928,-0.456922215275542,2.2339386994293,-0.0261718956322441,0.0580400468638586,0.0506201123094819,-0.2115337309872289,0.7377407058003916,-0.8247921819832887,0.2895139180590361,-0.4506803916239535,2.2257508453061945,-0.204492572484624,0.7478590756636622,-0.8504519868403778,2.18893924167982,-0.8242562124638766,1.5944590484444576,1.252899454391343,9.611809980041471,-0.914069888069305,0.263476530172724,-0.9603806186271124
1.04,0.2865127646722534,-0.4419792913173794,2.2177081601798303,-0.0127418315384947,0.0675598490921842,0.0514583258321418,-0.2220084453139141,0.7533284920696534,-0.7996575409709678,0.2895139180590361,-0.4506803916239535,2.2257508453061945,-0.204492572484624,0.7478590756636622,-0.8504519868403778,1.568796433432407,-0.5237357163342587,0.7793893134630858,1.2567320506160495,12.310760625900002,-0.908264947115628,0.2556743095954318,-0.9632213948035846
1.06,0.2822345770250751,-0.4275943097015711,2.202692329700989,0.0015630196372415,0.0783714125556866,0.0524596818272955,-0.227335609143367,0.7596334355314482,-0.7822070563920585,0.2874689923341899,-0.4432018008673168,2.2172463254377908,-0.208462739897978,0.7585300251823427,-0.8532083112508163,0.9652077477944996,-0.2663581914726431,0.3152471730897443,0.8725242289454649,11.86631430199941,-0.8993423641860536,0.2452782266031278,-0.970325575884862
1.08,0.277663233099248,-0.4123830305852685,2.1871869293776096,0.0160962558905956,0.0904519442371301,0.0536284110239037,-0.2290931590087184,0.7609509654199121,-0.7695288310328603,0.2833791408844974,-0.4282446193540436,2.200237285700983,-0.2164030747246858,0.7798719242197039,-0.8587209600716934,0.6433550046335377,-0.0878774932675699,0.0658764944231948,0.6339112679599079,11.388834323412992,-0.8885514027449367,0.2342608997148256,-0.9803744811653752
1.1,0.2730917690945557,-0.3971866338468647,2.171879131032437,0.0292447357618968,0.1026001622712261,0.0548489350512051,-0.227609707930577,0.758592398777597,-0.7621201536173624,0.2792892894348049,-0.4132874378407704,2.1832282459641754,-0.2243434095513936,0.801213823257065,-0.8642336088925705,0.3957649705140318,0.0741725539070675,-0.1179283321157576,0.3704338707748944,11.028861642882475,-0.8777847916112818,0.2243428030397276,-0.9905773790182996
1.12,0.2685799103733318,-0.3820690637670488,2.1566710960993776,0.0406341459204567,0.1144618907847179,0.0560640364006436,-0.2233237248862366,0.7534871080975822,-0.7590755920246633,0.274802421243777,-0.397263161375629,2.165943573786324,-0.2322837443781015,0.8225557222944262,-0.8697462577134476,0.3664116499088055,0.2142991522170206,-0.2552645340007375,0.1522280796349528,10.738378511551671,-0.8657718881043788,0.2145296513439929,-1.0023711771489534
1.14,0.2644071470491641,-0.36782342979603,2.142263724851748,0.0497324233308452,0.1250460847872104,0.0571606588759146,-0.2159547255314258,0.7465873563897077,-0.7576704689870792,0.2703155530527491,-0.3812388849104877,2.1486589016084725,-0.2402240792048093,0.8438976213317874,-0.8752589065343247,0.5096152859566425,0.3684499677405389,-0.3449875853937245,0.0702561518792055,10.526775939242723,-0.8533074597355904,0.2051231274739614,-1.0153620413904154
1.16,0.2602000303157034,-0.3529796602231912,2.127117343891593,0.0576755954422722,0.1348624856393422,0.0581992644653466,-0.2049818515510463,0.7382677405578004,-0.7571027570894093,0.2656301764910536,-0.3646810609694124,2.1312364132100994,-0.2481644140315171,0.8652395203691484,-0.8807715553552017,0.6890977212605051,0.5486436990189747,-0.4159807915953661,0.0283855948834954,10.473273512076958,-0.8416456267890357,0.1970040999314523,-1.0272320364308554
1.18,0.256241723575365,-0.3383144967056894,2.111972908519857,0.0641411516142268,0.1428008983851892,0.0590628903800391,-0.1913436614796891,0.7288027018453987,-0.7574183920159488,0.2607462915586903,-0.3475896895524031,2.113676108591204,-0.256104748858225,0.8865814194065096,-0.8862842041760788,0.83019095944334,0.6819095035678624,-0.4732519356200837,-0.015781746326976,10.43043285866588,-0.8313723527260665,0.1901965369945523,-1.037408609804768
1.2,0.2525790003558668,-0.3238501513118444,2.09681445706234,0.0691904980296368,0.1484957882991428,0.0596937133209236,-0.175748467373371,0.718364969604061,-0.758418687269383,0.2466745405013806,-0.3018743616134194,2.0741019889190597,-0.2043370419070496,0.7221595225069734,-0.7468416297569423,0.9396234939453694,0.7797597053159036,-0.5218866120668852,-0.0500147626717073,10.43043285866588,-0.8232083274720099,0.1847436678833923,-1.0455907424734283
1.22,0.2494242216021495,-0.310176333235901,2.0825517701850416,0.0774046351630835,0.151454311384764,0.0603534526308554,-0.1572012657024744,0.7184742721525629,-0.7430517016675938,0.2466745405013806,-0.3018743616134194,2.0741019889190597,-0.2043370419070496,0.7221595225069734,-0.7468416297569423,1.2043202266772897,0.9273600835448316,0.0054651274250916,0.7683492800894587,11.482081113168531,-0.8155231092301656,0.1730007783725256,-1.056934568649823
1.24,0.2464944250002592,-0.2959139055392685,2.067842779006945,0.0891994615698387,0.1517923755821678,0.0610249451935381,-0.1368549046648768,0.7071988830904209,-0.728851660493709,0.2466745405013806,-0.3018743616134194,2.0741019889190597,-0.2043370419070496,0.7221595225069734,-0.7468416297569423,1.362671984847201,1.0173180518798786,-0.5637694531070991,0.7100020586942424,11.482081113168531,-0.8127410281882731,0.1627375372010021,-1.0591019352020357
1.26,0.2439800040101059,-0.2819468584911679,2.053384082417908,0.1005615435090018,0.1489486407887485,0.061315340338315,-0.1158341831003723,0.6900897677433128,-0.7177046572516621,0.2446311700823101,-0.2946527663883497,2.0666335726214897,-0.2069357179925217,0.7208308866392883,-0.7447262773051411,1.4653056373426654,1.051036078225224,-0.8554557673554064,0.5573501621023436,11.33437753317412,-0.8135110535549338,0.1526943753932,-1.0590593850240193
1.28,0.2419741004775537,-0.2690316331015919,2.03983572847119,0.1097741729843457,0.1429781433337763,0.0610572907003306,-0.0970004198587483,0.670516892403595,-0.7089220604291901,0.2405444292441691,-0.2802095759382103,2.051696740026351,-0.2121330701634659,0.7181736149039181,-0.7404955724015384,1.427359532363671,0.9416881620812028,-0.9786437669858872,0.4391298411235977,11.088814819534493,-0.8166305528817995,0.1428553994577661,-1.057774476378539
1.3,0.2402140863720365,-0.2558612940919923,2.0257454261947783,0.1175019238117959,0.1340320711734264,0.0602383230569887,-0.0805223022990018,0.6477535110063174,-0.7005430880866139,0.2364576884060281,-0.2657663854880708,2.0367599074312124,-0.2173304223344102,0.715516343168548,-0.7362648674979358,1.4662086042480524,0.8239058779873256,-1.138169069863881,0.4189486171288115,11.0346421914428,-0.8228257812273372,0.1342067731406683,-1.0545561875677822
1.32,0.2387466547818899,-0.243168119441997,2.011815896085356,0.1230779324688957,0.1232735390441343,0.0589409010067077,-0.0676004940388721,0.6231857367682616,-0.6927274014274213,0.2321110799593399,-0.2514560586246998,2.0220346100812536,-0.2225277745053544,0.7128590714331778,-0.7320341625943333,1.4419029246782835,0.6460904130064851,-1.2283887119027892,0.3907843329596316,11.0346421914428,-0.8310462488851683,0.127094944758487,-1.0499615022215372
1.34,0.2374986939717239,-0.2309796726216606,1.99804750983684,0.1266058836211678,0.1115349127547115,0.0572855890825946,-0.0583325758002257,0.5974168382794053,-0.6844035015732248,0.2277644715126517,-0.2371457317613288,2.007309312731295,-0.2277251266762986,0.7102017996978076,-0.7278034576907306,1.4310990065242764,0.4633959119323194,-1.2884449244428164,0.4161949927098229,11.028912585130456,-0.8399733850014004,0.121303120570094,-1.045342295367976
1.36,0.236449356427602,-0.2198876411551136,1.985127658292798,0.1281146237193396,0.1001409915152317,0.0554925838951892,-0.0529457413919474,0.5719015077394036,-0.6759225734163026,0.2232879292616899,-0.2229018366913421,1.9926897830039263,-0.2329224788472428,0.7075445279624375,-0.7235727527871281,1.3711092406429803,0.2693417204139108,-1.2757665270000829,0.4240464078461126,11.028912585130456,-0.8499423001570701,0.1166156045245128,-1.0401931390270696
1.38,0.2354196493445806,-0.2087437754169619,1.9717075278191083,0.1275807700075462,0.0884759859233104,0.0534665750289663,-0.0506532899071344,0.5440637370356001,-0.6664708301272492,0.2186814532064545,-0.2087243734147397,1.978176020899148,-0.238119831018187,0.7048872562270673,-0.7193420478835254,1.4743916226446854,0.1146225742406529,-1.3918885351901775,0.4725871644526702,11.064215606510515,-0.8598339460650791,0.1135432666770948,-1.0353338009164792
1.4,0.2344013011688052,-0.1981706867448375,1.958481083022201,0.1241840398282168,0.0776332340000761,0.0513505518520492,-0.0515643737016087,0.5154521432668017,-0.656531161708791,0.2328869848492239,-0.181540588565182,1.9383839863127457,-0.1163248903085359,0.5299096129619159,-0.6374263025667767,1.515132320904838,-0.0455541897237159,-1.4305796884399202,0.4969834209229085,11.100007741527406,-0.869178817929356,0.1132410796897575,-1.0303696006998535
1.42,0.2334292390730263,-0.1885916149119394,1.9461658458893203,0.1202276307504717,0.0671604252606989,0.0493043236545759,-0.0512388258123889,0.4939936188033413,-0.640330299298689,0.2328869848492239,-0.181540588565182,1.9383839863127457,-0.1163248903085359,0.5299096129619159,-0.6374263025667767,1.3444721979350835,0.0162773944609902,-1.072926223173018,0.8100431205050995,11.129459498211872,-0.8810613709915243,0.1134250024790601,-1.0235630125397532
1.44,0.2323746513606132,-0.1789604980042323,1.9335394172375897,0.1162676392020565,0.0553082457388224,0.0471048782242482,-0.0547165639939016,0.4704774717416309,-0.6231505765496409,0.2328869848492239,-0.181540588565182,1.9383839863127457,-0.1163248903085359,0.5299096129619159,-0.6374263025667767,1.4664981326456772,-0.1738869090756361,-1.17580735308552,0.8589861374524055,11.512387440059683,-0.8932266798891185,0.1157372402338289,-1.0136382145117702
1.46,0.2312068859093127,-0.1698008591376117,1.9212557488236148,0.1118154816876218,0.0434235154417581,0.0449156966506879,-0.0622677312375905,0.4470992074436531,-0.6060117526376587,0.2317237359461385,-0.1762414924355628,1.932009723287078,-0.1294592103888162,0.527078788147179,-0.6316173970546822,1.4977505244651,-0.3775583621844446,-1.1689132148988868,0.8569411955991091,11.49940371453522,-0.9055848300636272,0.1181986734410639,-1.0033664458329945
1.48,0.2299208094057651,-0.1615243946175578,1.9099046182354305,0.1070090777705423,0.0327204504861117,0.0429152503957402,-0.0729783611885767,0.4256843356967079,-0.5896457468140237,0.2293972381399678,-0.1656433001763245,1.9192611972357427,-0.1557278505493768,0.5214171385177053,-0.6199995860304932,1.450138331767295,-0.5355314975493103,-1.0707435873472642,0.8183002911817505,11.495182071548696,-0.918998412011269,0.121603304774886,-0.9914568639824926
1.5,0.2283135006560826,-0.1532372177157918,1.898294873447918,0.1014492725217101,0.0225335097951177,0.0409525100400338,-0.0874377048920995,0.4044967927238736,-0.5721407963078977,0.2270707403337971,-0.1550451079170862,1.9065126711844071,-0.1819964907099374,0.5157554888882316,-0.6083817750063042,1.5527458660259104,-0.722967185176137,-1.059377148641713,0.8752475253062997,11.496235837468705,-0.931927590567983,0.1256846087553891,-0.9792981446220528
1.52,0.2263854901441504,-0.1453591399712479,1.8870371408790456,0.095498653045344,0.0138047070371635,0.0391750203190493,-0.1048083826617226,0.3847007440541953,-0.554460128482288,0.2234308105195983,-0.1447299981393215,1.894345035684281,-0.208265130870498,0.510093839258758,-0.5967639639821152,1.5860564333181064,-0.8685338884811565,-0.9898024334839134,0.8840333912804865,11.506479561321612,-0.9446762303352748,0.1307211043186241,-0.9660703203679744
1.54,0.2240810552552262,-0.1378612385235715,1.876136741895352,0.0892634302952029,0.0069066527133094,0.0376127566055548,-0.1248752876997085,0.3664341517902189,-0.5364151982361677,0.2197908807053996,-0.1344148883615569,1.882177400184155,-0.2345337710310587,0.5044321896292843,-0.5851461529579262,1.6293929685079462,-1.0033452518992951,-0.9133296131988212,0.9022465123060152,11.510001897131588,-0.9552478720338328,0.1357465936124066,-0.9545923737078112
1.56,0.2214914964554572,-0.1310613394990501,1.866117459416766,0.083214593851537,0.0026603042414498,0.0363720136409987,-0.146774900351285,0.3505362209072088,-0.5191138784328841,0.2154942348871868,-0.1242413198245291,1.8703002099596333,-0.2608024111916193,0.4987705399998106,-0.5735283419337373,1.605983271694905,-1.0949806325788265,-0.7948965441505057,0.8650659901641766,11.531711000891846,-0.9640886323062946,0.1413785773605956,-0.9441650617641854
1.58,0.218296291533259,-0.1242119810496969,1.855928414103348,0.076859349278578,0.0014083944807588,0.0353658388163753,-0.1712930247677998,0.3354786183427624,-0.5006284192873286,0.21054087306496,-0.1142092925282382,1.8587134650107169,-0.2870710513521799,0.4931088903703369,-0.5619105309095482,1.709957616225124,-1.2259062208257383,-0.7528801282223191,0.9242729572777776,11.557575012490815,-0.9712254349717556,0.1468159656830151,-0.9354417543584136
1.6,0.2146192049617459,-0.1176458765059139,1.8461115873082392,0.0706330761247492,0.0031744691959496,0.034612966737289,-0.1948898783984967,0.3220983415907129,-0.4819220312081472,0.209731640294869,-0.1074380501325588,1.8308969931389816,-0.1760249420559542,0.3255226505662851,-0.453754659808998,1.647552929497948,-1.1798426815348455,-0.6690138376024751,0.9353194039590672,11.538481504112497,-0.9764911293606584,0.1527942428826045,-0.9276319913577746
1.62,0.2104124371460516,-0.11128184247574,1.8367078713413696,0.0663095798155344,0.0095760650037331,0.0343096781461165,-0.2239069145552058,0.3142237365547595,-0.4591494157529798,0.209731640294869,-0.1074380501325588,1.8308969931389816,-0.1760249420559542,0.3255226505662851,-0.453754659808998,1.8858617436472875,-1.4508518078354542,-0.393730251797672,1.13863077275837,11.538481504112497,-0.977652290433108,0.1572448131615538,-0.9240954118288344
1.64,0.205935080923699,-0.105406910847372,1.8282009899584708,0.0639514788989363,0.0204149844953425,0.0344420293720736,-0.2452292746730364,0.3045047303705881,-0.4374099177984457,0.209731640294869,-0.1074380501325588,1.8308969931389816,-0.1760249420559542,0.3255226505662851,-0.453754659808998,1.5982082886138518,-1.0661180058915296,-0.4859503092085687,1.0869748977267055,11.890876352414123,-0.9754415345907254,0.1604683937374764,-0.9241756053362548
1.66,0.2008489732092726,-0.0994295204967265,1.819691184225459,0.061925074022546,0.0341610746002055,0.0347408802183249,-0.2616381899153112,0.2938272068077096,-0.4147040816162834,0.2079713908743095,-0.104182823626896,1.826359446540892,-0.176971325513585,0.3235314570109896,-0.4443799079133319,1.499013847163507,-0.8204457621137403,-0.5338761781439244,1.135291809108116,11.766149217060049,-0.9691309770538744,0.1633913531250287,-0.9285841302898068
1.68,0.1954893626813771,-0.0936631003325526,1.81163062245002,0.0599466209652499,0.048778467711465,0.0350736147856856,-0.2729839264177644,0.2834733226038069,-0.392504874684527,0.2044508920331904,-0.0976723706155703,1.817284353344712,-0.1788640924288468,0.3195490699003987,-0.4256304041219996,1.349753165665733,-0.5672868251226593,-0.5176942101951354,1.109960346587821,11.70258250079587,-0.9604781656025364,0.1663041137612474,-0.9353675781027307
1.7,0.1899490789576704,-0.0880973913609386,1.8040071746593784,0.0578972959749867,0.0634237270543493,0.0353782765274699,-0.2800231579762252,0.2737592748508443,-0.3709462335337341,0.2009303931920713,-0.0911619176042446,1.808209260148532,-0.1807568593441085,0.3155666827898077,-0.4068809003306673,1.2335806752591487,-0.3519615779230378,-0.4857023876481292,1.0779320575396434,11.647584005927456,-0.9516941800362154,0.1692146264485948,-0.9421937808115576
1.72,0.1845917198346651,-0.0829826265645183,1.7971589619467634,0.0559053190667728,0.0769562189618546,0.0356191824051983,-0.2832019647291381,0.2652310060875601,-0.3510062626296021,0.1973152560051892,-0.0848505839484484,1.8000716421419185,-0.1826496262593703,0.3115842956792168,-0.3881313965393351,1.0959455051789826,-0.1589403376456494,-0.4264134381642109,0.996998545206601,11.603481475849549,-0.9419460065246325,0.1722734541669924,-0.9498105126352886
1.74,0.1789223445578342,-0.0777655779390224,1.7903575975203136,0.0538224698976735,0.0905840771432429,0.0358157196168124,-0.2831891766075169,0.2570110414507672,-0.3302020010249935,0.193700118818307,-0.0785392502926522,1.7919340241353052,-0.184542393174632,0.3076019085686259,-0.3693818927480028,1.1184646653774657,0.0006394060810599,-0.4109982318396432,1.0402130802304288,11.568840736910715,-0.9320162539084108,0.1752527172835065,-0.957542831583113
1.76,0.1732864574798398,-0.0727056769921106,1.7839669714398398,0.0517934567267398,0.1034800532260632,0.0359546117730863,-0.2800558985522348,0.2494729117533113,-0.3099288478499914,0.1900376624585433,-0.0723274763146209,1.7842651437234751,-0.1864351600898938,0.3036195214580349,-0.3506323889566706,1.092750623843882,0.1566639027641064,-0.3769064848727951,1.0136576587501056,11.568840736910715,-0.9218232853384274,0.1781367862676707,-0.9654164802950778
1.78,0.1677485231413231,-0.0677890921890427,1.777976216470187,0.0498490086561302,0.11545816572949,0.0360327242962561,-0.2736243843828587,0.2426243922924513,-0.2901946264096122,0.186327886925898,-0.0662152620143543,1.7770650009064284,-0.1883279270051555,0.299637134347444,-0.3318828851653384,1.0928244245698704,0.3215757084688075,-0.3424259730429993,0.9867110720189616,11.54773145037143,-0.9124366516374692,0.1808140715595182,-0.9724603331739116
1.8,0.1626459666950871,-0.063238443481065,1.772645497966518,0.0481117914201241,0.1254025613704094,0.0360289616741831,-0.2637428941024513,0.236763131077066,-0.2719563861875136,0.1540673039221802,-0.0556578725744201,1.7634664851497066,-0.2064941763674168,0.2279394516041393,-0.2798872762136679,1.077765790415223,0.4940745140203678,-0.2930630607692677,0.9119120111049288,11.528892600949805,-0.903853550864844,0.1836503692012546,-0.9784028282548162
1.82,0.1574521926785661,-0.0585189331536841,1.7672877333347186,0.0477046436786736,0.1349745486358436,0.0360734012745542,-0.2559827912101265,0.2352133150359847,-0.2654592729248237,0.1540673039221802,-0.0556578725744201,1.7634664851497066,-0.2064941763674168,0.2279394516041393,-0.2798872762136679,0.5119414209870122,0.388005144616238,-0.0774908020540629,0.3248556631344934,11.511284134049674,-0.8884734895806464,0.1852302955463619,-0.9901810974589944
1.84,0.1524335264259739,-0.0538361338147665,1.762028600527268,0.0496010435399723,0.1445491780396067,0.0362908075034306,-0.2459489757706419,0.2329016859812627,-0.2607602193909382,0.1540673039221802,-0.0556578725744201,1.7634664851497066,-0.2064941763674168,0.2279394516041393,-0.2798872762136679,0.5659111795913697,0.5016907719742336,-0.1155814527360993,0.2349526766942777,10.67338253980779,-0.8782022151268073,0.1835189968061713,-0.9993326406108464
1.86,0.1478768221844996,-0.0494464568599141,1.7571237974116127,0.052928355978089,0.1533820585943977,0.0366173453735246,-0.2339659291503014,0.2288344410951119,-0.2558310885306061,0.1520023621585061,-0.0533784780583787,1.76066761238757,-0.1930681347643284,0.2250024634664769,-0.277825806174479,0.6790291199710256,0.5991523310170207,-0.2033622443075422,0.2464565430166043,10.668917376304307,-0.8668520767571424,0.1799006352703714,-1.0098235744489388
1.88,0.143351135753994,-0.0449403349085301,1.7520658521724035,0.0567895582077706,0.162260506690429,0.0369984039635009,-0.2189838387047727,0.2219079460780468,-0.250233313253672,0.1478724786311577,-0.0488196890262959,1.7550698668632965,-0.1662160515581516,0.219128487191152,-0.2737028660961013,0.87145633193879,0.749104522276435,-0.3463247508532552,0.2798887638467029,10.72381806676367,-0.8554141553990215,0.1759063702098498,-1.02016651943486
1.9,0.1391485755586304,-0.0405904241991229,1.7471242331820365,0.0602849911840142,0.1706459970174974,0.037358041115859,-0.2017973316777105,0.213463622520154,-0.2442178997593794,0.1437425951038094,-0.0442608999942131,1.7494721213390232,-0.1393639683519749,0.2132545109158272,-0.2695799260177235,1.003578377169616,0.8593253513531115,-0.4222161778946395,0.3007706747146302,10.780337644555402,-0.8439420461845876,0.1722283095082919,-1.0302241004214383
1.92,0.1353126692535225,-0.0364203182720702,1.7423079822043137,0.0631269226919754,0.1784825294079104,0.0376639475945137,-0.1824662620259884,0.2041130805111332,-0.2377496146602569,0.1409553157367699,-0.0399958097758966,1.7440805228186689,-0.1125118851457981,0.2073805346405024,-0.2654569859393458,1.1213402715787522,0.9665534825861036,-0.4675271004510414,0.3234142549561267,10.885329718623325,-0.8331875542899813,0.1692991329694385,-1.0393397992544682
1.94,0.1320551562463506,-0.032636614825171,1.737851187294286,0.065182383294431,0.1850272301571969,0.0378684597173624,-0.1613618557828004,0.1947838697393152,-0.2317369732464269,0.1381680363697304,-0.03573071955758,1.7386889242983143,-0.0856598019396213,0.2015065583651776,-0.2613340458609681,1.192247869859516,1.0552203121594008,-0.4664605385908987,0.3006320706914991,10.903635907257922,-0.8227231347187218,0.1668756198398856,-1.047919761133958
1.96,0.1290838530063159,-0.0288490531968933,1.7332824930849138,0.0666482439788732,0.1903629813216852,0.0379425150670164,-0.1368549989820882,0.1845287509508118,-0.2254586951297226,0.1360520590828453,-0.0316124787461466,1.7334003992799192,-0.0588077187334446,0.1956325820898528,-0.2572111057825904,1.3648903506578995,1.2253428400356106,-0.5127559394251704,0.3139139058352128,10.903635907257922,-0.8131195030650027,0.1652308246762059,-1.055426427295953
1.98,0.1266216391509331,-0.0252729254619367,1.728840352093063,0.0672065916565853,0.1936828324538417,0.0378211937978914,-0.1106684653495763,0.1736687103584231,-0.2190583147458214,0.1346073838761147,-0.0276410873415963,1.7282149477634836,-0.0319556355272678,0.1897586058145279,-0.2530881657042126,1.4531344521530296,1.3093266816255964,-0.5430020296194312,0.32001901919506,10.929578196200056,-0.8050699818428817,0.1645577542678453,-1.0613699888559411
2.0,0.1246960286600925,-0.0219195221468133,1.7245299130781766,0.0665596975319878,0.1947062604802415,0.0374603469592389,-0.0834109876756019,0.1623799600144334,-0.212290831066149,0.1210882158834543,-0.0165894899440155,1.717887436355772,-0.1070729811617498,0.1644369287714185,-0.2187080532603845,1.513443762442773,1.3628738836987195,-0.5644375171994883,0.3383741839836238,10.961782160965411,-0.7996987393866353,0.165052612299514,-1.0650252135353937
2.02,0.1235028273833513,-0.0189650274161802,1.7205094055814043,0.0636831421965789,0.1890412233069865,0.0365264727232792,-0.0450036424122555,0.1498862888904118,-0.2110560223231309,0.1210882158834543,-0.0165894899440155,1.717887436355772,-0.1070729811617498,0.1644369287714185,-0.2187080532603845,2.020359337447758,1.9203672631673177,-0.6246835562010791,0.0617404371509047,10.99893157947372,-0.8059958135079874,0.1667986377110063,-1.0607075793197562
2.04,0.1229582374728664,-0.0160682014459415,1.716317582157316,0.0587527858483995,0.1737190253057915,0.034873123547916,-0.0127896864485421,0.1408048554943631,-0.2079210107608292,0.1210882158834543,-0.0165894899440155,1.717887436355772,-0.1070729811617498,0.1644369287714185,-0.2187080532603845,1.6808031479434935,1.6106977981856725,-0.4540716698024347,0.1567505781150849,10.780193824009984,-0.8117188353400924,0.173307638425272,-1.0531339278976404
2.06,0.1229535571649467,-0.0133232126818838,1.7122129216966664,0.053667963601634,0.1528899274073109,0.0330008714498065,0.0096168908345312,0.1341916641330755,-0.2025343227722545,0.1200174860718368,-0.0149451206563013,1.715700355823168,-0.1063538843241845,0.1625905724540176,-0.2186380009632971,1.1987549927003458,1.120328864153667,-0.3306595680643814,0.2693343994287347,10.780193824009984,-0.8296077402590829,0.1816639280175354,-1.033740501225597
2.08,0.123292075608073,-0.0106946000288548,1.7082322148452478,0.0490970282005967,0.1299729899048915,0.0311864533195604,0.022326571903395,0.1289453592868723,-0.1957026829939122,0.1178760264486018,-0.0116563820808729,1.7113261947579603,-0.1049156906490539,0.1588978598192157,-0.2184978963691223,0.7676767051835035,0.6354840534431931,-0.2623152423101585,0.341581988917114,10.79804089164736,-0.8522877351603521,0.1900269345958779,-1.008748234811286
2.1,0.1237632446958022,-0.0082858565762349,1.7045834386011658,0.04540193906559,0.1086676439179519,0.0296456258046115,0.0262096520707608,0.1247849242563452,-0.1886796926395922,0.1157345668253668,-0.0083676435054446,1.7069520336927526,-0.1034774969739232,0.1552051471844138,-0.2183577917749476,0.4519677110875797,0.1941540083682904,-0.208021751526357,0.3511495177159984,10.8048664538519,-0.8770744998431229,0.1974125037994424,-0.9813712706125752
2.12,0.1242644226065082,-0.0058300656427301,1.7008872951091336,0.0421821394739814,0.088480086497637,0.0282706519418193,0.0232971726809366,0.1209649618792384,-0.1813028839168159,0.1136650168858883,-0.0052635405617563,1.7025848778572537,-0.1020393032987926,0.151512434549612,-0.2182176871807728,0.4401475766464343,-0.1456239694912122,-0.1909981188553386,0.3688404361388175,10.79619246594575,-0.8999664450656781,0.2029904396752506,-0.9559603232904894
2.14,0.1246442409378058,-0.0034458363806004,1.6973324582254534,0.0395801443070944,0.0717444939800174,0.0271610638816651,0.0146404720949076,0.1175995242470415,-0.1745790418980791,0.1115954669464099,-0.002159437618068,1.6982177220217547,-0.100601109623662,0.1478197219148101,-0.218077582586598,0.5733120594085134,-0.4328350293014508,-0.1682718816098445,0.3361921009368385,10.776828352816665,-0.9194535370219707,0.2069415986579202,-0.93419925177055
2.16,0.1248035364368582,-0.0011255075946023,1.6939030972721774,0.0374999619845453,0.0591748499119406,0.026307768305387,0.0018797211847655,0.1145355077669157,-0.1686776146593942,0.1095618718488097,0.0008523475097501,1.69385406880111,-0.0991629159485314,0.1441270092800082,-0.2179374779924232,0.7194647389460204,-0.6380375455071041,-0.1532008240062894,0.2950713619342432,10.731918539278922,-0.9341768747866634,0.2092451455314342,-0.9180294415760633
2.18,0.1246897081223793,0.0010242948667406,1.690747641365275,0.0359037098599296,0.0513485754389367,0.0257138001270178,-0.0131840442580484,0.1118655581473629,-0.1637649238192465,0.1075642315930877,0.0037718148216983,1.68949391819532,-0.0977247222734008,0.1404342966452064,-0.2177973733982485,0.8033993271996485,-0.7531882721406999,-0.1334974809776408,0.2456345420073877,10.686514853233348,-0.9449770152208844,0.2108618989753332,-0.906099281450856
2.2,0.1242370359164049,0.003235322923129,1.687521040876021,0.0345907243488161,0.0479897237106053,0.0253148490385439,-0.0310372999180168,0.1093842728293452,-0.1591608771656465,0.1240305059094769,0.0066175727741087,1.6825593951743123,-0.0407538634998106,0.1054902453421871,-0.1381763164036896,0.9301784238495988,-0.8926627829984214,-0.1240642659008833,0.2302023326799962,10.658034076708644,-0.9516708164306684,0.2109359853638701,-0.9000350481004123
2.22,0.1234710870725987,0.0053924703548039,1.6844885130973122,0.0335674025071501,0.0483658409133001,0.0250832549558355,-0.0443283021531975,0.1064811724508831,-0.1437479221746972,0.1240305059094769,0.0066175727741087,1.6825593951743123,-0.0407538634998106,0.1054902453421871,-0.1381763164036896,1.0279079649657796,-0.6645501117590353,-0.1451550189231064,0.7706477495474678,10.621582359351123,-0.9597710219917124,0.2085594238706667,-0.8956136539541307
2.24,0.122456950305062,0.0074971875631508,1.681777487105898,0.0328384833805829,0.0505468740232099,0.0249466496593755,-0.0561915492784284,0.1041345163308636,-0.1281562926865604,0.1240305059094769,0.0066175727741087,1.6825593951743123,-0.0407538634998106,0.1054902453421871,-0.1381763164036896,0.986587980612043,-0.5931623562615437,-0.1173328060009727,0.7795814744068388,11.293830345619426,-0.9635102485391362,0.2110649086218937,-0.8888514858842046
2.26,0.1212878400230398,0.0094566588962058,1.679479828848411,0.0325290166935963,0.0536934114915772,0.0248909240420873,-0.0661043366831983,0.102229510906377,-0.1144615240545175,0.1236229672744788,0.0076724752275306,1.6811776320102756,-0.046267827348163,0.104215182781152,-0.1330585949205782,0.8506454721043811,-0.4956393702384952,-0.095250271224332,0.6847384316021443,11.207020284774444,-0.9659073047527884,0.2132213288927955,-0.883730218318125
2.28,0.1198697180483216,0.011481962017709,1.6773334844239187,0.0326469864373847,0.057564586252154,0.0248944593301996,-0.0750318586420321,0.1003885271960256,-0.1009238146903745,0.1228078900044826,0.0097822801343743,1.678414105682202,-0.0572957550448679,0.1016650576590816,-0.1228231519543554,0.8160261089193824,-0.4463760979416892,-0.0920491855175717,0.6768854682071487,11.117284197433946,-0.9673870519595716,0.2149779593729688,-0.879801530464676
2.3000000000000003,0.1182880636444554,0.0134704890892715,1.6754480125690965,0.0332187719949864,0.0615451284425772,0.024947604939028,-0.0825711643721097,0.0985339929540812,-0.0883334215415892,0.1219928127344864,0.0118920850412181,1.675650579354128,-0.0683236827415727,0.0991149325370113,-0.1125877089881327,0.7395918262580807,-0.3769652865038795,-0.0927267120972165,0.6295196574392661,11.048746044816651,-0.9683001603699636,0.2164006312437031,-0.8765942153009991
2.32,0.1165689086021274,0.0154198428922738,1.673804497776863,0.0341846329987989,0.0652859375648402,0.0250355178685865,-0.0889034599587604,0.0964681221434956,-0.0766359204754577,0.1206263390796549,0.0138743836919583,1.6733988251743654,-0.0793516104382776,0.096564807414941,-0.1023522660219099,0.6730477709548092,-0.3166147793325358,-0.1032935405292832,0.5848750533065779,10.92551687591731,-0.9689401544908732,0.2173762164291628,-0.8740219133304311
2.34,0.1148283010745365,0.0172296071496994,1.6724569499807982,0.035358318492136,0.0684081807749915,0.0251364458379775,-0.0939793424315412,0.094124017214156,-0.0657884277685029,0.1192598654248234,0.0158566823426985,1.6711470709946028,-0.0903795381349825,0.0940146822928707,-0.0921168230556871,0.6101792950122827,-0.2537941236390395,-0.1172052464669781,0.5423746353477393,10.92551687591731,-0.9698439814858032,0.218061570328361,-0.8713372217537617
