t,x,y,z,roll,pitch,yaw,v_x,v_y,v_z,ref_x,ref_y,ref_z,ref_v_x,ref_v_y,ref_v_z,a_com,a_x,a_y,a_z,thrust,wind_x,wind_y,wind_z
0.0,1.4558863538646856,2.1063655079174683,2.1471967516118595,0.033820556792324,0.0998739366079637,0.0428297814038927,0.0025664602986515,0.0015671440707543,0.0067637278025797,1.4559575639540907,2.106511399106464,2.1474048508714216,-0.0975757662069885,-0.096002593201305,-0.0931081946498838,0.3701036097853035,0.1283230149325758,0.078357203537717,0.3381863901289862,10.249005095391112,-0.9418172644856186,0.2522360838048844,-0.8767337347279278
0.02,1.4560787190876057,2.106622681366683,2.147106979775959,0.0414499463066907,0.0942220156879131,0.0431226619547142,0.0164758343547458,0.020411570782052,-0.0163445234359637,1.4559575639540907,2.106511399106464,2.1474048508714216,-0.0975757662069885,-0.096002593201305,-0.0931081946498838,1.6451249040828688,0.6954687028047176,0.942221335564885,-1.1554125619271742,10.249005095391112,-0.9490877851011916,0.2504447571523814,-0.8653073477196424
0.04,1.4565136187555776,2.107052075506016,2.1464629971003,0.0553119962581479,0.078157503958548,0.0432389596695681,0.024945852962609,0.020835851332866,-0.0469820823625101,1.4559575639540907,2.106511399106464,2.1474048508714216,-0.0975757662069885,-0.096002593201305,-0.0931081946498838,1.5894820274077897,0.4235009303931586,0.0212140275406995,-1.5318779463273204,8.845362848266177,-0.949042627557238,0.235386794719645,-0.8712131496684873
0.06,1.4570087995880046,2.1074113166643382,2.145199719514353,0.0695335394262389,0.0558705591660262,0.0427073783393584,0.0231137779856284,0.0146898485361676,-0.0777897779090958,1.4549818062920208,2.10555137317445,2.1464737689249227,-0.1175757665050117,-0.1160025934993282,-0.113108194947907,1.5734070944843064,-0.0916037488490282,-0.3073001398349211,-1.5403847773292845,8.568320586004575,-0.9565432328357842,0.217300981426234,-0.8725854151891211
0.08,1.457361924034742,2.1076069806690745,2.143330193643986,0.0832069098538973,0.0315225532597979,0.0416030906612982,0.0116380453616269,0.0048523003138096,-0.1076914363995443,1.4530302909678812,2.1036313213104245,2.1446116050319253,-0.1575757671010582,-0.1560025940953747,-0.1531081955439535,1.6752454855663692,-0.573786631200076,-0.4918774111178978,-1.4950829245224235,8.568320586004575,-0.9681963393990928,0.1984639608582263,-0.871537526091139
0.1,1.457404202113736,2.1075810987413117,2.141007005329549,0.095605526944815,0.0092460892728149,0.040224888108172,-0.006898267309076,-0.0073474957644298,-0.1354340091311753,1.451078775643741,2.1017112694463984,2.1427494411389274,-0.1975757676971047,-0.1960025946914211,-0.1931081961399999,1.776288443318348,-0.9268156335351518,-0.6099898039119735,-1.3871286365815492,8.721479216539137,-0.9833599482284492,0.1789802869097095,-0.8672982908702208
0.12,1.4570049412005188,2.107275035938138,2.137993999245586,0.1080559369858475,-0.011493467623862,0.0386540117962785,-0.0323239382044544,-0.0229140140070751,-0.1644544006229809,1.447127260289799,2.09779121755257,2.138887277216128,-0.2375757682931511,-0.2360025952874676,-0.2331081967360464,2.080242986417912,-1.271283544768916,-0.7783259121322685,-1.451019574590283,8.721479216539137,-0.998181499456408,0.1586084062851077,-0.8647915306949895
0.14,1.4560464493416627,2.10663013601378,2.1343972940737364,0.1199135906563426,-0.028433885739626,0.0371651839796551,-0.0623342887138123,-0.0410722690476049,-0.1938271217040321,1.443175744935857,2.093871165658742,2.135025113293328,-0.2775757688891976,-0.2760025958835141,-0.2731081973320929,2.287520550463248,-1.5005175254678964,-0.9079127520264864,-1.4686360540525591,8.829335426707075,-1.011059837793386,0.1376502036370725,-0.8653823346025025
0.16,1.454446649855255,2.105595716831582,2.130211668221061,0.1311924438273509,-0.0408825989966877,0.0359561168927067,-0.0958765913926341,-0.0617066259280953,-0.2232964847640736,1.4382242295670138,2.0889511137500123,2.1301629493556264,-0.3175757694852441,-0.3160025964795605,-0.3131081979281393,2.4593221180000366,-1.6771151339410892,-1.0317178440245214,-1.4734681530020737,8.829335426707075,-1.0214029130089193,0.1200210814049497,-0.8654694591049641
0.18,1.4522822540901938,2.1041975848573893,2.125688996206358,0.1410234962587605,-0.0482312568228023,0.0351955247689763,-0.1301885417381701,-0.0843864248115558,-0.2513108507710242,1.4322727141832694,2.083031061826381,2.124300785403024,-0.3575757700812905,-0.3560025970756069,-0.3531081985241857,2.488216186688837,-1.7155975172768003,-1.1339899441730263,-1.4007183003475296,8.881783256527342,-1.028486381890882,0.1027911356995403,-0.8687837447752572
0.2,1.4492830823356977,2.102224725742872,2.120350184116871,0.1497432475064592,-0.0507241127664705,0.0349477788281761,-0.1675417200401633,-0.1114734411591246,-0.2809991620931019,1.4457728270032852,2.099978263616812,2.1131234536678067,-0.2301885432282862,-0.184386426301672,-0.3513108522611403,2.7433383919189387,-1.8676589150996583,-1.3543508173784384,-1.4844155661038831,8.944183545533633,-1.033211401673511,0.0863062104998414,-0.8752832583645704
0.22,1.4455086174751328,2.099552790069011,2.1145304929935134,0.1527094699005323,-0.0469601765316754,0.0352169375547775,-0.2074722799005056,-0.1526738964309758,-0.298358644802923,1.4457728270032852,2.099978263616812,2.1131234536678067,-0.2301885432282862,-0.184386426301672,-0.3513108522611403,2.9971981771818017,-1.9965279930171151,-2.060022763592558,-0.8679741354910564,9.88780676724491,-1.037960092944612,0.076228803515056,-0.8795158603785499
0.24,1.4409833665197656,2.096121609961492,2.10840246721236,0.1492730555903735,-0.0375398263441993,0.0358859141017765,-0.2423610170827731,-0.1873227412187992,-0.3134337921304225,1.4457728270032852,2.099978263616812,2.1131234536678067,-0.2301885432282862,-0.184386426301672,-0.3513108522611403,2.5714910529932977,-1.7444368591133754,-1.732442239391173,-0.7537573663749741,9.88780676724491,-1.037254403449828,0.0764156263683874,-0.8832908461613991
0.26,1.4360888550751032,2.092282099813406,2.102293160655087,0.1434510532680066,-0.0256874988687726,0.036720597196504,-0.2706059664791076,-0.2145313343112498,-0.3287445329843744,1.4434709415710023,2.098134399353795,2.1096103451451955,-0.2501885435263095,-0.2043864265996952,-0.3713108525591636,2.105055515876553,-1.4122474698167256,-1.360429654622529,-0.7655370426975977,9.76862920936128,-1.031583731517444,0.0785690582422076,-0.8928807441370796
0.28,1.430409621381387,2.087729534248491,2.0955329324633656,0.1367885169736879,-0.0119769816131453,0.0376495405564995,-0.2953680546420227,-0.2390691017348733,-0.3465423455944903,1.4388671707064369,2.0944466708277614,2.1025841280999726,-0.2901885441223559,-0.2443864271957417,-0.41131085315521,1.957054658171698,-1.2381044081457542,-1.2268883711811742,-0.8898906305057935,9.607163098250568,-1.0235013914129727,0.0818589341188446,-0.9041902382944844
0.3,1.424282740198226,2.0827148209350903,2.088394538920804,0.1304259063445966,0.0016396517222589,0.0384891921831006,-0.315740723275836,-0.2610701642054506,-0.3665107014650236,1.434263399841871,2.090758942301728,2.0955579110547498,-0.3301885447184023,-0.2843864277917881,-0.4513108537512564,1.8012687287504243,-1.0186334316906658,-1.1000531235288658,-0.9984177935266652,9.301216673864474,-1.0142208385722935,0.0843495796165535,-0.9169148399366231
0.32,1.4181216304285147,2.0775631969810724,2.081220288621449,0.1249589466887068,0.0136108360163078,0.0391198117906681,-0.3316257518158906,-0.280138159057878,-0.3876997817150509,1.427659628947503,2.085071213745892,2.0865316939797247,-0.3701885453144488,-0.3243864283878345,-0.4913108543473028,1.6316400347906417,-0.7942514270027318,-0.9533997426213692,-1.0594540125013625,9.301216673864474,-1.0032320710567575,0.0861292572904944,-0.9316650485100716
0.34,1.4113405275744515,2.07176479360846,2.073217481190151,0.1199504381125362,0.0246354703514181,0.0395692280102503,-0.3454940704226588,-0.298733008538977,-0.4115770844579695,1.421055858053135,2.079383485190057,2.0775054769047,-0.4101885459104953,-0.364386428983881,-0.5313108549433494,1.664500131030746,-0.6934159303384063,-0.929742474054948,-1.193865137145933,9.174092725867013,-0.9927131775609696,0.0872242321816325,-0.9456914864938166
0.36,1.4043019432626949,2.0655968114114804,2.064722447948741,0.115460571935057,0.033881411722087,0.0397867594553265,-0.3575822590223193,-0.3170436501784265,-0.4367974560237734,1.4134520871438658,2.07269575661932,2.0674792598147733,-0.4501885465065417,-0.4043864295799275,-0.5713108555393958,1.6714298091652795,-0.6044094299830272,-0.9155320819724756,-1.2610185782901933,9.0891853551866,-0.982799420227936,0.0875306592577769,-0.9592494500553868
0.38,1.397036185080215,2.059069279528109,2.0557108875002217,0.1111705878536904,0.0414920171684586,0.0397865002053277,-0.3683625221014586,-0.3346714076159449,-0.4631139533104195,1.4048483162196954,2.0650080280336813,2.056453042709946,-0.4901885471025881,-0.4443864301759739,-0.6113108561354422,1.6729539247760938,-0.5390131539569659,-0.8813878718759216,-1.3158248643323072,9.034640801759451,-0.9743610178315976,0.0876080243990544,-0.9710372840713288
0.4,1.3899430161903346,2.0525492182800638,2.0466535912106765,0.1072042161391381,0.0473998051455316,0.039614962289778,-0.3777360375632985,-0.3506614166353063,-0.4889824765311991,1.3786180589751422,2.042335709147312,2.0325551898347007,-0.4683625235915747,-0.434671409106061,-0.5631139548005357,1.5911659829953508,-0.4686757730919949,-0.7995004509680714,-1.2934261610389797,8.99061968717615,-0.9666853562595668,0.0876701764309435,-0.9820481507521654
0.42,1.3823214058533977,2.045366605482565,2.0367838807488097,0.1037891270703953,0.0517442708868467,0.0392624132471077,-0.3839320051672027,-0.367102278911615,-0.4956578436865158,1.3786180589751422,2.042335709147312,2.0325551898347007,-0.4683625235915747,-0.434671409106061,-0.5631139548005357,0.9397506232978255,-0.3097983801952086,-0.8220431138154349,-0.3337683577658318,8.951473917303701,-0.9681531716938512,0.0886537097447101,-0.9825519468871888
0.44,1.3745841078094976,2.037861677796788,2.026780977772104,0.1015763271373381,0.0536075169167769,0.038722219768417,-0.3896286350721759,-0.3827752474359714,-0.5046856116169789,1.3786180589751422,2.042335709147312,2.0325551898347007,-0.4683625235915747,-0.434671409106061,-0.5631139548005357,0.9481483645057844,-0.284831495248658,-0.7836484262178173,-0.4513883965231557,9.876590634106831,-0.9654135279807567,0.0888888323867233,-0.9865019907889316
0.46,1.3667279286786682,2.0300415589033376,2.0165450633485698,0.1001985342685617,0.0531760724584042,0.0380002867114412,-0.3958508285583761,-0.398523467185887,-0.5184478719943805,1.3739344337392263,2.0379889950562515,2.0269240502866954,-0.4883625238895979,-0.4546714094040843,-0.5831139550985589,1.091010916268421,-0.3111096743100144,-0.7874109874957819,-0.688113018870079,9.876590634106831,-0.9646443916249432,0.0880004239439189,-0.9889769202171766
0.48,1.3591424745485794,2.0223234070508465,2.006534619150755,0.0994058985829871,0.0508630898604741,0.0371557793822896,-0.4024346870179978,-0.4131613962367474,-0.5345924251309793,1.364567183267395,2.02929556687413,2.015661771190685,-0.5283625244856444,-0.4946714100001307,-0.6231139556946054,1.1382692509846004,-0.3291929229810836,-0.731896452543021,-0.8072276568299397,9.645064230914612,-0.9658668308741372,0.086304527056189,-0.9899603105820888
0.5,1.3510123898704292,2.0139033021075314,1.995641051292086,0.099159606278144,0.0465721812099457,0.0361189121298181,-0.4104444599978547,-0.428112857727082,-0.5540294978702145,1.3551999327955635,2.0206021386920088,2.004399492094674,-0.5683625250816908,-0.5346714105961772,-0.6631139562906518,1.2898667184598218,-0.4004886489928444,-0.7475730745167275,-0.9718536369617614,9.477706514212514,-0.9685924027524696,0.0836976247285438,-0.9899397618169212
0.52,1.3426985347803997,2.0051849763194283,1.9843388068008343,0.0995856143999362,0.0408838142116371,0.0349825913873533,-0.4208320021695453,-0.4430193932439666,-0.5752933877601394,1.3438326822939295,2.009908710480085,1.9911372129688607,-0.6083625256777373,-0.5746714111922236,-0.7031139568866983,1.3984445347739427,-0.5193771085845289,-0.7453267758442322,-1.0631944944962446,9.344275187305357,-0.973428728884524,0.0811701088337514,-0.9871521519347428
0.54,1.3341506973454722,1.9961664660217653,1.9726049403617585,0.1006862864533967,0.0346584128395505,0.0338271377549251,-0.4336280610918394,-0.4581610776954984,-0.5970271636028497,1.332465431792296,1.9992152822681617,1.977874933843048,-0.6483625262737838,-0.6146714117882701,-0.7431139574827448,1.470855826002128,-0.6398029461147065,-0.75708422257659,-1.086688792135515,9.257545863053563,-0.9799450298223074,0.0780128649990286,-0.982703997615594
0.56,1.3257686699182716,1.987303615351196,1.96105356361902,0.1019887434845213,0.0289781203480249,0.0327555886326337,-0.4481219732109605,-0.4739409032360528,-0.6178063176496564,1.3200981812757608,1.987521854041337,1.9636126547023336,-0.6883625268698301,-0.6546714123843165,-0.7831139580787911,1.492355206969894,-0.7246956059560522,-0.7889912770277202,-1.0389577023403374,9.251946892241904,-0.9866992974034112,0.0745942350232498,-0.9779588406619978
0.58,1.3166270565857736,1.9776402632871044,1.9484639431085675,0.1031037178378699,0.0239125138131878,0.0316885363495883,-0.4654303333717381,-0.4915217387477148,-0.6400721509896035,1.306730930744325,1.9748284257996112,1.9483503755467184,-0.7283625274658766,-0.694671412980363,-0.8231139586748376,1.661650115898053,-0.8654180080388818,-0.8790417755830976,-1.1132916669973514,9.251946892241904,-0.9927583045634976,0.071431794561114,-0.9738084603433746
0.6,1.3071142463018204,1.967612044054724,1.935424853717158,0.1034187597666153,0.0205891398606543,0.0307365449899387,-0.485043005156571,-0.5102382293595673,-0.662701306591926,1.2933555399171868,1.9530641763497187,1.9164603355590877,-0.5654303348618542,-0.591521740237831,-0.7400721524797196,1.7656745160400251,-0.9806335892416446,-0.9358245305926244,-1.1314577801161296,9.2415793271648,-0.9970588998908616,0.0690580249404276,-0.971305433496668
0.62,1.297674233534865,1.9576834043628275,1.92282921762141,0.1017506083061946,0.0207187518530738,0.0300327391840676,-0.5071196702174493,-0.5333869688395361,-0.661900098439491,1.2933555399171868,1.9530641763497187,1.9164603355590877,-0.5654303348618542,-0.591521740237831,-0.7400721524797196,1.599910321100215,-1.1038332530439148,-1.157436973998438,0.0400604076217503,9.2415793271648,-1.0031163214498022,0.0681292567127055,-0.9673943198102152
0.64,1.2873121613876617,1.9467937183006407,1.909573409160133,0.0979344822556524,0.0244628049662737,0.029511765267928,-0.5275236592878026,-0.5537766679917461,-0.6639396610312186,1.2933555399171868,1.9530641763497187,1.9164603355590877,-0.5654303348618542,-0.591521740237831,-0.7400721524797196,1.4458755280679478,-1.0201994535176673,-1.0194849576105005,-0.1019781295863775,10.66553269682663,-1.0032719495189295,0.0718146845074887,-0.966066941869184
0.66,1.2765702694338028,1.9355319022035429,1.8962234844550616,0.0935772468971142,0.0304024654947853,0.0291536589198922,-0.5453132737087995,-0.5711704033071999,-0.6711394019157179,1.2877012365685685,1.9471489589473403,1.9090596140342904,-0.5854303351598774,-0.6115217405358542,-0.7600721527777428,1.2950373337048378,-0.8894807210498401,-0.8696867657726925,-0.3599870442249631,10.326336823674865,-0.9998808206948148,0.0752822800062238,-0.9691875006130664
0.68,1.265498997626879,1.9239452707110825,1.8826754005951725,0.0892318763409137,0.0375412819215835,0.0288859779152084,-0.5606236274702241,-0.5865176198502998,-0.6832628092078088,1.276392629871331,1.935318524142584,1.894258170984696,-0.6254303357559239,-0.6515217411319006,-0.8000721533737892,1.241894714026407,-0.7655176880712322,-0.7673608271549948,-0.6061703646045469,9.73182641548192,-0.9948440543316036,0.0778704076117881,-0.9748406221998572
0.7000000000000001,1.2547202018297026,1.912669610336294,1.869542261214986,0.0853668404348302,0.0447345905639865,0.0286634257215598,-0.573019448298513,-0.5996065910943793,-0.6985562049373196,1.265084023174094,1.9234880893378272,1.879456727935101,-0.6654303363519704,-0.6915217417279471,-0.8400721539698357,1.182016809498496,-0.619791041414447,-0.6544485622039742,-0.7646697864755414,9.73182641548192,-0.9885790546536228,0.0801178718927555,-0.9820202636762622
0.72,1.2431414086975494,1.9005461215695616,1.855370356193044,0.0817451495627366,0.0521850489336836,0.0284272409860551,-0.5840257193386694,-0.6120548374928293,-0.7179899801606354,1.2517754164470547,1.909657654503268,1.8626552848557048,-0.7054303369480168,-0.7315217423239936,-0.8800721545658822,1.278444816990815,-0.5503135520078195,-0.6224123199224996,-0.9716887611657898,9.510555332079091,-0.9818806713686392,0.0817536873169215,-0.989839009281847
0.74,1.2313619468671908,1.88818321253485,1.84078724458202,0.0786530042764241,0.059105190770128,0.0281659781413551,-0.5932372714666448,-0.6236424467743874,-0.7394312036809022,1.238466809720015,1.8958272196687092,1.845853841776308,-0.7454303375440633,-0.77152174292004,-0.9200721551619286,1.3027388912542122,-0.460577606398771,-0.5793804640779054,-1.0720611760133392,9.322894031308351,-0.9753601777121376,0.0827560041322103,-0.9976326135226914
0.76,1.21941018352173,1.8755874130527224,1.825758176036657,0.075818627780068,0.065379329958108,0.0278579826381377,-0.6013698824178555,-0.635251599706308,-0.7624008463914289,1.2241582029780746,1.8809967848192493,1.8280523986820103,-0.7854303381401097,-0.8115217435160864,-0.960072155757975,1.3495520357971784,-0.4066305475605325,-0.5804576465960276,-1.1484821355263353,9.227546619821624,-0.969301163159578,0.0833182973776845,-1.005062584971003
0.78,1.207914446756098,1.8634099482832684,1.8110431049038969,0.0731261467854316,0.0708206279966011,0.027515622131493,-0.6082127764307541,-0.6458862068438757,-0.785405504894571,1.208849596221233,1.865166349954888,1.8092509555728111,-0.8254303387361561,-0.8515217441121329,-1.0000721563540214,1.312568455632272,-0.3421447006449307,-0.5317303568783849,-1.150232925157102,9.161073961188777,-0.9632677683954104,0.0838933941756917,-1.0125143227241509
0.8,1.1956822901925477,1.8503806639410527,1.795068055303014,0.070279117526164,0.0760491613402022,0.0271086909122945,-0.6145504872346705,-0.6563826455043519,-0.8109527749702695,1.1775038079345603,1.831115637941075,1.7717728296591684,-0.7082127779208702,-0.7458862083339918,-0.8230751747313305,1.4168669760318915,-0.3168855401958215,-0.5248219330238113,-1.2773635037849285,9.101428891181968,-0.9575381619267636,0.0844891863651804,-1.0196245716517154
0.8200000000000001,1.1833882028696048,1.8371047701264112,1.778973442408205,0.0669100623757881,0.0800098196637028,0.0265699276552713,-0.6143959305951832,-0.6704199382305583,-0.7951324164853831,1.1775038079345603,1.831115637941075,1.7717728296591684,-0.7082127779208702,-0.7458862083339918,-0.8230751747313305,1.0575363083912714,0.0077278319743689,-0.7018646363103231,0.7910179242443194,9.032275192582349,-0.95925475820637,0.0863011694801889,-1.0187979807998002
0.84,1.1717195323218133,1.824252407190493,1.7640093625037558,0.0633432620333726,0.0819734724540219,0.025910420049427,-0.6140621802210048,-0.681636880451519,-0.7810588111257335,1.1775038079345603,1.831115637941075,1.7717728296591684,-0.7082127779208702,-0.7458862083339918,-0.8230751747313305,0.8999965971043916,0.0166875187089188,-0.5608471110480351,0.7036802679824816,11.643073386496326,-0.957079816437606,0.0898675178352703,-1.0196851156330813
0.86,1.1594394792552931,1.810513728573003,1.7484931361110054,0.0598297734816678,0.0823944943200764,0.0251347030577336,-0.6140825953697813,-0.6916173213879289,-0.7715442307017255,1.1704216801553515,1.823656775857735,1.7635420779118551,-0.7282127782188934,-0.765886208632015,-0.8306091086986824,0.6894506122783207,-0.0010207574388243,-0.4990220468204909,0.4757290212003995,10.931115814199984,-0.9567338016461604,0.0930135762049225,-1.0192743757186538
0.88,1.1471550751125164,1.796589240198377,1.7331132680477743,0.0568095093775382,0.0811081441219268,0.024303867718241,-0.6144901639363163,-0.7004074415301399,-0.7668929799898524,1.156257424596934,1.8087390516910549,1.7470805744172284,-0.7682127788149399,-0.8058862092280614,-0.8456769766333863,0.4976606711295148,-0.0203784283267505,-0.4395060071105516,0.2325625355936555,10.931115814199984,-0.9581342424642284,0.09533947995037,-1.0175754993521524
0.9,1.1348574033465832,1.7824981270678368,1.717790060374783,0.0543344287439361,0.0779875202656387,0.0234244342158924,-0.6154115867504301,-0.708370282683027,-0.7656469086566511,1.1420931690385168,1.793821327524375,1.730619070922602,-0.8082127794109863,-0.8458862098241079,-0.8607448445680901,0.4056123549520791,-0.046071140705689,-0.3981420576443573,0.0623035666600657,10.660788295945167,-0.96139386313028,0.0971005271070454,-1.0143691985179768
0.92,1.1231492390582236,1.7689699671475865,1.7032322098061583,0.0525048433703387,0.0731975883072567,0.0225450690416475,-0.6172624116984222,-0.7153729630765312,-0.766811639984118,1.125928913450297,1.7769036033278929,1.7134041740312402,-0.8482127800070328,-0.8858862104201544,-0.8758127125027939,0.3668095035125885,-0.0925412473996079,-0.3501340196752078,-0.0582365663733486,10.462681976119711,-0.9661066791918528,0.097978193413948,-1.010259895369484
0.94,1.110763236421713,1.7545913232173596,1.687881936413394,0.0512068532149333,0.0666113187300284,0.0216020462674192,-0.6215844468983904,-0.7221784168716116,-0.7681462628610467,1.1097646578620772,1.7599858791314107,1.6961892771398783,-0.8882127806030793,-0.9258862110162008,-0.8908805804374977,0.4085811053216947,-0.2161017599984105,-0.3402726897540176,-0.0667311438464324,10.31862361525964,-0.9724171759965492,0.0980473217529368,-1.0048925560068729
0.96,1.0982579017920744,1.7400717514057271,1.6725078985413822,0.0504727546363305,0.0593501827016424,0.0206805943289022,-0.6289758132380034,-0.7294250842795119,-0.7691809844281172,1.0926004022589564,1.7420681549200274,1.678597683550149,-0.9282127811991256,-0.9658862116122472,-0.9059484483722016,0.5201373222728075,-0.3695683169806507,-0.3623333703950182,-0.0517360783535258,10.335495727294983,-0.979397067290999,0.0976428538945154,-0.9987869821108296
0.98,1.0862142763595728,1.7261410623593407,1.657885582572022,0.0500494129645156,0.0526255272104643,0.0198457672157001,-0.6385306630350126,-0.736563644217285,-0.769948888084752,1.0744361466409342,1.7231504306937429,1.660629393262052,-0.968212781795172,-1.0058862122082937,-0.9210163163069054,0.5975865390352649,-0.4777424898504578,-0.3569279968886563,-0.0383951828317408,10.35021951827366,-0.9870095868290816,0.0970280156279644,-0.991922045331441
1.0,1.073317828489682,1.71132968555443,1.6424774480382,0.0497719336136277,0.0462893751734151,0.0190274110865141,-0.6507569169656623,-0.7441774979865015,-0.7708221120531702,1.054287743207822,1.6893128801484765,1.6193881381677844,-0.7385306645251287,-0.8365636457074012,-0.7512054922793931,0.7214821108225034,-0.6113126965324844,-0.3806926884608208,-0.0436611984209078,10.35021951827366,-0.994078851845517,0.0962719058214659,-0.9854982779858784
1.02,1.060132675430273,1.696299009198622,1.627317147141487,0.0479256448404231,0.0423141634943338,0.0182308587610341,-0.6674160871587855,-0.7580385234553215,-0.7437264588980529,1.054287743207822,1.6893128801484765,1.6193881381677844,-0.7385306645251287,-0.8365636457074012,-0.7512054922793931,1.7348129571175266,-0.832958509656162,-0.6930512734410033,1.3547826577558653,10.347540810773353,-1.0003135651130373,0.0962256403391884,-0.9804788599544292
1.04,1.0466029882230012,1.6810293145105824,1.612735190308257,0.044154171055696,0.0423635688325487,0.0175132823513293,-0.684236951800489,-0.7678304465031546,-0.7160641917950918,1.054287743207822,1.6893128801484765,1.6193881381677844,-0.7385306645251287,-0.8365636457074012,-0.7512054922793931,1.6911713880804309,-0.8410432320851757,-0.4895961523916525,1.3831133551480523,12.358068777948574,-1.0039239814287872,0.1002742017635456,-0.9748830922616628
1.06,1.0334597965835823,1.666374549348465,1.5993561614017924,0.0404610689642881,0.0450310688748796,0.0169512358238651,-0.6981123565437792,-0.7742885770143424,-0.6936004738294113,1.0469024365625708,1.6809472436914024,1.6118760832449903,-0.7585306648231519,-0.8565636460054243,-0.7474568131183214,1.359092464966324,-0.6937702371645094,-0.322906525559391,1.1231858982840293,12.108181412344493,-1.0042761912114793,0.1044473943564812,-0.9726458799077072
1.08,1.0193653715734623,1.6508354687010758,1.5857017338815391,0.0371373386568807,0.0493781651188677,0.0164654471141898,-0.7103432821613028,-0.7793498813782989,-0.6731654077151656,1.0321318232720682,1.6642159707772544,1.5968519733994029,-0.7985306654191984,-0.8965636466014708,-0.7399594547961779,1.21737860834211,-0.6115462808761796,-0.2530652181978232,1.0217533057122807,11.811852830388489,-1.0026374136488414,0.1079754590128389,-0.9727081410781104
1.1,1.0050492853871509,1.635206593352623,1.5724222714006917,0.0346194570573228,0.0543806212628673,0.0160629706561321,-0.7204583458215518,-0.7834063738882463,-0.6559350041294068,1.0173612099815657,1.6474846978631064,1.5818278635538148,-0.8385306660152448,-0.9365636471975172,-0.7324620964740343,1.0193827201574996,-0.5057531830124473,-0.202824625497372,0.8615201792879446,11.574797701038731,-0.999832670109428,0.1106219959310169,-0.974283039917564
1.12,0.9905512006063436,1.6195046230370602,1.5594589571767556,0.0329702761124026,0.0593816320887352,0.0157260249559269,-0.7287044551670577,-0.7867023064580626,-0.641368101123756,1.0005905966612607,1.628753424919156,1.567178621624334,-0.8785306666112913,-0.9765636477935636,-0.7249647381518907,0.85301839666395,-0.4123054672752979,-0.1647966284908153,0.7283451502825389,11.364773723365031,-0.9966969155612998,0.1123004001717989,-0.9765072989207751
1.14,0.97664207530031,1.6045349904111137,1.5474019386071016,0.0324047223244901,0.0636711247503328,0.0154686736718384,-0.7349578181209117,-0.7890516841527005,-0.6285195961874954,0.983819983340956,1.6100221519752056,1.5525293796948534,-0.9185306672073378,-1.0165636483896103,-0.7174673798297472,0.7240652644648249,-0.3126681476926962,-0.1174688847318972,0.6424252468130276,11.199910183448992,-0.9935638017795628,0.1130396579385221,-0.9789117753490008
1.16,0.9618817094544556,1.5887254704859917,1.5349694175247774,0.0328640601056448,0.0675302018592948,0.0152622884486436,-0.7406899272336305,-0.7918412023310192,-0.6154315366081521,0.9660493700057498,1.590290879016354,1.5380675717234262,-0.958530667803384,-1.0565636489856567,-0.7099700215076036,0.7279007317274195,-0.286605455635941,-0.1394759089159314,0.6544029789671668,11.147819320280178,-0.9908554627720988,0.1126958443035529,-0.981137480150627
1.18,0.9470141793940182,1.5728555999768477,1.522793697983954,0.034229583004814,0.0707617430121061,0.0151129680167816,-0.745744151220978,-0.7950769620482574,-0.6027997437461694,0.9472787566556424,1.5695596060426014,1.5237931977100527,-0.9985306683994304,-1.096563649581703,-0.7024726631854601,0.6992451500904702,-0.252711199367378,-0.1617879858619109,0.6315896430991341,11.12524579439014,-0.9888226257410946,0.1115530047030614,-0.9827505850815316
1.2,0.9320515068935942,1.5569136425535948,1.5108671574300876,0.0363070453693723,0.0734295077772146,0.0150087974481022,-0.7502492970720617,-0.7990234421493216,-0.5904902830393748,0.9097269718329694,1.5331017518744348,1.4926537107966455,-0.8092142317158587,-0.8950769635383735,-0.5371446389302095,0.6844593983936388,-0.2252572925541818,-0.1973240050532121,0.6154730353397309,11.085627387436034,-0.9875740303984888,0.1099417470426418,-0.9835732187568298
1.22,0.9177152835303154,1.5416147572892571,1.4999190051103328,0.0366170406361035,0.0772714586764306,0.0148550927686415,-0.7580369233951558,-0.8103070535484216,-0.5625073465272714,0.9097269718329694,1.5331017518744348,1.4926537107966455,-0.8092142317158587,-0.8950769635383735,-0.5371446389302095,1.5580530685718437,-0.3893813161547077,-0.5641805699549973,1.399146825605169,11.085627387436034,-0.9859119222828788,0.1089669452604161,-0.9856488429784726
1.24,0.9025016603020684,1.5253100650826823,1.4889835670510416,0.0342165501267395,0.0835541843860096,0.0145912100119387,-0.7625212978733146,-0.8193515738601125,-0.5325790454140567,0.9097269718329694,1.5331017518744348,1.4926537107966455,-0.8092142317158587,-0.8950769635383735,-0.5371446389302095,1.5792531222481423,-0.2242187239079374,-0.4522260155845448,1.496415055660738,12.30820807983855,-0.9835872430799792,0.1124627117841608,-0.9856732798470884
1.26,0.8872353453997913,1.5088616293664376,1.478627004789416,0.030548580858234,0.0906087677263906,0.0142601624471538,-0.7636228105106313,-0.8247317470748595,-0.5046743051615828,0.9016348295158108,1.524150982239051,1.4872822644073431,-0.8219082478148348,-0.9150769638363968,-0.5240136179670175,1.4220004592728528,-0.0550756318658363,-0.2690086607373521,1.3952370126236902,12.227763252341902,-0.979292596191312,0.1167096744368819,-0.987866136217264
1.28,0.871978831459416,1.4923397650573538,1.4688031525136622,0.0272080694867495,0.0973374532765769,0.0139340956987233,-0.7618555601754242,-0.8273511774258806,-0.4791167411294732,0.8854505448814937,1.5062494429682836,1.4765393716287392,-0.8472962800127871,-0.9550769644324432,-0.4977515760406335,1.287607925929438,0.0883625167603541,-0.1309715175510539,1.2778782016054813,12.061208570939016,-0.9746018798940372,0.1209416866336118,-0.9903220895883734
1.3,0.8575402185157631,1.4766097749073412,1.4599263727355585,0.024883304059494,0.1027567417904365,0.0136553563313002,-0.7580791082473636,-0.8285687306058811,-0.4565755135211856,0.8692662602471765,1.488347903697516,1.465796478850135,-0.8726843122107394,-0.9950769650284896,-0.4714895341142495,1.144389539230099,0.1888225964030321,-0.0608776590000248,1.127061380414382,11.910035113823142,-0.9704110047068112,0.1242107654974563,-0.9925503825742166
1.32,0.8424356936492257,1.4600352825292189,1.4510345806655818,0.0235431608301002,0.1070143626133798,0.0134090974269727,-0.7525763596118351,-0.8289626953864114,-0.4338422710828845,0.8518125740029617,1.468446364396946,1.45636668816785,-0.8980723444086917,-1.035076965624536,-0.4452274921878655,1.1696535411743545,0.2751374317764232,-0.0196982390265165,1.1366621219150552,11.796153440608578,-0.9671139304837116,0.1262927140811622,-0.994209138253502
1.34,0.8274528747276163,1.4434612476144004,1.442595294736635,0.0236734685036847,0.1095637426679259,0.0132368621583031,-0.7460568862873691,-0.8285802050047867,-0.411225544021046,0.8343588877587469,1.4485448250963764,1.446936897485565,-0.923460376606644,-1.0750769662205826,-0.4189654502614816,1.1770367181083992,0.3259736662233004,0.0191245190812372,1.130836353091924,11.738243546950798,-0.9652935650632056,0.1269792617101829,-0.9946634256526888
1.36,0.8126029146272823,1.4268898924906652,1.4346120209213724,0.0253556368640651,0.1104417919525131,0.0131461610633291,-0.7394335026501715,-0.8287430795573014,-0.3882346156513767,0.8162705007095833,1.4276432857809054,1.4381636578514396,-0.9488484088045962,-1.115076966816629,-0.3927034083350976,1.1963261744029294,0.3311691818598805,-0.0081437276257367,1.1495464184834658,11.769343452430803,-0.965040502375714,0.126248429659165,-0.9939177832069916
1.38,0.7986160213158073,1.4111330827749695,1.4274604941304077,0.0280933898189135,0.1099680837833404,0.0131147102466742,-0.7333249708554648,-0.8301874742544808,-0.3657082680042001,0.7975474128554709,1.4057417464505333,1.4300469692654738,-0.9742364410025484,-1.1550769674126753,-0.3664413664087136,1.1692270684619377,0.3054265897353359,-0.0722197348589692,1.1263173823588268,11.769343452430803,-0.9668044784217767,0.1245126603318689,-0.9911526159048708
1.4,0.7840148355852439,1.3944918667650863,1.420404338284925,0.0313041894307488,0.1082410168567665,0.0130730235139718,-0.7272121173490045,-0.8339555898736719,-0.3410416903044218,0.7619497727730341,1.3696237090622454,1.4091750807301977,-0.757568886309018,-0.9301874757445968,-0.2927824992115709,1.284528832617469,0.3056426753230146,-0.1884057809595551,1.2333288849889184,11.815574070253206,-0.9698264536566849,0.1225370036512116,-0.9871043160808473
1.42,0.769434964099281,1.3776879460997822,1.4137911972640007,0.0319200887280588,0.1082295373667286,0.0129097807347141,-0.7309410364229612,-0.8454605350264872,-0.3217489658587223,0.7619497727730341,1.3696237090622454,1.4091750807301977,-0.757568886309018,-0.9301874757445968,-0.2927824992115709,1.1385053985017988,-0.1864459536978335,-0.5752472576407652,0.964636222284973,11.87931392057817,-0.9661720772673292,0.1211757972165475,-0.9913188766492104
1.44,0.7548042089760727,1.3606943196528023,1.40757304435614,0.0291489491593548,0.1120961054005803,0.0126431586675783,-0.7314528458722832,-0.8529876866062375,-0.3009871868800174,0.7619497727730341,1.3696237090622454,1.4091750807301977,-0.757568886309018,-0.9301874757445968,-0.2927824992115709,1.1045037643411917,-0.0255904724661026,-0.3763575789875129,1.0380889489352452,11.577514154878372,-0.9658804149937992,0.1245518217150581,-0.9899862469667844
1.46,0.740931676533809,1.3444532317800002,1.402056340149011,0.0255049903696272,0.1175400443778841,0.0123714718866535,-0.7285194299237006,-0.8561168072923767,-0.2807691329241533,0.754374083909944,1.3603218343047994,1.406247255738082,-0.7624176693997287,-0.95018747604262,-0.2781973454530451,1.0333997667384756,0.1466707974291325,-0.1564560343069621,1.0109026977932034,11.663993105556074,-0.9624096871425432,0.1290148717230319,-0.9915709755483562
1.48,0.7264236165467377,1.327323439697038,1.396665684068138,0.0222103759930849,0.1238058027962759,0.0121326493910733,-0.7222059352444201,-0.8568486773768201,-0.2593765456054167,0.7392227061837636,1.3417180847899075,1.4003916057538506,-0.7721152355811499,-0.9901874766386666,-0.2490270379359933,1.1158389680813896,0.315674733964022,-0.036593504222171,1.0696293659368306,11.669021231645274,-0.9578831708633,0.133084502377309,-0.9940928081525836
1.5,0.7120732405310713,1.3101940627501418,1.39170072498562,0.0200766765532443,0.1295818155468945,0.0119639803598839,-0.7130824301859885,-0.8564080766843213,-0.2382168565533567,0.7240713284575833,1.3231143352750157,1.394535955769619,-0.7818128017625712,-1.030187477234713,-0.2198567304189416,1.1523507650682223,0.4561752529215812,0.0220300346249424,1.0579844526030016,11.671636779728033,-0.95311297407314,0.1360153382362998,-0.99704330792122
1.52,0.6979290273315276,1.2930824414256183,1.3871592265582815,0.0193073776401982,0.1341748043188447,0.0118740938129366,-0.7018333015985455,-0.8550426418034145,-0.2170105776124652,0.7084350724223318,1.3025105857303214,1.3901388211612402,-0.7915103679439924,-1.0701874778307594,-0.1906864229018899,1.2021996224730327,0.562456429372149,0.0682717440453395,1.0603139470445735,11.661357567955749,-0.9491056695218004,0.1376225527264377,-0.9994887342867034
1.54,0.6847147945467426,1.2768590935324036,1.3832395133030098,0.0202352817854308,0.1370697440407325,0.0118880469027756,-0.6898122077297796,-0.8530265469548439,-0.1966610462170681,0.6927988163870804,1.2819068361856272,1.3857416865528611,-0.8012079341254137,-1.110187478426806,-0.1615161153848382,1.1860383259536422,0.6010546934382965,0.1008047424285285,1.0174765697698551,11.674860328744217,-0.9460375347429998,0.1377064465316984,-1.0011881619978973
1.56,0.6710573771055662,1.2598132790989516,1.3795383032022108,0.0229922274740926,0.1384918868798755,0.0120073242142231,-0.6766577346803686,-0.8519547278706961,-0.1744945975581132,0.6769201211972935,1.260303086626032,1.382073809632409,-0.8109055003068351,-1.1501874790228523,-0.1323458078677865,1.2899034881599707,0.6577236524705488,0.0535909542073886,1.108322432947742,11.697137730729082,-0.9448847374027703,0.1362333471612881,-1.0011478293885585
1.58,0.6576664867606654,1.2427587138171947,1.37629172280491,0.0266672327590186,0.1383037568881891,0.0121621553564781,-0.6632569432533698,-0.8537715035318537,-0.1512641434452229,0.660798986852971,1.2376993370515352,1.3791351903998827,-0.8206030664882563,-1.1901874796188987,-0.1031755003507348,1.3440013792440868,0.6700395713499396,-0.0908387830578782,1.1615227056445174,11.752988722975717,-0.9470443144055658,0.1347336580570705,-0.9971577113976436
1.6,0.6445431247023088,1.2256439339171894,1.373522623269202,0.0301552808366156,0.1365403482011155,0.0122636368679901,-0.6499028582840178,-0.8575732358162252,-0.1267832730313159,0.6245036395979969,1.200070138640602,1.368728515632649,-0.6580522796414213,-0.9537715050219698,-0.1052470628997975,1.4072115778670355,0.6677042484675988,-0.1900866142185764,1.2240435206953504,11.894655749360936,-0.9514773457769046,0.1342132308946701,-0.9902284155679234
1.62,0.6322191412415178,1.209233374946367,1.3711725562601365,0.0305489697373556,0.1358213513449217,0.0121891534128472,-0.6476622224918943,-0.8683923105015632,-0.121798765844292,0.6245036395979969,1.200070138640602,1.368728515632649,-0.6580522796414213,-0.9537715050219698,-0.1052470628997975,0.6060489619192455,0.1120317896061762,-0.5409537342668969,0.2492253593511947,11.894655749360936,-0.949309400756869,0.1347668035493203,-0.9907534637556517
1.64,0.6193103347115225,1.1917963251705967,1.368807742031015,0.0276899316333151,0.1379289227839326,0.011981067959389,-0.6429757977014087,-0.8744594123288502,-0.1147503277902186,0.6245036395979969,1.200070138640602,1.368728515632649,-0.6580522796414213,-0.9537715050219698,-0.1052470628997975,0.5207033246044663,0.2343212395242822,-0.303355091364349,0.3524219027036708,10.67366936773942,-0.9484454611190308,0.1379820160605799,-0.9904728194549682
1.66,0.6065245373966964,1.1742837107098951,1.3666061701357064,0.0240251725214856,0.1416101465094352,0.0117677473907122,-0.6356093696100997,-0.8764582089408228,-0.1057854629626522,0.6179231168015827,1.1905324235903825,1.367676045003651,-0.6570113469190316,-0.973771505319993,-0.0960436467907124,0.5887024972280044,0.368321404565447,-0.0999398305986332,0.4482432413783183,10.834614247483842,-0.9461797203729236,0.1421136100721629,-0.991031498556916
1.68,0.5945386168612379,1.1576354680403425,1.3646908794818535,0.0211991651609837,0.1456337560207272,0.0116272533678174,-0.6263157611877508,-0.8761684467426927,-0.096293419710004,0.6047620712087542,1.171456993489943,1.365571103745655,-0.6549294814742522,-1.0137715059160397,-0.0776368145725422,0.6643681297849209,0.4646804211174471,0.0144881099065075,0.474602162632412,10.925401296640302,-0.943345525457405,0.1461244024298273,-0.9918031519738206
1.7,0.5821342100870034,1.140128128716203,1.362878823575736,0.0194170412360143,0.1496921749279031,0.0115647919378707,-0.6145070297885241,-0.8748005366223583,-0.0853811080153464,0.5916010256159259,1.1523815633895036,1.3634661624876592,-0.6528476160294728,-1.0537715065120858,-0.0592299823543721,0.8068392991757334,0.5904365699613334,0.0683955060167162,0.5456155847328787,10.984672968766972,-0.9405325248762696,0.1491650566443784,-0.992522494283756
1.72,0.5699846790953713,1.122656866693143,1.3612945865395305,0.0191840786016144,0.153036367961668,0.0116068403620225,-0.6010010918928393,-0.8725672560532718,-0.0735567293083218,0.5785440732953364,1.1313061332592618,1.3622815628405718,-0.6507657505846934,-1.0937715071081322,-0.0408231501362019,0.9044526415870132,0.6752968947842386,0.1116640284543279,0.59121893535123,11.1079607850088,-0.9382713988626884,0.1509376029686832,-0.9927415145229718
1.74,0.5581185782564533,1.105238000931047,1.3599517425687209,0.0209719199678664,0.1552921825615269,0.0117822303587051,-0.5863721250821602,-0.8697679548637415,-0.0613237489369582,0.565487120974747,1.1102307031290202,1.3610969631934842,-0.648683885139914,-1.1337715077041788,-0.0224163179180317,0.9637019324768232,0.7314483405339578,0.1399650594765156,0.6116490185681802,11.1079607850088,-0.9370415237059272,0.1510292370883611,-0.9922013281920252
1.76,0.5471229572755187,1.0887246686724337,1.3589090042015055,0.0243083822477454,0.156301255863525,0.0120505012817161,-0.5719066375389151,-0.8691063893895411,-0.0490492735872017,0.552482215290277,1.0881552729838773,1.360372534351851,-0.6466020196951346,-1.1737715083002251,-0.0040094856998615,0.9491453311429846,0.723274377162253,0.0330782737100188,0.613723767487822,11.131440670283157,-0.9374313115925774,0.149551230409408,-0.9903290497798636
1.78,0.5358471810351739,1.0713227082270524,1.3580741138403136,0.0282198309561923,0.1561938935142962,0.0123388535493389,-0.5565234263193651,-0.8712252171610784,-0.0350242680371912,0.5395293562419265,1.065079842823833,1.360108276315672,-0.6445201542503552,-1.2137715088962715,0.0143973465183085,1.0462234455752677,0.7691605609774999,-0.1059413885768634,0.7012502775005286,11.174395699727938,-0.9387989406603944,0.1477036798099293,-0.9875688413763476
1.8,0.5248794368190007,1.0538587103139032,1.357531968681362,0.0317460455388738,0.1549265582586096,0.0125690507650057,-0.5410936598808309,-0.8750324935729572,-0.0198304880996367,0.5080210097192057,1.0277614473689984,1.356322900438454,-0.5371788897317692,-0.9712252186511944,0.0095370919941751,1.0993452537931367,0.771488321926711,-0.1903638205939417,0.7596889968777233,11.24733914589524,-0.9415929566369916,0.1463748881662959,-0.9832432987921228
1.82,0.514172284046344,1.0362239768192374,1.357193175048156,0.0317946094164633,0.1534086309236631,0.0125522815722286,-0.5304425981273981,-0.8868075501191289,-0.0147735470894383,0.5080210097192057,1.0277614473689984,1.356322900438454,-0.5371788897317692,-0.9712252186511944,0.0095370919941751,0.8331712391843689,0.5325530876716389,-0.5887528273085862,0.2528470505099206,11.315603587174335,-0.9422073371170916,0.1473108036602986,-0.981298367732238
1.84,0.5041963525074227,1.0193088897685276,1.356979178637527,0.0284372333657973,0.1525886984466013,0.0123339600611806,-0.5201384597780442,-0.8926718674252424,-0.0079583519224717,0.5080210097192057,1.0277614473689984,1.356322900438454,-0.5371788897317692,-0.9712252186511944,0.0095370919941751,0.6837623303335265,0.5152069174676976,-0.2932158653056738,0.3407597583483305,10.682922007395064,-0.9430658288045992,0.1511408404710514,-0.9791883538224462
1.86,0.4939109951318412,1.001437593985787,1.3569107006651446,0.0242407613631495,0.1521255707069388,0.0120902339203394,-0.5089144330843313,-0.8941244347787916,0.0008145224749466,0.502649220821888,1.0180491951824866,1.356418271358396,-0.53330998241425,-0.9912252189492176,0.0184493640004484,0.7159819347069037,0.5612013346856459,-0.0726283676774575,0.4386437198709206,10.825590479534185,-0.9441141243870692,0.1560444087370631,-0.97632020634684
1.88,0.4838539011898918,0.9835650905422506,1.357029208441541,0.0209170492319887,0.1518735445651529,0.0119326182623715,-0.4973443259309446,-0.8932778485317343,0.010631669751846,0.4919056430272526,0.9986246908094626,1.356609013198279,-0.5255721677792117,-1.0312252195452642,0.0362739080129949,0.7598691803048879,0.5785053576693344,0.0423293123528623,0.4908573638449682,10.909568822145957,-0.9453293260293384,0.1604040696042634,-0.9731266371053572
1.9,0.4740318202485247,0.965723189670832,1.3573543977712128,0.0190057702721796,0.1516521984566202,0.0118915120299941,-0.4854595853213617,-0.8913523396181404,0.0213927770203534,0.4811620652326173,0.9792001864364388,1.3567997550381627,-0.5178343531441733,-1.0712252201413106,0.0540984520255414,0.8073971661730679,0.5942370304791417,0.0962754456796943,0.5380553634253714,10.963298323120398,-0.946558193525586,0.1634968434642067,-0.9700501452176608
1.92,0.4649234634617225,0.9488161055616772,1.3578717500811597,0.0186968553804698,0.1513474182073194,0.011969039229395,-0.4739396364982546,-0.8887167753153549,0.0325299893546559,0.4708053781697338,0.9577756820336124,1.3578817240786736,-0.5100965385091348,-1.111225220737357,0.071922996038088,0.8119312142362555,0.575997441155357,0.1317782151392776,0.5568606167151232,11.06812106313282,-0.9479064295201032,0.1654609677892865,-0.9668559798809548
1.94,0.4555729600853213,0.9310778087220308,1.3586523225631326,0.0203396782072506,0.1508495166020916,0.0121945644883231,-0.4617460855410263,-0.8854758965180491,0.0449783147179343,0.4604486911068503,0.9363511776307862,1.3589636931191844,-0.5023587238740965,-1.1512252213334035,0.0897475400506345,0.8862093215987237,0.6096775478614147,0.1620439398652862,0.6224162681639177,11.06812106313282,-0.9494788957727356,0.1657520245813798,-0.9636133183856588
1.96,0.446467633881732,0.9133877338514802,1.3596909877012329,0.0238419288424637,0.1501005962250134,0.0125491625987924,-0.4494598183800857,-0.8842474476152248,0.0582697745984278,0.4502854494098428,0.913926673213059,1.3604912757600087,-0.4946209092390581,-1.19122522192945,0.1075720840631811,0.9070892365302716,0.6143133580470306,0.0614224451412181,0.664572994024679,11.108810866421663,-0.9520906626562956,0.1646814338368874,-0.9595658521105572
1.98,0.437608086998499,0.8956859390045017,1.3610061816738488,0.0277666235966697,0.1490564334339295,0.0129260449600977,-0.4371873966071724,-0.8860545552952033,0.0725954403570324,0.4403156530787113,0.8905021687804304,1.362464472001147,-0.4868830946040197,-1.2312252225254965,0.1253966280757276,0.947500229243466,0.6136210886456661,-0.0903553839989246,0.716283287930226,11.212129339780404,-0.9548184619851124,0.1629724308621232,-0.9556217131296016
2.0,0.4294175637369539,0.8788177248207376,1.3625304858992444,0.0310942590290647,0.1477863457058704,0.0132467767087169,-0.4256621008190981,-0.8893573922493196,0.0871538275999613,0.4157487171681404,0.8513832112397415,1.3646359536917003,-0.4106612453822015,-0.9860545567853194,0.1140038040867477,0.9429843769426356,0.5762647894037132,-0.1651418477058186,0.7279193621464487,11.212129339780404,-0.9577563301478288,0.1617066295399317,-0.9513182169043664
2.02,0.42100384732961,0.8609103197951882,1.3643387106324452,0.0314321252689999,0.1465409806248021,0.0133685002360363,-0.4164142937562364,-0.9003430922123951,0.0924243125700629,0.4157487171681404,0.8513832112397415,1.3646359536917003,-0.4106612453822015,-0.9860545567853194,0.1140038040867477,0.764829312609513,0.4623903531430828,-0.5492849981537706,0.2635242485050807,11.269605455321653,-0.9596086341200072,0.1633511784176829,-0.9473544722215822
2.04,0.4127720262641015,0.8428345420552013,1.3662515002517452,0.0280337816734996,0.1457204148287252,0.0132576706002966,-0.4071947981735197,-0.9061519824195606,0.0987688070526836,0.4157487171681404,0.8513832112397415,1.3646359536917003,-0.4106612453822015,-0.9860545567853194,0.1140038040867477,0.6304659278633564,0.4609747791358365,-0.2904445103582787,0.3172247241310322,10.611611533013274,-0.9599310029637134,0.1666601032802309,-0.9459851346431952
2.06,0.4047260178856262,0.8246986579331936,1.3683087315528153,0.0239339723505601,0.1452238865568181,0.0131269250667351,-0.3978504243578817,-0.907194990271887,0.1066282341460382,0.4116421047143184,0.8415226656718883,1.3657759917325678,-0.4053560151372073,-1.0060545570833426,0.1222854768326908,0.6127311433698956,0.4672186907819009,-0.052150392616318,0.3929713546677288,10.733812235273945,-0.960659538795922,0.1711738508976919,-0.9436565979409391
2.08,0.3972567535772729,0.8074766415296284,1.3704172563167245,0.0208808556612347,0.1449769512357703,0.0130840250787454,-0.3888413817639609,-0.9059364842864768,0.1149223362421334,0.4034288798066743,0.821801574536182,1.3680560678143028,-0.394745554647219,-1.0460545576793892,0.1388488223245769,0.6155055145058516,0.4504521296960412,0.0629252992705164,0.4147051048047634,10.802614136423472,-0.9616134300192178,0.1752193995927502,-0.9409272881406684
2.1,0.3895811195437612,0.7893843887675218,1.372815488757788,0.0190308498791868,0.1448741893831567,0.0131523926737827,-0.3791809887539802,-0.9036136711737114,0.1245007012040909,0.3952156548990303,0.8020804834004756,1.3703361438960378,-0.3841350941572307,-1.0860545582754355,0.1554121678164631,0.6900429863576812,0.4830196504990308,0.1161406556382638,0.4789182480978725,10.898408979100168,-0.9625353845134874,0.1781923534334859,-0.9382892674706076
2.12,0.3821013300915981,0.7713485957784325,1.3754149213008835,0.0189354156273855,0.1448448264963277,0.0133567258368911,-0.3692804061432267,-0.9004134728640873,0.1349613346276286,0.3875329530158857,0.7803593922349669,1.373444387252367,-0.3735246336672424,-1.126054558871482,0.1719755133083492,0.7377120997972535,0.4950291305376747,0.1600099154812018,0.5230316711768851,10.94568758341302,-0.9633264937621316,0.1797965167507567,-0.9359098004844012
2.14,0.375180752439798,0.754277945006617,1.3780835326769547,0.0207964361591145,0.1448013137337368,0.0136943745630226,-0.3597050279406294,-0.8969681479010121,0.145424369612894,0.379850251132741,0.7586383010694581,1.376552630608696,-0.362914173177254,-1.1660545594675285,0.1885388588002354,0.7297829008116976,0.4787689101298675,0.1722662481537629,0.5231517492632717,10.94568758341302,-0.9642588175492056,0.1798712170226584,-0.9334968421192326
2.16,0.3680949268980007,0.7363578492047186,1.3811149093882715,0.0244960538704209,0.144653459611946,0.0141727377609072,-0.3493893023917063,-0.8957575453507276,0.1571964702453574,0.3724328107618462,0.7359172098890483,1.3800749576023226,-0.3523037126872657,-1.2060545600635748,0.2051022042921215,0.7849555806482073,0.5157862774461563,0.0605301275142244,0.5886050316231697,10.974665526668105,-0.9660097317086836,0.178288575406959,-0.9308103000084048
2.18,0.3612178805584617,0.7184261122866691,1.384391251210104,0.0285008866028363,0.144315274428034,0.0146682390054693,-0.3388560521933932,-0.8975330894066508,0.16989331982512,0.365280631903201,0.7121961186937372,1.3840113682332462,-0.3416932521972774,-1.2460545606596212,0.2216655497840076,0.8296262798481968,0.5266625099156513,-0.0887772027961586,0.6348424789881304,11.019070976863986,-0.9675492453266124,0.1765302175365647,-0.9284195737392266
2.2,0.3545530201512062,0.7004393476726766,1.3879316538528663,0.0319867882439812,0.1437203751353829,0.0151194590611618,-0.3282160675534795,-0.90093009624492,0.1835166668679828,0.3442750779487921,0.6735494578163366,1.39288591720136,-0.304694983694305,-0.9646790554000552,0.1789484490774942,0.8808298831884709,0.5319992319956862,-0.1698503419134578,0.6811673521431402,11.07525725711912,-0.9688156509822916,0.1749140056497254,-0.9263443703418326
2.22,0.3483801254743028,0.683104036260651,1.3913863100804655,0.0287659393856462,0.1434158549756498,0.0151054781937698,-0.3220105469999699,-0.9202557653987238,0.1795518854809738,0.3442750779487921,0.6735494578163366,1.39288591720136,-0.304694983694305,-0.9646790554000552,0.1789484490774942,1.0340568952300075,0.3102760276754795,-0.9662834576901924,-0.1982390693504532,11.127531375543184,-0.9696490527260718,0.1800691444211474,-0.9221456658898444
2.24,0.3420086605272525,0.6646320967500708,1.3949424887603386,0.0190781812041743,0.1438002979832613,0.0146917661621358,-0.3153727636571163,-0.9250279702441812,0.1764192363233641,0.3442750779487921,0.6735494578163366,1.39288591720136,-0.304694983694305,-0.9646790554000552,0.1789484490774942,0.4377430683013264,0.3318891671426793,-0.2386102422728686,-0.1566324578804831,10.068603018747126,-0.9671024891784856,0.1881742859209464,-0.9232257285721344
2.26,0.3357731072690684,0.6461616811576525,1.3984411137646664,0.0091081231445167,0.1447804344609589,0.0142897127109103,-0.3084176323157846,-0.9219224077206482,0.1735726441816836,0.341228128111849,0.663902667262336,1.3946754016921348,-0.2978627699944873,-0.978108248598736,0.180759474927969,0.4065755076976016,0.3477565670665872,0.15527812617665,-0.1423296070840254,10.147603799885474,-0.9654148224327436,0.1964176585531089,-0.9232347823444084
2.28,0.3299826660310885,0.628714521955219,1.401710856238571,0.0013034885464801,0.1461127737997029,0.0140414380512842,-0.3013705865627777,-0.9152731187313616,0.1707362302616299,0.3351342284379629,0.6446090861543349,1.3982543706736847,-0.284198342594852,-1.0049666349960975,0.1843815266289187,0.5047750534492912,0.3523522876503454,0.3324644494643258,-0.1418206960026841,10.147603799885474,-0.9636059665157184,0.2038374623120711,-0.9233585308191772
2.3000000000000003,0.3240382714825562,0.6105022747453294,1.4050954849101709,-0.0046803139678275,0.1477760393772187,0.0139473556418561,-0.293363114838977,-0.9067026116651958,0.1678771856477742,0.3290403287640768,0.6253155050463338,1.4018333396552347,-0.2705339151952167,-1.0318250213934594,0.1880035783298684,0.6036292961799536,0.4003735861900337,0.42852535330829,-0.1429522306927846,10.144533851170308,-0.961676213863992,0.2093722214842193,-0.9239600922785868
2.32,0.3182616749146835,0.592471851658683,1.40842749150983,-0.0083811099050782,0.1495381135420888,0.0140227218342963,-0.2846362291444543,-0.89738135826911,0.1654612731677152,0.3236296504601725,0.6046790046184646,1.405593411221832,-0.2568694877955814,-1.0586834077908212,0.1916256300308181,0.649770982559645,0.4363442847261339,0.4660626698042902,-0.1207956240029506,10.160356490636332,-0.959739357039652,0.2130372817113605,-0.924932797593684
2.34,0.3126664307958677,0.5746291828116024,1.4117121338586711,-0.0101230558733585,0.1512344564953628,0.0142460596634647,-0.2752856515633178,-0.8878152080534291,0.163121319903584,0.3182189721562681,0.5840425041905954,1.4093534827884295,-0.243205060395946,-1.0855417941881829,0.1952476817317677,0.6790064659635886,0.4675288790568277,0.4783075107840484,-0.1169976632065597,10.199481206681412,-0.9577866823135815,0.2150815350128103,-0.9261709347168868
2.36,0.3075313027802059,0.557852280779662,1.414792545638489,-0.01020465453611,0.1526234444358854,0.0145802646413596,-0.2657210397878516,-0.878870569755398,0.1612491008972684,0.3131499045373547,0.5627345441027922,1.4132041056475506,-0.2295406329963107,-1.1124001805855448,0.1988697334327174,0.6614256509721989,0.4782305887733068,0.4472319149015524,-0.0936109503157825,10.224891071095954,-0.9559749399408778,0.2158384771265704,-0.9275520385761856
2.38,0.302327685851633,0.5403734916396667,1.4180025144395665,-0.0087163011131811,0.1537122538277634,0.0150553804897655,-0.2551405254684203,-0.8696284733587353,0.1598768831486428,0.3084224476034322,0.5407551243550549,1.4171452797991957,-0.2158762055966754,-1.1392585669829065,0.202491785133667,0.7057737077465767,0.529025715971565,0.4621048198331368,-0.0686108874312779,10.263676234553714,-0.9544961914274228,0.2152506579509543,-0.9288700665157892
2.4,0.2973410990516159,0.5230726074528312,1.4211944899978828,-0.0056824152010665,0.1543231927719222,0.0156498901687836,-0.2440904352112797,-0.8613577512412719,0.1593943585562515,0.289570659578212,0.4968920679717299,1.4259963585969986,-0.2288815446130746,-0.8702172782496026,0.181342326223346,0.6905471906711274,0.5525045128570313,0.413536105873169,-0.0241262296195671,10.312244979098978,-0.953892817156306,0.2135079181463159,-0.929572726225173
2.42,0.292852819598238,0.5065158269142488,1.424210973132978,-0.0102375759373675,0.1531061166769389,0.0157177797717136,-0.2291435957614237,-0.8770422569345,0.1581487015393599,0.289570659578212,0.4968920679717299,1.4259963585969986,-0.2288815446130746,-0.8702172782496026,0.181342326223346,1.0850845471487551,0.7473419724928001,-0.7842252846614051,-0.0622828508445791,10.312244979098978,-0.9591344997769224,0.2178311730881759,-0.9235001354693808
2.44,0.2884263949516276,0.4889799118363105,1.4273684335078565,-0.0228591305542197,0.1485903293769314,0.015340304895776,-0.2146620114922743,-0.8745470934079806,0.1577344077650187,0.289570659578212,0.4968920679717299,1.4259963585969986,-0.2288815446130746,-0.8702172782496026,0.181342326223346,0.7350404126645116,0.7240792134574708,0.1247581763259675,-0.0207146887170578,10.269635745255982,-0.9604010605745692,0.2290433218382787,-0.9190257701684162
2.46,0.2842507240535868,0.4716144450226888,1.430516181472811,-0.0361421428509951,0.1418366682588557,0.0150856648755663,-0.2040163019176125,-0.8621560815832015,0.1570819289663247,0.2872818441320813,0.4881898951892339,1.427809781859232,-0.2236297484420055,-0.8703350392277761,0.1856354148382867,0.8174564743345811,0.5322854787330911,0.6195505912389598,-0.0326239399347019,10.29883970163428,-0.9645401754721448,0.2407001396151829,-0.9108755761527204
2.48,0.2804425795870001,0.455402003878597,1.4334914467982265,-0.0469168915525794,0.134787281278307,0.0151170637876613,-0.1975470469070607,-0.8455371377971226,0.1561681619618718,0.2827042132398198,0.4707855496242419,1.431436628383699,-0.2131261560998672,-0.870570561184123,0.194221592068168,0.892854303756813,0.323462750527588,0.8309471893039433,-0.045688350222646,10.258144433492816,-0.97034600894509,0.2514012396125065,-0.9009419951439964
2.5,0.2765342763340939,0.438701361643582,1.4366056181754132,-0.0556864712695239,0.1278319922103127,0.0154161088374589,-0.1937698205744631,-0.8257972277538926,0.155334830691785,0.2781265823475583,0.4533812040592498,1.435063474908166,-0.2026225637577289,-0.8708060831404699,0.2028077692980492,1.0057657882034257,0.1888613166298777,0.9869955021614972,-0.0416665635043361,10.258144433492816,-0.97629208075912,0.2598247588535919,-0.8913475799770436
2.52,0.272672886223876,0.4224105835023673,1.4397070593932848,-0.0618522558548787,0.1222109344447233,0.0159013657494571,-0.1927220368864184,-0.804716909074467,0.1549033656304014,0.2740741310724037,0.4359650823964405,1.439119630294127,-0.1921189714155906,-0.8710416050968168,0.2113939465279305,1.0555375980777142,0.0523891844022378,1.054015933971281,-0.0215732530691833,10.270478909284066,-0.980897837462821,0.2658669167585227,-0.8840033309582684
2.54,0.2688040010407827,0.4065491347509281,1.4428066806737576,-0.0656368135070574,0.1189222005425635,0.0164551595434628,-0.1942439367181636,-0.7831058388009071,0.1551227465318172,0.2700216797972491,0.418548960733631,1.443175785680088,-0.1816153790734523,-0.8712771270531637,0.2199801237578118,1.0832851257246598,-0.076094991587261,1.0805535136779951,0.0109690450707897,10.30181904129222,-0.9833416017924954,0.2696960399498541,-0.8797827785294225
2.56,0.2650910367754053,0.3918807548935539,1.445762480187062,-0.067444953624782,0.1185573825841569,0.0169468726765378,-0.1961399987886414,-0.7624284190822551,0.1560311527875175,0.266231818330648,0.401126951021913,1.447446595496796,-0.171111786731314,-0.8715126490095108,0.2285663009876931,1.0392015438809243,-0.0948031035238897,1.0338709859326,0.0454203127850175,10.381504408547698,-0.9848987935941612,0.2724310925211977,-0.8766639936733175
2.58,0.2611622375469974,0.3768649882508252,1.448900001741817,-0.0676526810497025,0.1204477855673842,0.0174415822777638,-0.1963824469181409,-0.7404067028222608,0.1577179286628583,0.2627045466726003,0.3836990532612863,1.451932059744251,-0.1606081943891757,-0.8717481709658577,0.2371524782175744,1.104377631275672,-0.0121224064749764,1.1010858129997136,0.08433879376704,10.381504408547698,-0.9842944284661904,0.2739422526794732,-0.8761128897475331
2.6,0.2572499757065551,0.3622965152445074,1.45207990655382,-0.0658336401369312,0.1237667688359679,0.0179922932920987,-0.1946067497008878,-0.7178671025297242,0.1602050811756426,0.2513431152010904,0.3398446531097122,1.45678589817496,-0.1661850463184228,-0.7028120156286287,0.1839620083570102,1.137291310061464,0.0887848608626576,1.1269800146268327,0.1243576256392153,10.461489597108084,-0.9825288084310132,0.2740780911779864,-0.8770866609030705
2.62,0.2535855689721116,0.3487434919852251,1.4550814609357194,-0.066000342920836,0.1272684362916633,0.0183714009252106,-0.191184556412802,-0.7085316272972684,0.1555154141127892,0.2513431152010904,0.3398446531097122,1.45678589817496,-0.1661850463184228,-0.7028120156286287,0.1839620083570102,0.5496714515900105,0.1711096644042897,0.4667737616227907,-0.2344833531426712,10.461489597108084,-0.9808369454024856,0.2757159105411676,-0.8774464532602032
2.64,0.2498105852590905,0.3347190410049214,1.4581513696936557,-0.0700050182058853,0.1306739808230486,0.0185259862924488,-0.1864255076904001,-0.6935606471732902,0.1517856886467586,0.2513431152010904,0.3398446531097122,1.45678589817496,-0.1661850463184228,-0.7028120156286287,0.1839620083570102,0.8072943122967933,0.2379524361200966,0.7485490061989064,-0.186486273301531,9.970288329333926,-0.9765868799186012,0.2797329533768795,-0.8806897348271551
