t,x,y,z,roll,pitch,yaw,v_x,v_y,v_z,ref_x,ref_y,ref_z,ref_v_x,ref_v_y,ref_v_z,a_com,a_x,a_y,a_z,thrust,wind_x,wind_y,wind_z
0.0,1.6253800391991449,-1.7654337654122871,2.329380885317884,0.0235200687340283,0.099488082138106,0.042079332312062,0.0041060894586254,-0.0054024219623755,0.0049118554427777,1.6255113380757629,-1.7656519242070532,2.329532917889989,-0.0957959671276301,0.0933725075582254,-0.0451953841400459,0.4188450118854775,0.2053044729312724,-0.2701210981187799,0.2455927721388859,10.252761032600574,-0.9415589008064436,0.259196026706485,-0.8762050842574141
0.02,1.6256371831698735,-1.7657734694910974,2.329383707078979,0.0137911426788114,0.0937994589323878,0.0413072582290454,0.0208813941069831,-0.0242123772763683,-0.0048822296696399,1.6255113380757629,-1.7656519242070532,2.329532917889989,-0.0957959671276301,0.0933725075582254,-0.0451953841400459,1.3519886909187668,0.8387652324178856,-0.9404977656996364,-0.4897042556208825,10.252761032600574,-0.9490537181227576,0.2614954544482015,-0.873610525557236
0.04,1.6261686371240405,-1.766257572941088,2.329150933243267,-0.0027469895670939,0.0779531137721768,0.0401337801854074,0.0299736541715019,-0.022489483010988,-0.0179428274029425,1.6255113380757629,-1.7656519242070532,2.329532917889989,-0.0957959671276301,0.0933725075582254,-0.0451953841400459,0.8003386328324933,0.4546130032259386,0.0861447132690165,-0.6530298866651327,9.722317467595076,-0.9560744001053012,0.2773441123888897,-0.8572209707519209
0.06,1.6267639715002498,-1.766625339422479,2.32865631816939,-0.0196178798793381,0.0562630064223687,0.0393363574914514,0.0280407041631545,-0.0140073306625796,-0.0308190200060185,1.6245533784044863,-1.7647181991314709,2.3290809640485883,-0.1157959674256533,0.1133725078562486,-0.0552157809984997,0.7769805984512845,-0.0966475004173676,0.4241076174204184,-0.6438096301537957,9.469345296944084,-0.9684889648961073,0.290742709074213,-0.8372399101389782
0.08,1.627193524525565,-1.7667828919384445,2.327954706759532,-0.0350072479285566,0.0339365187116254,0.0390718741380803,0.0166838866231909,-0.0027065061627589,-0.0424052718205577,1.622637459061934,-1.7628507489803065,2.328177056365788,-0.1557959680216998,0.1533725084522951,-0.0752565747154072,0.9885939132445706,-0.5678408769981822,0.5650412249910317,-0.5793125907269606,9.457698236952638,-0.985200867273276,0.3031291054213942,-0.8129228109941575
0.1,1.6273245609302345,-1.7666872835525815,2.326982722666889,-0.050431031409482,0.0114135060855449,0.0392408346039896,-0.003515626201751,0.0120015506641875,-0.054194245199136,1.6207215397193813,-1.7609832988291418,2.3272731486829867,-0.1957959686177462,0.1933725090483415,-0.0952973684323147,1.3814187881581312,-1.0099756412470986,0.7354028413473265,-0.5894486689289158,9.552479296608,-1.003089544937263,0.313828312612155,-0.7876769935254807
0.12,1.626971925354997,-1.766253174459005,2.325778598577328,-0.0645891885598382,-0.0080705814761992,0.0397267758525505,-0.0308112584957281,0.0306366715058842,-0.0656583389141356,1.6168056203470265,-1.757115848648175,2.3253672013143403,-0.2357959692137926,0.233372509644388,-0.1153381621492222,1.7491031386248652,-1.3647816146988556,0.931756042084838,-0.5732046857499825,9.552479296608,-1.0197934835119196,0.3227926610155605,-0.7641276439814556
0.14,1.6260811507357944,-1.7654600785595127,2.324421907419301,-0.0762511472944944,-0.0226933923447449,0.0403327386997505,-0.0614528270934558,0.0516025775673053,-0.0765708944618785,1.6128897009746714,-1.7532483984672085,2.3234612539456942,-0.2757959698098391,0.2733725102404345,-0.1353789558661297,1.934915251172617,-1.5320784298863863,1.0482953030710502,-0.5456277773871406,9.667813237404516,-1.0330577567309522,0.3292620366703982,-0.7460084669730952
0.16,1.6244782059312604,-1.7641687807231698,2.322768601440719,-0.0862566304388124,-0.0334195212346417,0.0409580344890426,-0.0972375575911582,0.0761045081026318,-0.0881621755648251,1.607973781587415,-1.7483809482713404,2.321054286734125,-0.3157959704058856,0.3133725108364809,-0.1554197495830372,2.244576426833518,-1.7892365248851207,1.225096526766328,-0.5795640551473323,9.667813237404516,-1.0432478334362292,0.3339415176763338,-0.733234364858996
0.18,1.6221242965630849,-1.762368932248722,2.320883861334319,-0.0937842627455448,-0.0385980550950355,0.0413769862433075,-0.1362893607534824,0.1022487717733024,-0.0996763858038047,1.602057862185258,-1.7425134980605712,2.3181462996796336,-0.355795971001932,0.3533725114325273,-0.1754605432999447,2.419267911237757,-1.9525901581162088,1.307213183533528,-0.5757105119489805,9.714210509828265,-1.0495231443771011,0.3366763385712147,-0.7270746153893528
0.2,1.6189843038890936,-1.7600343121270794,2.318774637443244,-0.0988960255424448,-0.0378550228625989,0.0414398290630302,-0.1749876101897989,0.1293253510353947,-0.1105252268958331,1.6153098285254106,-1.7572564936600568,2.3159000420441287,-0.2362893622435986,0.2022487732634185,-0.1429890434282878,2.4230110436251726,-1.934912471815825,1.3538289631046134,-0.5424420546014191,9.772194635413143,-1.0526612593509157,0.3368396908220246,-0.7278584888467983
0.22,1.6152654643365962,-1.7571905288624914,2.316601891035765,-0.0980642264198283,-0.0315867772671767,0.0413490070899592,-0.2134998158036758,0.1664999939290568,-0.1172915704836169,1.6153098285254106,-1.7572564936600568,2.3159000420441287,-0.2362893622435986,0.2022487732634185,-0.1429890434282878,2.697650580164516,-1.9256102806938444,1.8587321446831075,-0.3383171793891901,9.798840820753869,-1.0520558479375155,0.3352862656263332,-0.7318127563407253
0.24,1.6106284511106213,-1.7535442315682894,2.314198182426149,-0.0915013688133542,-0.020090496936985,0.0412103889214172,-0.2473872354881896,0.1951484082483554,-0.1225606845737582,1.6153098285254106,-1.7572564936600568,2.3159000420441287,-0.2362893622435986,0.2022487732634185,-0.1429890434282878,2.2343077334934702,-1.694370984225689,1.4324207159649298,-0.2634557045070665,10.11388402988041,-1.047187984534443,0.328261203183188,-0.7466654947317061
0.26,1.6053809944524278,-1.74939824974279,2.3116897167413697,-0.0837876160276858,-0.0061104984233173,0.0410139287441159,-0.2750698217983936,0.2178187373950287,-0.1280334814180845,1.6129469349029746,-1.7552340059274223,2.3144701516098456,-0.2562893625416218,0.2222487735614417,-0.1516515749531845,1.8098486910096,-1.384129315510199,1.1335164573336636,-0.2736398422163152,9.950387579990092,-1.039401165810017,0.3213521671281928,-0.763589702806959
0.28,1.5996417289387768,-1.744836503699867,2.3090598599333645,-0.0766348293063506,0.0084753941546345,0.040830511742196,-0.2970819253889147,0.2373352507845293,-0.1346772544306353,1.6082211476581028,-1.7511890304621542,2.31161037074128,-0.2962893631376682,0.2622487741574882,-0.1689766380029777,1.5079511921848523,-1.100605179526054,0.975825669475032,-0.3321886506275406,9.950387579990092,-1.0317608736408237,0.3158946544166573,-0.7778160004731793
0.3,1.5938290903616728,-1.7401597238840083,2.3064252676609347,-0.0708750486778226,0.0216161257326482,0.0407224565048726,-0.3134855002184364,0.2541843844372714,-0.1423523585676828,1.6034953604132307,-1.7471440549968855,2.308750589872714,-0.3362893637337147,0.3022487747535347,-0.1863017010527709,1.2368081859672186,-0.820178741476088,0.8424566826371035,-0.383755206852375,9.850534438922296,-1.0227638899450546,0.3111244671107282,-0.7928149401052155
0.32,1.5874134117335346,-1.734902016786337,2.3034796298288183,-0.0660050428406594,0.0338016922730888,0.0407066896792718,-0.3270383523216428,0.2708542604887706,-0.1519181450019741,1.5967695731385565,-1.741099079501815,2.3050245558516584,-0.3762893643297611,0.3422487753495811,-0.2036267641025642,1.1758707813894784,-0.6776426051603168,0.8334938025749583,-0.4782893217145645,9.756940151833078,-1.0136820604410426,0.3072648007020935,-0.8069934174954932
0.34,1.5807594020138611,-1.7293182208345552,2.300328026075622,-0.0623007569546102,0.0437213629869346,0.0408008386915544,-0.3377125246260271,0.2869222724156945,-0.1628148268100794,1.590043785863882,-1.7350541040067444,2.3012985218306032,-0.4162893649258076,0.3822487759456276,-0.2209518271523574,1.1077642304373096,-0.5337086152192139,0.803400596346196,-0.5448340904052634,9.673492220892513,-1.0057750521942277,0.3043998923845873,-0.8188322552212378
0.36,1.5739073886709447,-1.723407664704416,2.2969477206683364,-0.0592617067782164,0.0513499511112778,0.0410140317834276,-0.3469949503427104,0.3033233361334865,-0.1747016497263006,1.5823179985743066,-1.728009128496773,2.297139361233303,-0.456289365521854,0.422248776541674,-0.2382768902021507,1.1140633703950789,-0.4641212858341653,0.8200531858895993,-0.5943411458110587,9.61534782725812,-0.9984470056958455,0.302059465884755,-0.829255273863443
0.38,1.5672342936538437,-1.7174899231320937,2.293509415800715,-0.0566263275776708,0.0567339715591684,0.0413205076069183,-0.3550223650860116,0.3187206372123595,-0.1866489359055306,1.57359221126983,-1.7199641529718996,2.2925470740597578,-0.4962893661179005,0.4622487771377205,-0.2556019532519439,1.0538665890695744,-0.4013707371650632,0.7698650539436525,-0.5973643089614996,9.577125539172812,-0.9925125089081004,0.2999196602437024,-0.8377217986469759
0.4,1.56004940885037,-1.710949716738312,2.289638835965908,-0.0540106704104879,0.0607668066401816,0.041729370607269,-0.363070428801331,0.3344314148128454,-0.1998162970678673,1.5494831753995428,-1.7015538912714758,2.2841769690054385,-0.4550223665761277,0.4187206387024756,-0.2334618017886425,1.10111223582928,-0.4024031857659677,0.7855388800242946,-0.6583680581168357,9.550890514162347,-0.987871421273918,0.2978937713042938,-0.8444821998272692
0.42,1.5527191327760437,-1.704092195143014,2.2855895340271157,-0.0514333779284416,0.0631675220890488,0.0422229311500966,-0.3696049801531047,0.3504457629560598,-0.2040006470480054,1.5494831753995428,-1.7015538912714758,2.2841769690054385,-0.4550223665761277,0.4187206387024756,-0.2334618017886425,0.8897590861819313,-0.326727567588686,0.800717407160717,-0.2092174990069056,9.525534798220178,-0.9885349075100652,0.2955151196524016,-0.8458377796739392
0.44,1.5456407370257623,-1.6973018965048967,2.281663595063342,-0.049469522638482,0.0637600140955087,0.042739616832796,-0.3753248010849918,0.3637766919286151,-0.2091165268259582,1.5494831753995428,-1.7015538912714758,2.2841769690054385,-0.4550223665761277,0.4187206387024756,-0.2334618017886425,0.7690940200434456,-0.2859910465943527,0.6665464486277667,-0.2557939888976415,9.936503489681854,-0.9878640739893224,0.2949704657565767,-0.8460047885077111
0.46,1.538067797141435,-1.6898839086048596,2.2774058625740574,-0.0482248449308145,0.0626705737043919,0.0433021868686675,-0.3817683335130024,0.377375035253458,-0.2164764254225603,1.5449329517337815,-1.697366684884451,2.281842350987552,-0.4750223668741509,0.4387206390004989,-0.2428243749652649,0.8375591899731486,-0.3221766214005328,0.6799171662421472,-0.3679949298301038,9.936503489681854,-0.9883626665530818,0.2948064843743554,-0.8450064177746688
0.48,1.5303592077923511,-1.6821986511743892,2.272984766642642,-0.0479226072858735,0.059961727233728,0.0438685118942581,-0.388893352532439,0.3905318411969995,-0.2253196869390639,1.535832504402259,-1.6889922721104016,2.2771731149517795,-0.5150223674701974,0.4787206395965453,-0.2615495213185097,0.8690090806669025,-0.3562509509718287,0.657840297177073,-0.442163075825179,9.8240764496486,-0.9901929372529492,0.2951271933010391,-0.84258043809392
0.5,1.522497183954638,-1.6742532894228763,2.2683750675196133,-0.0486941533926345,0.0558103388842059,0.0444246895219188,-0.3971181099286522,0.4034657941126125,-0.2352002356601931,1.5267320570707363,-1.680617859336352,2.2725038789160066,-0.5550223680662438,0.5187206401925918,-0.2802746676717545,0.911810034053786,-0.4112378698106628,0.64669764578065,-0.49402743605646,9.745102765712543,-0.9930580005024126,0.2960435870622583,-0.8389127756165926
0.52,1.51485998749177,-1.6664644598954477,2.263806987560427,-0.0504604451245678,0.0508524935941292,0.0449334277700158,-0.4066281805641091,0.4158709289676914,-0.2451577836252001,1.5156316097094116,-1.6702434465325002,2.2668983855625715,-0.5950223686622903,0.5587206407886383,-0.2989998140249993,0.926662797002621,-0.4755035317728417,0.6202567427539468,-0.4978773982503515,9.692153550804504,-0.9967638716517704,0.2978291427257264,-0.8339005918890938
0.54,1.506602088435617,-1.6580026365251177,2.2587927544866284,-0.0532605275539044,0.0452257934134859,0.0454361231447159,-0.4188688052358327,0.4299931630321648,-0.2557537017575874,1.5045311623480866,-1.6598690337286484,2.2612928922091364,-0.6350223692583368,0.5987206413846847,-0.3177249603782441,1.0741786029264788,-0.61203123358618,0.7061117032236663,-0.5297959066193638,9.661184857764963,-1.0016823502615997,0.3002120976227904,-0.827366341373856
0.56,1.498070510797192,-1.649230122395183,2.253567550414706,-0.0560052856525685,0.0399812260047001,0.0459385169558819,-0.4338444991963847,0.4464643112922934,-0.2662176320105774,1.4924307149718603,-1.6484946209098954,2.25521927019687,-0.6750223698543831,0.6387206419807311,-0.3364501067314889,1.2299024056268602,-0.748784698027602,0.8235574130064344,-0.5231965126495014,9.682044133165618,-1.0064376220152154,0.3026747798695925,-0.8207358916972538
0.58,1.4892102393341244,-1.6401156671248482,2.2481347040635096,-0.057978065084746,0.0361532555479505,0.0464254322041241,-0.4514987964022143,0.4638887506975512,-0.2765295029565977,1.4793302675807334,-1.6361202080762414,2.2486775195257724,-0.7150223704504296,0.6787206425767776,-0.3551752530847336,1.3431492664877558,-0.882714860291478,0.8712219702628893,-0.5155935473010131,9.682044133165618,-1.010075267030412,0.3044424149799536,-0.8156928446977627
0.6,1.480444129043791,-1.631128449511422,2.2427817761053013,-0.0589289403311382,0.0347663794320941,0.0468228840914765,-0.47023060154374,0.4810887865348995,-0.286398887333877,1.4666352995140135,-1.6169212295899706,2.23430822891568,-0.5514987978923305,0.5638887521876674,-0.3235117764160322,1.3639341119099553,-0.9365902570762864,0.8600017918674152,-0.4934692188639622,9.703599037404274,-1.0130865189056375,0.3052248160163411,-0.8122863381505881
0.62,1.4708071388252657,-1.6212647872715702,2.23703926735824,-0.0573480515270729,0.0368345798326001,0.0472084739769518,-0.4920238900453985,0.503960456175877,-0.2867373542117871,1.4666352995140135,-1.6169212295899706,2.23430822891568,-0.5514987978923305,0.5638887521876674,-0.3235117764160322,1.579695584369004,-1.0896644250829228,1.1435834820488735,-0.0169233438955085,9.7087342891964,-1.0171059422703066,0.304336178222058,-0.8080913617184383
0.64,1.4607687492059422,-1.610981259987939,2.231295845911341,-0.0529338439662667,0.0422514733191501,0.047601133407188,-0.5102576650547126,0.5225723328603531,-0.2876884114776993,1.4666352995140135,-1.6169212295899706,2.23430822891568,-0.5514987978923305,0.5638887521876674,-0.3235117764160322,1.3036266861447297,-0.9116887504657056,0.9305938342238028,-0.0475528632956107,10.360033421518892,-1.0164115023350344,0.3021796511706496,-0.8091420959751701
0.66,1.450402918338087,-1.6003698336051757,2.225501866164779,-0.0480543987584448,0.0493930281527167,0.0479508700579586,-0.5250740889904882,0.5375863234560555,-0.2916339971378296,1.4611203115350904,-1.611282342068094,2.2310731111515194,-0.5714987981903537,0.5838887524856906,-0.3329082311079191,1.0729794709754374,-0.7408211967887823,0.7506995297851204,-0.1972792830065156,10.190067108575022,-1.0128002940276777,0.2996245968358802,-0.814126311137555
0.68,1.4403114170879914,-1.5900307871073702,2.2198984416982874,-0.0438576528510993,0.0567033872215147,0.048246698622863,-0.5362568773980784,0.5500884331198236,-0.2980064551615967,1.450090335577244,-1.6000045670243406,2.224602875623199,-0.6114987987864001,0.6238887530817371,-0.3517011404916929,0.8971701676361189,-0.5591394203795064,0.625105483188404,-0.3186229011883534,9.999002453036155,-1.0074439443493557,0.2968977827168865,-0.8215769206903502
0.7000000000000001,1.42948686151336,-1.578902441049021,2.213845630059083,-0.0402083222446385,0.064110667384558,0.0485341161001744,-0.5454447752948014,0.5621945094414134,-0.3070639441022758,1.4390603596193972,-1.5887267919805872,2.218132640094878,-0.6514987993824466,0.6638887536777835,-0.3704940498754667,0.8846081866782719,-0.4593948948361515,0.6053038160794888,-0.4528744470339546,9.83572856714636,-1.0012735972697386,0.2944073897885134,-0.8301001897238256
0.72,1.418501277524977,-1.5675379450119855,2.2075893435224705,-0.0373806605629465,0.0706357278303622,0.0488096306112781,-0.5525668267195623,0.5737603788326361,-0.3182141119819431,1.4260303836317485,-1.5754490169070317,2.210722759097369,-0.6914987999784931,0.70388875427383,-0.3892869592592405,0.87866261303262,-0.3561025712380428,0.5782934695611364,-0.5575083939833636,9.701583629123888,-0.9949672860360516,0.2922445220600324,-0.8387524308315664
0.74,1.4073913430958918,-1.555946273286358,2.2010955506133487,-0.0353102176856276,0.0759009802813101,0.0490816116272477,-0.5581006453952925,0.584995219867054,-0.3306270388998819,1.4130004076440992,-1.562171241833476,2.20331287809986,-0.7314988005745395,0.7438887548698765,-0.4080798686430144,0.8816540660522573,-0.2766909337865109,0.5617420517208982,-0.6206463458969386,9.54339393036662,-0.9899022034073264,0.2906371844753298,-0.8456810283693824
0.76,1.3967401243944044,-1.5447192622304995,2.1946891581710584,-0.0336638108526435,0.0797337092555088,0.0493557588209861,-0.5628210909659448,0.5961797021265802,-0.3431195681107967,1.3989704316415492,-1.547893466745019,2.195433174367756,-0.7714988011705859,0.7838887554659228,-0.4268727780267881,0.8709743622585974,-0.236022278532616,0.5592241129763087,-0.6246264605457436,9.54339393036662,-0.9852513634368806,0.289149370790754,-0.8520349717059996
0.78,1.385435019198824,-1.5326726446005643,2.1876829747201403,-0.0319730407935648,0.0827389512054617,0.0496697397129888,-0.5674431136291008,0.6078237297788522,-0.3568740035427572,1.383940455624098,-1.5326156916416611,2.187083647901058,-0.8114988017666324,0.8238887560619693,-0.4456656874105619,0.930229766667318,-0.2311011331578016,0.5822013826136008,-0.6877217715980238,9.487042498222763,-0.9813737856304312,0.2876163837920686,-0.8575072063963985
0.8,1.3740397464387195,-1.5203947793839088,2.1803964786911703,-0.0302129850001617,0.0848809807294228,0.050007743891277,-0.5718740099453968,0.619263925977458,-0.3710927270443864,1.357062863517369,-1.502281458111622,2.169839274543002,-0.667443115119217,0.7078237312689684,-0.37522009527514,0.9389928504042824,-0.2215448158148003,0.5720098099302906,-0.7109361750814613,9.487042498222763,-0.9781805341872049,0.2859600257407149,-0.8622459653801969
0.8200000000000001,1.3631440411675304,-1.508499796854465,2.1733947815488395,-0.0279191292614027,0.0863926713421631,0.0503786632763158,-0.5747879942368695,0.6317901602413635,-0.3651956885202347,1.357062863517369,-1.502281458111622,2.169839274543002,-0.667443115119217,0.7078237312689684,-0.37522009527514,0.7074123843991525,-0.1456992145736357,0.6263117131952711,0.2948519262075871,9.469488016083233,-0.9824522275005986,0.2844859872353067,-0.8584374134320839
0.84,1.3516247247805897,-1.495753338978019,2.1661446352936378,-0.025342774368124,0.0874256669280381,0.0507845367113559,-0.5770335854255196,0.6422370871214452,-0.3603162680033588,1.357062863517369,-1.502281458111622,2.169839274543002,-0.667443115119217,0.7078237312689684,-0.37522009527514,0.5873450978871504,-0.1122795594325043,0.5223463440040876,0.2439710258437921,10.66423251719334,-0.9820025403169722,0.28378038149889,-0.8579992189089143
0.86,1.340062715067584,-1.4828084450009087,2.1589635380095498,-0.0232802942213653,0.0876414280553283,0.0511621736189614,-0.5791416274110894,0.6518119723310989,-0.358147711332633,1.3503884323661768,-1.4952032207989323,2.1660870735902518,-0.6874431154172401,0.7278237315669915,-0.3788893136216165,0.5020580290791072,-0.1054020992784898,0.478744260482683,0.1084278335362926,10.497734473028686,-0.9817896542733924,0.2832289578199796,-0.8574672020915084
0.88,1.3284576502620051,-1.4696785830474046,2.151803065459165,-0.021853125633303,0.0869657166696929,0.051502160745215,-0.5813322264724685,0.6607463910201443,-0.3580862222984856,1.3370395700637925,-1.4810467461735528,2.1585826716847483,-0.7274431160132866,0.767823732163038,-0.3862277503145697,0.45996288562285,-0.1095299530689541,0.4467209344522715,0.0030744517073716,10.341879100278677,-0.9822726549146196,0.2829343250935872,-0.8563609223176913
0.9,1.3173915513435577,-1.4570463802341562,2.1449855038273733,-0.0212891586755211,0.0853839657300158,0.0517779332450723,-0.583503541905453,0.6686193197782605,-0.3595423638265567,1.3236907077614082,-1.4668902715481735,2.1510782697792457,-0.7674431166093331,0.8078237327590845,-0.3935661870075227,0.4147829736430319,-0.1085657716492216,0.3936464379058091,-0.0728070764035554,10.224557138963064,-0.9836550845615896,0.2830762444258362,-0.8542604877149755
0.92,1.305695741532903,-1.4435923498294525,2.13776942790638,-0.0217620617563366,0.0825851276468429,0.0520078525791262,-0.5860615952629347,0.6764637452017932,-0.3620244553341678,1.3083418454292215,-1.450733796892992,2.1432069460390952,-0.8074431172053795,0.847823733355131,-0.4009046237004758,0.4308115175376726,-0.1279026678740857,0.3922212711766348,-0.1241045753805569,10.1394225022932,-0.9860819390066458,0.2839260941370524,-0.8508741908632742
0.94,1.293943538148276,-1.4299817686335317,2.130505140901653,-0.0235213572801909,0.0784846292078486,0.0521730426139292,-0.5891946299930326,0.6843631203563385,-0.3642646512345245,1.2929929830970348,-1.4345773222378102,2.135335622298945,-0.847443117801426,0.8878237339511774,-0.408243060393429,0.4394158398494039,-0.156651736504898,0.3949687577272653,-0.1120097950178367,10.081140847973074,-0.9898165495857816,0.2856512806992686,-0.8457133597073379
0.96,1.282110871946,-1.416194572065704,2.123202441199332,-0.0261318184619276,0.0732841263245569,0.0523109765141747,-0.5941523022416669,0.6941380847691377,-0.3658848644337671,1.276644120749947,-1.4174208475677272,2.1272808376414702,-0.8874431183974724,0.9278237345472238,-0.4155814970863821,0.553970969923899,-0.2478836124317152,0.4887482206399618,-0.0810106599621302,10.095346525048626,-0.9945415894773806,0.2882867806516888,-0.8387836524413362
0.98,1.27075373655047,-1.4028950729081144,2.116240986286946,-0.0284458981022905,0.0679740860456414,0.0524730202092355,-0.6012254058578697,0.7051863707723268,-0.3668037845878407,1.2592952583879582,-1.3992643728827432,2.1190425920666724,-0.9274431189935188,0.9678237351432702,-0.4229199337793352,0.6575291488279554,-0.3536551808101362,0.5524143001594539,-0.045946007703676,10.128118158113466,-1.0002812256204718,0.2909890003219522,-0.8303805474463856
1.0,1.2586303659078155,-1.3886616642568226,2.108898650005533,-0.0302699469505546,0.0627234934465122,0.0526839292315374,-0.61091455788396,0.7174502280340213,-0.367350785593208,1.2406924662575765,-1.367635754369498,2.097900797057554,-0.7012254073479858,0.8051863722624429,-0.3978632918684288,0.781954397678948,-0.4844576013045165,0.6131928630847217,-0.0273500502683682,10.189805593667188,-1.0062125222671487,0.2933741533160615,-0.821584683867776
1.02,1.2462329858993877,-1.374132834540003,2.1015728946690237,-0.0298065927123958,0.060319345319319,0.0529663336066138,-0.6284852817413322,0.7343623945410438,-0.3650164547189856,1.2406924662575765,-1.367635754369498,2.097900797057554,-0.7012254073479858,0.8051863722624429,-0.3978632918684288,1.2249498086285342,-0.878536192868612,0.8456083253511271,0.1167165437111206,10.189805593667188,-1.009347049894618,0.2947160288858679,-0.8156923159847943
1.04,1.233493182810139,-1.359295941951418,2.094288658698812,-0.0265113667679095,0.0626230080783503,0.0532958569657359,-0.6440046537989278,0.7481290314096323,-0.3634912847504708,1.2406924662575765,-1.367635754369498,2.097900797057554,-0.7012254073479858,0.8051863722624429,-0.3978632918684288,1.0400689197915172,-0.7759686028797785,0.6883318434294239,0.0762584984257408,10.442150749464416,-1.011952169374145,0.2935130963007346,-0.8124390284410439
1.06,1.2211365106581524,-1.3449802682153502,2.087376500247023,-0.0225087409332348,0.0674172069600495,0.0536001411304304,-0.6555799308782514,0.7579786225043025,-0.3641629780748566,1.2336802121840966,-1.3595838906468738,2.0939221641388697,-0.721225407646009,0.8251863725604661,-0.4040751933245464,0.7606784079316063,-0.5787638539661799,0.4924795547335103,-0.0335846662192884,10.318621708222963,-1.0105585375922872,0.2912988935110518,-0.8145955762706412
1.08,1.2079259047308586,-1.3297325791866166,2.0800646634322897,-0.0186288088076704,0.0737849664068499,0.0538760890295352,-0.6645937799719314,0.7663394679330279,-0.3670964162789795,1.2196557040371367,-1.3434801632016249,2.085964898301501,-0.7612254082420554,0.8651863731565126,-0.4164989962367817,0.63197759347955,-0.4506924546839985,0.4180422714362697,-0.1466719102061447,10.15889754553973,-1.0067763587065437,0.2888338107397077,-0.8201072535498689
1.1,1.1945649063178707,-1.3143282300279349,2.0726707137046936,-0.0155016973006116,0.0804038110772075,0.0541040181030968,-0.6708720206286489,0.7737965787127157,-0.3722553706500409,1.205631195890177,-1.327376435756376,2.078007632464133,-0.8012254088381019,0.9051863737525592,-0.428922799149017,0.5514517592838276,-0.313912032835878,0.3728555389843901,-0.2579477185530726,10.015333220212597,-1.001803704575155,0.2866222410123924,-0.8270494300187988
1.12,1.181103618596626,-1.2987806637793848,2.065152391333591,-0.0132078880613411,0.0864641181539352,0.0542868767061815,-0.6748901776233203,0.7807896267001518,-0.3793324857802779,1.189606687713415,-1.3092727082813247,2.0694291764811523,-0.8412254094341484,0.9451863743486056,-0.4413466020612522,0.536502246861651,-0.200907849733567,0.3496523993718081,-0.3538557565118477,9.892684862544227,-0.9968308100566766,0.2848820023921313,-0.8338267094669698
1.14,1.1682579955914358,-1.2838838270064246,2.0578671834167843,-0.0117641391687397,0.0912396526727772,0.0544209776579607,-0.6771016614187017,0.7870825907514045,-0.3871927140191977,1.173582179536653,-1.2911689808062736,2.060850720498172,-0.8812254100301948,0.985186374944652,-0.4537704049734875,0.5154494279158365,-0.1105741897690693,0.314648202562634,-0.3930114119459899,9.799562625603356,-0.9920993514253906,0.283559134881809,-0.8400906301501377
1.16,1.154698334322057,-1.2680683856871788,2.0500292586446243,-0.0108169698938581,0.0951018371588693,0.0545299566439696,-0.6787440175175202,0.7941223110872084,-0.3962261507388309,1.15655767134499,-1.2720652533163213,2.051961669442385,-0.9212254106262412,1.0251863755406985,-0.4661942078857227,0.5784850363865862,-0.0821178049409288,0.3519860167901956,-0.4516718359816624,9.742703394622367,-0.9879527403009786,0.2826453381046006,-0.8454130041786774
1.18,1.1411106902283523,-1.2521093208846872,2.042005565834196,-0.0101683572279215,0.0978820264878077,0.0546213567421405,-0.6799521513923662,0.8013980794484468,-0.4057127442249377,1.1385331631384257,-1.2519615258114676,2.0427620233137933,-0.9612254112222876,1.0651863761367448,-0.478618010797958,0.6008157968058747,-0.0604066937422986,0.3637884180619166,-0.4743296743053404,9.708808497704922,-0.9846465161835424,0.2819153079735126,-0.849672112120224
1.2,1.1275017298380368,-1.2360025698017123,2.033789012458512,-0.0096087430435885,0.0997144560733709,0.0547066824092567,-0.6809320052874532,0.8088428390007336,-0.4154739810056314,1.1071130826587343,-1.2120394169122648,2.021719928622949,-0.7799521528824823,0.9013980809385628,-0.436870932582887,0.6157643663282464,-0.0489926947543517,0.3722379776143425,-0.4880618390346841,9.692328304691728,-0.9822267428344108,0.2812698136085791,-0.8528436612178426
1.22,1.114545174649785,-1.220535052298348,2.025891758379736,-0.0081572131170047,0.1012988516987954,0.0548441280991155,-0.6827138623098087,0.8185215562634562,-0.415317445326431,1.1071130826587343,-1.2120394169122648,2.021719928622949,-0.7799521528824823,0.9013980809385628,-0.436870932582887,0.4921307898280321,-0.0890928511177724,0.4839358631361312,0.0078267839600215,9.68356642904746,-0.9816573726557812,0.2797674084055873,-0.8546179374070528
1.24,1.100886834083861,-1.2040884635211355,2.017574413763073,-0.0058249025698123,0.1030101973508906,0.055034674110213,-0.68298582177762,0.8255295687943662,-0.4165570206847655,1.1071130826587343,-1.2120394169122648,2.021719928622949,-0.7799521528824823,0.9013980809385628,-0.436870932582887,0.3560995249031997,-0.0135979733905666,0.3504006265454995,-0.061978767916726,10.26987901081975,-0.98062096074846,0.2786022513791987,-0.8555924614087105
1.26,1.0872325627045385,-1.1875181308658955,2.009206017540034,-0.0038560282961675,0.1041358835200945,0.0551929054946115,-0.6825059041803069,0.8312848466916904,-0.4202161405326638,1.0993135611299094,-1.2030254361028792,2.01735121929712,-0.7999521531805055,0.921398081236586,-0.4431025702544768,0.3418431754362032,0.0239958798656569,0.2877638948662109,-0.1829559923949147,10.141248470114988,-0.9791610259619232,0.2774418447801257,-0.857227285704961
1.28,1.074273318825093,-1.1716769734203667,2.001171480083592,-0.0025834341798383,0.1044380294675707,0.0552939787393402,-0.6817540611168648,0.8360248096425388,-0.4253395297663965,1.0837145180722598,-1.184997474484108,2.0086138006454624,-0.839952153776552,0.9613980818326324,-0.4555658455976565,0.3510043945871218,0.0375921531721057,0.2369981475424165,-0.2561694616866339,10.013459513626003,-0.978210273721377,0.2765811655249889,-0.8582543777443523
1.3,1.060648306231191,-1.1549118517167616,1.992596415894062,-0.0021667800839791,0.1038206308182926,0.0553274887215647,-0.6808477071805141,0.8403182420023991,-0.4319501272099232,1.0681154750146102,-1.1669695128653366,1.9998763819938044,-0.8799521543725984,1.001398082428679,-0.4680291209408362,0.3967210526522285,0.0453176968175317,0.2146716179930174,-0.3305298721763383,9.852348642091783,-0.9780762329928808,0.2762315928428526,-0.858419492200686
1.32,1.0470431536357323,-1.1380658551467469,1.9838801341111647,-0.0030204173258216,0.1020212876338775,0.0552666787117279,-0.6798259204761914,0.8442393457705971,-0.4393387020747095,1.0505164319271585,-1.1469415512167631,1.990515799574988,-0.9199521549686448,1.0413980830247254,-0.4804923962840159,0.4213375765424261,0.0510893352161367,0.1960551884098993,-0.3694287432393112,9.852348642091783,-0.9789054176772743,0.276661378469096,-0.8574085322850625
1.34,1.0341367023501786,-1.1219889339767324,1.9754642884728209,-0.0051563483611846,0.0989958019023387,0.0551192064552081,-0.6789248238659557,0.8480494202536524,-0.446160902227359,1.0329173888397063,-1.1269135895681894,1.9811552171561708,-0.9599521555646914,1.081398083620772,-0.4929556716271956,0.393290788063419,0.045054830511787,0.1905037241527629,-0.3411100076324752,9.813675787419015,-0.9810371425812404,0.2780636469504869,-0.8547478107965495
1.36,1.0205587234384292,-1.1049637544367832,1.9664705734400747,-0.0082531208785808,0.0943828280521925,0.054920945102708,-0.6790976335553767,0.8544721446081445,-0.4528179210693521,1.0143183457373532,-1.105885627904715,1.9714830528537743,-0.9999521561607378,1.1213980842168183,-0.5054189469703754,0.4625936423719927,-0.0086404844710508,0.3211362177246046,-0.332850942099655,9.823993936199258,-0.9842307481724208,0.2803005526577596,-0.8503656477044458
1.38,1.0069560961796868,-1.0877884433441365,1.957352370611032,-0.0111058698612843,0.0887154138131686,0.05476291862087,-0.6814289888469443,0.8626579531888,-0.4586211742578149,0.9947193026200988,-1.0838576662263388,1.9614993066677988,-1.0399521567567842,1.1613980848128649,-0.5178822223135551,0.5150738470939348,-0.1165677645783791,0.409290429032777,-0.2901626594231432,9.850654471878444,-0.9888264642345612,0.2827059175262948,-0.8439260379249494
1.4,0.993280645106042,-1.0704395636856363,1.9481270236748276,-0.0132612536967901,0.0827937653495235,0.0546692871150145,-0.6861490757904397,0.8716132662647065,-0.4636090488009238,0.9728846467373397,-1.0446555456846962,1.9344213118981408,-0.747948681387113,0.962657954678916,-0.4554040540685952,0.5642600143095633,-0.236004347174773,0.4477656537953234,-0.2493937271554447,9.89598823432152,-0.9940522003387104,0.2846430839923662,-0.836769410996623
1.42,0.9800759261088317,-1.0537361713245132,1.939431080467998,-0.0127832617522526,0.0811978726271376,0.0547048263972695,-0.7028894171795694,0.8853349391399091,-0.4514651912817453,0.9728846467373397,-1.0446555456846962,1.9344213118981408,-0.747948681387113,0.962657954678916,-0.4554040540685952,1.2409639516972195,-0.837017069456486,0.6860836437601325,0.6071928759589285,11.142149830139717,-0.998450782090141,0.2847552277062379,-0.8315349771815732
1.44,0.9658812397728602,-1.0359079251040648,1.9305340823141863,-0.0091275602786368,0.0862275444743145,0.0548740525800999,-0.7148810485005472,0.8962392379659758,-0.4389613537821533,0.9728846467373397,-1.0446555456846962,1.9344213118981408,-0.747948681387113,0.962657954678916,-0.4554040540685952,1.023534204170308,-0.5995815660488901,0.5452149413033347,0.6251918749795998,11.142149830139717,-0.9995948623186376,0.2837431209881303,-0.8295792657435986
1.46,0.9515077202898198,-1.0179072778016776,1.9218558633300211,-0.0044918718814154,0.0948475331499603,0.0550967244003818,-0.7213452333585478,0.9031564919767444,-0.4296381197566527,0.9654051599234684,-1.035028966137907,1.929867271357455,-0.7612526198951468,0.9826579549769392,-0.4547606300307513,0.6643733544140452,-0.3232092429000299,0.345862700538424,0.466161701275028,10.954437543742642,-0.9957557570436232,0.2819062094916802,-0.8337472427241006
1.48,0.9370497492214824,-0.999793951239266,1.9133252168820696,-0.0003033999117887,0.1051164111050195,0.0553120463049163,-0.7237030036433644,0.9079916926377676,-0.4238981841760152,0.9504461862957262,-1.0157758070443288,1.920759190276083,-0.7878604969112143,1.0226579555729858,-0.4534737819550634,0.3933354376934281,-0.117888514240827,0.2417600330511637,0.2869967790318756,10.71530901778533,-0.9884377262056596,0.2796658094490796,-0.8423169970349752
1.5,0.923306238024887,-0.9825069026873194,1.9052998383074025,0.0028645612834304,0.1153218919998374,0.0554875185119364,-0.7225886425053324,0.9116730112787677,-0.4211884625322883,0.935487212667984,-0.9965226479507504,1.911651109194711,-0.8144683739272818,1.062657956169032,-0.4521869338793755,0.2352472054510504,0.0557180569015991,0.1840659320499982,0.1354860821863424,10.51047000442577,-0.9793841684626876,0.2776220028711396,-0.8528500591523641
1.52,0.9089025616766804,-0.9642382583619036,1.8968856648314785,0.0052710635642161,0.125512925792237,0.0556260999999718,-0.7176163833036958,0.9151781350860771,-0.4204924607047421,0.9191978451894384,-0.9752694888273696,1.902607370517124,-0.8410762509433493,1.1026579567650785,-0.4509000858036876,0.3061603869574566,0.2486129600818287,0.1752561903654803,0.0348000913773099,10.353762363021817,-0.9699004965317768,0.2759324738946612,-0.8637136260388002
1.54,0.894633705638901,-0.9459016073547624,1.8884719033746376,0.0067360806252312,0.1341746510517674,0.0557004140126224,-0.7094227462980432,0.9184217385624368,-0.4209788254434396,0.9029084777108928,-0.9540163297039892,1.893563631839536,-0.8676841279594169,1.142657957361125,-0.4496132377279997,0.4412856261858634,0.4096818502826282,0.1621801738179829,-0.0243182369348726,10.243719080634946,-0.9610259844608664,0.274836248250549,-0.8734646510649531
1.56,0.8805527229213111,-0.9274937455286288,1.8800422646159576,0.0074623912416537,0.1407538700940353,0.0557088021710426,-0.6991660265894797,0.9222132740651272,-0.4219822845230547,0.8859539133069454,-0.9317631705657072,1.8845520643638407,-0.8942920049754843,1.1826579579571714,-0.4483263896523118,0.5490513882430791,0.5128359854281783,0.1895767751345256,-0.0501729539807566,10.19783162634667,-0.9536753331329616,0.2743675870034001,-0.881037602410986
1.58,0.8673785881966225,-0.9099326626731656,1.8720147909575613,0.0077511608393318,0.1449757686971306,0.0556686594788528,-0.6882246609830882,0.9261068588833492,-0.4229743619537833,0.8683341519775964,-0.9085100114125244,1.8755726680900375,-0.9208998819915518,1.2226579585532178,-0.447039541576624,0.5827900601802813,0.5470682803195737,0.1946792409110886,-0.0496038715364299,10.19783162634667,-0.947759064426122,0.2745433256004361,-0.8863740997192447
1.6,0.8537411932320581,-0.8913657562174522,1.8635462386108903,0.0077701113165325,0.1473669458447311,0.0555836312866376,-0.6762006706532834,0.9303648694876688,-0.4238156920428794,0.8329673551474681,-0.8636273197289981,1.8508660728598725,-0.7170783903503444,1.026106860373465,-0.4004513555294755,0.6391690583807988,0.6011995164902417,0.2129005302159925,-0.0420665044548018,10.210634401685638,-0.9437587784678984,0.2751832375450077,-0.8892395620678183
1.62,0.8402806712844378,-0.8726732477487065,1.8551271357576429,0.0089661645250459,0.1501278196029973,0.055576977353559,-0.6701964871333909,0.9383260877896784,-0.4177276456858489,0.8329673551474681,-0.8636273197289981,1.8508660728598725,-0.7170783903503444,1.026106860373465,-0.4004513555294755,0.5841564966645335,0.3002091759946257,0.3980609151004788,0.3044023178515209,10.23180211363342,-0.9402750406635058,0.2749150610771985,-0.8919366145775743
1.64,0.8269705009207673,-0.853850989963433,1.8468447578106868,0.0117022470342168,0.1548995145012966,0.0556943019192481,-0.6608102069512582,0.9432503516244126,-0.4108753393323142,0.8329673551474681,-0.8636273197289981,1.8508660728598725,-0.7170783903503444,1.026106860373465,-0.4004513555294755,0.6310798925933587,0.4693140091066305,0.2462131917367049,0.3426153176767366,10.68014972255969,-0.9368009469546892,0.2739029985743425,-0.8947570739138022
1.66,0.814531848057747,-0.8359024587520988,1.839095457432828,0.0142437107231255,0.1598393102083873,0.0558094878346948,-0.6488963838414743,0.9459378870562126,-0.4052016196551302,0.8257965712439647,-0.8533662511252634,1.8468615593045772,-0.7228491362237957,1.0461068606714885,-0.3959467542446139,0.6733370678264851,0.5956911554891975,0.1343767715900001,0.2836859838591998,10.675928275963088,-0.9316287614697668,0.2728503620062408,-0.8990478672847891
1.68,0.8017086129534705,-0.8169644209247701,1.8310478418071283,0.0162639798826477,0.1644590101967568,0.0558784320088841,-0.6339889033265735,0.9478779536873096,-0.3998930907312408,0.8114550034369578,-0.8328441139177941,1.838852532193988,-0.7343906279706981,1.086106861267535,-0.3869375516748908,0.797146964447291,0.7453740257450381,0.0970033315548513,0.2654264461944694,10.630647309529197,-0.9263570266330206,0.2722713280284466,-0.9031788796336244
1.7,0.7892036784321514,-0.7979933626242809,1.8231016236455329,0.0173794255490484,0.1677974554244987,0.0558608654863047,-0.617280673505563,0.9492163849790988,-0.3950075296696066,0.7971134356299509,-0.8123219767103248,1.8308435050833984,-0.7459321197176005,1.1261068618635814,-0.3779283491051677,0.8729619822213063,0.835411491050525,0.066921564589456,0.244278053081709,10.6046083627798,-0.921973144675369,0.2724957302967403,-0.9059924736523424
1.72,0.7770456085496881,-0.7790018590468795,1.815253255625788,0.0172740786263612,0.1694441937441654,0.0557229590382048,-0.5994765022490813,0.9499828131783574,-0.390067139487091,0.7821947932355988,-0.7897998394730532,1.823284938101295,-0.757473611464503,1.1661068624596278,-0.3689191465354445,0.9246396344931436,0.8902085628240852,0.0383214099629325,0.2470195091257843,10.594314810796275,-0.9191063863608564,0.2737071876908782,-0.9069275493915108
1.74,0.7658342904006431,-0.7609489061927712,1.807895796034919,0.0157377645136979,0.1691735304641283,0.0554556444139236,-0.5817055953858372,0.9504948725201976,-0.384627188017147,0.7672761508412468,-0.7672777022357815,1.815726371119192,-0.7690151032114054,1.2061068630556744,-0.3599099439657214,0.92959723470303,0.8885453431622059,0.0256029670920032,0.2719975734971985,10.608217084913122,-0.9186578972558196,0.2767305490651864,-0.9044315187735243
1.76,0.7544005789884751,-0.7419196534919847,1.80027501331912,0.0128331148298427,0.1666609840161153,0.0550525907640337,-0.5627182072465247,0.9527315588808004,-0.3776516230429986,0.7520689711532222,-0.7437555649836088,1.8083930342013317,-0.780556594958308,1.2461068636517207,-0.3509007413959983,1.0175733154632884,0.9493694069656278,0.1118343180301462,0.3487782487074181,10.659530731231824,-0.9208786614740097,0.2813794862802968,-0.8982799849596392
1.78,0.7433445893912547,-0.7228167328320666,1.792810549662102,0.0097018265122653,0.1615573053265972,0.0546153092120545,-0.5441788408765913,0.9574627175452218,-0.3690280681569323,0.7365732541715252,-0.7192334277165349,1.8012849273477145,-0.7920980867052104,1.286106864247767,-0.3418915388262752,1.0493541663560797,0.9269683184966682,0.236557933221071,0.4311777443033182,10.72942588758724,-0.9258665906331016,0.2871211893907031,-0.8880123272948568
1.8,0.7326347474165738,-0.7036037353667342,1.7855386842688812,0.007103734314718,0.1542454720109359,0.0542157422279708,-0.52819147916045,0.9634321012694668,-0.3585274128539878,0.7161356473474252,-0.6749435969548055,1.7743591462542554,-0.5963340077409864,0.9991599253835188,-0.3241659319121584,1.0018645598099525,0.7993680858070673,0.2984691862122413,0.5250327651472209,10.811709382397568,-0.933029504236464,0.2928940020420437,-0.8748320979752061
1.82,0.7227252283936284,-0.6849944948258114,1.7788402237566692,0.0130473700502674,0.1457491778606512,0.0544003259816513,-0.5158894748171071,0.9901081424453996,-0.3470144939173892,0.7161356473474252,-0.6749435969548055,1.7743591462542554,-0.5963340077409864,0.9991599253835188,-0.3241659319121584,1.577575502253685,0.6151002171671416,1.333802058796646,0.5756459468299335,10.891686032346117,-0.945800797377448,0.2959977518987558,-0.8532982034945116
1.84,0.7125246619814675,-0.6650845159368077,1.7720405024042942,0.0272374354126625,0.1356371125759282,0.054991901456581,-0.5051620540214247,0.9982230471755184,-0.3334721846725817,0.7161356473474252,-0.6749435969548055,1.7743591462542554,-0.5963340077409864,0.9991599253835188,-0.3241659319121584,0.9543628442428808,0.5363710397841226,0.4057452365059444,0.6771154622403741,10.96254851266167,-0.956634562969068,0.290819482656079,-0.8377692839408607
1.86,0.7025064419711591,-0.6451316625619744,1.7655060316810456,0.0423772171744203,0.1250924457054844,0.0554355970406861,-0.4975387569667621,0.9963967138309836,-0.3206268054179085,0.7101723072700153,-0.6649519977009704,1.7711174869351338,-0.6067650411138654,1.007499366951178,-0.3151935046632036,0.7524192974422169,0.381164852733129,-0.0913166672267373,0.6422689627336609,10.983036540635112,-0.9663686289060772,0.2838752371004541,-0.8253965597416786
1.88,0.6926077362293501,-0.6252824823176192,1.7592184100100254,0.0559755111892039,0.1147589082343935,0.0555831452462236,-0.4930023610856457,0.9888401080615172,-0.3087458045692395,0.6982456271151956,-0.6449687991933,1.764634168296891,-0.6276271078596235,1.0241782500864969,-0.2972486501652941,0.7396610026076454,0.2268197940558186,-0.3778302884733298,0.5940500424334499,10.912159745284953,-0.9760278226898008,0.2763603475241299,-0.8141478086856428
1.9,0.6832608719235784,-0.606602818780453,1.7534591895056462,0.0666913006206781,0.1055794442442077,0.0554522567464621,-0.491301950741382,0.9782355274904352,-0.2980462531168901,0.6863189469603759,-0.6249856006856296,1.7581508496586475,-0.6484891746053816,1.0408571332218155,-0.2793037956673845,0.758005484328642,0.0850205172131829,-0.5302290285540967,0.5349775726174705,10.851684539998132,-0.9849650916768176,0.2694785724345467,-0.804384281280816
1.92,0.6734329886133567,-0.5871796493746898,1.7476160724297112,0.075554412729964,0.0968862470015748,0.0550890576214274,-0.4917740662032603,0.9649425938825954,-0.286794423102638,0.6733491634682682,-0.6041684580211932,1.7525647737452998,-0.6693512413511397,1.0575360163571346,-0.261358941169475,0.8711036901273662,-0.0236057730939126,-0.6646466803919893,0.5625915007126059,10.819146574345725,-0.9931408022262572,0.2635187361243176,-0.7959330655381504
1.94,0.6635740164876747,-0.5680401733163882,1.7419996750994378,0.0820388456042628,0.0893735519838908,0.054562423702523,-0.494244792974687,0.9500339040434216,-0.2753614784626531,0.6603793799761606,-0.583351315356757,1.746978697831952,-0.6902133080968977,1.0742148994924532,-0.2434140866715654,0.9474778976850664,-0.1235363385713339,-0.7454344919586853,0.5716472319992449,10.83752810326132,-1.0006347352029796,0.2588277079847572,-0.7882860793148779
1.96,0.6536422671686987,-0.5492074769644649,1.736616962516204,0.0864199843612562,0.0833353154784828,0.0539565149704171,-0.4989409824949037,0.9344493445336144,-0.263435183202203,0.646888044815409,-0.5621172006139377,1.7418412432810522,-0.7110753748426557,1.090893782627772,-0.2254692321736559,1.0089217137171165,-0.2348094760108388,-0.7792279754903653,0.5963147630225041,10.871009773513832,-1.006857584635844,0.2556166325241356,-0.7818655172804073
1.98,0.6440994520390925,-0.5316088787032278,1.7317296257488577,0.0890364490094489,0.0794716986491332,0.053408032127834,-0.5054141753554771,0.9192002501960048,-0.2515812526429697,0.6328751579860135,-0.5404661137927355,1.7371524100926,-0.7319374415884138,1.1075726657630909,-0.2075243776757463,1.0185194814418397,-0.3236596430286648,-0.762454716880484,0.5926965279616642,10.871009773513832,-1.0120104931343843,0.2530263477199019,-0.7769506397031626
2.0,0.6339070990673537,-0.5133993231732951,1.7268340696280462,0.0903955992406838,0.0779095985506332,0.0529447628775993,-0.5133169347126353,0.9027399700136786,-0.2385497153103835,0.6188287432713186,-0.4856488661934275,1.7191505631167092,-0.5467197024465034,0.917264403092409,-0.2302105232114597,1.121623147929396,-0.3951379678579114,-0.8230140091163074,0.6515768666293109,10.912023271831458,-1.0161169861573318,0.2508701614605949,-0.7741347753246672
2.02,0.6234921207839312,-0.495378243080084,1.7220742311501134,0.0945600675651626,0.0804017553189811,0.0530448974761033,-0.527261801702789,0.8983968814469432,-0.2389654631026596,0.6188287432713186,-0.4856488661934275,1.7191505631167092,-0.5467197024465034,0.917264403092409,-0.2302105232114597,0.730572686148287,-0.6972433495076868,-0.2171544283367688,-0.0207873896138063,10.943804067961535,-1.0129124584163645,0.2506996834564249,-0.7750320453973792
2.04,0.6128427578706275,-0.4775403761637454,1.7172785788396396,0.1017689818055265,0.0872074826514038,0.0537886161998355,-0.5363547082613777,0.8852518555552952,-0.240542950640261,0.6188287432713186,-0.4856488661934275,1.7191505631167092,-0.5467197024465034,0.917264403092409,-0.2302105232114597,0.803058407444017,-0.4546453279294316,-0.6572512945824005,-0.0788743768800684,10.038971682151896,-1.008983841551604,0.2410771465445449,-0.7874380428598649
2.06,0.602605460577652,-0.4608853206609081,1.7126937118204213,0.1083675939899887,0.0956414729249513,0.0547222660914197,-0.5404527965911629,0.8687334288476418,-0.2420184783931772,0.6133615462468536,-0.4764762221625034,1.7168484578845946,-0.5549808078647086,0.9168772336716898,-0.2259363773251577,0.8541515249129737,-0.2049044164892599,-0.8259213353826678,-0.073776387645813,10.083814069217624,-1.0010944539935949,0.2304659447284717,-0.8046703513200725
2.08,0.5917907742082088,-0.4437148498301955,1.707837803916705,0.1141172985662178,0.1050537494799306,0.0557279995856133,-0.5404918765717643,0.8493710955891307,-0.2434988509687193,0.6024271521979235,-0.4581309341006553,1.7122442474203654,-0.5715030187011192,0.9161028948302516,-0.2173880855525537,0.970944101662071,-0.0019539990300743,-0.9681166629255556,-0.0740186287771046,10.104972899754102,-0.9913182742737904,0.220416992417173,-0.8232156813222636
2.1,0.581017539576575,-0.4269473502119232,1.702954475338717,0.1183023297259898,0.1137988036671382,0.0565837997383685,-0.536736052857969,0.8287544188955795,-0.2447717563257584,0.5914927581489935,-0.4397856460388071,1.7076400369561362,-0.5880252295375297,0.9153285559888132,-0.2088397937799497,1.0497307484582676,0.1877911856897673,-1.030833834677558,-0.0636452678519527,10.13704906401108,-0.9816247386906112,0.2120410825236681,-0.8400789901398945
2.12,0.5703519811142511,-0.4105984375903463,1.698051067914592,0.1209669046245312,0.1210648001852747,0.0571746600272609,-0.5300363591142289,0.8075745579394112,-0.2455003158132864,0.5797322535582429,-0.4214790749190308,1.7034632410805373,-0.6045474403739401,0.914554217147375,-0.2002915020073457,1.111309143880991,0.3349846871870066,-1.0589930478084153,-0.0364279743764031,10.17840995043298,-0.9728906688642848,0.2054280720079978,-0.8543398095275565
2.14,0.5603643567369918,-0.3954641684542587,1.6933818752083687,0.1221183635907048,0.1261648563680152,0.0574218129333122,-0.5217379584398494,0.786829835538847,-0.2459560052051361,0.5679717489674923,-0.4031725037992545,1.699286445204938,-0.6210696512103507,0.9137798783059368,-0.1917432102347417,1.1173793156878935,0.414920033718974,-1.037236120028212,-0.022784469592485,10.23831006788714,-0.9650676200838186,0.2000171596073404,-0.8666926436490401
2.16,0.5500315463054727,-0.3799638281139602,1.6884630682914736,0.121671773324818,0.1295445023592628,0.0573134189099298,-0.512060602746333,0.7644527804696383,-0.2458617894371205,0.5557981891058315,-0.3848852911505142,1.6953233566236543,-0.6375918620467612,0.9130055394644984,-0.1831949184621378,1.2190084940230894,0.4838677846758177,-1.1188527534604364,0.0047107884007802,10.278092820497475,-0.9587297541777998,0.1961827537644096,-0.876568044918039
2.18,0.539898157070256,-0.3649162802689831,1.6835562978772207,0.11919006027471,0.1310114757280984,0.0568172305021055,-0.5018883805198635,0.7416695161614664,-0.2447458440967024,0.5432115739732603,-0.3666174369728099,1.6915739753366854,-0.6541140728831718,0.91223120062306,-0.1746466266895338,1.2487959917091151,0.5086111113234759,-1.139163215408595,0.0557972670209044,10.335607125867682,-0.9546598380399482,0.1943511729818983,-0.883218227636042
2.2,0.5299712786505728,-0.3503068493683293,1.6786901304490935,0.1149458902633587,0.1306565330505132,0.0559737865321244,-0.4914706658644664,0.7209779881278481,-0.2418646196213732,0.5148037380442628,-0.3278328044609098,1.6713190056723857,-0.5086365129275288,0.7107633213404663,-0.1959345387824,1.1672291607526382,0.5208857327698546,-1.0345764016809145,0.1440612237664632,10.41035769015707,-0.9534246372743684,0.1950459853660824,-0.8857589194124258
2.22,0.5206595266515024,-0.3366791039707172,1.674125642263533,0.113899548956459,0.1306718395218758,0.0554192865162294,-0.4888421503091419,0.7128529099887306,-0.2389780675034311,0.5148037380442628,-0.3278328044609098,1.6713190056723857,-0.5086365129275288,0.7107633213404663,-0.1959345387824,0.4507165736938868,0.1314257777662253,-0.4062539069558724,0.1443276058971015,10.497760790098257,-0.9507848497481792,0.197490358770005,-0.885486795822147
2.24,0.5109343846450355,-0.3225618228395587,1.6693937529855192,0.11709038035184,0.1325823995354156,0.0553450145775752,-0.4835273674602245,0.698697056042135,-0.2343172484467567,0.5148037380442628,-0.3278328044609098,1.6713190056723857,-0.5086365129275288,0.7107633213404663,-0.1959345387824,0.7911358163544913,0.2657391424458699,-0.7077926973297843,0.2330409528337226,10.574368169881382,-0.9491851069913548,0.1921488091557891,-0.8903222969383403
2.26,0.5013440406394273,-0.3087880583332285,1.6647694000645916,0.1216790224210356,0.1352816580404272,0.0554551801414406,-0.4756552403284428,0.6792365673996628,-0.2284011268148619,0.5097173729149875,-0.3207251712475051,1.6693596602845615,-0.5099861394090618,0.7045820823762663,-0.1861722777195395,1.0905061885955707,0.3936063565890824,-0.9730244321236092,0.2958060815947405,10.574368169881382,-0.9465191874051584,0.1860208574205899,-0.8961187279176379
2.28,0.4919341074512097,-0.2954390944422617,1.660273641801738,0.1257535369012974,0.1379605766833095,0.0555218873867027,-0.4657153522632836,0.6568562775843323,-0.221463585869074,0.499544642656437,-0.3065099048206958,1.6654409695089136,-0.512685392372128,0.6922196044478662,-0.1666477555938185,1.2726038477670134,0.4969944032579637,-1.1190144907665234,0.3468770472893914,10.763129093014868,-0.9439544946072888,0.1804159712699544,-0.9013465289082244
2.3000000000000003,0.4831947526671804,-0.2831879351240043,1.6561421062609685,0.1285491111072484,0.1399519754511919,0.0554329618773549,-0.454775030779225,0.6341803669303822,-0.2137533173400136,0.4893719123978864,-0.2922946383938865,1.6615222787332655,-0.515384645335194,0.6798571265194662,-0.1471232334680975,1.3165635181702249,0.5470160742029301,-1.1337955326975069,0.3855134264530227,10.763129093014868,-0.9417527788469412,0.176027062973278,-0.9055695213419394
2.32,0.4742304871413991,-0.2707642145820367,1.6519649115356292,0.1302340287214824,0.1411276816246712,0.0551216880570385,-0.4422798660621656,0.6095699021090589,-0.2042825686009299,0.4790642194911825,-0.2786974958634971,1.658579814063904,-0.5180838982982601,0.6674946485910661,-0.1275987113423766,1.459022962213831,0.624758235852968,-1.2305232410661615,0.4735374369541856,10.8522581828056,-0.940396035584141,0.1730317112263764,-0.9082954543996664
2.34,0.4655233151562861,-0.2588434600340963,1.6479908054287615,0.1303764085254306,0.1411701501341271,0.0545422182381777,-0.4291513670451017,0.5838981110094655,-0.1935196963685962,0.4687565265844786,-0.2651003533331078,1.655637349394542,-0.5207831512613262,0.655132170662666,-0.1080741892166556,1.5388614000225531,0.6564249508531933,-1.2835895549796694,0.5381436116166857,10.950001311777667,-0.9402631252077498,0.1716121541600938,-0.9092111782463832
2.36,0.4570832957915741,-0.2474487415309703,1.6442473284182564,0.1283784280866888,0.1399248543307009,0.0536364450354524,-0.4156481637041541,0.5572307734717278,-0.1813132080849813,0.4583813523536981,-0.2518122727509285,1.653182997778323,-0.5234824042243923,0.6427696927342661,-0.0885496670909346,1.6143742967761887,0.6751601670473839,-1.3333668768868878,0.6103244141807448,11.038522043319064,-0.9414879892778696,0.1718356580578516,-0.9084969632083412
2.38,0.4493163238232667,-0.2371100500222748,1.6409336554219365,0.1244007751912115,0.13738099949832,0.0524587171568511,-0.4027613510372607,0.5331447675152756,-0.1679910918564971,0.4479386967988409,-0.2388332541169592,1.6512167592152471,-0.5261816571874585,0.630407214805866,-0.0690251449652136,1.5196088349071062,0.6443406333446672,-1.204300297822608,0.6661058114242085,11.129120114392208,-0.944667421762366,0.1745652706819599,-0.9048456586953694
2.4,0.4413997858797093,-0.226689134158861,1.6377402197835176,0.1192172428946266,0.1330973252305606,0.050969103039808,-0.3897334171134348,0.5105172731774161,-0.1519176231984819,0.4291782562714037,-0.210452811646511,1.6325341008291117,-0.4101611629123358,0.503164452619765,-0.1414248062164958,1.5330418756785749,0.6513966961912948,-1.1313747168929744,0.8036734329007589,11.222029548597677,-0.950035668141769,0.1792135974634603,-0.8977122717754619
2.42,0.4336647216267535,-0.2166490946990519,1.6346640828494157,0.1146337459247013,0.1282837679855755,0.0494878416443469,-0.3845228405834315,0.4942194719833805,-0.1565717762899953,0.4291782562714037,-0.210452811646511,1.6325341008291117,-0.4101611629123358,0.503164452619765,-0.1414248062164958,0.8866081047094204,0.2605288265001643,-0.8148900597017783,-0.2327076545756715,11.319780573839124,-0.9449572553126464,0.1848013593580897,-0.896964581643093
2.44,0.4263996906315332,-0.2074190565622735,1.6316679865232795,0.1111216512888298,0.1245026555855382,0.0482539732991631,-0.3805579654358549,0.4781331659799061,-0.1585223304534996,0.4291782562714037,-0.210452811646511,1.6325341008291117,-0.4101611629123358,0.503164452619765,-0.1414248062164958,0.8341075130312218,0.1982437573788298,-0.8043153001737219,-0.0975277081752115,10.220064265245128,-0.9473935653035682,0.1836570472719197,-0.8974195195776397
2.46,0.4188242934383117,-0.1980351958763004,1.6285070877733976,0.1079146438921582,0.121643421328071,0.0471313648440102,-0.3772764802623677,0.461095306752026,-0.1573241586811874,0.4250766446422803,-0.2054211671203134,1.6311198527669466,-0.4116411252873508,0.4971683896406628,-0.1361115490884955,0.8696154431828518,0.1640742586743626,-0.8518929613940074,0.0599085886156092,10.220064265245128,-0.949323985562154,0.1828828198607904,-0.8978234138694756
2.48,0.411307683235124,-0.1889923427918628,1.625400098367345,0.1050390649614562,0.1202691805087747,0.0462041699401833,-0.3744885135932599,0.4440766304586716,-0.1533279940970548,0.4168734213840336,-0.1953578780679181,1.6282913566426167,-0.4146010500373809,0.4851762636824585,-0.125485034832495,0.8851234833478216,0.1393983334553872,-0.8509338146677176,0.1998082292066286,10.414999011646614,-0.9511015979137024,0.182433002614502,-0.8981267730108123
2.5,0.4038551398298682,-0.1802884468916737,1.6223978512210546,0.1023587187781226,0.1202009194881754,0.0454351716128854,-0.3707849939553084,0.4272393224868779,-0.1471071331465596,0.4086701981257869,-0.1852945890155228,1.6254628605182868,-0.4175609747874109,0.4731841377242543,-0.1148585205764945,0.9163925310846832,0.1851759818975756,-0.8418653985896862,0.3110430475247588,10.571458183326286,-0.952372033950204,0.1825231230581447,-0.8983373222011208
2.52,0.396854780451905,-0.1723286064358842,1.6196763077463905,0.0999182168254684,0.1207950818590506,0.0447836719711965,-0.3662280431556096,0.4115540206913898,-0.139683405452461,0.4003189786300387,-0.1758309062610377,1.623165690106757,-0.420520899537441,0.46119201176605,-0.104232006320494,0.8970872670517432,0.2278475399849433,-0.7842650897744052,0.3711863847049343,10.686699314785074,-0.952938432936687,0.1830526851019283,-0.8987822367695008
2.54,0.3895882486003315,-0.1642663059290179,1.6169688200549093,0.0974446402301581,0.1216558813535574,0.044131457564322,-0.3606258364741978,0.3955694337499374,-0.1314411199306143,0.3919677591342905,-0.1663672235065526,1.620868519695227,-0.423480824287471,0.4491998858078457,-0.0936054920644934,0.9418426222221876,0.2801103340705879,-0.7992293470726164,0.4121142760923346,10.775862627169772,-0.9528622014281104,0.1839650742427217,-0.8993072864475671
2.56,0.3824404595810617,-0.1565207241096337,1.614428966578255,0.0949905196122714,0.1224373421207249,0.0434765893014961,-0.3544261236600304,0.3798944014284566,-0.1229391267696806,0.3835425415197915,-0.1572033439010226,1.6188370121400972,-0.426440749037501,0.4372077598496414,-0.0829789778084929,0.9439636711311844,0.3099856407083712,-0.7837516160740438,0.4250996580466848,10.809566237012405,-0.9526404592537888,0.1850491525896141,-0.8997289799545549
2.58,0.3754216406972136,-0.1490840325225675,1.612062963860835,0.092475342329988,0.1229262157553598,0.0427945509102716,-0.3478075694101586,0.3646903447083712,-0.1140755901174132,0.3750433257865418,-0.1483392674444478,1.6170711674413674,-0.4294006737875311,0.4252156338914372,-0.0723524635524924,0.9401208474076044,0.3309277124935894,-0.7602028360042701,0.4431768326133678,10.828706302122557,-0.9525667978931708,0.1863223038481944,-0.8997283477634515
2.6,0.3688785043398147,-0.1422955343860864,1.609983418246302,0.0900392275023085,0.1230193809101853,0.0421150898920469,-0.3413290248151985,0.3507568531006826,-0.1052563224716478,0.3580312622267056,-0.1308495152871489,1.6063591843549645,-0.3474417004426665,0.3326293415598154,-0.0943305494324748,0.885851582176803,0.3239272297480056,-0.6966745803844265,0.4409633822882702,10.828706302122557,-0.9528607694534852,0.1879185885876177,-0.8990834482547047
2.62,0.3620903905862692,-0.1354013490441003,1.6078917527571002,0.0881422794581711,0.1233935585008191,0.0414783043592683,-0.3378148653336023,0.3392149115548181,-0.1048655449289736,0.3580312622267056,-0.1308495152871489,1.6063591843549645,-0.3474417004426665,0.3326293415598154,-0.0943305494324748,0.6035694628584722,0.1757079740798112,-0.5770970772932288,0.0195388771337103,10.851069509028092,-0.9485112442851656,0.189737560428326,-0.9015546185439794
2.64,0.3553793637286236,-0.1287419633229625,1.6058014166517334,0.0871718306757435,0.124497604082114,0.0409764079435952,-0.3333444545825749,0.3272505469088819,-0.1040743628575563,0.3580312622267056,-0.1308495152871489,1.6063591843549645,-0.3474417004426665,0.3326293415598154,-0.0943305494324748,0.6398370158367696,0.2235205375513665,-0.5982182322968099,0.0395591035708672,10.26778409243434,-0.9473345499676248,0.1882664256164345,-0.9046411040765064
