t,x,y,z,roll,pitch,yaw,v_x,v_y,v_z,ref_x,ref_y,ref_z,ref_v_x,ref_v_y,ref_v_z,a_com,a_x,a_y,a_z,thrust,wind_x,wind_y,wind_z
0.0,1.229087314471941,-0.5314142518657798,2.6752218478835004,0.0325709513064466,0.0999693806644723,0.043117950188764,0.0034658632859426,0.0045503413740838,0.0134445519369539,1.2291885380355336,-0.5312091236042963,2.6756317093186435,-0.0966019702011391,0.1062323617508913,-0.0863944656449613,0.7305371169950845,0.1732931642971302,0.2275170687041935,0.6722275968476963,10.238623351113349,-0.9438580070124674,0.2559940792580134,-0.8713880002196651
0.02,1.2293018542499945,-0.5316216497442541,2.675245828657188,0.0243728597702341,0.0949391906227538,0.0423963596229721,0.0176644616670411,-0.0202068318675078,-0.0106339020932533,1.2291885380355336,-0.5312091236042963,2.6756317093186435,-0.0966019702011391,0.1062323617508913,-0.0863944656449613,1.867009488049488,0.7099299190549264,-1.2378586620795846,-1.2039227015103653,10.239509125815855,-0.9445554569140994,0.2565432175134742,-0.8760938803665598
0.04,1.22975541732048,-0.5320592187940241,2.674720256615581,0.0076450067921777,0.0803371345599146,0.0410420136275061,0.0256443090256534,-0.0214146836509625,-0.0407655713818667,1.2291885380355336,-0.5312091236042963,2.6756317093186435,-0.0966019702011391,0.1062323617508913,-0.0863944656449613,1.5596909661178997,0.3989923679306176,-0.0603925891727349,-1.5065834644306697,8.591794302501967,-0.9463066657901488,0.2682460197058395,-0.8712738301442192
0.06,1.2302593618795814,-0.5324293209259148,2.673588082003285,-0.0097110446431313,0.0599097235873899,0.0399660404287177,0.0233738416811962,-0.0151934463926251,-0.0709193483385681,1.2282225183335225,-0.5301467999867874,2.6747677646621937,-0.1166019704991623,0.1262323620489145,-0.1063944659429845,1.5436232375010333,-0.1135233672228631,0.3110618629168707,-1.5076888478350698,8.591794302501967,-0.9532897197468024,0.278111877889245,-0.8636865367920445
0.08,1.2306165943987395,-0.5326370194116941,2.671862451285385,-0.0263955990866787,0.0375953262285806,0.0393913645859751,0.0118511059170342,-0.0055738840916652,-0.1001742401100736,1.2262904789294995,-0.5280221527517696,2.6730398753492945,-0.1566019710952088,0.166232362644961,-0.146394466539031,1.6440484412839278,-0.5761367882080993,0.4809781150479941,-1.4627445885752737,8.649088215695883,-0.9650964771788604,0.287303275085185,-0.8523725404347148
0.1,1.2306660703536052,-0.5326304428868044,2.6696865264296714,-0.0414854347854081,0.0172340926646826,0.0392735164391664,-0.0063329946438743,0.0060494121628094,-0.1274589189595468,1.2243584395254767,-0.5258975055167517,2.6713119860363954,-0.1966019716912553,0.2062323632410074,-0.1863944671350774,1.739408109780027,-0.9092050280454304,0.5811648127237359,-1.3642339424736576,8.649088215695883,-0.9790091347926936,0.2957085148196277,-0.8390487654215658
0.12,1.2302850286566531,-0.5323594137175518,2.6668383092064065,-0.0565972404710552,-0.0016334322567304,0.0394665834458883,-0.0310702536128207,0.0207357296320391,-0.1559552397876109,1.2204264000916516,-0.5217728582519315,2.667584096693694,-0.2366019722873017,0.2462323638370538,-0.2263944677311238,2.0246358949448666,-1.23686294844732,0.7343158734614816,-1.4248160414032067,8.708752850167457,-0.9921605176471068,0.3027886036358691,-0.8277699720426379
0.14,1.229358421289937,-0.5317695094761136,2.6634167814897918,-0.0709617839329184,-0.0168260636033313,0.0398147696761183,-0.060264006132495,0.0378049875932491,-0.1848235691836087,1.2164943606578265,-0.5176482109871114,2.6638562073509924,-0.2766019728833482,0.2862323644331004,-0.2663944683271704,2.223181951416793,-1.459687625983715,0.8534628980605018,-1.4434164697998897,8.76366029509154,-1.0024473827093858,0.3086367424624677,-0.8204403391750006
0.16,1.2279042270295266,-0.5308650689490282,2.659628517429782,-0.0837566718135898,-0.0273342186491039,0.0401434672976683,-0.0911548411968189,0.0566487980319806,-0.2125187413925421,1.2115623212091002,-0.5125235637073902,2.65912831799339,-0.3166019734793946,0.3262323650291468,-0.3063944689232168,2.278352171254801,-1.5445417532161954,0.942190521936576,-1.3847586104466694,8.820992409957853,-1.0104421156658574,0.3141366819301784,-0.8165281915462788
0.18,1.225716028889516,-0.5294852049187259,2.6550666824912943,-0.095616567413647,-0.0338713119120888,0.0403686762807711,-0.1260900126378022,0.0801542432107639,-0.2422323478023546,1.205630281745473,-0.5063989164127677,2.653400428620886,-0.356601974075441,0.3662323656251932,-0.3463944695192632,2.5767569552350733,-1.7467585720491623,1.175272258939163,-1.4856803204906277,8.820992409957853,-1.0143897847850474,0.3190199419108556,-0.817312063031585
0.2,1.2229724968882982,-0.5277148004117954,2.650181325920649,-0.1048023497358372,-0.0352409549517231,0.0403302397328369,-0.1604916973949694,0.1047627607524775,-0.2704350109310026,1.219411528257626,-0.5254774927581877,2.6429550651011766,-0.2260900141279183,0.18015424470088,-0.3422323492924708,2.541871976162616,-1.7200842378583605,1.2304258770856806,-1.4101331564323984,8.848132298086512,-1.0161109179177543,0.3226038626569953,-0.8199600891422204
0.22,1.219346357922866,-0.5251893823991964,2.6445921525074003,-0.1081080919547678,-0.0309021987296988,0.0401362779301445,-0.1995978221823797,0.1445763629475189,-0.2859212955979594,1.219411528257626,-0.5254774927581877,2.6429550651011766,-0.2260900141279183,0.18015424470088,-0.3422323492924708,2.895788721755928,-1.9553062393705147,1.99068010975207,-0.7743142333478392,8.883938900920839,-1.0195853341644614,0.3232617534693954,-0.8172617839553078
0.24,1.2149886759817887,-0.5219455683622914,2.6387225541673813,-0.1046157358065264,-0.0212151767507547,0.0398497400756663,-0.2333861467457886,0.1766254448199792,-0.3001072972047776,1.219411528257626,-0.5254774927581877,2.6429550651011766,-0.2260900141279183,0.18015424470088,-0.3422323492924708,2.4341513753557766,-1.689416228170444,1.6024540936230112,-0.7093000803409105,9.841697455777194,-1.0168041797570009,0.3195790659802435,-0.8237673621137153
0.26,1.2102778172370985,-0.518337436193968,2.632868542731626,-0.0990322710937804,-0.0092319420201561,0.0394921839554018,-0.2602678696180214,0.2011820922960253,-0.3152963706101352,1.2171506281163469,-0.5236759503111789,2.639532741608252,-0.2460900144259415,0.2001542449989032,-0.362232349590494,1.972538916444788,-1.3440861436116418,1.227832373802308,-0.7594536702678789,9.690515653888724,-1.010026735852562,0.3141921272457182,-0.8355653874063728
0.28,1.204822320774363,-0.5140774547208545,2.626372886137179,-0.0929477430839008,0.004581681083416,0.0390858053448543,-0.283393667495686,0.2234416839768813,-0.3335795935761008,1.2126288278337884,-0.5200728654171612,2.6326880946224023,-0.286090015021988,0.2401542455949497,-0.4022323501865404,1.847003107266091,-1.1562898938832278,1.112979584042799,-0.9141611482982788,9.505744750083975,-1.0006904062382151,0.3089076761558316,-0.8498355812097516
0.3,1.1989534162530908,-0.5093941246988156,2.61948492770207,-0.0874460708359215,0.0182939808431979,0.0387243905878388,-0.3019972770650847,0.2437965693926002,-0.354425366818459,1.20810702755123,-0.5164697805231436,2.625843447636553,-0.3260900156180344,0.2801542461909961,-0.4422323507825869,1.7284110559770576,-0.9301804784699358,1.0177442707859474,-1.0422886621179128,9.329708378417308,-0.9899719147422236,0.3043485386713864,-0.864765281820918
0.32,1.192754246261459,-0.5043182263536008,2.612152410849878,-0.0827635044494859,0.0309504743089232,0.0384613189923287,-0.3168181096475353,0.2629035125724388,-0.3778113351730746,1.2015852272388694,-0.5108666955993237,2.6169988006209013,-0.3660900162140809,0.3201542467870426,-0.4822323513786333,1.6819897978270315,-0.7410416291225297,0.9553471589919272,-1.1692984177307768,9.177961391894314,-0.9794103713358508,0.3006305540256164,-0.8788322118847862
0.34,1.186620004673948,-0.4991501249813251,2.604738686276989,-0.0790777521012039,0.0414600711501652,0.0383264643214422,-0.3280909121706536,0.2802821103800146,-0.4014501684133232,1.1950634269265086,-0.5052636106755038,2.6081541536052493,-0.4060900168101274,0.3601542473830891,-0.5222323519746799,1.5715328309034649,-0.5636401261559149,0.868929890378789,-1.1819416620124312,8.979067045115698,-0.9687840944425652,0.2971382797432779,-0.8929100354684131
0.36,1.179950088516865,-0.4933514267914137,2.596435570394504,-0.0757018804506947,0.0507648632722783,0.0383187146901523,-0.3382125714807947,0.298625934696945,-0.4276958693629925,1.187541626599247,-0.4986605257367827,2.5983095065746964,-0.4460900174061738,0.4001542479791355,-0.5622323525707262,1.679122312474916,-0.506082965507057,0.917191215846519,-1.3122850474834635,8.979067045115698,-0.9587553012419274,0.293981436626739,-0.9060769946888676
0.38,1.1730928771679232,-0.4871876573412708,2.5875954463364264,-0.0724965764307776,0.0583680015775428,0.0384493202559965,-0.3469776808769035,0.316718837958177,-0.4550217860291087,1.1790198262570837,-0.4910574407831605,2.5874648595292427,-0.4860900180022202,0.4401542485751819,-0.6022323531667727,1.696235547314691,-0.4382554698054375,0.9046451630616044,-1.366295833305814,8.878167136652337,-0.9496304820094386,0.2908144483465229,-0.918227895890165
0.4,1.166070799619108,-0.480667274898948,2.578199538942767,-0.0693201452415954,0.0644713873199118,0.0387012809501012,-0.3547791111802863,0.3342850141569854,-0.4832192822480514,1.155743993124078,-0.4713517154433619,2.564844357034971,-0.4469776823670196,0.4167188394482932,-0.5550217875192249,1.7062617428485325,-0.3900715151691408,0.8783088099404174,-1.4098748109471315,8.878167136652337,-0.9418874355658317,0.2877131455710262,-0.9287697239442756
0.42,1.1592872023879457,-0.4741489703184717,2.568951512789896,-0.0666404099788953,0.068676517164605,0.0390349093941633,-0.3590186559988828,0.3510913313849557,-0.488868674221563,1.155743993124078,-0.4713517154433619,2.564844357034971,-0.4469776823670196,0.4167188394482932,-0.5550217875192249,0.9115120250255008,-0.2119772409298226,0.8403158613985134,-0.2824695986755804,8.843141000188552,-0.9426220683778698,0.2843891096817148,-0.9301793271764128
0.44,1.152067168913241,-0.4669592169915305,2.5590794734091173,-0.064719256524548,0.0711292806998912,0.0394552828939041,-0.3629018651855121,0.3671808962243096,-0.4983678684982321,1.155743993124078,-0.4713517154433619,2.564844357034971,-0.4469776823670196,0.4167188394482932,-0.5550217875192249,0.9541856504538304,-0.194160459331466,0.804478241967696,-0.474959713833456,10.084794655409496,-0.938688502104701,0.2836632635576639,-0.933890473231801
0.46,1.144765077766229,-0.4594466873632238,2.5489681736673604,-0.063724376586474,0.071709813550126,0.0399275890949049,-0.3672180630733776,0.3832959610493406,-0.5124700263895207,1.151274216300408,-0.467184527048879,2.5592941391597788,-0.4669776826650428,0.4367188397463164,-0.5750217878172481,1.0922405134779132,-0.2158098943932762,0.80575324125155,-0.7051078945644274,9.793604070519905,-0.9360707832166076,0.2834157294370581,-0.9366108317547306
0.48,1.1373724849218212,-0.4516151775895458,2.538534031389365,-0.0634734031741077,0.0706012548987598,0.0404495547182151,-0.3719423484104879,0.3991036536351594,-0.5302251629997103,1.1423346626530675,-0.4588501502599131,2.548193703409394,-0.5069776832610893,0.4767188403423629,-0.6150217884132946,1.211865187304971,-0.2362142668555167,0.7903846292909411,-0.8877568305094841,9.5572002371282,-0.9349927698247096,0.2834732479849091,-0.9381039190518068
0.5,1.1302568242586075,-0.4438842878922466,2.5282682663242686,-0.0639172530219412,0.0680440153307554,0.0409890481605769,-0.376951179262662,0.4139363435478609,-0.5494884729610504,1.133395109005727,-0.4505157734709472,2.5370932676590097,-0.5469776838571357,0.5167188409384094,-0.655021789009341,1.241140792999237,-0.2504415426087009,0.741634495635074,-0.9631654980670036,9.380341837015294,-0.935743119831316,0.2840181473342985,-0.937803024412407
0.52,1.1226556089560829,-0.4354438316429231,2.517046951289215,-0.065166892870046,0.0638007974880627,0.0416012879928754,-0.3830656074371593,0.4293916260536206,-0.5717135305504581,1.1224555553285842,-0.440181396652179,2.523992831878823,-0.5869776844531822,0.5567188415344558,-0.6950217896053875,1.3876285292599206,-0.3057214087248683,0.7727641252879863,-1.1112528794703869,9.250471087067126,-0.9386134784771504,0.2853347751200713,-0.934961645192118
0.54,1.1149137929341824,-0.4266913396022914,2.505373809595995,-0.0672314431243364,0.0582513506821091,0.0422485931986941,-0.391111798253074,0.4452012939580126,-0.5944853896759432,1.1115160016514416,-0.4298470198334108,2.510892396098636,-0.6269776850492287,0.5967188421305023,-0.735021790201434,1.4432986124882554,-0.4023095407957339,0.7904833952195989,-1.1385929562742536,9.124895389541962,-0.9428505726737894,0.2871902915254593,-0.9307649283169022
0.56,1.1069815017244318,-0.4176005716057277,2.493243839897379,-0.0694466521140042,0.052270663988543,0.0429269445817511,-0.4018697147509926,0.4630027847356575,-0.6173608666541706,1.0995764479593977,-0.4185126429997415,2.496791960303548,-0.666977685645275,0.6367188427265487,-0.7750217907974803,1.5458923703351513,-0.5378958248959287,0.8900745388822434,-1.143773848911367,9.124895389541962,-0.9478604695242066,0.2890736639032729,-0.925603956608449
0.58,1.0992243931462518,-0.4086229889902176,2.481295863638924,-0.0709772588230614,0.0469175753006135,0.0435979812553031,-0.414193196395271,0.4809225681134473,-0.6391567656997399,1.0866368942524527,-0.406178266151171,2.481691524493559,-0.7069776862413215,0.6767188433225951,-0.8150217913935268,1.5395194472208122,-0.6161740822139217,0.8959891688894911,-1.089794952278467,9.129571182463224,-0.9534377370804658,0.2905127958294417,-0.9198989972192948
0.6,1.0907863098006036,-0.3988007556529055,2.4682675725056136,-0.071694827242251,0.0421955712173367,0.0443044081190993,-0.429109826479556,0.500261445568295,-0.6625359741719213,1.0785147333264882,-0.3845768605845452,2.4493380253539367,-0.5141931978853871,0.5612680422970067,-0.739156767189856,1.6904773165224176,-0.7458315042142505,0.9669438727423846,-1.1689604236090725,9.132126098058508,-0.9584907422953466,0.291214694380531,-0.9147644121050884
0.62,1.0819806939847163,-0.3884667691963304,2.455002307342556,-0.0678031304114213,0.0407508446829506,0.0450887111676766,-0.4502890059241161,0.5300193756255419,-0.6626006564963917,1.0785147333264882,-0.3845768605845452,2.4493380253539367,-0.5141931978853871,0.5612680422970067,-0.739156767189856,1.8262641012733984,-1.0589589722280024,1.487896502862346,-0.0032341162235161,9.112827226121226,-0.9652771409801976,0.2872398960732103,-0.909975154125258
0.64,1.0732422726880595,-0.3781879806066618,2.4423862838966626,-0.0601818102881148,0.0435041933711359,0.0458160914243589,-0.4679669231509875,0.5497422865308806,-0.6653654212933702,1.0785147333264882,-0.3845768605845452,2.4493380253539367,-0.5141931978853871,0.5612680422970067,-0.739156767189856,1.3314896699211165,-0.8838958613435699,0.9861455452669364,-0.1382382398489257,10.20856766363886,-0.9667862773814784,0.2824440198820156,-0.9071940424622986
0.66,1.0637157587334063,-0.3670228082287012,2.4289992495878963,-0.0513802874440283,0.0490512826493589,0.046490755290741,-0.483374135229638,0.5654550542544005,-0.6734152682953989,1.0733728013476342,-0.3789641801615752,2.441946457682038,-0.5341931981834103,0.5773371371337186,-0.7591567674878792,1.171615647648444,-0.7703606039325295,0.7856383861759908,-0.4024923501014354,10.20856766363886,-0.963792615536213,0.2762924047733558,-0.9108146117109464
0.68,1.0539122693883545,-0.3555772070971069,2.415396938889137,-0.0428983079323782,0.0560430576021047,0.047101780079147,-0.4959028226860115,0.5781937518213093,-0.6866175950279167,1.0630889373899266,-0.367738819315635,2.427163322338241,-0.5741931987794567,0.6094753268071423,-0.7991567680839257,1.1107923480930342,-0.6264343728186739,0.6369348783454409,-0.6601163366258933,9.862072537442144,-0.958133254816346,0.2697362295389738,-0.9182744250157062
0.7000000000000001,1.0438859268389349,-0.3438998135681429,2.401483308628388,-0.0351348947035903,0.0635436984007422,0.0476790695935096,-0.5058726573419596,0.5888605513192803,-0.7042690327427917,1.0528050734322187,-0.3565134584696949,2.412380186994444,-0.6141931993755032,0.6416135164805661,-0.8391567686799721,1.1453727209940974,-0.4984917327974042,0.5333399748985501,-0.8825718857437492,9.568440478425146,-0.9513176638626708,0.2635284750659839,-0.9273928316942448
0.72,1.0341980653308265,-0.3326252799646899,2.3878990815774506,-0.0285772963757328,0.0705105553736757,0.0482075629571413,-0.5132766378895812,0.5974635838234842,-0.7247665126038768,1.0405212094447087,-0.3436811881400836,2.3955970516208445,-0.6541931999715497,0.6737517061539898,-0.8791567692760186,1.171513739647914,-0.3701990273810795,0.4301516252101955,-1.024873993054254,9.141193842930988,-0.943429323751074,0.2571860254003616,-0.938083103201399
0.74,1.0238685114215358,-0.3205939385955608,2.373157001059639,-0.0225796097012388,0.0772120738190051,0.0487428633913388,-0.5191773512281236,0.6052651510456653,-0.7484663584205992,1.0282373454571987,-0.3308489178104723,2.3788139162472453,-0.6941932005675961,0.7058898958274137,-0.9191567698720652,1.2819570593064669,-0.2950356669271181,0.390078361109053,-1.1849922908361177,9.141193842930988,-0.9365042930796752,0.2514494403537798,-0.9475495965942508
0.76,1.0134331751655927,-0.3084099071904645,2.35792446650293,-0.0172773268371089,0.0830780581122284,0.0492630380591842,-0.5239796980081072,0.6126898717707773,-0.7736655079067223,1.0149534814547876,-0.3172131927390254,2.3610307808587447,-0.7341932011636425,0.7380280855008374,-0.9591567704681114,1.3352772626547509,-0.2401173389991795,0.3712360362556011,-1.259957474306156,8.969320053274714,-0.9304721062964776,0.2461960173687175,-0.9559028158198272
0.78,1.0029117354781496,-0.2960845174221392,2.3421735765471943,-0.0123970451746236,0.0881448503896976,0.0497738571525156,-0.5278696642785892,0.6194080193937846,-0.8001721308020742,1.0006696174374752,-0.3027740129257429,2.342247645455343,-0.774193201759689,0.7701662751742612,-0.999156771064158,1.3810018124412435,-0.1944983135240996,0.3359073811503688,-1.3253311447675942,8.969320053274714,-0.9252491549169766,0.2413868324226195,-0.9633131902377736
0.8,0.9928516295279144,-0.2842584252932125,2.326708362768544,-0.0080683993225697,0.0922662924441516,0.0502463321107867,-0.5308604322816689,0.6250481409850718,-0.8264289238193925,0.9765182522642202,-0.26511411645245,2.3021649700070905,-0.6278696657687053,0.6303102639914581,-0.8489854850260408,1.3510873809334507,-0.1495384001539867,0.2820060795643564,-1.3128396508659157,8.911989913298385,-0.9203111806929484,0.2365002236763527,-0.9704927246994076
0.8200000000000001,0.9822445313793242,-0.2715176584250111,2.3102474435198834,0.0019983514952211,0.0955196457932756,0.0511314300465677,-0.5293597180466012,0.6454847675632912,-0.8162950249480229,0.9765182522642202,-0.26511411645245,2.3021649700070905,-0.6278696657687053,0.6303102639914581,-0.8489854850260408,1.1430264164139712,0.075035711753385,1.0218313289109715,0.5066949435684809,8.859593689696794,-0.9217790796840236,0.2254206891225826,-0.974265610759885
0.84,0.9716855047434678,-0.2585213464178197,2.2940218129359216,0.0174977198350893,0.0972549961843292,0.0523831409007663,-0.5266972845383171,0.652052536145401,-0.8072702992864387,0.9765182522642202,-0.26511411645245,2.3021649700070905,-0.6278696657687053,0.6303102639914581,-0.8489854850260408,0.5737373301455971,0.133121675414205,0.3283884291054917,0.4512362830792094,10.808735150147186,-0.9193866533215084,0.2132782042079002,-0.977217856018282
0.86,0.9617067378252376,-0.246133875007533,2.2787063837922217,0.0329129660236663,0.0974254301795222,0.0535645051809682,-0.5239499367960736,0.6511719164777217,-0.8053210988794494,0.9702395556065332,-0.2588110138125354,2.29367511515683,-0.6478696660667285,0.6324907129109928,-0.8587481558708341,0.1740890062763981,0.137367387112175,-0.0440309833839691,0.0974600203494657,10.808735150147186,-0.9176617974350444,0.2000870766139496,-0.9807852195362288
0.88,0.951259398876036,-0.2331613335054958,2.262572511724093,0.0483899004810905,0.0958709977495275,0.0546365851061225,-0.5210020635887973,0.6458523050088002,-0.8084020341943539,0.957682162291159,-0.2462048085327063,2.276695405456309,-0.6878696666627749,0.6368516107500621,-0.8782734975604207,0.340882622911039,0.1473936603638148,-0.2659805734460729,-0.1540467657452249,10.424456834484772,-0.9175825877182404,0.1860059148594903,-0.9836047152974764
0.9,0.9408712574647022,-0.2203380364674457,2.2463311740799963,0.0624462071646025,0.0921721648431716,0.0554120637627023,-0.5180822682861583,0.6366796192069308,-0.81573836733911,0.9451247689757848,-0.2335986032528771,2.2597156957557885,-0.7278696672588214,0.6412125085891315,-0.8977988392500074,0.6051552557814723,0.1459897651319486,-0.4586342900934681,-0.3668166572378062,10.136832954770398,-0.919606397408204,0.1724930296703949,-0.9848246185650456
0.92,0.9305319755512996,-0.2077320107476173,2.229907518265384,0.0746654634243517,0.0860971948971998,0.0557911814698041,-0.5165109979956087,0.6245292291947854,-0.8262371615124102,0.9305673756306084,-0.2207743530810945,2.2417597189707883,-0.7678696678548679,0.6455734064282008,-0.917324180939594,0.8067303559221803,0.0785635145274799,-0.6075195006072731,-0.524939708665012,9.921733536057218,-0.9228861854027612,0.1604234908551381,-0.9851193851906032
0.94,0.9207144058577812,-0.1960070442818989,2.214105982388821,0.0844815867754205,0.0787273080795025,0.0557837677913918,-0.5173602848592324,0.6105259322435379,-0.8365341426094242,0.916009982285432,-0.2079501029093118,2.223803742185788,-0.8078696684509143,0.6499343042672702,-0.9368495226291806,0.8701169941361372,-0.042464343181181,-0.7001648475623734,-0.5148490548506968,9.775159101026476,-0.9291465450957216,0.149047190217986,-0.9827942241112866
0.96,0.9103319918998156,-0.183970295179126,2.1972629766063103,0.0930265288351723,0.0701009149335298,0.0554505315584188,-0.521162708287494,0.5940127859341077,-0.8471970671239692,0.9004525889253544,-0.1950168302915524,2.205359631858548,-0.8478696690469607,0.6542952021063396,-0.9563748643187672,1.0010499290336736,-0.1901211714130823,-0.8256573154715119,-0.5331462257272546,9.795427842121171,-0.9368553811554248,0.1391715722059659,-0.9788734881000224
0.98,0.8998439221876471,-0.172282654218644,2.180209909609805,0.099834213299975,0.0613505014648934,0.0548681747646572,-0.5277176302901321,0.5757675778593332,-0.857538201297835,0.8838951955503757,-0.1819745352278164,2.186427387989069,-0.8878696696430072,0.658656099945409,-0.975900206008354,1.0986283222209163,-0.3277461001319037,-0.912260403738724,-0.5170567086932865,9.795427842121171,-0.9453692439754398,0.1308094147333243,-0.9738832375950413
1.0,0.8891980079598395,-0.1609764583984421,2.162953479292487,0.104909926120861,0.0530599433545539,0.0541155637148594,-0.5367315834474653,0.5561482211528948,-0.8675503778012502,0.8734580406731405,-0.1434942753256774,2.1373329995449133,-0.6277176317802482,0.5466349099303991,-0.8629599487513457,1.1899728856497205,-0.450697657866661,-0.980967835321922,-0.5006088251707619,9.823806557480566,-0.953544868631648,0.1242800583118814,-0.9687889506827468
1.02,0.8788517463055612,-0.1505591884416595,2.1466021891815807,0.1106512687309786,0.0476518571668163,0.053654489277965,-0.5518250758128822,0.5400585659691807,-0.8532602918116676,0.8734580406731405,-0.1434942753256774,2.1373329995449133,-0.6277176317802482,0.5466349099303991,-0.8629599487513457,1.3142460512641654,-0.7546746182708453,-0.804482759185704,0.7145042994791295,9.84965822979666,-0.9640987714878873,0.1167056268828098,-0.9617314599751682
1.04,0.8676489543183797,-0.1399928214508829,2.129682287161085,0.1175884728267774,0.0463870746987911,0.0536602531797565,-0.5671676188729677,0.5173282421654095,-0.839649219790767,0.8734580406731405,-0.1434942753256774,2.1373329995449133,-0.6277176317802482,0.5466349099303991,-0.8629599487513457,1.5307861781883585,-0.7671271530042767,-1.136516190188558,0.6805536010450308,11.23887362781079,-0.968960516798176,0.110452738396303,-0.95766905892129
1.06,0.856168248780768,-0.1299172723723927,2.113002410946005,0.1235634304867879,0.0481624201909309,0.0539196427903401,-0.5798586744970674,0.4915895649081616,-0.8290980720027736,0.867180864355338,-0.1380279262263734,2.1287034000574,-0.6477176320782714,0.5408083763446123,-0.8640442982420479,1.5287814751059408,-0.6345527812049834,-1.286933862862394,0.5275573893996688,11.23887362781079,-0.970735767125672,0.1047669763753894,-0.9569311362707266
1.08,0.8444598466483253,-0.1203740912975658,2.096504267181067,0.1278137878515628,0.0515815991212533,0.0542408130612942,-0.590147218796727,0.4645205170731223,-0.8211661121738808,0.854626511719733,-0.1270952280277654,2.1114442010823726,-0.6877176326743178,0.5291553091730387,-0.8662129972234522,1.5012523782070053,-0.514427214982982,-1.3534523917519663,0.3965979914446416,10.898439712190338,-0.9702116185125856,0.1002514012045972,-0.958821104497684
1.1,0.8331672034935141,-0.1118145743667125,2.0809601453297946,0.130166834794467,0.0554167344374986,0.0544863256628206,-0.597940722860561,0.4383287560162092,-0.8153932584897784,0.842072159084128,-0.1161625298291574,2.094185002107346,-0.7277176332703643,0.517502242001465,-0.8683816962048565,1.3964892521189356,-0.3896752031916972,-1.309588052845656,0.2886426842051204,10.898439712190338,-0.9680171417524904,0.0964800040506871,-0.9627813644905272
1.12,0.8211391292328856,-0.1033438788498785,2.06470320280602,0.1308374085273896,0.0593679897952335,0.0545861529018066,-0.6043688319366489,0.4103404207142169,-0.8106409993847052,0.8275178064187207,-0.1058124849891281,2.0768173681832485,-0.7677176338664108,0.5058491748298913,-0.8705503951862608,1.4553792167959003,-0.3214054538043964,-1.399416765099612,0.2376129552536576,10.789722590142446,-0.965216281477256,0.0939693722564568,-0.9674806306317044
1.14,0.8089997234982275,-0.0954462765210632,2.04853731483748,0.1290021665477297,0.0627136079393854,0.0544048330141414,-0.6092800652472274,0.381284363221073,-0.8061327153737369,0.8129634537533135,-0.0954624401490988,2.059449734259152,-0.8077176344624573,0.4941961076583177,-0.8727190941676651,1.4905530134813822,-0.2455616655289261,-1.4528028746571942,0.2254142005484183,10.715033948053131,-0.9627987228965,0.0933485987318806,-0.9717650298263856
1.16,0.7973819144727426,-0.0884761128784415,2.033266761951838,0.1246513188695972,0.0651947675332594,0.0539330095390095,-0.6134587812462846,0.3548638075595937,-0.8014007532669472,0.797409101073005,-0.0854037219883589,2.0420278828605194,-0.8477176350585036,0.482543040486744,-0.8748877931490694,1.3582147236742437,-0.2089357999528585,-1.3210277830739692,0.2365981053394861,10.741140570410607,-0.9604612799239816,0.0950808716932003,-0.9758261506587602
1.18,0.785069434501369,-0.0816446051849408,2.017297373465205,0.1185234280117644,0.0671190930768572,0.0532161831384541,-0.6175981971098611,0.3301735426928782,-0.795718356048705,0.7808547483777954,-0.0756363305069083,2.024551813987352,-0.8877176356545501,0.4708899733151704,-0.8770564921304738,1.2835824681590169,-0.2069707931788234,-1.234513243335772,0.2841198609121076,10.741140570410607,-0.9591338836322978,0.0986393307781442,-0.9783655809422742
1.2,0.7726754879337765,-0.07528302644868,2.001446708205584,0.1115507394809449,0.0683947682132991,0.0523422873890296,-0.621630589135771,0.3076449729154305,-0.789580942920757,0.754189524645876,-0.0651359280502969,1.9775114556627704,-0.6750680493785569,0.3122993409331822,-0.7699311012532729,1.184762087479023,-0.201619601295494,-1.1264284888723857,0.3068706563974011,10.762680832881417,-0.9585497933424356,0.1031808968493465,-0.9798450093642196
1.22,0.7601136158512593,-0.0693454049836413,1.9858521183129147,0.1048615211600211,0.0721668505815345,0.0517379453978122,-0.6334179688384912,0.287202436371293,-0.7701527096794505,0.754189524645876,-0.0651359280502969,1.9775114556627704,-0.6750680493785569,0.3122993409331822,-0.7699311012532729,1.528312686832364,-0.5893689851360129,-1.022126827206873,0.9714116620653246,10.77588822330381,-0.9566779035919172,0.1071410589366591,-0.9828045855803472
1.24,0.7480056307284794,-0.0640823538360041,1.9714039307134783,0.0988340890649569,0.079383495675307,0.0515264788046889,-0.640033283667131,0.2681528281234687,-0.7516679038140106,0.754189524645876,-0.0651359280502969,1.9775114556627704,-0.6750680493785569,0.3122993409331822,-0.7699311012532729,1.3677883723008812,-0.3307657414319875,-0.9524804123912156,0.924240293271994,11.687109215097736,-0.9546888303429903,0.1140055646425277,-0.9827770123254008
1.26,0.7351728197045505,-0.0589175407240211,1.956563116869573,0.0923955845558948,0.0886978830314991,0.0514045550402439,-0.642492620162958,0.2496703798277298,-0.7334297522217192,0.7474388441520904,-0.0620129346409651,1.9698121446502372,-0.686562019832296,0.308724500581243,-0.7647736502941865,1.3041083203742772,-0.122966824791354,-0.9241224147869432,0.911907579614568,11.59126129890501,-0.9492649835183892,0.1205647509562096,-0.9863253434285472
1.28,0.7223348107844231,-0.0541028251016322,1.942069451409864,0.0857778805492611,0.0982607298347767,0.0512219895061802,-0.6409503896897814,0.2330908688345946,-0.7168343187532509,0.7339374831645192,-0.0557669478223015,1.954413522625172,-0.7095499607397744,0.3015748198773646,-0.7544587483760137,1.1754436094622411,0.0771115236588348,-0.8289755496567643,0.8297716734234184,11.370004005844748,-0.9420194963452746,0.1269206223611502,-0.9917994504651252
1.3,0.7095638472603958,-0.0495973967454713,1.927893139846517,0.0790905071405359,0.1070042048022311,0.0508953705779183,-0.6361188394916312,0.218578220433991,-0.701629913852097,0.7204361221769481,-0.0495209610036378,1.9390149006001065,-0.7325379016472527,0.2944251391734862,-0.7441438464578408,1.0783491657564066,0.241577509907509,-0.7256324200301756,0.7602202450576911,11.370004005844748,-0.934997334158038,0.1328718655925097,-0.9971167319851916
1.32,0.697546374940704,-0.0455663911680314,1.9146966364588875,0.0728181995315014,0.1138960368702289,0.0504238859291809,-0.6291348069417012,0.2066593307141728,-0.6882439321164889,0.7057853641440031,-0.0436324582201681,1.9241320236709496,-0.7555258425547311,0.2872754584696078,-0.733828944539668,0.9617966908834006,0.3492016274964982,-0.595944485990911,0.6692990867804061,11.284283980962757,-0.928334646375948,0.1389509060374922,-1.0020020806900602
1.34,0.6850584148968082,-0.0415482952351733,1.9010778340926404,0.066464820234027,0.1192665379560959,0.0497645994168185,-0.6200452676721081,0.1959344664165981,-0.6743529620950027,0.6911346061110579,-0.0377439554366984,1.909249146741793,-0.7785137834622095,0.2801257777657294,-0.7235140426214951,0.98818202583418,0.4544769634796552,-0.5362432148787385,0.6945485010743102,11.221373242297886,-0.923267043412914,0.144780616629468,-1.005347283834659
1.36,0.6727631681451718,-0.0377278900529012,1.8877357244294968,0.0604703717120834,0.122565480080543,0.0489646184123738,-0.6100936339621112,0.1867550534074873,-0.6605577144571645,0.675909149555426,-0.0320341946708256,1.8946241423605903,-0.8015017243696877,0.272976097061851,-0.7131991407033224,0.966443860344534,0.4975816854998427,-0.4589706504555355,0.6897623818919119,11.217610170161606,-0.9200452948082808,0.1500144243190067,-1.0070157010522474
1.38,0.6606696967849873,-0.0340755741589115,1.874670225882546,0.054897768558618,0.1239416863352229,0.0480653213966817,-0.5999432516771808,0.179003877592505,-0.6466814244954354,0.660108994477107,-0.0265031759225498,1.8802570105273424,-0.824489665277166,0.2658264163579726,-0.7028842387851495,0.9429507014512756,0.5075191142465241,-0.3875587907491179,0.6938144980864536,11.222917512790444,-0.9185369159805076,0.1552154019408146,-1.0069713898481945
1.4,0.649368361587324,-0.0307368304850849,1.862516682914469,0.0500525434597767,0.1236062307818087,0.0471522520535768,-0.5903075199182697,0.1728521640654098,-0.6333286345481783,0.6306725342011283,-0.0251253802792863,1.8423361546577743,-0.61165425307336,0.1687839785863171,-0.5947843755452401,0.8789025902008476,0.481786587945554,-0.3075856763547602,0.6676394973628541,11.222917512790444,-0.9192101712393496,0.1601335576499307,-1.004777896970841
1.42,0.6375796023419205,-0.0273220546580784,1.850066474026192,0.046192221614633,0.1245783635947266,0.0463441641755287,-0.5888231962325892,0.1685947508622687,-0.6120618313560011,0.6306725342011283,-0.0251253802792863,1.8423361546577743,-0.61165425307336,0.1687839785863171,-0.5947843755452401,1.0869748180166732,0.0742161842840261,-0.2128706601570565,1.063340159608861,11.230952184977468,-0.9167851418202402,0.1631699872275965,-1.006375943969742
1.44,0.6258490581590829,-0.0240011252882527,1.8380573590937812,0.0435189683643568,0.1290501385355626,0.045774695458886,-0.5838361041342842,0.1636704757044291,-0.5899571681131589,0.6306725342011283,-0.0251253802792863,1.8423361546577743,-0.61165425307336,0.1687839785863171,-0.5947843755452401,1.1594564572533022,0.2493546049152473,-0.246213757891979,1.1052331621421108,11.772894159740645,-0.9165785233734576,0.1671570365243133,-1.003868421616599
1.46,0.6142594409262032,-0.0207769928104659,1.826484795828209,0.0413816177672268,0.1349995641102882,0.0452956589853526,-0.5751123330255052,0.1589736419562838,-0.5684241653808767,0.6245559916703948,-0.0234375404934231,1.836388310902322,-0.6139964533525958,0.1667399987850795,-0.5844049657552011,1.1851525600999178,0.4361885554389488,-0.2348416874072625,1.07665013661411,11.702435888131731,-0.9134465053049748,0.1702512621983506,-1.004447427062113
1.48,0.6034424151826536,-0.0177968001879697,1.8158834873090688,0.0396529226530156,0.1407610824301672,0.044856239628323,-0.5638506086552233,0.1549556437558438,-0.5485981533246387,0.6123229066089275,-0.0200618609216968,1.8244926233914167,-0.6186808539110675,0.1626520391826043,-0.5636461461751229,1.1576285019221808,0.5630862185140972,-0.2008999100220024,0.9913006028119008,11.702435888131731,-0.9089318760874768,0.1730380830287815,-1.0063562507623447
1.5,0.59231300621748,-0.0147369357626851,1.8051272451733416,0.0381044189775234,0.1460408568274059,0.0443736681160813,-0.5495976491324824,0.151259697490348,-0.5280962701798382,0.6000898215474604,-0.0166861813499704,1.8125969358805123,-0.6233652544695392,0.1585640795801292,-0.5428873265950448,1.262075756875728,0.712647976137043,-0.1847973132747898,1.0250941572400252,11.663402076711463,-0.9043883132391236,0.1754358176176105,-1.0084201644037116
1.52,0.5814902430312152,-0.0117442906245696,1.7947767193719082,0.0369110859357039,0.1498707563450392,0.043856259566457,-0.5334889257870561,0.1481728813408594,-0.5079926573906879,0.5876225164580696,-0.0135148997583679,1.8017391893486117,-0.6280496550280108,0.154476119977654,-0.5221285070149667,1.2972804717333817,0.8054361672713173,-0.1543408074744262,1.005180639457515,11.64953015840183,-0.9004940132378288,0.1773285377478919,-1.010099104531183
1.54,0.5710021610958557,-0.0088079699662197,1.7848293034094411,0.0361977343632073,0.1519159542911499,0.0433057099102012,-0.5163013995825545,0.1455739937807244,-0.4877558355336306,0.5751552113686789,-0.0103436181667653,1.7908814428167106,-0.6327340555864825,0.1503881603751788,-0.5013696874348885,1.333879897568485,0.8593763102250795,-0.1299443780067535,1.0118410928528636,11.634497452868343,-0.8981215214392294,0.1786933341376168,-1.0105677290015231
1.56,0.5613612981378471,-0.0060641809507835,1.7757569306443828,0.0360592684199535,0.1521030549331901,0.0427580694413089,-0.4995427993117142,0.1433290640163773,-0.4682378092780431,0.5625707962653262,-0.0072745355652246,1.7805426667743116,-0.6374184561449542,0.1463002007727037,-0.4806108678548104,1.291165889417835,0.8379300135420126,-0.1122464882173518,0.9759013127793732,11.674141756669997,-0.8974179521441409,0.1796205952070772,-1.0095224199967223
1.58,0.5515579866352264,-0.0032221037158718,1.7666128004571742,0.0365255824608364,0.1503606356435202,0.0421555955467604,-0.4817651569429086,0.14095030542443,-0.4471690229429449,0.5498692711480119,-0.0043076519537457,1.7707228612214148,-0.6421028567034259,0.1422122411702285,-0.4598520482747323,1.383471013669907,0.8888821184402818,-0.1189379295973666,1.0534393167549088,11.707564716114575,-0.8984416614996499,0.1799363219536293,-1.007049819434319
1.6,0.5421110170585801,-0.0004301943876893,1.757895276217081,0.0376053175706845,0.1463428227300157,0.0415110225287189,-0.4640325089895765,0.1382925494821815,-0.4256114580367137,0.527469728788081,0.0038254115553496,1.7442543493100269,-0.4994299061182187,0.1142282188309213,-0.4087541013313975,1.401997748546464,0.8866323976666035,-0.132887797112427,1.0778782453115614,11.707564716114575,-0.902206292977259,0.1799701367326455,-1.0019910201775446
1.62,0.5334235215629152,0.0022111649975392,1.7499275585826266,0.0404417858095405,0.140822782856895,0.0409506679881915,-0.451594785859283,0.1388714215184952,-0.4141866801525813,0.527469728788081,0.0038254115553496,1.7442543493100269,-0.4994299061182187,0.1142282188309213,-0.4087541013313975,0.8449224804708799,0.6218861565146783,0.0289436018156855,0.5712388942066188,11.729185349555337,-0.9025513711845066,0.1775552935543001,-1.000805310937137
1.64,0.5245133280849185,0.0049551000923147,1.741777974127794,0.0449237523492315,0.1341862832313588,0.0404009382733775,-0.4403309372805526,0.1351670287041219,-0.4012592925469387,0.527469728788081,0.0038254115553496,1.7442543493100269,-0.4994299061182187,0.1142282188309213,-0.4087541013313975,0.8770891648433873,0.5631924289365153,-0.1852196407186618,0.646369380282133,11.080263586279216,-0.9086252501610864,0.1734313936883445,-0.9952749092491918
1.66,0.5158072976753213,0.0075939276391119,1.733903136601922,0.0495046773701317,0.1271338817189775,0.0397990187650206,-0.4310813485093078,0.128802778899944,-0.3867919966719414,0.5224754297268988,0.0049676937436588,1.740166808296713,-0.5029628559532808,0.1088838015122195,-0.401071117009088,0.9156435140678822,0.4624794385622438,-0.3182124902088981,0.7233647937498644,11.173966735749673,-0.9159516518878644,0.1694035313718877,-0.9883582876943384
1.68,0.5072646559975232,0.0100854741078686,1.7263321877645257,0.0536025423719455,0.1200913007736017,0.0391249455652899,-0.423862547805322,0.1207191542636104,-0.3710033036901852,0.5124868316045345,0.0072522581202772,1.731991726270085,-0.5100287556234049,0.098194966874816,-0.385705148364469,0.9575214056839172,0.3609400351992864,-0.4041812318166776,0.7894346490878112,11.3293159004661,-0.923588708056418,0.1661935514954983,-0.9807964657504536
1.7,0.4992640356714461,0.0122906983404557,1.7194418989095477,0.0568672635742931,0.1137158474124235,0.0384276960578067,-0.4188185726804602,0.1119185589241243,-0.3550539648224526,0.50249823348217,0.0095368224968957,1.723816644243457,-0.5170946552935289,0.0875061322374126,-0.37033917971985,0.9450840884643203,0.252198756243091,-0.4400297669743036,0.7974669433866294,11.3293159004661,-0.9318744393030128,0.1635792923253035,-0.972241894243292
1.72,0.4909274801498105,0.0144238080084487,1.7125250904133418,0.059628963339806,0.1075817083547815,0.037656284780348,-0.4152806747510935,0.1019207430061791,-0.3374079349926163,0.4921563403762994,0.0112869451416439,1.71640986064906,-0.524160554963653,0.0768172976000091,-0.354973211075231,1.0293874557755316,0.1768948964683381,-0.4998907958972641,0.8823014914918131,11.382496142422497,-0.9399793889168842,0.1617024093338223,-0.963558068436692
1.74,0.4826406281851445,0.0163490925222692,1.705963877527081,0.0616843584665482,0.1023652427833072,0.0368752402170535,-0.4137342834754187,0.0912694488874504,-0.319567856467229,0.4818144472704289,0.0130370677863922,1.709003077054663,-0.531226454633777,0.0661284629626056,-0.339607242430612,1.0417650816920427,0.0773195637837398,-0.5325647059364342,0.8920039262693635,11.429622541209936,-0.9472196359743108,0.1605421315364995,-0.955427107492516
1.76,0.4743629808128226,0.0180532703240307,1.6997589982315122,0.0629542192698799,0.0985645866400002,0.0361203145225894,-0.4142180041223525,0.0798400228858018,-0.3017847517278216,0.4712959066728052,0.0145199695652053,1.7019804426763814,-0.5382923543039011,0.0554396283252021,-0.324241273785993,1.0572423782701914,-0.0241860323466902,-0.5714713000824267,0.8891552369703709,11.432553982588615,-0.952836275927331,0.1599539088053697,-0.9489519180771064
1.78,0.4664744375422183,0.0194536373254041,1.6941926157927345,0.0631903742943888,0.0967867219537106,0.0354523375208256,-0.4160671420493109,0.0683003203912321,-0.2850137831449688,0.4606007185834284,0.0157356504780834,1.6953419575142157,-0.5453582539740252,0.0447507936877986,-0.308875305141374,1.0220682853204228,-0.0924568963479227,-0.5769851247284873,0.8385484291426409,11.41829838317426,-0.9579641763506423,0.1603967986182762,-0.9426389429379408
1.8,0.4581363513695124,0.0206887883368357,1.6886773445710104,0.0621644045539945,0.0967982745144596,0.0347864992977052,-0.4174717778856462,0.055960597715756,-0.267376682135502,0.4456710804397527,0.0228686533449657,1.679941926635486,-0.418507472156076,0.051132003401095,-0.2495648855149925,1.078551215240276,-0.0702317918167633,-0.6169861337738037,0.8818550504733402,11.41829838317426,-0.9620593169293143,0.162180050323154,-0.9370131263553456
1.82,0.4497385585901097,0.0216406921699431,1.6834717611073755,0.0583884464928593,0.0994100711306049,0.0340968628263934,-0.4219528884340607,0.0409287916118114,-0.2541855743399346,0.4456710804397527,0.0228686533449657,1.679941926635486,-0.418507472156076,0.051132003401095,-0.2495648855149925,1.024744933346804,-0.2240555274207273,-0.7515903051972306,0.6595553897783712,11.402876402450602,-0.9595503734001766,0.1650586491054964,-0.938828405086538
1.84,0.441277991079538,0.0223524907312784,1.6785286473915983,0.0525955337157478,0.1048631689189781,0.0334272343228168,-0.4234634782149832,0.031438587513123,-0.2407326476049614,0.4456710804397527,0.0228686533449657,1.679941926635486,-0.418507472156076,0.051132003401095,-0.2495648855149925,0.8266303482475483,-0.075529489046125,-0.4745102049344193,0.6726463367486585,11.13348380883781,-0.9593361301057064,0.1707149399483608,-0.937023603856624
1.86,0.4332447579243441,0.022888540557739,1.6740848254379912,0.047022501036776,0.1112704073718804,0.0328334931137379,-0.4218160201444406,0.0255224576926005,-0.2277208234244588,0.4414860057181919,0.0233799733789766,1.677446277780336,-0.4189955381774289,0.0476983400030676,-0.2424751059889973,0.7194134392888828,0.0823729035271308,-0.2958064910261256,0.6505912090251295,11.130639474366037,-0.9564081190831304,0.1765909963189665,-0.9378765766987754
1.88,0.4248535453331609,0.0233534040280822,1.6696749091928007,0.0417347774699753,0.1182380125670809,0.0322387011983245,-0.4171668924962231,0.0212784208156794,-0.2139742509157432,0.4331158562750705,0.0244026134469985,1.6724549800700363,-0.419971670220135,0.0408310132070127,-0.2282955469370068,0.7559670836740571,0.2324563824108783,-0.2122018438460536,0.6873286254357819,11.124690708174969,-0.9521294316489838,0.1818839452810638,-0.9401333973828016
1.9,0.4165838983137937,0.0237499046165679,1.6655378448889495,0.0372950972788283,0.124609184366739,0.0316628737411709,-0.4099467007847696,0.018454040607411,-0.200449469069909,0.4247457068319489,0.0254252535150204,1.6674636823597364,-0.420947802262841,0.0339636864109579,-0.2141159878850163,0.7794677926130188,0.3610095855726719,-0.1412190104134219,0.6762390922917083,11.124034496758211,-0.9476869341386276,0.1862051357368154,-0.9426867253322432
1.92,0.4088810443675407,0.0240838956056854,1.6618562654773323,0.0338842489363073,0.1296131010208073,0.031127163589234,-0.4012440150172084,0.0166970209295021,-0.1877848058279552,0.4163267507866921,0.0261045272432396,1.6631813626020362,-0.421923934305547,0.0270963596149031,-0.1999364288330258,0.7733329696023031,0.4351342883780584,-0.0878509838954428,0.6332331620976905,11.114191986030164,-0.9432863429711092,0.1899798150974704,-0.9451819487614024
1.94,0.4009646785848729,0.0244054238175787,1.6582393327374272,0.0310832042300883,0.133512185244098,0.0305745195072253,-0.390852811365179,0.0154505685472891,-0.1745930787290719,0.4079077947414353,0.0267838009714587,1.6588990428443358,-0.422900066348253,0.0202290328188482,-0.1857568697810352,0.8419507419239046,0.5195601826014723,-0.0623226191106527,0.6595863549441624,11.110319065411204,-0.9396447002757584,0.1930278888271464,-0.9470033694873344
1.96,0.3932645018039407,0.0247058240291959,1.6548843045387518,0.0289792037252065,0.1359304040793733,0.0300338073165896,-0.3797411312549675,0.0145640600238449,-0.1615834054192363,0.3994644353951108,0.0272913915297765,1.6549712120629352,-0.423876198390959,0.0133617060227934,-0.1715773107290447,0.8566022003568191,0.5555840055105732,-0.0443254261722071,0.6504836654917814,11.109826734801572,-0.9370572967762252,0.1954726976286051,-0.9478540443689996
1.98,0.3857901638493922,0.0249929851373168,1.6517890133991706,0.0275061858758321,0.1369030439560414,0.0295090456342191,-0.3683911924499977,0.0141036153274855,-0.1485977854081498,0.3909966727477187,0.0276272989181929,1.6513978702578345,-0.424852330433665,0.0064943792267385,-0.1573977516770542,0.8626404918436413,0.5674969402484936,-0.0230222348179726,0.6492810005543234,11.10607364581574,-0.935740958934092,0.1974196957463481,-0.9474892616818084
2.0,0.3788984503785828,0.025261523775129,1.6490900301046922,0.0267503690525195,0.1366312430680448,0.0290372612850106,-0.357733477190493,0.0141117196991858,-0.13615155921889,0.3673706042268923,0.0256981659036911,1.6443591241287632,-0.3612045659001875,0.0123555541706538,-0.1277692403146135,0.8192916248011727,0.5328857629752354,0.0004052185850153,0.6223113094629931,11.10607364581574,-0.9358721270626986,0.1988260623792173,-0.9457810279355594
2.02,0.3718330508827708,0.0255018187154515,1.6464353561662324,0.0252718687011282,0.1357988790287392,0.0284950407903755,-0.349513650946457,0.010269121558024,-0.1303181603881731,0.3673706042268923,0.0256981659036911,1.6443591241287632,-0.3612045659001875,0.0123555541706538,-0.1277692403146135,0.5393506416859368,0.4109913122017999,-0.19212990705809,0.2916699415358464,11.112402707331968,-0.9320780602743184,0.1997514668141705,-0.9487555432099712
2.04,0.3649267403294761,0.0256906389121041,1.6438896401591407,0.0225933491446329,0.1350781014594988,0.0278931075206517,-0.3415257701041097,0.0090430000430678,-0.1244602576152981,0.3673706042268923,0.0256981659036911,1.6443591241287632,-0.3612045659001875,0.0123555541706538,-0.1277692403146135,0.4990607157887531,0.3993940421173625,-0.0613060757478085,0.2928951386437492,10.64371365115312,-0.932631062250658,0.2021499759814733,-0.947167724033504
2.06,0.3581804757624189,0.0258769083421427,1.6414711127525117,0.0199258778201187,0.1343685115412682,0.0273149417814817,-0.3335255504148778,0.0096153081730327,-0.1176882342745596,0.3637585585678904,0.0258217214453976,1.643081431725617,-0.3597672405902254,0.0120059419392875,-0.1236035312959062,0.5248603428510868,0.4000109844615934,0.0286154064982459,0.3386011670369247,10.689478572000551,-0.9330977053204929,0.204540962865157,-0.945572868486288
2.08,0.3519193884233901,0.0260743685896872,1.6393053421086086,0.0178025099766316,0.1336669052962954,0.0268145529090674,-0.3259602735347991,0.0110385493291484,-0.1106281674890752,0.3565344672498867,0.0260688325288107,1.6405260469193248,-0.3568925899703014,0.0113067174765548,-0.1152721132584916,0.5222632781371253,0.3782638440039343,0.0711620578057844,0.3530033392742194,10.73657912062754,-0.9336223809106298,0.2068094376073984,-0.9437954541005932
2.1,0.3454830625175781,0.0263164252297495,1.6371759310511882,0.0161072439848457,0.132883068915926,0.0263455929733534,-0.318094052549394,0.0130316933997475,-0.1026598288032406,0.3493103759318829,0.0263159436122238,1.6379706621130323,-0.3540179393503773,0.0106074930138221,-0.1069406952210771,0.5686485674156759,0.3933110492702563,0.0996572035299524,0.3984169342917294,10.772273161695011,-0.9344306289390508,0.2087914314217556,-0.9416198741398928
2.12,0.3392028367305182,0.0266047792610325,1.6352107436309722,0.0150925631072536,0.1320429865351838,0.0259433438997451,-0.3103572638788501,0.0156140656806257,-0.0942529190295247,0.3422300171448754,0.0265280934725002,1.635831848208611,-0.3511432887304532,0.0099082685510894,-0.0986092771836625,0.5856677331753597,0.3868394335271974,0.1291186140439125,0.4203454886857957,10.802851882401228,-0.935958073846834,0.2105492359546353,-0.9384420403491768
2.14,0.3330750219680632,0.0269496491639833,1.6334142584672129,0.0149373738896859,0.1311455926844688,0.0256184048710614,-0.302846253006753,0.018638565883013,-0.0858097965618253,0.3351496583578678,0.0267402433327767,1.6336930343041896,-0.3482686381105292,0.0092090440883568,-0.090277859146248,0.5849128199987839,0.375550543604855,0.1512250101193628,0.4221561233849702,10.822959452066245,-0.937574963544221,0.2117668308006642,-0.9351432499269228
2.16,0.32739046567795,0.0273345949742601,1.6318638300625905,0.0157163103234809,0.1302468760919468,0.0253881275512047,-0.2959343269669236,0.0216239726509804,-0.0778085156549408,0.3281411658363584,0.0269349125814848,1.6317625058507033,-0.3453939874906051,0.0085098196256241,-0.0819464411088334,0.5493356699258931,0.3455963019914687,0.149270338398373,0.4000640453442255,10.81936016103191,-0.93921633071127,0.2121734628582552,-0.9319670272875068
2.18,0.3215460076415853,0.0277976837746965,1.6303966814199626,0.0175356295858618,0.1292691454428704,0.025227199518064,-0.2889068542855583,0.0244299084927415,-0.0693185680245431,0.321204539580347,0.0271121012186246,1.6300402628481525,-0.3425193368706811,0.0078105951628914,-0.0736150230714189,0.568634018948723,0.3513736340682666,0.1402967920880543,0.4244973815198838,10.813477495338702,-0.9408887551827502,0.2117054040886275,-0.9289723558432282
2.2,0.3158396341776619,0.0283063781656851,1.6290994240185268,0.0201854762641169,0.1282778155427014,0.025133469454098,-0.2821080219918359,0.0260110083380602,-0.0608312697725149,0.3071006649273073,0.0290191791993336,1.6269307530187356,-0.297174112579485,0.018631627787975,-0.077158220734206,0.5494502454679345,0.3399416146861178,0.0790549922659344,0.424364912601409,10.813221289419744,-0.9424632399594304,0.2104086451030617,-0.9264043896582947
2.22,0.3102725242379505,0.0288304748460717,1.627872029296806,0.0229819506055399,0.1266989009169606,0.0250447499827298,-0.275032661065643,0.0262599451922694,-0.0623338206264426,0.3071006649273073,0.0290191791993336,1.6269307530187356,-0.297174112579485,0.018631627787975,-0.077158220734206,0.3618713889696175,0.3537680463096465,0.0124468427104611,-0.0751275426963845,10.808436171586436,-0.9429182078742327,0.2092200333025274,-0.9246856429723368
2.24,0.3051119550733471,0.0293234225709277,1.626670916843026,0.0254346689093324,0.1241008962777943,0.0249248945746148,-0.2686358433860264,0.0256249441505107,-0.063991125858209,0.3071006649273073,0.0290191791993336,1.6269307530187356,-0.297174112579485,0.018631627787975,-0.077158220734206,0.3319230459780183,0.3198408839808292,-0.0317500520879379,-0.0828652615883194,10.198338579866686,-0.9438497100063428,0.2066122993390521,-0.9242950464522268
2.26,0.2998017627443866,0.0298224590209896,1.6253767548188554,0.0276891670901448,0.1203252376437914,0.0247511904120753,-0.2628560174048228,0.0243200406120955,-0.0653088588233505,0.3041289238015125,0.0292054954772134,1.6261591708113936,-0.2988275642382703,0.0174719716470217,-0.0787261512761386,0.3035028079976599,0.2889912990601817,-0.0652451769207603,-0.0658866482570762,10.214921442670857,-0.9458323957007496,0.2044114019380286,-0.9226178168685104
2.28,0.2945926451738348,0.0302897431609948,1.624061003898842,0.0295747885170415,0.1158017026625389,0.0245323082911875,-0.2585074400100802,0.0224984925410881,-0.0661719023462643,0.2981854415499228,0.0295781280329729,1.6246160063967094,-0.302134467555841,0.0151526593651151,-0.0818620123600037,0.2396508233633911,0.2174288697371296,-0.0910774035503693,-0.0431521761456915,10.259996234870414,-0.94870857179623,0.2025603807934606,-0.919928762293908
2.3000000000000003,0.2897072552882146,0.0306952529356147,1.622798999501995,0.0310049809829186,0.111267970301126,0.0242943576266481,-0.2560918982232055,0.0203166072348255,-0.0666173207653627,0.2922419592983331,0.0299507605887324,1.6230728419820253,-0.3054413708734117,0.0128333470832085,-0.0849978734438689,0.1642700762608197,0.1207770893437321,-0.1090942653131291,-0.0222709209549192,10.259996234870414,-0.951839062354206,0.2011083042113682,-0.9169106623894536
2.32,0.2845945356433473,0.031073082612771,1.6214639456314546,0.0320896580969853,0.1068348069686295,0.0240297809849999,-0.2554749406773856,0.0175816892729952,-0.0668485484729231,0.2861331318808649,0.0302074275303965,1.621372884513148,-0.3087482741909824,0.0105140348013019,-0.0881337345277341,0.1406580883208463,0.0308478772909959,-0.1367458980915173,-0.0115613853780165,10.278500117579824,-0.955114414414874,0.199907529154324,-0.9137390171463348
2.34,0.2794727624634871,0.031391535841489,1.6201226002281703,0.0326299390403043,0.1034361111922536,0.0237688936646824,-0.2568676438315065,0.0144202993528132,-0.0672828820605935,0.2800243044633966,0.0304640944720607,1.6196729270442705,-0.3120551775085531,0.0081947225193953,-0.0912695956115993,0.1740880091240129,-0.0696351577060466,-0.1580694960090962,-0.0217166793835231,10.29162090193404,-0.9576151046171048,0.1991061312510496,-0.9113726639150396
2.36,0.2743037521965686,0.0316432750647367,1.6187692653638943,0.0324909496732005,0.1018205335187978,0.023531066607352,-0.2599053857179044,0.0109818365918117,-0.0680220596731339,0.2738328044629892,0.0306627786066772,1.6178945730482963,-0.3153620808261237,0.0058754102374887,-0.0944054566954644,0.232364398467426,-0.1518870943198941,-0.171923138050078,-0.0369588806270172,10.280243109799812,-0.9591515155233692,0.198729702035916,-0.910160422543876
2.38,0.2693377948508269,0.0318191360588387,1.6174671442630086,0.0316737066286869,0.102085160178402,0.0233291274462821,-0.2624656937681804,0.0077733915590673,-0.0690018503911233,0.2675586318796424,0.0308034799342461,1.616037822525226,-0.3186689841436945,0.0035560979555821,-0.0975413177793296,0.2110052528463964,-0.1280154025138008,-0.1604222516372204,-0.0489895358994713,10.265455094711797,-0.9599425359239367,0.1988460970349674,-0.9098586818894084
2.4,0.2640694725730039,0.0319425681152466,1.616073464153028,0.0301259527776315,0.1037044369145673,0.0231247914240233,-0.2640721867043685,0.0048063914056648,-0.0703292478278612,0.2562145101624178,0.0322078056367921,1.6140170517434524,-0.259265449609674,0.0084307190322309,-0.0729714121654069,0.1812863302856183,-0.0803246468094043,-0.1483500076701213,-0.0663698718368938,10.243433517814085,-0.9590870861900882,0.1995610962960313,-0.9111328194039706
2.42,0.2587666653636556,0.0319900055732995,1.61469485763261,0.0272966256000508,0.1068145120766613,0.0228870040358252,-0.2657930423534805,0.0007807502894485,-0.0674366687465337,0.2562145101624178,0.0322078056367921,1.6140170517434524,-0.259265449609674,0.0084307190322309,-0.0729714121654069,0.2623649381271507,-0.0860427824556003,-0.2012820558108178,0.1446289540663718,10.222174665001148,-0.9571146274927484,0.2011150527273895,-0.9135320009827038
2.44,0.2537162822269912,0.0319926099984067,1.6134361684242098,0.0239917916601923,0.1110102551023003,0.0226572672268649,-0.26553090962014,-0.0002099458593044,-0.065218963117429,0.2562145101624178,0.0322078056367921,1.6140170517434524,-0.259265449609674,0.0084307190322309,-0.0729714121654069,0.1221516545774702,0.013106636667029,-0.0495348074376505,0.1108852814552363,10.485220619972097,-0.954597663020156,0.2042505480434418,-0.9152728837965202
2.46,0.2484267698451429,0.0319937064243725,1.6121486500839572,0.0207381846477863,0.1159311244181027,0.0224453134657675,-0.2632534196728561,0.0003687100597095,-0.0636994632528777,0.2536218556663211,0.0322921128271144,1.6132873376217984,-0.2586254007779728,0.0085621845268636,-0.0737653245202637,0.1399167875110104,0.1138744973641942,0.0289327959507014,0.0759749932275642,10.4275516703392,-0.9506625290245224,0.2071842420794968,-0.918455502135529
2.48,0.243202650591234,0.0320176738599317,1.610883077380587,0.0180231466727425,0.1207404505840552,0.0222715253993302,-0.2591495223577706,0.0019353583334566,-0.0629803977726151,0.2484365466741276,0.032460727207759,1.6118279093784902,-0.2573453031145702,0.008825115516129,-0.0753531492299771,0.2225613126270242,0.2051948657542712,0.0783324136873567,0.0359532740131327,10.37850747054199,-0.9460367546723746,0.209645782247783,-0.9223853750075744
2.5,0.2380774655512446,0.032080146577306,1.6096243407303488,0.0159425500138903,0.1249669360095786,0.0221374506810724,-0.2535382000301625,0.0040940042200338,-0.0629466500607968,0.2432512376819341,0.0326293415884037,1.6103684811351822,-0.2560652054511677,0.0090880465053945,-0.0769409739396906,0.3006153241104108,0.2805661163804068,0.1079322943288565,0.0016873855909142,10.338360324194582,-0.9415343227335432,0.2114984698223809,-0.9262492882036508
2.52,0.2333234356006496,0.0321835839837747,1.608424451256741,0.0145410735841409,0.1281969845998479,0.0220462312132042,-0.2471782501741116,0.0065907928475735,-0.0633727786973199,0.2381299335729108,0.0328111025185115,1.6088296616563884,-0.2547851077877651,0.0093509774946599,-0.078528798649404,0.3422882602316314,0.317997492802545,0.1248394313769877,-0.0213064318261582,10.30915034395457,-0.93708846450642,0.212979292834726,-0.9300238732930066
2.54,0.2284568435910385,0.0323475818874515,1.6071507591487522,0.013741534511947,0.130672914450329,0.0219954100083376,-0.2398228229592586,0.0096373163213658,-0.0639870045927523,0.2330086294638874,0.0329928634486194,1.6072908421775944,-0.2535050101243625,0.0096139084839254,-0.0801166233591175,0.3992520765130335,0.3677713607426511,0.1523261736896148,-0.0307112947716195,10.28778498399879,-0.9332286117294418,0.213914964898114,-0.9332459275745802
2.56,0.2237421585478421,0.0325765633781327,1.6058639966395605,0.0137900581809805,0.1321987945710495,0.0220036990016352,-0.2320486729191477,0.0130439340569432,-0.0646651701634144,0.2279193277964491,0.033181197653459,1.6057123270810578,-0.25222491246096,0.0098768394731908,-0.081704448068831,0.4257415935275103,0.3887075020055433,0.1703308867788693,-0.0339082785331013,10.28778498399879,-0.9302773588804566,0.2141889877468527,-0.9356580088535684
2.58,0.2191849977817568,0.0328747945226885,1.6045634975527028,0.0148229531044956,0.1328223509311469,0.0220806811626908,-0.2241394281318684,0.016490147521735,-0.0653554495859794,0.2228620285705959,0.0333761051330301,1.6040941163667783,-0.2509448147975574,0.0101397704624562,-0.0832922727785444,0.4327500029787215,0.3954622393639639,0.1723106732395889,-0.0345139711282534,10.28973627646883,-0.9278404544128184,0.2136830346707013,-0.9376701466925615
2.6,0.21500110889261,0.0332183479472348,1.6033153363795472,0.0167134041609793,0.1326989833193574,0.0222159604401996,-0.2167413042241569,0.0193982052250601,-0.0659967183558241,0.2079780263751633,0.0336993018987753,1.601295725073404,-0.2127218091791769,-0.0002698906902066,-0.0653205153014938,0.3987488639322368,0.3699061953855775,0.1454028851662554,-0.032063438492233,10.292668379791394,-0.9261102885730356,0.2123206887323271,-0.9391854233418142
2.62,0.2107415930934421,0.0336696211088749,1.6020141386715865,0.0207812566360134,0.1321794254048605,0.02250205320828,-0.2096009182271692,0.0245616810719282,-0.0639710074691411,0.2079780263751633,0.0336993018987753,1.601295725073404,-0.2127218091791769,-0.0002698906902066,-0.0653205153014938,0.4520788084051115,0.3570192998493857,0.2581737923434029,0.1012855443341516,10.295686576589103,-0.9253182094756108,0.2093167085138665,-0.9399948817026096
2.64,0.206623557042709,0.0341724907596398,1.600756004772028,0.0262501738216369,0.1315788798619844,0.0228830326153994,-0.2025769605591311,0.0251929835319152,-0.0619765656881051,0.2079780263751633,0.0336993018987753,1.601295725073404,-0.2127218091791769,-0.0002698906902066,-0.0653205153014938,0.3664434544930432,0.3511978834019019,0.0315651229993507,0.0997220890517992,10.463336283601166,-0.9247843809394688,0.2050957821580666,-0.9408205744367778
