t,x,y,z,roll,pitch,yaw,v_x,v_y,v_z,ref_x,ref_y,ref_z,ref_v_x,ref_v_y,ref_v_z,a_com,a_x,a_y,a_z,thrust,wind_x,wind_y,wind_z
0.0,2.44185594098018,-1.0627182291097848,2.436276789823165,0.0324516026832542,0.0995302633093854,0.0425444472678103,0.003668768116458,-0.0035927806923448,0.0010639815511943,2.441960613250422,-1.0627197706407514,2.436312637207903,-0.0964631663204257,0.0990129492555969,-0.0370991075014766,0.2622021612082339,0.1834384058229032,-0.1796390346172449,0.0531990775597176,10.255604311120806,-0.9400074210002692,0.2509148884580234,-0.8810196178997344
0.02,2.4421012578465926,-1.0630545394964723,2.4361846569973347,0.0226655301439417,0.0939994807521046,0.0417053896047307,0.0201373942777837,-0.025295248655344,-0.0105609510949295,2.441960613250422,-1.0627197706407514,2.436312637207903,-0.0964631663204257,0.0990129492555969,-0.0370991075014766,1.48100626463346,0.8234313080662847,-1.085123398149956,-0.581246632306196,10.25672913024573,-0.9466211544878324,0.2522846271161086,-0.8800270436381734
0.04,2.442618443019576,-1.0635809064919908,2.435810555584577,0.0057328822322268,0.0783715735745135,0.0403532074458904,0.0291691101177214,-0.0254797506080276,-0.0261234308318972,2.441960613250422,-1.0627197706407514,2.436312637207903,-0.0964631663204257,0.0990129492555969,-0.0370991075014766,0.8997176050676312,0.4515857919968833,-0.009225097634179,-0.7781239868483822,9.354210732439242,-0.9523845350703848,0.2678398652391187,-0.866000785408361
0.06,2.4431704601904896,-1.0640078513951758,2.435173720173301,-0.0107177698713049,0.0581294843012506,0.0393680807562909,0.0275840708658768,-0.0191370049185859,-0.0401007902630868,2.4409959815872178,-1.0617296411481951,2.435941646132888,-0.1164631666184489,0.1190129495536201,-0.0447509983157809,0.7715396117171912,-0.0792519625922296,0.3171372844720819,-0.698867971559484,9.369590758180491,-0.9647026741749222,0.2815551671908963,-0.8473108928817451
0.08,2.443616594137733,-1.0642888335931997,2.434224912289735,-0.0273509954010879,0.034897084311673,0.0388417096046012,0.0163178445362655,-0.0089454744642896,-0.0540287261023088,2.439066718260809,-1.0597493821630837,2.4351996639828584,-0.1564631672144953,0.1590129501496665,-0.0600547799443896,1.0305126702912972,-0.5633113164805668,0.5095765227148175,-0.6963967919610958,9.369590758180491,-0.9810201241632192,0.293728828254413,-0.8248818099885207
0.1,2.443741737758763,-1.0643347379827357,2.433004622474146,-0.0431639406559965,0.0126243716021741,0.0387902191572126,-0.0036054641203098,0.0041804458842922,-0.0673444723378257,2.4371374549344007,-1.0577691231779716,2.434457681832829,-0.1964631678105418,0.199012950745713,-0.0753585615729983,1.3661415653503537,-0.9961654328287658,0.6562960174290912,-0.6657873117758447,9.414617854847164,-0.9982998131087888,0.3042959950032238,-0.8018235671947876
0.12,2.4433967427625114,-1.0640888467638183,2.4315232227496826,-0.058190749543742,-0.0067907664911506,0.0390619038011829,-0.030181008596533,0.0200740593881239,-0.0801293301557303,2.43320819157819,-1.0537888641630573,2.432950510601369,-0.2364631684065883,0.2390129513417594,-0.090662343201607,1.6750515692367016,-1.3287772238111597,0.7946806751915848,-0.6392428908952301,9.476502455740956,-1.0137530853622951,0.3129860397885163,-0.7814334991286359
0.14,2.4425244401909545,-1.063533489005516,2.4298811023518043,-0.0717085317501249,-0.0214212488907519,0.0394458780472734,-0.0601964530419158,0.0378163078955625,-0.092107905337902,2.429278928221979,-1.049808605148143,2.4314433393699093,-0.2764631690026348,0.2790129519378059,-0.1059661248302158,1.8433668590031904,-1.5007722222691435,0.8871124253719335,-0.5989287591085857,9.55326561424272,-1.0277766315788786,0.3207913512358748,-0.7633494099119748
0.16,2.440953115940576,-1.0625320157189262,2.4279042307220178,-0.08426973812315,-0.0322558779077583,0.0398609272486544,-0.0953634591822885,0.0611859404580943,-0.1049388371039867,2.4243496648508667,-1.0448283461183276,2.429553573597734,-0.3164631695986812,0.3190129525338523,-0.1212699064588245,2.2065192368131945,-1.7583503070186326,1.1684816281265868,-0.6415465883042343,9.603982558478492,-1.0383605171073504,0.3273820456946448,-0.7496466234039203
0.18,2.438639185906292,-1.061027820314895,2.425670411739856,-0.0941803972508818,-0.0375537283077313,0.0401221337192531,-0.1340214832240699,0.087430827041071,-0.1177509650084322,2.4184204014648536,-1.038848087073611,2.427281213284844,-0.3564631701947276,0.3590129531298988,-0.1365736880874332,2.4224922683097128,-1.9329012020890728,1.3122443291488362,-0.6406063952222748,9.709578834974309,-1.0446199526701612,0.3317711556081655,-0.7431541819398179
0.2,2.4355494609080126,-1.0589826020637545,2.4231857730973707,-0.1014239730998046,-0.0370237454182372,0.0400636227223322,-0.1722689641184372,0.1151611422354041,-0.1299312688426555,2.4319381117450884,-1.0566562789628415,2.4197828634894347,-0.2340214847141861,0.1874308285311871,-0.1392602342608516,2.439364659617362,-1.912374044718365,1.3865157597166569,-0.6090151917111687,9.709578834974309,-1.0476648978683465,0.3332916890777979,-0.7436835082813635
0.22,2.43189028282069,-1.0563843088395322,2.4206811966034607,-0.1020509460170535,-0.0312256757211964,0.0399088457740119,-0.2103803586050404,0.1554194317665848,-0.1322895211587478,2.4319381117450884,-1.0566562789628415,2.4197828634894347,-0.2340214847141861,0.1874308285311871,-0.1392602342608516,2.774333081875807,-1.905569724330157,2.0129144765590308,-0.1179126158046134,9.742832609226753,-1.049108955788115,0.3327286590016249,-0.7440120999646807
0.24,2.427313351841389,-1.0529252185271016,2.418041049497524,-0.0956105560324744,-0.0202170907028258,0.039776457916307,-0.2444926276860172,0.1870129429769281,-0.1314188047961018,2.4319381117450884,-1.0566562789628415,2.4197828634894347,-0.2340214847141861,0.1874308285311871,-0.1392602342608516,2.3251639724088484,-1.705613454048842,1.5796755605171673,0.0435358181322981,10.481482656582555,-1.0456816471753323,0.3267329505410767,-0.7544562722445921
0.26,2.422120546903888,-1.0489196656071214,2.41542093672159,-0.0874233519217189,-0.0066587319454325,0.0396113979323782,-0.2724820218993124,0.2116451223896732,-0.1305534087607832,2.429597896897947,-1.0547819706775297,2.4183902611468264,-0.2540214850122093,0.2074308288292103,-0.1435620881113355,1.864738159465592,-1.399469710664758,1.2316089706372546,0.0432698017659341,10.325008557512774,-1.040374886141329,0.3210185581098795,-0.7652566409088962
0.28,2.41672419338093,-1.0446981713618366,2.412939899151723,-0.0799445720004715,0.0068840209268662,0.0394767302146345,-0.2938075328643104,0.2315453653165212,-0.1306422548588641,2.424917467203663,-1.051033354106906,2.4156050564616094,-0.2940214856082557,0.2474308294252568,-0.1521657958123033,1.458428075099142,-1.066275548249898,0.9950121463423984,-0.0044423049040467,10.21826579692879,-1.0340590017291365,0.3158212155370996,-0.7761021062531654
0.3,2.410656606263067,-1.0398697857962622,2.4103140693627862,-0.0731130979504041,0.0204909786410943,0.0394106964820917,-0.3115107764624043,0.2503423192049054,-0.1320293618765125,2.42023703750938,-1.0472847375362822,2.4128198517763924,-0.3340214862043022,0.2874308300213032,-0.1607695035132711,1.29291760686239,-0.8851621799046971,0.939847694419213,-0.0693553508824218,10.11846648860228,-1.0266579100096913,0.311485141170803,-0.7876254991866688
0.32,2.4042776824094383,-1.034679793262931,2.4076440803214343,-0.0675251856624212,0.0324822320214275,0.0394511895565405,-0.3253160621797,0.2678485540027912,-0.1350026842694258,2.413556607785293,-1.041536120935856,2.409604461706127,-0.3740214868003486,0.3274308306173497,-0.1693732112142389,1.1246052825181307,-0.6902642858647834,0.8753117398942883,-0.1486661196456642,10.11846648860228,-1.019057953661773,0.3081444995704113,-0.798539430329138
0.34,2.397656196909465,-1.0291494087412714,2.404902304466764,-0.063133543113073,0.042247983487754,0.0396075240841928,-0.3361669667608828,0.284536924965971,-0.1390684719414335,2.406876178061207,-1.03578750433543,2.4063890716358616,-0.4140214873963951,0.3674308312133962,-0.1779769189152067,1.0158426121064306,-0.5425452290591437,0.8344185481589883,-0.2032893836003829,10.025600772080908,-1.0126724452255025,0.3057650363243307,-0.8072954608324412
0.36,2.391179401708973,-1.023583209889554,2.402214221526348,-0.0596475636131014,0.0494068932677277,0.0398684410088664,-0.3450996299531766,0.3005440257640346,-0.1437051469091675,2.39919574832222,-1.0290388877201029,2.402958588873072,-0.4540214879924416,0.4074308318094426,-0.1865806266161745,0.9454079839185072,-0.4466331596146899,0.8003550399031834,-0.2318337483867033,9.975069776161943,-1.0069587176165695,0.3040221759635475,-0.8144498870847418
0.38,2.384187153166616,-1.0173988693303648,2.3992835006994957,-0.0563586245478872,0.0549648720287923,0.0402496990842676,-0.3536697908822317,0.3170067227488932,-0.149157419860855,2.390515318568332,-1.0212902710898744,2.399313013417758,-0.494021488588488,0.447430832405489,-0.1951843343171422,0.9672064550871188,-0.4285080464527524,0.8231348492429291,-0.2726136475843729,9.940302877957038,-1.00260916543919,0.3025463628353151,-0.8197288171828717
0.4,2.3770287078642074,-1.0108892319425886,2.3962383565988508,-0.0533020482456083,0.0587953887677359,0.040719259210199,-0.3618184562791636,0.33306091985803,-0.1550910193469419,2.3665036636225043,-1.00154853319292,2.3918256297064526,-0.4536697923723478,0.4170067242390093,-0.2053054795270118,0.9478206521165556,-0.4074332698465965,0.8027098554568374,-0.2966799743043438,9.914321372646556,-0.999652700898883,0.3012840326945578,-0.8232163791453938
0.42,2.3700774199311705,-1.0044222350511065,2.3932092170148267,-0.0507991346758303,0.0611650995734895,0.0412061216340501,-0.3695368516581108,0.3469406892103792,-0.1636337867056625,2.3665036636225043,-1.00154853319292,2.3918256297064526,-0.4536697923723478,0.4170067242390093,-0.2053054795270118,0.90166581759179,-0.385919768947357,0.6939884676174624,-0.4271383679360307,9.89400051573648,-0.9964933240744628,0.3001825016193039,-0.8268328333654406
0.44,2.3626097029489634,-0.9973518151236386,2.389823203908553,-0.049290412646967,0.0623239490081468,0.0417044949930295,-0.3769348629242033,0.3595976265788695,-0.1746077144368946,2.3665036636225043,-1.00154853319292,2.3918256297064526,-0.4536697923723478,0.4170067242390093,-0.2053054795270118,0.9156360140544688,-0.3699005633046259,0.6328468684245137,-0.5486963865616048,9.711213217043223,-0.994609976636862,0.2990081251604253,-0.8301017696970517
0.46,2.3549906936973417,-0.9900274781385294,2.386203029794632,-0.0492061562833081,0.0621269107467685,0.0421653683544307,-0.3846776602928671,0.3723107656842507,-0.1869177643889897,2.3619669656987807,-0.99737846595053,2.3897725749111824,-0.473669792670371,0.4370067245370326,-0.2165350914602431,0.9658055534475304,-0.3871398684331895,0.6356569552690622,-0.615502497604753,9.611962389699327,-0.9935989987366768,0.2988006419625598,-0.832082449882291
0.48,2.347212689706728,-0.9824484906198012,2.382327021731155,-0.0504639795560838,0.0607649213573412,0.042587226460698,-0.3928371407536292,0.3851017887374318,-0.2000729230204365,2.352893569851334,-0.98903833146575,2.3856664653206425,-0.5136697932664175,0.477006725133079,-0.2389943153267059,1.004048792085197,-0.4079740230381073,0.6395511526590514,-0.6577579315723405,9.510718989591624,-0.9936277640546284,0.2993500535976622,-0.832777542844911
0.5,2.339666484129399,-0.9750069087773778,2.3783966724851973,-0.0528269378299426,0.0585309337474025,0.0429564980976255,-0.4011910080265662,0.3978055378182434,-0.2130004108907899,2.343820174003887,-0.9806981969809696,2.381560355730102,-0.553669793862464,0.5170067257291255,-0.2614535391931686,0.997863068963129,-0.417693363646851,0.6351874540405839,-0.6463743935176693,9.48993116008387,-0.9946875976169626,0.3008770454985822,-0.8319439168654563
0.52,2.33154273410874,-0.9668937703272354,2.3739901297836217,-0.0559864204049143,0.0553418771490391,0.0433518043965467,-0.41086466409132,0.4130235079559369,-0.2269951586784317,2.3327467781266376,-0.9703580624663872,2.376331284946239,-0.5936697944585104,0.557006726325172,-0.2839127630596313,1.1412922526795912,-0.4836828032376894,0.7608985068846719,-0.6997373893820907,9.48993116008387,-0.996736018617906,0.303124436227963,-0.8294414454238743
0.54,2.3232127653671726,-0.9584596767366168,2.369301833612017,-0.0591043632345622,0.0515224274061971,0.0437984514959996,-0.4217833020581385,0.4296472529273983,-0.2411366047444054,2.321673382249388,-0.9600179279518049,2.3711022141623754,-0.6336697950545569,0.5970067269212185,-0.306371986926094,1.220190608843024,-0.5459318983409234,0.8311872485730731,-0.7070723032986864,9.474172155181805,-0.9993969819119404,0.3054282061278998,-0.8260507958494546
0.56,2.3146425004879085,-0.949674729001607,2.364330500979061,-0.0615687228165991,0.0476394084124409,0.0443065390347701,-0.4347984909046666,0.4477530412161835,-0.2552757170373055,2.309599986357238,-0.9486777934223212,2.3653116627818505,-0.6736697956506033,0.6370067275172648,-0.3288312107925567,1.3201602238936192,-0.6507594423264068,0.9052894144392588,-0.7069556146450064,9.472956021648317,-1.0018757300655208,0.3073802230166305,-0.8226522543560894
0.58,2.3062388099283218,-0.940986439747178,2.359345819216317,-0.0629718314626785,0.0446794302197082,0.0448155329353463,-0.4492064585266284,0.4656581606633412,-0.2687083028505988,2.296526590450186,-0.9363376588779362,2.358959630804664,-0.7136697962466497,0.6770067281133113,-0.3512904346590194,1.3309932334951708,-0.7203983810980891,0.8952559723578862,-0.6716292906646631,9.48395913690456,-1.004179665121016,0.3086646609291421,-0.8197709237468044
0.6,2.297078664894004,-0.931470675611313,2.3538204970322987,-0.0632710014946795,0.0431614837884628,0.0453315516621995,-0.4660708139418352,0.4848544662951636,-0.2831191775300603,2.28377848700199,-0.917703531714011,2.345910404073787,-0.5492064600167446,0.5656581621534573,-0.3097778812299914,1.4667804390125083,-0.8432177707603378,0.9598152815911172,-0.7205437339730725,9.495200483507688,-1.005818004146189,0.3087821700882366,-0.8185000469880844
0.62,2.2875552142405176,-0.9215156741887024,2.3481530961026547,-0.0607114425945316,0.044498540448721,0.0458604024248003,-0.48503141986915,0.5091548587018097,-0.2820235323804578,2.28377848700199,-0.917703531714011,2.345910404073787,-0.5492064600167446,0.5656581621534573,-0.3097778812299914,1.542087940538538,-0.9480302963657428,1.2150196203323027,0.054782257480121,9.487907609970534,-1.011033594611467,0.306498671881509,-0.8143488252519698
0.64,2.277680954234342,-0.9111278941002012,2.3425218522177977,-0.0555169639706556,0.0486563020769331,0.0464008946039477,-0.5010489613818091,0.5279090757228871,-0.281181804734279,2.28377848700199,-0.917703531714011,2.345910404073787,-0.5492064600167446,0.5656581621534573,-0.3097778812299914,1.233886945402384,-0.8008770756329525,0.9377108510538744,0.0420863823089395,10.473431271720074,-1.011223477076404,0.3042341595105852,-0.8139243324083235
0.66,2.268031224089711,-0.9009494292191011,2.337159559208166,-0.0503996948247345,0.05395319609913,0.0468624303544908,-0.51367747901832,0.5425561531855,-0.2832979330968643,2.278286422401823,-0.9120469500924764,2.342812625261487,-0.5692064603147677,0.5856581624514805,-0.31799179690587,0.972746543476748,-0.6314258818255425,0.7323538731306423,-0.1058064181292617,10.094685721514908,-1.00867619033469,0.3013948528451994,-0.8173486620973075
0.68,2.257641054482556,-0.8899556624413363,2.3314441414160174,-0.0456053418247851,0.0599828327901666,0.0472988186928983,-0.5244806696861399,0.5561073148315397,-0.2882683312439908,2.267302293201488,-0.9007337868494072,2.336617067636887,-0.6092064609108142,0.625658163047527,-0.334419628257627,0.9014540591501744,-0.5401595333909992,0.6775580823019878,-0.248519907356326,10.094685721514908,-1.004563605756042,0.2985417045110251,-0.8231222579939297
0.7000000000000001,2.2470575547851785,-0.8787025169122927,2.325601920247609,-0.0416583306458211,0.0657496917899234,0.0476999925134901,-0.5332093584883348,0.5686243255070363,-0.2958234999329163,2.256318164001153,-0.8894206236063381,2.330421510012288,-0.6492064615068607,0.6656581636435734,-0.350847459609384,0.8513902430351467,-0.4364344401097453,0.6258505337748299,-0.3777584344462736,9.925443117369468,-0.999705229502002,0.2959688312422938,-0.8299275337123301
0.72,2.236317887622026,-0.8672067943754891,2.319584368489384,-0.0385694287616981,0.070750806350259,0.0480788076875461,-0.5403038477667824,0.5804916765019059,-0.3055668289401847,2.243334034771016,-0.8761074603334666,2.3234045608201,-0.6892064621029071,0.7056581642396199,-0.3672752909611411,0.8457219665784346,-0.354724463922379,0.5933675497434787,-0.4871664503634215,9.785424759152193,-0.9950586902438244,0.2939074251434411,-0.8363764383069777
0.74,2.225995972288866,-0.8560696960479647,2.313677941853859,-0.0363394721891098,0.0745354583518708,0.0484262643197997,-0.5458928319801183,0.5913889716961931,-0.3156923502599565,2.230349905540878,-0.8627942970605951,2.316387611627912,-0.7292064626989536,0.7456581648356664,-0.3837031223128981,0.7945344062491977,-0.2794492106667934,0.5448647597143585,-0.5062760659885923,9.678619884459296,-0.990819385116114,0.2921064139329205,-0.8423647043203211
0.76,2.2150196937820588,-0.8441172888412788,2.30724621436726,-0.0343944033571139,0.0775129347715433,0.0487953135736523,-0.5514450959132626,0.6032484153925133,-0.326978496441471,2.21636577629584,-0.8484811337728225,2.3089599666519303,-0.769206463295,0.7856581654317127,-0.4001309536646552,0.8643655696520972,-0.277613196657217,0.5929721848160097,-0.5643073090757234,9.636955032398872,-0.9874560044712558,0.2906646912569305,-0.8470741587215608
0.78,2.203934158904858,-0.8319270292504555,2.300584129992514,-0.0325197161554943,0.0796670949789358,0.0491797608807376,-0.5568355351524495,0.6151006168839979,-0.3386831929135223,2.201381647035901,-0.8331679704701487,2.3011216258921547,-0.8092064638910464,0.8256581660277592,-0.4165587850164122,0.875401957515754,-0.2695219619593458,0.5926100745742291,-0.5852348236025651,9.609768242010432,-0.9847564215064268,0.2892139492505771,-0.8510264447824825
0.8,2.192741663748599,-0.8195022328216446,2.2936838878713317,-0.0305735865765155,0.0811979448939868,0.0495796367673635,-0.5621547139605927,0.6266674186378952,-0.3507576240583033,2.1760923821472358,-0.8011719984062555,2.2836499703468376,-0.6568355366425657,0.715100618374114,-0.3758176912712951,0.877320428174647,-0.2659589404071572,0.5783400876948674,-0.6037215572390481,9.593218785981662,-0.9826594644622676,0.2877302230503193,-0.854291674065692
0.8200000000000001,2.182003356451557,-0.8074744490082132,2.2870139757428003,-0.0282939405944649,0.0827199416716739,0.0499776829251569,-0.5677683088603264,0.6384917274288535,-0.3507154604417459,2.1760923821472358,-0.8011719984062555,2.2836499703468376,-0.6568355366425657,0.715100618374114,-0.3758176912712951,0.6544625731331223,-0.2806797449866838,0.5912154395479152,0.0021081808278672,9.57782303687418,-0.9841605025766578,0.2861013426837409,-0.8535611974735761
0.84,2.170600581905267,-0.7946007375215112,2.2799857481789148,-0.0260064716473696,0.0845335813121664,0.0503724753129671,-0.5721667872794064,0.6483812824385716,-0.3522684790201229,2.1760923821472358,-0.8011719984062555,2.2836499703468376,-0.6568355366425657,0.715100618374114,-0.3758176912712951,0.5467215410932181,-0.2199239209540016,0.4944777504859055,-0.0776509289188487,10.285235212895714,-0.9829720587727164,0.2851120633353396,-0.8547201068885368
0.86,2.159118438440606,-0.78153550000782,2.2729000161612736,-0.0243889759630071,0.0859899954024854,0.050719116895644,-0.5758386131924229,0.6577209864251703,-0.3563325890122007,2.1695240267808096,-0.7940209922225144,2.2798917934341247,-0.6768355369405888,0.7351006186721372,-0.3832445909428497,0.5413625543951418,-0.1835912956508256,0.4669851993299334,-0.2032054996038895,10.134063236959264,-0.9813769465731,0.2843961294313832,-0.8564389439587716
0.88,2.147567925181784,-0.7682896706589191,2.265710262739519,-0.0235613533338011,0.0868262943998192,0.0510144511332178,-0.5791032821113086,0.6664997947199418,-0.3624346413350233,2.1563873160479585,-0.7797189798550321,2.2723754396086986,-0.7168355375366353,0.7751006192681836,-0.3980983902859588,0.5589288433619082,-0.163233445944283,0.4389404147385756,-0.3051026161411313,9.995228328690246,-0.9801074035073436,0.2840600680916608,-0.8578923613442833
0.9,2.1365357897062096,-0.7555476029057285,2.258753701801811,-0.0236714739345349,0.0869518060820196,0.0512380598260252,-0.5821002803436833,0.6744402019128938,-0.3695300033783673,2.143250605315107,-0.7654169674875498,2.264859085783273,-0.7568355381326818,0.8151006198642301,-0.412952189629068,0.5531189458897322,-0.1498499116187379,0.3970203596475985,-0.3547681021671994,9.8925604080423,-0.97952793209491,0.2843824007510132,-0.8584039694024316
0.92,2.124860894028307,-0.74197396706333,2.251275633323668,-0.0249196834590882,0.0863435220075258,0.0514033434065671,-0.5852947325786527,0.6826134826449816,-0.3779460359319371,2.1281138945524534,-0.7491149550902653,2.2566000419906915,-0.7968355387287283,0.8551006204602766,-0.4278059889721771,0.6079404719003423,-0.1597226117484695,0.4086640366043892,-0.4208016276784881,9.81996358595643,-0.9798305625004224,0.2855772612305333,-0.8576804081183802
0.94,2.1131212700552324,-0.7282327405938994,2.24362749955424,-0.0274003471972943,0.0848962947317563,0.051499233821601,-0.5885778512575419,0.6913508337189608,-0.3864440449042055,2.1129771837898,-0.7328129426929806,2.24834099819811,-0.8368355393247747,0.895100621056323,-0.4426597883152862,0.6311424731041155,-0.1641559339444598,0.4368675536989608,-0.4249004486134217,9.766373675325667,-0.980922843408964,0.2876471344854597,-0.8558634493839866
0.96,2.101307657490896,-0.7142872827855716,2.235812149807113,-0.0302490814664307,0.0826682278378547,0.0515916557284738,-0.5927116356258759,0.7027318791932274,-0.39466006402788,2.096840473012245,-0.7155109302807948,2.2397106094219508,-0.8768355399208211,0.9351006216523694,-0.4575135876583954,0.7316408605521458,-0.2066892184167001,0.569052273713333,-0.4108009561837267,9.765669831546802,-0.9825747428984452,0.2900282340733142,-0.8531050222382442
0.98,2.089997981875653,-0.700813101403589,2.228238732261585,-0.0324333308509748,0.0801038715921148,0.0517313057180214,-0.5976460828127973,0.7148348305424354,-0.4021193170015514,2.079703762219789,-0.697208917853708,2.230708875662214,-0.9168355405168676,0.975100622248416,-0.4723673870015045,0.7524471000127428,-0.2467223593460688,0.6051475674603957,-0.3729626486835669,9.784716560652669,-0.9850332496474268,0.2922470551680114,-0.8493171920226971
1.0,2.07798007884965,-0.6863763549015299,2.220115005102064,-0.0339474732177141,0.0772707878771863,0.0519372678793295,-0.6039866683671643,0.7280894140204915,-0.4098471499038126,2.060115677735013,-0.6650713598764673,2.208132766411507,-0.6976460843029134,0.8148348320325515,-0.4366405912701785,0.8300698912053709,-0.3170292777183503,0.6627291739028096,-0.38639164511306,9.812236717318228,-0.9877641395263084,0.2939036679473832,-0.8453035735915041
1.02,2.065782182151936,-0.671625254865103,2.211930582709092,-0.0331042819801604,0.0761258952269482,0.0522441612024089,-0.6154162246656326,0.7459355047889233,-0.4076692360167694,2.060115677735013,-0.6650713598764673,2.208132766411507,-0.6976460843029134,0.8148348320325515,-0.4366405912701785,1.065200710892481,-0.5714778149234157,0.89230453842159,0.1088956943521568,9.812236717318228,-0.9904414817863854,0.2936421661844982,-0.8422747840970847
1.04,2.0533700306368017,-0.6565458118025125,2.203793820817495,-0.0294043825304778,0.0778274540409356,0.0526443956101499,-0.6248754776425929,0.7605639752074663,-0.4061327582014896,2.060115677735013,-0.6650713598764673,2.208132766411507,-0.6976460843029134,0.8148348320325515,-0.4366405912701785,0.8744003341507335,-0.4729626488480132,0.7314235209271491,0.0768238907639912,10.46720080675368,-0.9919984128628349,0.2923753608556672,-0.8398157092134979
1.06,2.041425453502121,-0.6419875757860491,2.196067112750142,-0.025117978463919,0.0808106688877264,0.0530324721250444,-0.6317984969965795,0.771044738514582,-0.4072714072764721,2.053139216891984,-0.6569230115561417,2.2037663604988054,-0.7176460846009366,0.8348348323305746,-0.443544846123904,0.6306169958687572,-0.3461509676993324,0.5240381653557835,-0.0569324537491255,10.32545989722621,-0.9909372776787956,0.2900264906122239,-0.8410263294208781
1.08,2.028730679756805,-0.626471485653863,2.1878854885210783,-0.0209498146659829,0.0844652447494049,0.0534026402819809,-0.6371843637608807,0.7800549603887108,-0.4109514011406429,2.039186295205926,-0.6406263149154907,2.195033548673402,-0.7576460851969831,0.8748348329266211,-0.4573533558313549,0.5561789592032589,-0.2692933382150597,0.4505110937064405,-0.1839996932085391,10.149413043492132,-0.9885488632892764,0.2875528166422788,-0.8441408897386302
1.1,2.0159448327816434,-0.6107867879075672,2.179605944105156,-0.0175105372509333,0.0879647984560074,0.0537232955576324,-0.6410672769173471,0.788057130728181,-0.4169187798959322,2.0252333735198675,-0.6243296182748397,2.1863007368479983,-0.7976460857930295,0.9148348335226676,-0.4711618655388057,0.5355402737694748,-0.1941456578233191,0.4001085169735074,-0.2983689377644649,9.998245879504791,-0.9855811922559524,0.2852718395221523,-0.8481292307255565
1.12,2.003094336389637,-0.5949494182205786,2.171186210582228,-0.0148791390123827,0.0908395277855132,0.0539935404908026,-0.6438179962197788,0.7954565512170001,-0.4247608877781412,2.009280451804007,-0.6060329216043863,2.176877499537222,-0.837646086389076,0.954834834118714,-0.4849703752462566,0.5563643956242402,-0.1375359651215824,0.3699710244409571,-0.392105394110448,9.874815781943653,-0.9828106804524196,0.283419578590003,-0.8519340725499827
1.14,1.990843227645693,-0.5797700673230826,2.163033729621865,-0.0130705802295743,0.0927534035184372,0.0542065511335234,-0.6457035887197682,0.8021512593661744,-0.433010349008707,1.9933275300881463,-0.587736224933933,2.167454262226446,-0.8776460869851225,0.9948348347147606,-0.4987788849537074,0.5395094690393442,-0.0942796249994715,0.3347354074587139,-0.4124730615282929,9.74308172923338,-0.9804500842825158,0.2818136020649435,-0.8553525839726958
1.16,1.977908232071076,-0.563648749529726,2.1542777562046043,-0.0115896624939308,0.0939288664940638,0.0544018636260514,-0.647736920706852,0.8095998407312903,-0.4421745516891545,1.9763746083573843,-0.5684395282485785,2.157685812172984,-0.9176460875811688,1.034834835310807,-0.5125873946611583,0.5991627785726753,-0.1016665993541887,0.3724290682557973,-0.4582101340223743,9.74308172923338,-0.9786591920952752,0.2805561697390925,-0.8579329552702105
1.18,1.9649309441398184,-0.5473775838956144,2.1453355696580694,-0.0102441654812265,0.0944470387572682,0.0545834036081978,-0.6499278764789386,0.8170881302425987,-0.4515948929569681,1.9584216866117217,-0.5481428315483228,2.147572149376835,-0.9576460881772152,1.0748348359068534,-0.5263959043686092,0.6115913599015325,-0.1095477886043305,0.374414475565421,-0.4710170633906774,9.72108905895675,-0.9775146620594868,0.2793747080710618,-0.8597697301468271
1.2,1.9519076029368585,-0.5309573023456364,2.1362027270112147,-0.0088714076833577,0.0944925026493666,0.0547588412253724,-0.6523366954279927,0.8244785461745601,-0.4612180281856771,1.9324345503158715,-0.5065231773834845,2.1227558250102208,-0.7499278779690547,0.8859141351053841,-0.4719114844433029,0.6185171541815375,-0.1204409474527046,0.3695207965980662,-0.4811567614354528,9.711042847636236,-0.976855385395403,0.2782023034289798,-0.8610647054025701
1.22,1.939472218277288,-0.5151148396015326,2.1274732244814207,-0.0039975962322323,0.0949565213618202,0.0551566440104465,-0.6562037090966015,0.8402298645037836,-0.4571408407287567,1.9324345503158715,-0.5065231773834845,2.1227558250102208,-0.7499278779690547,0.8859141351053841,-0.4719114844433029,0.8361837139358329,-0.1933506834304432,0.7875659164611748,0.2038593728460214,9.702363999458612,-0.978417863818453,0.2742493643885474,-0.8610525641379556
1.24,1.9263239846081508,-0.4982257900889397,2.118365030191668,0.0041138299650287,0.0961501238275319,0.0557625897624013,-0.6583137583319657,0.8474004592657973,-0.4540369468503865,1.9324345503158715,-0.5065231773834845,2.1227558250102208,-0.7499278779690547,0.8859141351053841,-0.4719114844433029,0.4046723805279524,-0.1055024617682087,0.358529738100688,0.1551946939185089,10.533469332446655,-0.9788799415103042,0.2691985610869163,-0.8609739056772183
1.26,1.913146325658981,-0.4812458256363594,2.109283822359072,0.012232151371184,0.0972853342844479,0.0563520322845106,-0.659361839305203,0.8502063345457247,-0.4542353493067835,1.9249352715361807,-0.4976640360324306,2.1180367101657875,-0.7699278782670779,0.8996793360779411,-0.4759748027405698,0.1500897510464478,-0.0524040486618637,0.1402937639963686,-0.0099201228198508,10.38587773992731,-0.9781498999827324,0.263972003904974,-0.8625569793290111
1.28,1.900614748496923,-0.4650890861817208,2.1006272238349024,0.0190330818395488,0.0979227623364341,0.0568256230130418,-0.659768965438819,0.8505198771625649,-0.4569755965951722,1.9099367139768,-0.4799457533303229,2.1085984804769216,-0.8099278788631243,0.9272097380230552,-0.4841014393351037,0.1394006443920692,-0.0203563066808021,0.0156771308420122,-0.1370123644194337,10.200703216023612,-0.977152483171992,0.2585382611165889,-0.8649931155592997
1.3,1.8874181901782927,-0.4480911466083031,2.091439008825171,0.0249506025419548,0.0978923789090841,0.0572021156308608,-0.6599478824489192,0.849392090192565,-0.46178680984459,1.8949381564174184,-0.4622274706282153,2.099160250788056,-0.8499278794591708,0.9547401399681694,-0.4922280759296377,0.2472432389246378,-0.0089458505050099,-0.0563893484999966,-0.24056066247089,9.950247091309391,-0.9764052281851427,0.2535915885203617,-0.867394317816812
1.32,1.874219023451944,-0.4311267262018688,2.0821390145889342,0.0295663458071903,0.0969939107251932,0.0574404503101746,-0.6600188116851854,0.8472754282241561,-0.4680227469806459,1.8779395988282352,-0.4431326678288519,2.089315689269463,-0.8899278800552173,0.9822705419132836,-0.5003547125241716,0.3292878710562627,-0.0035464618133085,-0.1058330984204436,-0.3117968568027929,9.950247091309391,-0.9763571544055192,0.2494947171129589,-0.8690539281752638
1.34,1.861020971464605,-0.4142129897816889,2.072709696160449,0.0329258087740166,0.0949780277028508,0.0575307192329263,-0.659900114443299,0.844481788351048,-0.4745848262748277,1.860941041239052,-0.4240378650294885,2.07947112775087,-0.9299278806512636,1.0098009438583977,-0.5084813491187056,0.3566489781247837,0.00593486209432,-0.139681993655405,-0.3281039647090922,9.868975065451195,-0.9773209387033112,0.2458498367883178,-0.8697482745600508
1.36,1.8484791423407931,-0.3981946246291136,2.0636324503672503,0.0352915161815922,0.0919536654919022,0.0574968684896516,-0.6604124763635504,0.8419070684606867,-0.4805791715833207,1.842942483634967,-0.4042548021814972,2.069423400317414,-0.9699278812473102,1.0373313458035118,-0.5166079857132394,0.3271997590486507,-0.0256180960125695,-0.1287359945180644,-0.299717265424651,9.868975065451195,-0.9792866458105248,0.2429000296486492,-0.8690910024501494
1.38,1.83525670398004,-0.3813874552939841,2.053957438260722,0.0372132507583439,0.0877582262007337,0.0573594231585731,-0.6619509314227964,0.8389930554523827,-0.486585535366151,1.823943926015981,-0.3837834792848781,2.0591725069690945,-1.0099278818433566,1.064861747748626,-0.5247346223077733,0.3425446017439942,-0.0769227529622995,-0.1457006504152036,-0.3003181891415157,9.88328532335072,-0.982441504246306,0.2405096571878261,-0.8668582359545619
1.4,1.8219888906001795,-0.3646425039954267,2.0441668480324737,0.0386557405031145,0.0827909641944754,0.0571342270868155,-0.6649300911432559,0.8356554206454441,-0.4921468838565926,1.8021591574089,-0.3394378025213649,2.0296281614924143,-0.7619509329129125,0.8459053860835494,-0.4732513532750937,0.3568746130527966,-0.1489579860229739,-0.1668817403469302,-0.2780674245220799,9.898839370126552,-0.986337446301042,0.2386839006793283,-0.8635101190355619
1.42,1.809276380204264,-0.3486225542153646,2.0349031307006653,0.0455117822026154,0.0789203113710655,0.0573020621620225,-0.6729570679636149,0.8467083534051932,-0.4828137486852188,1.8021591574089,-0.3394378025213649,2.0296281614924143,-0.7619509329129125,0.8459053860835494,-0.4732513532750937,0.8272047684721903,-0.4013488410179511,0.5526466379874584,0.4666567585686898,9.92203916841754,-0.9915465942817008,0.2329961098149371,-0.8595406227862127
1.44,1.795726069803744,-0.3317053566847603,2.0253428666883195,0.0576955599403927,0.0774359904643849,0.0578817108053199,-0.6814652394734317,0.843656450753547,-0.4738311851677004,1.8021591574089,-0.3394378025213649,2.0296281614924143,-0.7619509329129125,0.8459053860835494,-0.4732513532750937,0.637160771669595,-0.4254085754908432,-0.1525951325823116,0.4491281758759208,10.838750956292644,-0.996037880933282,0.2245143790183767,-0.856076262519074
1.46,1.7820223533901514,-0.3149328484560588,2.015933903656893,0.0701477872985548,0.0780010856154888,0.0585531231121726,-0.6882833769217511,0.8336009408899949,-0.467641290053792,1.7945396480797706,-0.3309787486605294,2.024895647959664,-0.7819509332109357,0.8472878522097828,-0.4705845168568823,0.6817533982338395,-0.3409068724159692,-0.5027754931776041,0.3094947556954192,10.732439974787669,-0.9975556352525844,0.2150489101022907,-0.8567684778391569
1.48,1.7682016069826434,-0.2984084101069253,2.0066193566139336,0.0811180707119539,0.0795676656577033,0.0591671503536532,-0.6933609569529505,0.819604447228886,-0.4641071813344475,1.7793006294215123,-0.3140606409388585,2.0154306208941617,-0.8219509338069821,0.8500527844622494,-0.4652508440204594,0.7651365535295702,-0.2538790015599701,-0.6998246830554444,0.1767054359672282,10.437316181410097,-0.997323788824474,0.2064421628020951,-0.859612877258273
1.5,1.7549923713352142,-0.2829938293921522,1.997818357378408,0.0896872167879379,0.081259300898078,0.0596221377076248,-0.6968276576681587,0.8040471608644502,-0.462471838060431,1.764061610763254,-0.2971425332171875,2.00596559382866,-0.8619509344030286,0.8528177167147161,-0.4599171711840364,0.8011265825351167,-0.1733350357604079,-0.7778643182217937,0.0817671637008243,10.437316181410097,-0.9963598091352448,0.1983473968487043,-0.8634433128247322
1.52,1.7410283733668923,-0.2671005232357279,1.9885771921309496,0.0967499145606393,0.0827163582796804,0.0599178946049533,-0.6994006155303113,0.7863589681922577,-0.4617541402239412,1.7468225920751934,-0.2800861788828931,1.9967672504049792,-0.9019509349990752,0.8555826489671827,-0.4545834983476135,0.8944374801425727,-0.1286478931076307,-0.884409633609623,0.0358848918244891,10.349723603050734,-0.9954167448499046,0.1914941527857226,-0.8670769864805878
1.54,1.7270214444442755,-0.2515733995513262,1.9793488719549468,0.1018983780361716,0.0834823329059422,0.0599912696973738,-0.7012260712686037,0.7675371756027626,-0.461081185745356,1.7295835733871328,-0.2630298245485988,1.9875689069812983,-0.9419509355951216,0.8583475812196494,-0.4492498255111906,0.9461038958072816,-0.0912727869146201,-0.9410896294747562,0.0336477239292615,10.304345097589248,-0.9950729078425832,0.1861576192625127,-0.8697499158057821
1.56,1.7129780371318195,-0.2364306846698216,1.970138968833462,0.1052767481109967,0.0835065899025578,0.059840954704095,-0.7031315957427149,0.7481013390184398,-0.4599087177152161,1.711344554684171,-0.2459043469079928,1.9785039053785285,-0.981950936191168,0.8611125134721161,-0.4439161526747677,0.978209395446135,-0.0952762237055593,-0.9717918292161398,0.0586234015069936,10.31829618257143,-0.9952780935873952,0.1817370461060478,-0.8717218508567665
1.58,1.699599131505994,-0.2224092149864869,1.961417704463811,0.1070756238851631,0.083010143653251,0.0595224054318876,-0.7051661769083625,0.7291456835981126,-0.4581486316008095,1.6921055359663082,-0.2287097459610751,1.9695722455966689,-1.0219509367872144,0.8638774457245828,-0.4385824798383448,0.957280387430864,-0.1017290582823793,-0.9477827710163588,0.0880043057203322,10.354851086339297,-0.9962804522367446,0.1784996126920755,-0.8725922501299959
1.6,1.6854712834210583,-0.2080429406392207,1.9522805629679805,0.1074934918582043,0.0820792514873634,0.0590192251017845,-0.7075814788031436,0.7086254522624571,-0.455609844532963,1.6643408226605758,-0.1859519308065813,1.9385102728837704,-0.8051661783984786,0.6950170102234597,-0.4244628952426437,1.0408638444672,-0.1207650947390559,-1.0260115667827752,0.1269393533923246,10.39968430416502,-0.9979211062188328,0.1765029941447498,-0.8724886115766226
1.62,1.6712604986212278,-0.1939707234185695,1.9432198147915336,0.1101270773509859,0.0816268831751057,0.0587026490805333,-0.7132496091215289,0.698257653855957,-0.4506639292710593,1.6643408226605758,-0.1859519308065813,1.9385102728837704,-0.8051661783984786,0.6950170102234597,-0.4244628952426437,0.640470574815809,-0.2834065159192656,-0.5183899203250075,0.2472957630951816,10.445833382880664,-0.998524580511318,0.1732890171037515,-0.8730879246696837
1.64,1.6569541145888247,-0.1801865166487136,1.934264184237728,0.1156644748318377,0.0820357785025387,0.0586583416216289,-0.7170380004488518,0.6802975083317394,-0.4451952995869189,1.6643408226605758,-0.1859519308065813,1.9385102728837704,-0.8051661783984786,0.6950170102234597,-0.4244628952426437,0.9576333415277848,-0.1894195663661446,-0.8980072762108771,0.2734314842070207,10.539437887324311,-1.0004257223171231,0.1682770982490731,-0.8728850799443754
1.66,1.6433061681835175,-0.1674683846111559,1.9258594832529623,0.1207848765751635,0.082480898730161,0.0585895230512518,-0.7194344263265209,0.659491666640164,-0.4397773015125196,1.656289160876591,-0.1790017607043467,1.934265643931344,-0.8251661786965018,0.6881912755485292,-0.4177257479710106,1.0816429732312949,-0.1198212938834542,-1.04029208457877,0.2708999037199677,10.630353487356842,-1.0014240646965142,0.1626145079944245,-0.874005249889124
1.68,1.6288995476102734,-0.1545284275705471,1.917128442884199,0.125140109278077,0.0825550673111215,0.0583722199534133,-0.7211539955331296,0.6357677960586429,-0.4335601034071832,1.640185837308621,-0.1651014204998775,1.9257763860264916,-0.8651661792925482,0.674539806198668,-0.4042514534277443,1.2292604544054926,-0.0859784603304381,-1.1861935290760572,0.3108599052668165,10.674778843895185,-1.0031555740482767,0.1580331693399707,-0.8739095093681293
1.7,1.614463632000582,-0.1420766291168109,1.9085290776412651,0.128148020792862,0.0819169054475196,0.0579457081645899,-0.7224327596370402,0.6108560658807402,-0.4266182153813228,1.6240825137406518,-0.1512010802954083,1.9172871281216384,-0.9051661798885948,0.6608883368488069,-0.390777158884478,1.2946228673378817,-0.0639382051955295,-1.2455865088951357,0.3470944012930216,10.724532721454125,-1.0054794486854297,0.1546735538169682,-0.8728466902628437
1.72,1.6007295549861127,-0.1307188860829133,1.9004977568799364,0.1295953641816869,0.0803937772833044,0.0573016527026825,-0.7233122367887314,0.5862689748894191,-0.4190888848901845,1.60597919014288,-0.1379833135584321,1.9094715849439488,-0.9451661804846412,0.6472368674989457,-0.3773028643412117,1.2864576762573972,-0.043973857584556,-1.229354549566053,0.3764665245569148,10.724532721454125,-1.008952779309205,0.1523351690933189,-0.870314324793406
1.74,1.5862556265161485,-0.119273887482374,1.892209838178636,0.1294798621715131,0.07752454180834,0.0563255875727681,-0.7241366538103974,0.5596902465494125,-0.4100120776391562,1.587875866545108,-0.124765546821456,1.9016560417662591,-0.9851661810806877,0.6335853981490845,-0.3638285697979454,1.4048993678105597,-0.0412208510833012,-1.3289364170003315,0.4538403625514137,10.855108573568032,-1.013933135118096,0.1514556394445454,-0.8657213532015273
1.76,1.571756632967925,-0.1083711384489243,1.8841171790625124,0.1272011088307816,0.0732463591065729,0.0550072087487334,-0.7259038370322682,0.5321610691323847,-0.3996036082601661,1.5687725429324348,-0.1118890668182264,1.8941773559521515,-1.025166181676734,0.6199339287992235,-0.3503542752546791,1.4742072281494447,-0.088359161093543,-1.376458870851388,0.5204234689495046,10.935173919021508,-1.0197661555889614,0.1522483506982356,-0.8596491380670058
1.78,1.5572047428755322,-0.0980078700559698,1.876252636936831,0.1227140643783357,0.0678488685951824,0.0534039221142591,-0.7295146735140724,0.5063339034685497,-0.3872603333817565,1.5486692193048608,-0.0993538735487433,1.887035527501625,-1.0651661822727805,0.6062824594493623,-0.3368799807114128,1.442599269590732,-0.1805418240902079,-1.2913582831917514,0.6171637439204819,11.024712317449485,-1.026037901189127,0.1548489564909631,-0.8522882396224989
1.8,1.543288018258778,-0.0886157602852334,1.8690284008436888,0.1175277881003965,0.0622965509192933,0.0517916355347473,-0.7354151362663293,0.4839667969476857,-0.3737460633131678,1.520729009199829,-0.0726911748825423,1.8568896202677432,-0.8295146750041885,0.4574402394363288,-0.3666689961479747,1.339532017434817,-0.2950231376128431,-1.1183553260431969,0.6757135034294343,11.024712317449485,-1.0336997877856526,0.1587085012360325,-0.8427558949821968
1.82,1.5284298387933064,-0.0790845132569451,1.861595778562858,0.1140669878998896,0.0583426918151659,0.0504824449023348,-0.750431996660594,0.4694463863693143,-0.3709785046372929,1.520729009199829,-0.0726911748825423,1.8568896202677432,-0.8295146750041885,0.4574402394363288,-0.3666689961479747,1.0535746301161202,-0.7508430197132376,-0.7260205289185695,0.1383779337937457,11.116333265797948,-1.0323882957795965,0.159276228415954,-0.8439783238976916
1.84,1.5132644241146471,-0.0698757453287269,1.85420794703902,0.1131666264442863,0.0584291738693898,0.0498169567047503,-0.7648214986215275,0.4519948070739907,-0.3677558047317831,1.520729009199829,-0.0726911748825423,1.8568896202677432,-0.8295146750041885,0.4574402394363288,-0.3666689961479747,1.1423672584436784,-0.7194750980466735,-0.8725789647661825,0.1611349952754914,10.37201577752512,-1.036987716772564,0.1594953918738076,-0.8396161429097381
1.86,1.4978411702743095,-0.0610326108509857,1.8469028617576635,0.1133879006727769,0.0610906722109001,0.0495159648122345,-0.776487575993947,0.4331769808729803,-0.3629133892970104,1.5124338624497868,-0.068116772488179,1.8532229303062635,-0.8495146753022117,0.4476615066298847,-0.3625507287012183,1.133200039085814,-0.5833038686209768,-0.9408913100505178,0.2421207717386353,10.479466292325924,-1.0382988139985665,0.1587416108462737,-0.8392510568188729
1.88,1.4829982121900525,-0.0529896242346824,1.8400613179266163,0.114052660656351,0.0648421712005511,0.04939597239362,-0.7851721138564498,0.414442534111786,-0.3574883942680967,1.495843568949703,-0.0589679676994524,1.845889550383304,-0.8895146758982582,0.4281040410169963,-0.3543141938077056,1.0675102627106277,-0.4342268931251392,-0.9367223380597144,0.2712497514456818,10.550893401095893,-1.037844244159772,0.1574278498328799,-0.8411369498609815
1.9,1.467220021643371,-0.0449146178342163,1.8329764356101748,0.1148438332124656,0.0691298869706697,0.0493109964461569,-0.792042405566589,0.3940706250466818,-0.3512665249142229,1.4792532754496193,-0.0498191629107258,1.8385561704603444,-0.9295146764943046,0.408546575404108,-0.3460776589141929,1.1190702004297552,-0.3435145855069599,-1.018595453255211,0.3110934676936905,10.592210763128604,-1.0359981672949772,0.1555815445458124,-0.8448928335960009
1.92,1.4513249964765995,-0.0372558262190333,1.8260191015395364,0.1153388375990578,0.0730649818840211,0.0491606429943175,-0.797044742871428,0.3728888350642393,-0.3447683894587534,1.4606629819197332,-0.0416482314026437,1.8316346172820608,-0.9695146770903512,0.3889891097912196,-0.3378411240206802,1.1356907256922073,-0.2501168652419505,-1.059089499122126,0.3249067727734783,10.621349005078628,-1.0338262692745164,0.1537250657573431,-0.8490287883063187
1.94,1.4353456897154846,-0.0300284538826451,1.8191897734592564,0.1150881160890985,0.0761742075170598,0.0488572130795568,-0.8006817081423973,0.3510714374578333,-0.3384869374277202,1.4420726883898471,-0.0334772998945615,1.8247130641037763,-1.0095146776863977,0.3694316441783313,-0.3296045891271674,1.1496553769678304,-0.1818482635484619,-1.0908698803203,0.3140726015516598,10.642021303529871,-1.032012157280328,0.1523488952490033,-0.8525504515033824
1.96,1.4201019784546898,-0.0235738118938096,1.812817386880327,0.1137373176772638,0.078297620133684,0.0483894083097334,-0.8037779883639236,0.3296815453083994,-0.3325875538008874,1.4224823948450598,-0.0257953050268015,1.8179974242978305,-1.049514678282444,0.349874178565443,-0.3213680542336547,1.1201753931317768,-0.1548140110763152,-1.0694946074716964,0.2949691813416366,10.634411381282009,-1.0302522291867824,0.1515149442453757,-0.8560031527980043
1.98,1.4039942641537262,-0.0172153092178283,1.8062339770386904,0.1108852197630147,0.0798028420613303,0.0477083502420714,-0.8068689545916251,0.307743326375834,-0.3260015664860339,1.4018921012853711,-0.0186022467993638,1.8114876978642225,-1.0895146788784904,0.3303167129525546,-0.313131519340142,1.1556543071625809,-0.1545483113850776,-1.0969109466282656,0.3292993657426746,10.641426583793873,-1.029171338425979,0.1519688065647222,-0.8582694745099552
2.0,1.3878243727634303,-0.0112750859926081,1.7997888953238963,0.1071428568297875,0.0806956985501097,0.0468942658342487,-0.8100036837883169,0.2876484059323761,-0.3187913717809392,1.363650816424145,-0.0018281428990366,1.789933898714389,-0.9068689560817412,0.2752179061869302,-0.3074446009710164,1.0789106339855847,-0.1567364598345888,-1.0047460221728948,0.3605097352547382,10.664631448072214,-1.028813510265124,0.1533742995330454,-0.859314756107015
2.02,1.3715677651902531,-0.0057610164782432,1.7934320371845225,0.1016199226502924,0.0817678665621656,0.0459742465517352,-0.8153803792050118,0.2659999438351677,-0.3171223414575364,1.363650816424145,-0.0018281428990366,1.789933898714389,-0.9068689560817412,0.2752179061869302,-0.3074446009710164,1.118425709422196,-0.2688347708347471,-1.082423104860422,0.0834515161701382,10.69190934517792,-1.0260056947529284,0.1547947228749184,-0.8636775377559631
2.04,1.3560387538260834,-0.0008747394563792,1.7874366552381258,0.0952897036037668,0.0830689944015805,0.0450544078138597,-0.8189900298046581,0.2496837685881861,-0.3140214939772307,1.363650816424145,-0.0018281428990366,1.789933898714389,-0.9068689560817412,0.2752179061869302,-0.3074446009710164,0.8497976336132305,-0.180482529982312,-0.8158087623490781,0.1550423740152851,10.377827624349266,-1.0259926175938368,0.1586010865761231,-0.8640302285775919
2.06,1.3396271075465815,0.0039629498727687,1.781202299483232,0.0887460155944796,0.0840953261570007,0.0440643419103011,-0.8219953292524023,0.2350536659394713,-0.3095317774072018,1.3545821268633276,0.0009240361628326,1.7868594527046786,-0.9268689563797644,0.2687128221491495,-0.3037332078680129,0.7797904897498689,-0.1502649723872096,-0.7315051324357404,0.2244858285014472,10.456227285641944,-1.0259239805228006,0.1624701693769631,-0.864176441432852
2.08,1.323160984528286,0.0085271595027267,1.7750686834112033,0.0827742700934442,0.0844919203508382,0.043065060377429,-0.8245540792016699,0.2220994699997383,-0.304066006316705,1.3364447477416928,0.0064283942865712,1.7807105606852582,-0.9668689569758108,0.255702654073588,-0.2963104216620059,0.7145506408953513,-0.1279374974633818,-0.6477097969866508,0.2732885545248392,10.513957934501375,-1.026358820775204,0.1659156634648786,-0.8635690791817361
2.1,1.3074718308787276,0.0126356538368841,1.7693499843844949,0.0777428998159756,0.0841950151172868,0.0421151565033946,-0.826905583552985,0.2109783433848403,-0.2981842667316559,1.318307368620058,0.0119327524103098,1.774561668665838,-1.0068689575718572,0.2426924859980264,-0.2888876354559989,0.6399294696393878,-0.1175752175657574,-0.5560563307448987,0.2940869792524531,10.55889849176492,-1.0274265179545377,0.1691619994482847,-0.8621190215428175
2.12,1.2909078216200078,0.0167422943024331,1.7634572899980991,0.0731401440838782,0.0831330782045755,0.0411201643244922,-0.8294269792483048,0.2002512095176469,-0.291370816017169,1.2981699894686207,0.0167866021302703,1.7687839159567178,-1.0468689581679036,0.2296823179224649,-0.2814648492499919,0.6477884452037692,-0.1260697847659864,-0.53635669335967,0.3406725357243456,10.595157861330335,-1.0294431203218752,0.1720606558052833,-0.8594535231169559
2.14,1.274291578923312,0.0206429173964675,1.757705045256513,0.0692160615417107,0.0811999269443732,0.0401268604714006,-0.8321462041254208,0.1903181051970778,-0.2841826523874076,1.2780326103171835,0.0216404518502308,1.763006163247598,-1.0868689587639502,0.2166721498469034,-0.2740420630439849,0.6279539030531215,-0.1359612438558033,-0.4966552160284548,0.3594081814880689,10.626760116908372,-1.0322342978414418,0.1745265957368643,-0.855823293680128
2.16,1.257610611120959,0.0243498256099451,1.7521006509561292,0.0658544908963261,0.0785091541214279,0.0391403817442387,-0.8359248202917382,0.1808411887268401,-0.2766121622233632,1.2568952311508452,0.0261690473683023,1.7574139801936282,-1.1268689593599963,0.2036619817713418,-0.2666192768379779,0.63522084199141,-0.188930808315868,-0.4738458235118856,0.3785245082022187,10.640581780811772,-1.035160306552353,0.1763848252508454,-0.8520941944423798
2.18,1.2416806045147666,0.0277000790534312,1.746920845034661,0.0630626091758679,0.075640932943179,0.0382298698462079,-0.8408220270075368,0.1722729158789385,-0.2690040824393871,1.234757851969606,0.0303723886844848,1.7520073667948084,-1.166868959956043,0.1906518136957803,-0.2591964906319709,0.6230586072206564,-0.2448603357899315,-0.4284136423950826,0.3804039891988048,10.659354680315118,-1.0386221821433372,0.1780619757379791,-0.8477076419760861
2.2,1.2247968531960716,0.0310551050490862,1.7416287556723873,0.0604866963125883,0.0727694324484618,0.0373254117086942,-0.8474172216162664,0.16368173775578,-0.2605835251408052,1.1996395031643898,0.0363137248473781,1.7334706409126917,-0.940822028497653,0.144258971253084,-0.2421126888523939,0.6859495584398959,-0.3297597304364796,-0.4295589061579244,0.4210278649290994,10.68312125830198,-1.0421172655805642,0.179511429077001,-0.8432766168001424
2.22,1.207733115187558,0.0342371627460412,1.736494851705364,0.0580912709766032,0.071603918784632,0.0365528243004878,-0.8585610535077487,0.1550478531347384,-0.2532677454522155,1.1996395031643898,0.0363137248473781,1.7334706409126917,-0.940822028497653,0.144258971253084,-0.2421126888523939,0.7941183559883531,-0.5571915945741135,-0.4316942310520807,0.3657889844294854,10.707312562561128,-1.042687554605776,0.1802124600064517,-0.8428309723087667
2.24,1.1913280282756329,0.0371097057810766,1.7317585192684064,0.0560130546476792,0.0727762593682218,0.0359760326589732,-0.8674991312656581,0.1477327834512943,-0.245644380015297,1.1996395031643898,0.0363137248473781,1.7334706409126917,-0.940822028497653,0.144258971253084,-0.2421126888523939,0.6919450467068902,-0.4469038878954723,-0.3657534841722029,0.3811682718459205,10.688281762100814,-1.0446556195982195,0.1817819247140132,-0.840307659647862
2.26,1.1738967167378105,0.0399891546631835,1.726932549386318,0.0541536582388622,0.0752045239014118,0.0354661321243148,-0.8749953832325246,0.1405794484256498,-0.2373466220052699,1.1902312828794133,0.037756314559909,1.7310495140241675,-0.960822028795676,0.1386561823279131,-0.2367344101349953,0.6637333491938459,-0.3748125983433215,-0.3576667512822276,0.4148879005013581,10.688281762100814,-1.0449657212618846,0.1830970090352265,-0.8397991278412089
2.28,1.1563334147755282,0.042730515292382,1.722272354602701,0.0526513773792803,0.0780405579222969,0.0350098603403555,-0.8808536439238325,0.1339114685570424,-0.2290960080218063,1.1714148423094604,0.0406414939849706,1.7262072602471197,-1.0008220293917227,0.1274506044775713,-0.225977852700198,0.6059162585696172,-0.2929130345653952,-0.3333989934303685,0.4125306991731789,10.678972854737369,-1.044470596113869,0.1841167047304518,-0.8402628076467196
2.3000000000000003,1.1386679854393862,0.0453442327150772,1.7177754292860132,0.0515902417525061,0.0806866511864656,0.0345815331692285,-0.8853761712965657,0.1277627839197092,-0.2210145840424557,1.1525984017395072,0.0435266734100323,1.7213650064700718,-1.040822029987769,0.1162450266272295,-0.2152212952654007,0.5558079482620796,-0.2261263686366588,-0.3074342318666614,0.4040711989675288,10.678972854737369,-1.0438656412705205,0.1847989320897039,-0.8408392129947063
2.32,1.1218117259990037,0.0477174010589602,1.713651805565009,0.0510941829726489,0.0826753057094496,0.0341908613945155,-0.8887700139569303,0.1223090074909707,-0.2134609309120116,1.131781961139752,0.0458515739425769,1.7170605805647638,-1.0808220305838154,0.1050394487768877,-0.2044647378306034,0.4957810024422159,-0.1696921330182343,-0.2726888214369241,0.3776826565222074,10.665525624422116,-1.0434719365730645,0.1851341192578929,-0.8411524074624719
2.34,1.1040049725932648,0.0501056562227792,1.7094658462797905,0.0512085986026404,0.0840027232123413,0.0337935904642649,-0.891760670498477,0.1167630551467358,-0.2055373587876848,1.1109655205399964,0.0481764744751215,1.712756154659456,-1.120822031179862,0.0938338709265459,-0.1937081803958061,0.5061734118941542,-0.149532827077331,-0.2772976172117442,0.3961786062163366,10.656125818555664,-1.043606805045587,0.184983265754711,-0.8408790888547937
2.36,1.0861363239388582,0.0523799029609872,1.7054379493241525,0.0519458864547706,0.0846167299622247,0.0334118836411177,-0.8949987960678155,0.1109029971160518,-0.1976498249106769,1.0891490799253398,0.0502212355614075,1.7087206426900177,-1.1608220317759084,0.0826282930762041,-0.1829516229610088,0.5172980958469119,-0.1619062784669278,-0.2930029015341992,0.3943766938503984,10.653767043711923,-1.0439806415988353,0.1842276229112485,-0.8404832477644563
2.38,1.0681994538440278,0.0545312521416717,1.70156869619852,0.0531349299544496,0.0848066353188781,0.0330473702323394,-0.8985553268156334,0.1045074221528292,-0.1896678977637168,1.066332639295782,0.051985857201435,1.7049540446564495,-1.2008220323719547,0.0714227152258623,-0.1721950655262116,0.5414412503904562,-0.177826537390896,-0.3197787481611279,0.3990963573480055,10.654000806502154,-1.044774656257858,0.1831928846860876,-0.8396701790376165
2.4,1.0510906057527452,0.0564496988445323,1.698041954792316,0.0544775991760984,0.0848056487144848,0.0327126215387338,-0.9022075402160892,0.097762061768714,-0.1819638259482481,1.0232716875032462,0.0597566232493132,1.692085301310334,-0.9095697007886454,0.0834270027316333,-0.1512288139192935,0.5435790466251366,-0.1826106700227814,-0.3372680192057609,0.3852035907734322,10.661637429208897,-1.045851343512922,0.1819182896783331,-0.8385987282258233
2.42,1.0329139490821797,0.0582829513161248,1.6944723930776908,0.0546596162636547,0.0876933600905355,0.0324396387695013,-0.9148434665144624,0.0862442257877673,-0.1754182824466667,1.0232716875032462,0.0597566232493132,1.692085301310334,-0.9095697007886454,0.0834270027316333,-0.1512288139192935,0.9153842346700732,-0.6317963149186645,-0.5758917990473351,0.3272771750790687,10.670846512110984,-1.039887239745993,0.1793961427416716,-0.8474140267250297
2.44,1.014526646003925,0.0598962460400285,1.6910334056751348,0.0526966512608726,0.0951884395975073,0.0322718278611334,-0.9226179139340585,0.0758714110071794,-0.16878164383158,1.0232716875032462,0.0597566232493132,1.692085301310334,-0.9095697007886454,0.0834270027316333,-0.1512288139192935,0.7281522698922713,-0.3887223709797993,-0.5186407390293974,0.3318319307543366,10.656568660526318,-1.0372192524004586,0.1809786289896726,-0.8508638691847453
2.46,0.9960349142131032,0.0613231308291368,1.6877307280766392,0.0492796864161468,0.1048766052846808,0.0321056212041132,-0.9257242051429122,0.0678152407896255,-0.1618103063750151,1.0141759904953598,0.0605908932766295,1.6905730131711412,-0.9117725755832478,0.0792109188473941,-0.1435409971504088,0.5548659062821151,-0.1553145604426931,-0.4028085108776939,0.3485668728282431,10.622930420692684,-1.031086243673554,0.1833073722743075,-0.8580216145367976
2.48,0.9784461479358616,0.0625579316113556,1.6847231191280772,0.0458453639421219,0.1148838390783995,0.0319519054169835,-0.9252410950415284,0.062595401847149,-0.1551546667350964,0.9959845964795868,0.0622594333312622,1.6875484368927551,-0.9161783251724526,0.0707787510789157,-0.1281653636126395,0.4236084659562133,0.0241555050691899,-0.2609919471238245,0.332781981995936,10.62279518053765,-1.0229349570849329,0.185918519347197,-0.8672035350596686
2.5,0.9599740009024994,0.0637663755320126,1.681693606311499,0.0426272928179018,0.1255601957741538,0.0318004225566072,-0.9216637238227262,0.0584998861959395,-0.1481771906968262,0.9777932024638138,0.0639279733858949,1.684523860614369,-0.9205840747616574,0.0623465833104373,-0.1127897300748702,0.4423121215585546,0.1788685609401097,-0.2047757825604769,0.3488738019135115,10.62140333413845,-1.013998396093338,0.1882778702091585,-0.8769922757147451
2.52,0.9416027277649464,0.0649029670298528,1.6788015744788034,0.0400164227823801,0.1359993884017968,0.0316620833540822,-0.9153482448725976,0.0552954337704269,-0.1414164663100025,0.9593815209685808,0.0651749050521036,1.682268066012872,-0.9249898243508622,0.0539144155419589,-0.0974140965371008,0.4895436240813577,0.3157739475064314,-0.1602226212756276,0.3380362193411854,10.629921286593344,-1.0047320033982654,0.1902454665521309,-0.886863212848609
2.54,0.9233839363617828,0.0659815753406107,1.6760424454419276,0.0380383499513984,0.1460036681278714,0.031538544769028,-0.9065796637675496,0.0526417462852535,-0.1348740209358374,0.9409698394733476,0.0664218367183124,1.6800122714113743,-0.929395573940067,0.0454822477734805,-0.0820384629993315,0.562880234460906,0.4384290552524039,-0.132684374258668,0.3271222687082534,10.632025701926068,-0.9959205531389927,0.1917359883556509,-0.8960011238390448
2.56,0.9062600027412396,0.0669607788846167,1.673541306323941,0.0367133299073893,0.1550212684921813,0.0314365037524076,-0.8961661094438996,0.050503745575795,-0.1287694405010143,0.9224480142383844,0.0674579641903091,1.6781408676483214,-0.9338013235292716,0.0370500800050021,-0.0666628294615622,0.6129418059050912,0.5206777161824938,-0.1069000354729267,0.3052290217411574,10.638000805530282,-0.9867851135495888,0.1929281431970839,-0.905225843641677
2.58,0.8884699501867507,0.0679517368917556,1.6710343098509957,0.0359353905744948,0.1639685068390517,0.0313528919591352,-0.8831570821619519,0.0486823452567473,-0.1222744083851212,0.903816045263691,0.068283287468094,1.6766538547237124,-0.9382070731184764,0.0286179122365237,-0.0512871959237929,0.7326966154745941,0.6504513640973875,-0.0910700159523839,0.3247516057946528,10.65017308952156,-0.9779289070739284,0.1937125806012332,-0.9139243209732306
2.6,0.8709607294063011,0.0689099351729476,1.6686576026505746,0.0359076173241253,0.1723542547469742,0.0313081664778538,-0.8682046529939227,0.0471870947540669,-0.1157477803738346,0.8443120960786531,0.0703858541545929,1.6649205894317396,-0.8391603308535107,0.0362410556455866,-0.1017860139608019,0.8191577767567235,0.7476214584014595,-0.0747625251340224,0.3263314005643301,10.675195102182442,-0.9693493326255282,0.1939707771690356,-0.9221531116393138
2.62,0.853735942385434,0.0698117326350828,1.6662273963034528,0.0356462744988007,0.1802852699285051,0.0312407750966078,-0.8548273436007511,0.0434252457488754,-0.1276365054531801,0.8443120960786531,0.0703858541545929,1.6649205894317396,-0.8391603308535107,0.0362410556455866,-0.1017860139608019,0.9143928293555734,0.6688654696585805,-0.1880924502595738,-0.5944362539672753,9.630564130515268,-0.956428481201578,0.1931699101432722,-0.9349965166257502
2.64,0.8376373954283648,0.0706112564212589,1.6637018258806229,0.0348105261429652,0.1874440231575793,0.0311271397865129,-0.840259919337239,0.0409586392323703,-0.1376091417558048,0.8443120960786531,0.0703858541545929,1.6649205894317396,-0.8391603308535107,0.0362410556455866,-0.1017860139608019,0.8912736283050976,0.7283712131756048,-0.1233303258252532,-0.4986318151312327,9.630564130515268,-0.9464252302710222,0.1924962530031735,-0.9457033681777486
