t,x,y,z,roll,pitch,yaw,v_x,v_y,v_z,ref_x,ref_y,ref_z,ref_v_x,ref_v_y,ref_v_z,a_com,a_x,a_y,a_z,thrust,wind_x,wind_y,wind_z
0.0,2.294476414875348,-2.5147241366963677,2.5867314206816587,0.0257512572871581,0.0993837174670996,0.0423793195765635,0.0043160217319665,0.0072374402059343,0.005686358899487,2.2946132305743374,-2.5145662430788414,2.5869021660786133,-0.0955060830314769,0.1058259805846832,-0.0318007393580558,0.5082894398348697,0.215801086598329,0.3618720102967162,0.2843179449743534,10.248212500060616,-0.9423395438413612,0.2598783201913455,-0.8729484153422127
0.02,2.2947287731790884,-2.5148822546203515,2.586710580979649,0.0182862903788069,0.0939501971276957,0.0417432049223201,0.0206327789684827,-0.0176312465104342,-0.0076145558933155,2.2946132305743374,-2.5145662430788414,2.5869021660786133,-0.0955060830314769,0.1058259805846832,-0.0318007393580558,1.6291120894813236,0.8158378618258078,-1.2434343358184263,-0.6650457396401297,10.247350875653863,-0.9474647056290446,0.2589856817529001,-0.8748595903191062
0.04,2.295253073681596,-2.515262028498594,2.58638164189239,0.0019523075976897,0.0785038836442398,0.0405058480259978,0.0295536663508425,-0.0181508309894137,-0.0246405421911197,2.2946132305743374,-2.5145662430788414,2.5869021660786133,-0.0955060830314769,0.1058259805846832,-0.0318007393580558,0.9614265561296944,0.4460443691179927,-0.0259792239489773,-0.8512993148902126,9.53130292728747,-0.9533696860236194,0.2737514676620987,-0.8610895063773292
0.06,2.295840043239646,-2.5155558078512605,2.585711611550236,-0.0150915368227856,0.057192401701764,0.0395843064931058,0.0276459508696584,-0.0108325872901227,-0.0414685211921062,2.2936581697440226,-2.5135079832729947,2.586584158685033,-0.1155060833295001,0.1258259808827064,-0.0392991474670055,0.9224653739531408,-0.0953857740592077,0.3659121849645509,-0.8413989500493223,9.26431411996782,-0.9652120319504258,0.2869541507556044,-0.8431407170854605
0.08,2.296279984897646,-2.515662600982929,2.584712694985414,-0.0314929447767632,0.0340202811276583,0.039181870641983,0.015775862262979,0.0001244737254278,-0.0576026659670196,2.2917480480833934,-2.511391463661301,2.5859481438978715,-0.1555060839255466,0.1658259814787529,-0.0542959636849048,1.141563420540866,-0.5935044303339706,0.5478530507775309,-0.80670723874567,9.25553897010741,-0.9799583613979636,0.2979984926795688,-0.823142774113623
0.1,2.296394745002671,-2.5155335304177053,2.583470893432546,-0.0463333571102142,0.0129723839418132,0.0392261426715137,-0.003396076572221,0.0131978650031141,-0.0723445600498433,2.289837926422764,-2.5092749440496074,2.5853121291107106,-0.195506084521593,0.2058259820747993,-0.0692927799028041,1.3745910658713467,-0.9585969417600056,0.6536695638843134,-0.7370947041411848,9.3631402355295,-0.9967948176795478,0.3081156283652346,-0.8011389868791543
0.12,2.2960557947138245,-2.515101959638778,2.5818644364582406,-0.061200652502066,-0.0063738278788227,0.0395707110375336,-0.0297708042448615,0.0295874057341534,-0.087538923666645,2.285927804732332,-2.5051584244081115,2.5839262735126547,-0.2355060851176395,0.2458259826708458,-0.0842895961207035,1.728519591225341,-1.3187363836320214,0.8194770365519642,-0.7597181808400855,9.3631402355295,-1.012519408681121,0.3166706419835484,-0.7812269687894751
0.14,2.2951349455734547,-2.514297215682311,2.579952690252765,-0.0747572511124566,-0.0217829387182807,0.0400758831589647,-0.0610566724831147,0.0500510872301311,-0.1028881719890091,2.2820176830419,-2.5010419047666157,2.5825404179145988,-0.275506085713686,0.2858259832668923,-0.0992864123386028,2.020623193381041,-1.564293411912659,1.023184074798885,-0.7674624161182072,9.466554071873816,-1.025869925930403,0.323716367400313,-0.764818131089459
0.16,2.2935420687824117,-2.5130385894506477,2.57773230366868,-0.0859951730227924,-0.0324255181324367,0.0405975722120838,-0.0964443660175808,0.0742305965731622,-0.1183558131121611,2.277107561336567,-2.495925385110218,2.580779641911095,-0.3155060863097324,0.3258259838629387,-0.1142832285565021,2.2782589008240737,-1.769384676723308,1.2089754671515536,-0.7733820561575983,9.466554071873816,-1.0351233952756842,0.3289143373325337,-0.7538899910874934
0.18,2.291342771175266,-2.5113759528193693,2.5753366055079567,-0.0942214853089151,-0.0373978904185459,0.0409267662880888,-0.1330755347493767,0.0990027189376555,-0.1330038853486474,2.2711974396163326,-2.48980886543892,2.578643945502144,-0.3555060869057788,0.3658259844589851,-0.1292800447744014,2.329198676231834,-1.8315584365897943,1.2386061182246653,-0.7324036118243143,9.51936337202642,-1.040823848126199,0.3321331224122929,-0.7495076139088257
0.2,2.288278170916936,-2.509111941929432,2.5725177872990246,-0.100568121631857,-0.0370468397527424,0.0409436860827929,-0.1708776690124722,0.1257593978268283,-0.1479896347924983,2.284688994437797,-2.5064258168724867,2.5686864112405243,-0.2330755362394928,0.1990027204277716,-0.1816271752615865,2.433872380804548,-1.8901067131547724,1.3378339444586405,-0.749287472192546,9.575397808135222,-1.0434920790635331,0.3326370843812722,-0.7522161145457823
0.22,2.2844367043423426,-2.50616836218796,2.5694666548949128,-0.1006796509222373,-0.0309606580474798,0.0408206717218093,-0.2106379476088484,0.1656594633452883,-0.1556726647357293,2.284688994437797,-2.5064258168724867,2.5686864112405243,-0.2330755362394928,0.1990027204277716,-0.1816271752615865,2.8425006295282684,-1.9880139298188104,1.9950032759230016,-0.3841514971615514,9.592660440301188,-1.0435031934104286,0.331642982375553,-0.754825211925953
0.24,2.280102421425088,-2.5027181303185064,2.566454673737,-0.0945911154076595,-0.0204526930877289,0.0406928669792515,-0.242869738953613,0.1943195930142602,-0.1608310813079972,2.284688994437797,-2.5064258168724867,2.5686864112405243,-0.2330755362394928,0.1990027204277716,-0.1816271752615865,2.171923495123487,-1.6115895672382294,1.4330064834485927,-0.2579208286133921,10.15906963352063,-1.0386610554622526,0.3248881015645917,-0.7686355211336389
0.26,2.2749437940333928,-2.4985797161178307,2.563177146144908,-0.0867516077601801,-0.0068589498590154,0.0405027726286816,-0.2706976637982333,0.2177736978503832,-0.1666579494350243,2.282358239075402,-2.504435789668209,2.5668701394879085,-0.2530755365375161,0.2190027207257948,-0.1913518332441743,1.8428516129842427,-1.3913962422310149,1.1727052418061517,-0.2913434063513562,9.959807349790935,-1.032599048660997,0.3184577890337193,-0.7812156013065572
0.28,2.269288469547373,-2.494011492962748,2.5597702394828667,-0.0793300661367976,0.0074917563389719,0.0403208804091123,-0.2929956143406654,0.2378768262936167,-0.1738162803797923,2.2776967283506124,-2.5004557352596533,2.5632375959826765,-0.2930755371335625,0.2590027213218412,-0.2108011492093499,1.543191557708178,-1.1148975271216082,1.0051564221616751,-0.3579165472383974,9.959807349790935,-1.0245839172664963,0.3125419763406372,-0.7954886318815059
0.3,2.263239902646104,-2.4890643129037837,2.556201164363544,-0.0729907194890394,0.0211972427187319,0.0402069177825272,-0.3105086745636743,0.2560301173549114,-0.1827635023763595,2.2730352176258224,-2.496475680851098,2.559605052477445,-0.3330755377296089,0.2990027219178877,-0.2302504651745255,1.338190976829046,-0.8756530111504429,0.9076645530647311,-0.4473610998283611,9.841587478116708,-1.015853938820722,0.3077030638993801,-0.8096750774042745
0.32,2.257205795867528,-2.4840388795438315,2.552630018590104,-0.0680327918834543,0.0328122049129429,0.0401918613772364,-0.3236124352726291,0.2721641174458011,-0.1928077860748477,2.26637370687123,-2.49049562641274,2.5550000431739543,-0.3730755383256554,0.3390027225139341,-0.2496997811397012,1.1542336620742073,-0.6551880354477402,0.8067000045444889,-0.5022141849244085,9.639919646489034,-1.0066073788133385,0.3035504466616039,-0.8236753062614341
0.34,2.250616683769182,-2.4784272300732857,2.5486504159950387,-0.0639625405187308,0.0429715433734928,0.0402811183562983,-0.3345273958473908,0.2883138743548172,-0.2047146940584411,2.259712196116638,-2.4845155719743826,2.550395033870464,-0.4130755389217019,0.3790027231099807,-0.2691490971048768,1.142065530408254,-0.5457480287380856,0.8074878454508022,-0.5953453991796711,9.639919646489034,-0.9981746574839758,0.300494721328269,-0.835584310274343
0.36,2.2438273931959385,-2.472488384968552,2.5444206254495527,-0.0606472612162713,0.050889860789156,0.0404871974844495,-0.3438876675960887,0.3047665082296322,-0.2176980767885864,2.252050685347145,-2.477535517521124,2.545303791667844,-0.4530755395177483,0.4190027237060271,-0.2885984130700524,1.1476847081686028,-0.4680135874348956,0.8226316937407524,-0.6491691365072674,9.577523999925688,-0.990651223773094,0.2980980663226649,-0.845762117001575
0.38,2.2368609904435006,-2.466221818780886,2.5399233564622308,-0.0576402460715511,0.0568338585955065,0.0408055851448236,-0.3523277555044377,0.3210048675852106,-0.2314015063003552,2.24338917456275,-2.469555463052964,2.5397263165660946,-0.4930755401137947,0.4590027243020735,-0.3080477290352281,1.1431353581767725,-0.4220043954174496,0.811917967778919,-0.6851714755884405,9.50923842233442,-0.9847437961121672,0.2959503631272919,-0.8538575492247538
0.4,2.2300916655666247,-2.4599717484591377,2.535391598712713,-0.0549272344225549,0.0609403359324819,0.0411929269139875,-0.3598558871126471,0.3360147323964561,-0.2449539468173084,2.2192446026682786,-2.4501715754016256,2.528353281147213,-0.4523277569945538,0.4210048690753267,-0.2692916984216226,1.0789317067450774,-0.3764065804104682,0.7504932405622722,-0.6776220258476573,9.50923842233442,-0.9796782882431248,0.2937252691477498,-0.8609965229045974
0.42,2.222834128824553,-2.453082949853281,2.530470841682919,-0.0521997278766519,0.0635328684533636,0.0416867287822333,-0.3655513188975963,0.3520465001304461,-0.2457346494587594,2.2192446026682786,-2.4501715754016256,2.528353281147213,-0.4523277569945538,0.4210048690753267,-0.2692916984216226,0.8515647604674336,-0.2847715892474595,0.8015883866995033,-0.0390351320725484,10.301318690333574,-0.9820822480561272,0.2916292338126968,-0.8595300075017346
0.44,2.2154680079470404,-2.445891456139262,2.525541941073453,-0.0500210381378594,0.0641042842504314,0.0422421088785274,-0.3708956012957377,0.3664543250869451,-0.2473215437321642,2.2192446026682786,-2.4501715754016256,2.528353281147213,-0.4523277569945538,0.4210048690753267,-0.2692916984216226,0.7724393305677235,-0.2672141199070721,0.7203912478249502,-0.0793447136702429,10.301318690333574,-0.9817094648994632,0.2912021679579241,-0.8590775069615973
0.46,2.20799132606268,-2.4384157787783387,2.520555067417529,-0.0486195090450724,0.0627144854026691,0.0428317830394071,-0.3766550118705625,0.3804940944191097,-0.2512761563438431,2.214721325098333,-2.4459615267108723,2.525660364162997,-0.4723277572925771,0.44100486937335,-0.276869736845876,0.7840996333028141,-0.2879705287412382,0.7019884666082304,-0.1977306305839449,10.153139464924609,-0.9826722377454886,0.2911370340996637,-0.8571892632770667
0.48,2.200774855696757,-2.431058381837629,2.5157289235810514,-0.0480240074640224,0.0597072493992738,0.0434131937749971,-0.3828263308989925,0.3933487034787816,-0.2565335036595586,2.205674769958442,-2.437541429329366,2.5202745301945644,-0.5123277578886235,0.4810048699693964,-0.2920258136943829,0.7598780386116604,-0.3085659514214994,0.6427304529835948,-0.2628673657857738,10.029019175220128,-0.985221115549312,0.2914574310457828,-0.8536401150162819
0.5,2.193040179462002,-2.4230545715124907,2.5105295820709848,-0.0483466632869559,0.0549223666763897,0.04403002658547,-0.390561450663358,0.4064249270571793,-0.2631718952486865,2.196628214818551,-2.4291213319478597,2.514888696226132,-0.55232775848467,0.5210048705654429,-0.3071818905428899,0.8289872491961622,-0.3867559882182791,0.6538111789198858,-0.3319195794563967,9.940189294694392,-0.9888604724293688,0.2923790685020088,-0.8487856193551867
0.52,2.1851255387394053,-2.4147898190138606,2.5051890406220765,-0.0497661712291642,0.0490399024574117,0.0446241466305894,-0.4007900770021768,0.4194817744628485,-0.2705769490587262,2.1855816596488573,-2.41870123453655,2.508745058415274,-0.5923277590807164,0.5610048711614893,-0.3223379673913968,0.9082137453315838,-0.5114313169409357,0.6528423702834601,-0.370252690501982,9.874097140143022,-0.9935933276669926,0.2940267658965852,-0.8425050553350504
0.54,2.176979233587603,-2.406259455864463,2.4997007303696157,-0.052239895625429,0.0429188701636571,0.0451669454412751,-0.413506428117589,0.4331728714252497,-0.2778824631547091,2.174535104479164,-2.408281137125241,2.5026014206044165,-0.6323277596767629,0.6010048717575358,-0.3374940442399037,1.0031478678775632,-0.6358175557706125,0.6845548481200558,-0.365275704799145,9.835821620241404,-0.99929351433535,0.2963397539027471,-0.8347864966701556
0.56,2.1689774378037447,-2.3978762419605046,2.4943534340526354,-0.0547358676062354,0.0376396116855981,0.04565879680556,-0.428236407033439,0.4484912355259354,-0.2846140815737988,2.1624885492945696,-2.3968610396990315,2.496078880872346,-0.6723277602728093,0.6410048723535822,-0.3526501210884107,1.114606706559302,-0.7364989457924992,0.7659182050342855,-0.3365809209544851,9.847891109887314,-1.0050518749426025,0.2990597860885229,-0.8265068434205101
0.58,2.160227148962668,-2.388726564376776,2.4885873156886125,-0.0567891232074181,0.0335106965827592,0.046148561347733,-0.4461652324929049,0.4655319112323227,-0.2916295912779474,2.1494419940950737,-2.38444094225792,2.489177439219062,-0.7123277608688557,0.6810048729496286,-0.3678061979369176,1.2855395630777524,-0.8964412729732946,0.8520337853193671,-0.3507754852074302,9.872542023062124,-1.0098143442619396,0.3012478485474376,-0.8196214630432255
0.6,2.151091793051401,-2.379226634325192,2.48268053420063,-0.057916141873506,0.0318472484783255,0.0465646393031612,-0.4663371497873724,0.4834113069110731,-0.2986698455880654,2.1379188873380226,-2.36544996881516,2.4740058361247157,-0.546165233983021,0.5655319127224389,-0.3373614449716711,1.3929682497487952,-1.0085958647233744,0.8939697839375177,-0.3520127155059005,9.89619049675366,-1.0136971024255532,0.3026276637359931,-0.8141630603402159
0.62,2.1420066526234334,-2.3698190961248957,2.477003754820103,-0.0564571130455429,0.0338899894252966,0.0469222291762542,-0.4882969487811094,0.5052301787932875,-0.2984253837788762,2.1379188873380226,-2.36544996881516,2.4740058361247157,-0.546165233983021,0.5655319127224389,-0.3373614449716711,1.5478660339593104,-1.0979899496868506,1.0909435941107186,0.0122230904594594,10.3638734120741,-1.0173125527944962,0.302474317644576,-0.8092900611017358
0.64,2.132033705146642,-2.359513159080953,2.4710268206578143,-0.0521916336581457,0.039546138278185,0.0472931727373594,-0.5073518635051184,0.5235835521058073,-0.2993410211264995,2.1379188873380226,-2.36544996881516,2.4740058361247157,-0.546165233983021,0.5655319127224389,-0.3373614449716711,1.3236072669416836,-0.95274573620045,0.9176686656259924,-0.0457818673811644,10.3638734120741,-1.0164866915297197,0.3002770251811787,-0.8106720286177596
0.66,2.121719337761268,-2.348883042428766,2.465005335104765,-0.0474553095790548,0.0470534892021475,0.0476171589983414,-0.522778960299737,0.5384342140603913,-0.3028717247468473,2.1324572349981925,-2.359794649687936,2.4706322216749985,-0.5661652342810441,0.585531913020462,-0.3465078157104158,1.0851305728512544,-0.7713548397309311,0.7425330977291977,-0.1765351810173898,10.197593867835169,-1.0126634119912084,0.2976590920180872,-0.8159430687209746
0.68,2.11113194864076,-2.337977365343052,2.458883147650626,-0.0431853200971146,0.0551843852634491,0.0479012035049176,-0.5349467693274219,0.5514957989883756,-0.3091660775301868,2.121533930318532,-2.348484011433487,2.463884992775565,-0.6061652348770906,0.6255319136165085,-0.3648005571879052,0.9464135648941904,-0.6083904513842442,0.6530792463992185,-0.3147176391669753,10.017196804611558,-1.0073468329636666,0.2951777877258062,-0.8232308269427205
0.7000000000000001,2.100876056711863,-2.327385229936417,2.4529285395011646,-0.0398180678043954,0.0626508300263092,0.0481514052260566,-0.5438963940616953,0.562959007674215,-0.3173364589712356,2.110610625638872,-2.3371733731790383,2.457137763876132,-0.6461652354731371,0.665531914212555,-0.3830932986653947,0.8340504618301819,-0.4474812367136704,0.5731604342919694,-0.4085190720524378,9.86140020919629,-1.000964566400808,0.2927777318779766,-0.8319261209144914
0.72,2.089920068969976,-2.3160067548858967,2.446473648866122,-0.037057179696806,0.0696340966758614,0.0484058447716425,-0.5511290684993965,0.5744064868332776,-0.3278277840097178,2.097687320929409,-2.323862734894788,2.449475897902824,-0.6861652360691836,0.7055319148086014,-0.4013860401428842,0.8564815521685658,-0.3616337218850574,0.5723739579531262,-0.5245662519241107,9.734736090063052,-0.9946875114030204,0.2907740159948435,-0.8403710750143027
0.74,2.078837959241914,-2.3044021596482334,2.4397946781768383,-0.0350433784168638,0.0753357928233243,0.0486589181171034,-0.5566878541876613,0.5855924928957266,-0.3396089975785797,2.084764016219946,-2.310552096610536,2.441814031929516,-0.72616523666523,0.7455319154046479,-0.4196787816203737,0.8585217281937914,-0.2779392844132422,0.5593003031224508,-0.5890606784430985,9.63321436156184,-0.9890879379617292,0.2891807848746822,-0.8478741213276876
0.76,2.067653105822374,-2.292566939526232,2.432870096839528,-0.0333830418024836,0.0797003371743454,0.0489314642690404,-0.5615405139506272,0.597315747811133,-0.3522707313968642,2.070840711495582,-2.296241458311384,2.433694847419271,-0.7661652372612764,0.7855319160006943,-0.4379715230978632,0.8962456636879722,-0.2426329881482947,0.5861627457703189,-0.6330866909142252,9.575170684145633,-0.9844115742446812,0.2878511852988861,-0.8541248885938636
0.78,2.056941591355675,-2.2811056490425985,2.4260516421786127,-0.0318026804943156,0.0828018516512089,0.0492201279263789,-0.5657636247283598,0.6084508687215283,-0.3648359319613092,2.055917406756317,-2.2809308199973306,2.425118344372088,-0.8061652378573229,0.8255319165967407,-0.4562642645753526,0.8656065034917054,-0.2111555388866315,0.5567560455197684,-0.6282600282222495,9.541445348092566,-0.9803223348117388,0.286377048354566,-0.8597621677597774
0.8,2.0455820838266656,-2.268816458239442,2.4186108029159525,-0.0300748891752365,0.0851647168892846,0.0495495635437502,-0.5699729678914205,0.6198009390911898,-0.3786166150708813,2.0286534101192566,-2.250683105606522,2.4078098455805472,-0.665763626218476,0.7084508702116444,-0.3896172242657059,0.917128527289277,-0.2104671581530326,0.5675035184830757,-0.6890341554786045,9.518646206768608,-0.9769215357936746,0.2847741543523794,-0.8646658368674432
0.8200000000000001,2.034148440927406,-2.256281523570652,2.411059559225416,-0.0277368554811462,0.0869129306305755,0.0499305989093307,-0.5730880482118703,0.6327710379710016,-0.3749195525393289,2.0286534101192566,-2.250683105606522,2.4078098455805472,-0.665763626218476,0.7084508702116444,-0.3896172242657059,0.6920900622700028,-0.1557540160224912,0.648504943990591,0.1848531265776221,9.492902441042132,-0.9802526044143168,0.2832562598427871,-0.8619720347487269
0.84,2.023239594326151,-2.2441600332385003,2.4039671697558203,-0.0253353190304679,0.0880156925400327,0.0503104312923726,-0.575135080619564,0.64261732923827,-0.3719347977077796,2.0286534101192566,-2.250683105606522,2.4078098455805472,-0.665763626218476,0.7084508702116444,-0.3896172242657059,0.5245201492852519,-0.102351620384683,0.4923145633634163,0.1492377415774626,10.410817786402731,-0.9794955011680904,0.2824312127782843,-0.8620579497416212
0.86,2.011716685966589,-2.2312088596435578,2.396537219632944,-0.0233186052151022,0.0883490235846164,0.0506832966072368,-0.5771325219384082,0.6520746112244435,-0.3713342626490626,2.021995773857072,-2.243598596904406,2.40391367333789,-0.6857636265164991,0.7284508705096676,-0.3945734827265852,0.48422772727555,-0.0998720659422136,0.4728640993086785,0.0300267529358522,10.410817786402731,-0.9789808033560258,0.2817675167911893,-0.8620413240021471
0.88,2.000152991354652,-2.2180746392405872,2.3890961772172754,-0.0219643033216205,0.0877606644637336,0.0510178938290862,-0.5792103953169141,0.6609208760425223,-0.3728813771144036,2.0086805013327025,-2.229429579500173,2.396121328852576,-0.7257636271125456,0.7684508711057141,-0.4044859996483438,0.4608891465893615,-0.1038936689252922,0.4423132409039354,-0.0773557232670529,10.258502448726176,-0.9791829689235768,0.2813650982203145,-0.8614102619203613
0.9,1.9885468762800615,-2.204770571224147,2.381606029058128,-0.0214893270963519,0.0861393103615144,0.0513008966341061,-0.5814018937236767,0.6691592848363583,-0.3760440648460661,1.9953652288083328,-2.21526056209594,2.388328984367262,-0.7657636277085921,0.8084508717017606,-0.4143985165701025,0.4546334743758063,-0.1095749203381291,0.4119204396918041,-0.1581343865831225,10.140086984955817,-0.9802114372580174,0.2814303258329179,-0.8599295685757876
0.92,1.977477834241981,-2.191982612703689,2.374422349250431,-0.0220383664714784,0.0835222236129118,0.0515140925704027,-0.5837602765991854,0.6766533870128183,-0.3799659881953848,1.980049956254161,-2.1990915446619046,2.38004101403586,-0.8057636283046385,0.848450872297807,-0.4243110334918611,0.4390473208455044,-0.1179191437754356,0.374705108822998,-0.1960961674659367,10.055411962254766,-0.9826638567466968,0.2823568246464174,-0.8565119100475367
0.94,1.9657726066520256,-2.1783683043710678,2.366780902965759,-0.0238439942859255,0.0795181156981626,0.0516776259490293,-0.5867713473442913,0.6845080670591208,-0.3839538540896762,1.964734683699989,-2.1829225272278694,2.371753043704458,-0.845763628900685,0.8884508728938535,-0.4342235504136198,0.4654718575077001,-0.1505535372552935,0.392734002315126,-0.1993932947145671,9.999513713100896,-0.986560372788087,0.2842168944338151,-0.8511841517540203
0.96,1.9539907324184973,-2.164578313659279,2.359064830352691,-0.0265298069116461,0.0743781573879844,0.0518135783861017,-0.591514078468297,0.6943260411364697,-0.3874256391430327,1.948419411130916,-2.165753509778933,2.363217260450012,-0.8857636294967314,0.9284508734899,-0.4441360673353784,0.5721437864619705,-0.2371365562002847,0.4908987038674428,-0.1735892526678273,10.005044330426244,-0.991071186220649,0.2868193422288548,-0.8446950018467825
0.98,1.9420871884302693,-2.15056870569416,2.351286099080551,-0.0289861356184142,0.0688066174438175,0.051987920588284,-0.59876639101092,0.7059946080915729,-0.3902585147617065,1.9311041385469416,-2.1475844923150955,2.3544336642725217,-0.9257636300927778,0.9684508740859464,-0.4540485842571371,0.7013855506647007,-0.362615627131152,0.5834283477551605,-0.1416437809336868,10.033556887735358,-0.9966457452727996,0.2894195746484844,-0.8367185001892778
1.0,1.9300130538889435,-2.1363162885855624,2.3434556467800145,-0.0307353245043179,0.0635947352886775,0.0522085664664125,-0.6084077581338379,0.7184515928504405,-0.3926273156612225,1.9121488688797237,-2.115268975289581,2.3317731733424654,-0.6987663925010361,0.805994609581689,-0.4247752180991374,0.7964666455399886,-0.4820683561458927,0.6228492379433792,-0.1184400449758038,10.09536459553874,-1.0020060843546197,0.2914583566072738,-0.8290459812196169
1.02,1.9182886682548463,-2.1224974747096863,2.336018389078736,-0.0301219344607835,0.061411071074128,0.0524894407186282,-0.6250546139241178,0.7348005671955486,-0.3900783606459153,1.9121488688797237,-2.115268975289581,2.3317731733424654,-0.6987663925010361,0.805994609581689,-0.4247752180991374,1.173567149239277,-0.8323427895139957,0.817448717255409,0.1274477507653637,10.09536459553874,-1.0054031809947697,0.2920479517002794,-0.8239311574947243
1.04,1.9056228316662085,-2.1076528671544765,2.3282347465767987,-0.0268012497613503,0.06360042038708,0.0528262764283189,-0.6401098821010608,0.7484456812523873,-0.3884751751115267,1.9121488688797237,-2.115268975289581,2.3317731733424654,-0.6987663925010361,0.805994609581689,-0.4247752180991374,1.019093275124365,-0.7527634088471513,0.6822557028419329,0.080159276719427,10.4658437208127,-1.0077853581038347,0.2907885626684628,-0.8208378515480254
1.06,1.892691454792709,-2.092572924235824,2.320455827366347,-0.0226377481228061,0.0685182183400324,0.0531478125595686,-0.6518926569991078,0.7587419436804201,-0.3894725596103678,1.905161204954713,-2.1072090291937635,2.327525421161474,-0.7187663927990593,0.8259946098797122,-0.4316785587666236,0.7839668043410641,-0.5891387449023511,0.5148131214016416,-0.0498692249420562,10.150882747677317,-1.0061868151404332,0.2885553292308743,-0.8231437635375107
1.08,1.8795579929114063,-2.077309959071582,2.312630337710444,-0.0188166724522416,0.0747399207029509,0.053423744645785,-0.6606085844356273,0.7671515049759338,-0.393027565085085,1.8911858771046923,-2.09108913700213,2.3190299167994914,-0.7587663933951058,0.8659946104757587,-0.445485240101596,0.6311223656846252,-0.4357963718259749,0.4204780647756811,-0.1777502737358577,10.150882747677317,-1.0026054008667782,0.2863646537186135,-0.8280221394419143
1.1,1.866946132199612,-2.06266431638957,2.305108476599924,-0.0158590831538733,0.0808699473329708,0.0536425802979438,-0.6663953508100309,0.774241653998653,-0.3985794569475182,1.877210549254672,-2.074969244810496,2.3105344124375087,-0.7987663939911522,0.9059946110718052,-0.4592919214365684,0.5352111300422618,-0.2893383187201781,0.3545074511359602,-0.2775945931216605,9.996629604897862,-0.9977611562366756,0.2842684953178558,-0.834505064180719
1.12,1.853574509589322,-2.0471074232033564,2.297058318286935,-0.0135364433223118,0.0868132445112859,0.0538297508602051,-0.6703597924171294,0.7812161885691306,-0.4062396573658696,1.8612352213748489,-2.0568493525890603,2.3013485740087773,-0.8387663945871987,0.9459946116678516,-0.4730986027715407,0.5546160838368088,-0.1982220803549261,0.3487267285238793,-0.383010020917568,9.771029620946138,-0.992631283402215,0.2825334313193589,-0.8412573151354563
1.14,1.840141924419999,-2.031413975643541,2.28884088357287,-0.0120153597120858,0.0917358500276716,0.0539732188614579,-0.6726671054917102,0.7878649859382862,-0.4151804517305599,1.8452598934950253,-2.038729460367624,2.292162735580046,-0.8787663951832452,0.985994612263898,-0.4869052841065132,0.5689200382125372,-0.1153656537290381,0.3324398684577845,-0.4470397182345181,9.711824097547831,-0.98815843472539,0.2812930390718289,-0.8470784118650414
1.16,1.8266718131988935,-2.0155817707222003,2.2804354981179804,-0.0110569325804107,0.095480918978994,0.0540853769671496,-0.6742566789569424,0.7950016708694967,-0.4249199685338297,1.8282845656003013,-2.019609568131287,2.28263173011794,-0.9187663957792916,1.0259946128599444,-0.5007119654414856,0.6089277526314394,-0.0794786732616126,0.3568342465605223,-0.4869758401634866,9.711824097547831,-0.9839472947428416,0.2803205500498819,-0.85246382142332
1.18,1.813849876470867,-2.000406530560769,2.272265652409914,-0.0103668197302834,0.0980642347451822,0.0541794779141556,-0.6753741323386414,0.8019822352977543,-0.4345844190299605,1.810309237690676,-1.9994896758800484,2.2727555576224603,-0.958766396375338,1.0659946134559908,-0.5145186467764579,0.5987039861014125,-0.0558726690849498,0.3490282214128781,-0.4832225248065397,9.664079230985408,-0.9805833416342687,0.2794989417882496,-0.8568006433165912
1.2,1.8003323342646804,-1.984289396423548,2.263463550670856,-0.0097385177727695,0.0998956081489857,0.0542716368423278,-0.6763456391131166,0.8093243614547534,-0.4451383698433827,1.780081169853935,-1.960307418795881,2.250536431458416,-0.7753741338287575,0.9019822367878704,-0.448614236685643,0.6446637101820555,-0.0485753387237608,0.367106307849957,-0.5276975406711099,9.664079230985408,-0.9779559907211338,0.2787306260795326,-0.8602574538504774
1.22,1.7867973588297223,-1.96799616225936,2.2545965658084093,-0.0082323340202757,0.1013373804312355,0.0544185869200957,-0.6769926866139068,0.8193752542697895,-0.4402434090666196,1.780081169853935,-1.960307418795881,2.250536431458416,-0.7753741338287575,0.9019822367878704,-0.448614236685643,0.5599101665751232,-0.0323523750395071,0.5025446407518064,0.2447480388381551,9.647448667183198,-0.979088447940142,0.2770139339013955,-0.860619783746768
1.24,1.7732638365247717,-1.9515297106813971,2.2458407533383737,-0.0058193724471379,0.1025327932563772,0.0546196723181397,-0.6763701687219847,0.8266543394776078,-0.4356689877796122,1.780081169853935,-1.960307418795881,2.250536431458416,-0.7753741338287575,0.9019822367878704,-0.448614236685643,0.4309812643824207,0.0311258945961012,0.363954260390914,0.2287210643503678,10.61269542070204,-0.9788375927450432,0.2762845588660833,-0.8601247265377671
1.26,1.7604243425175916,-1.9357685792931536,2.2375847751161806,-0.0037746546555114,0.1030123258091986,0.0547862303332636,-0.6752845220690864,0.8321602913073899,-0.4336068004954528,1.7723274285156474,-1.9512875964280023,2.2460502890915595,-0.7953741341267807,0.9219822370858936,-0.4514202002167795,0.298942931852297,0.0542823326449171,0.2752975914891042,0.1031093642079705,10.48147731017434,-0.978354357987274,0.2753881601304864,-0.860096554474467
1.28,1.7469333008928776,-1.919074079854998,2.228918343541383,-0.0022651867496398,0.102602842149825,0.0549075562573907,-0.6739537737164898,0.8370835367597032,-0.4332214244682073,1.756819945839072,-1.9332479516922447,2.237078004357847,-0.8353741347228272,0.96198223768194,-0.4570321272790525,0.2557232471053295,0.0665374176298305,0.2461622726156631,0.0192688013622766,10.34191160336286,-0.9785583451690878,0.2747569088743777,-0.8594441200521756
1.3,1.7334705558836656,-1.9022887623721356,2.220243707252114,-0.0017259810340232,0.1010086248968185,0.0549515737485879,-0.6725036306802286,0.8413472353437838,-0.4342480337595195,1.741312463162497,-1.915208306956488,2.228105719624134,-0.8753741353188736,1.0019822382779866,-0.4626440543413256,0.2309543627998636,0.0725071518130615,0.2131849292040299,-0.0513304645656104,10.162105508287825,-0.9797426745706664,0.2747201556189542,-0.857667546993033
1.32,1.720707410157719,-1.886267916554505,2.2119766183120437,-0.0023457209967849,0.0981494193041545,0.0549087577034982,-0.6711841040883898,0.8449979932382443,-0.4359081005766226,1.7238049804561195,-1.895168662190928,2.218852838537307,-0.91537413591492,1.041982238874033,-0.4682559814035986,0.2110983507028338,0.065976329591938,0.1825378947230282,-0.0830033408551561,10.162105508287825,-0.9823357904832694,0.2756163656183696,-0.8539472387219064
1.34,1.707295793743788,-1.8693296896849332,2.203243493558013,-0.0044130534021455,0.0934734480413442,0.0547690943500663,-0.6702233549576556,0.8487802959494753,-0.4372822570298215,1.706297497749742,-1.8751290174253683,2.209599957450481,-0.9553741365109666,1.0819822394700795,-0.4738679084658717,0.2068644402106138,0.0480374565367092,0.1891151355615516,-0.0687078226599441,10.137081095692338,-0.9864589993909846,0.2775362768882115,-0.8482112464895364
1.36,1.69388027429405,-1.852293555178541,2.194492588708757,-0.0074622200587587,0.0873508830840927,0.0545802182248587,-0.6717204978380182,0.8548711544512223,-0.4377240380164554,1.6877900150284637,-1.8540893726449077,2.200206778187097,-0.9953741371070132,1.121982240066126,-0.4794798355281446,0.3143849731327616,-0.0748571440181311,0.3045429250873477,-0.0220890493316971,10.137081095692338,-0.99123679729652,0.2802300734222297,-0.8411577195629274
1.38,1.6810801655968757,-1.8359753198731024,2.186180771365336,-0.0101747240193738,0.0810663744431286,0.0544345742060102,-0.6757585650124286,0.8624202729162121,-0.4371657895359546,1.6682825322922838,-1.8320497278495451,2.1906733007471577,-1.0353741377030594,1.1619822406621725,-0.4850917625904177,0.4289720779651121,-0.2019033587205176,0.3774559232494923,0.0279124240250394,10.183202082353093,-0.9977905309744488,0.2832806464695163,-0.831533949880573
1.4,1.6674990107390797,-1.8186356946725752,2.177450278398935,-0.0124464083175075,0.0746575948832376,0.0543354416793011,-0.6823058414153974,0.8710423917680202,-0.4358690119045661,1.6472922373462542,-1.7928543062272917,2.1643224818885383,-0.7757585665025447,0.9624202744063284,-0.428003737001434,0.5451820659578921,-0.3273638201484408,0.431105942590404,0.0648388815694261,10.236918083772252,-1.0047555574106235,0.2859845110263301,-0.8213392738833826
1.42,1.653715959471212,-1.8010675494816306,2.168853492956425,-0.0123383019956652,0.0706784808657563,0.0543765371321428,-0.6959674423749551,0.8848129519230458,-0.4232914956800127,1.6472922373462542,-1.7928543062272917,2.1643224818885383,-0.7757585665025447,0.9624202744063284,-0.428003737001434,1.155921258283051,-0.6830800479778854,0.6885280077512768,0.6288758112276693,10.27261506571358,-1.0109980465237234,0.2868701982635974,-0.8128339615958239
1.44,1.6403638984750937,-1.7841481333200853,2.1609342380321936,-0.0093856441813041,0.0711338999162686,0.0545521806472228,-0.708277697196653,0.8951759875427036,-0.4109678209953411,1.6472922373462542,-1.7928543062272917,2.1643224818885383,-0.7757585665025447,0.9624202744063284,-0.428003737001434,1.0134197535609912,-0.6155127410848948,0.5181517809828895,0.6161837342335802,10.962321609357788,-1.015441560878679,0.286690658346774,-0.8061362509219141
1.46,1.626090370738222,-1.766166639539619,2.152832316666383,-0.0052058456940577,0.0744345287113664,0.0547804278513244,-0.7180948598385235,0.9022495248285476,-0.3999611199081129,1.6395346516812288,-1.7832301034832283,2.160042444518524,-0.7957585668005679,0.9824202747043514,-0.4261713264945299,0.8178616644866578,-0.4908581320935246,0.3536768642922017,0.5503350543614116,10.962321609357788,-1.016570717654363,0.2855478847619221,-0.8038680638859745
1.48,1.6116512634551368,-1.748070441543055,2.1449227892955034,-0.0014182199711638,0.0791587723944779,0.054977745481829,-0.7251011436719795,0.9071721078448348,-0.3915313978168558,1.6240194803511778,-1.7639816979951015,2.151482369778495,-0.8357585673966144,1.022420275300398,-0.4225065054807216,0.6007912516902492,-0.3503141916728014,0.2461291508143614,0.4214861045628543,10.800158426376584,-1.015312600358042,0.2841294727439371,-0.805174777650824
1.5,1.5978285258647695,-1.730798258072459,2.137544328007001,0.001395432144586,0.0839531205306257,0.0551152842604426,-0.7294769746812894,0.9109212648256172,-0.3855726190954742,1.6085043090211268,-1.7447332925069752,2.1429222950384665,-0.8757585679926608,1.0624202758964445,-0.4188416844669134,0.4144608514051052,-0.2187915504654913,0.1874578490391243,0.2979389360690809,10.510993000887538,-1.012883910065563,0.2828753351303507,-0.8080286386926648
1.52,1.5832092135218108,-1.712544552274284,2.129884016126196,0.0034393440538187,0.0885625161815093,0.0551979094517607,-0.7321511132779012,0.9144264522477934,-0.3808470215149377,1.5909891376612737,-1.7234848869890462,2.1345454613491284,-0.9157585685887072,1.1024202764924906,-0.4151768634531051,0.3231432677298208,-0.1337069298305904,0.1752593711088046,0.2362798790268239,10.510993000887538,-1.0102234390150755,0.2820738586930478,-0.8110912631362
1.54,1.5685529839794417,-1.6942246239494174,2.122308704473552,0.0044892200155427,0.0922042737214393,0.0552061128148887,-0.7333338407025707,0.9174818346812158,-0.3769526072741935,1.5734739663014206,-1.7022364814711175,2.1261686276597898,-0.9557585691847538,1.1424202770885372,-0.4115120424392969,0.2544634956827941,-0.0591363712334758,0.1527691216711202,0.1947207120372107,10.420422292556395,-1.0081017036366282,0.2818799526978157,-0.8133111476351808
1.56,1.5538795401320349,-1.6758385747178868,2.1148068489658685,0.0046430153043812,0.0947133036547076,0.0551417398006241,-0.7340145419011304,0.9210055340231096,-0.3734286436427129,1.554958794926666,-1.6799880759382877,2.1178834144957968,-0.9957585697808,1.1824202776845836,-0.4078472214254886,0.2514862364513219,-0.0340350599279837,0.1761849670946835,0.1761981815740276,10.38084982599139,-1.006599744866705,0.2822833274335444,-0.8144961422679737
1.58,1.5399290879499152,-1.6583022911999394,2.10774513038376,0.0042297681361953,0.0961699018408501,0.0550318091847861,-0.7344826543099452,0.9247437717490752,-0.3700861074027042,1.5354436235370106,-1.656739670390556,2.109689821857149,-1.0357585703768466,1.22242027828063,-0.4041824004116804,0.2518238423923176,-0.0234056204407417,0.186911886298291,0.1671268120004371,10.366192581741416,-1.0058764288827011,0.2831729361880168,-0.8145003787136792
1.6,1.525234562453625,-1.6397624173591774,2.1003815774406385,0.0033784327081462,0.096871346880841,0.054878498974962,-0.7350003817654455,0.929061467841396,-0.3664363471329614,1.503204955234418,-1.6120651026124857,2.089240825013625,-0.8344826558000613,1.0247437732391913,-0.3842509770762543,0.2838630448403491,-0.0258863727750136,0.2158848046160399,0.1824880134871365,10.36830478590764,-1.0059487842349026,0.2844370035126247,-0.8133488849256172
1.62,1.5104908260866758,-1.6210901200609635,2.093058637619325,0.0036323462442471,0.0978808086531475,0.0547983051990808,-0.7392569744396396,0.93762100954228,-0.3662088567523542,1.503204955234418,-1.6120651026124857,2.089240825013625,-0.8344826558000613,1.0247437732391913,-0.3842509770762543,0.4781110937753962,-0.2128296337097046,0.4279770850441955,0.0113745190303632,10.376552691502184,-1.0046397190044576,0.2856026860160527,-0.8128458397409875
1.64,1.495680575315718,-1.6022763058206562,2.085727503748269,0.0053294674214054,0.0997170945083809,0.0548164107907501,-0.7414778422031224,0.9433576645996644,-0.366898955496961,1.503204955234418,-1.6120651026124857,2.089240825013625,-0.8344826558000613,1.0247437732391913,-0.3842509770762543,0.3095064666028832,-0.1110433881741423,0.286832752869226,-0.0345049372303424,10.17165685328382,-1.004143502593266,0.284653036494107,-0.8136970578171733
1.66,1.4815825490590304,-1.584308243538765,2.0787405399113044,0.0072644302130229,0.1013951235828738,0.0548514172932625,-0.7424185928823934,0.9477546788779422,-0.3685386469005409,1.4948601286764174,-1.6018176648800937,2.0853983152428626,-0.8544826560980845,1.0447437735372145,-0.3870839510109644,0.2393080352960388,-0.0470375339635509,0.2198507139138827,-0.0819845701789917,10.131727165948178,-1.0030790963622125,0.2835036416108498,-0.8150169253654028
1.68,1.4667324527443597,-1.565317780918021,2.071343384452044,0.0091166144044152,0.1026663214204743,0.0548667827895223,-0.7425618728784676,0.9511129069376176,-0.3711315290294439,1.478170475560416,-1.58132278941531,2.077713295701338,-0.894482656694131,1.084743774133261,-0.3927498988803844,0.2122572884051994,-0.0071639998037109,0.1679114029837725,-0.1296441064451509,10.02244882211926,-1.002068465147936,0.2822813438284414,-0.816393591765833
1.7,1.451884982565036,-1.5462698482574593,2.063887013204204,0.0103143559249551,0.1031694145827109,0.0548236002130669,-0.7422426756570885,0.9535707202605556,-0.374402200678923,1.461480822444415,-1.560827913950526,2.070028276159813,-0.9344826572901774,1.1247437747293074,-0.3984158467498044,0.2051830051152749,0.0159598610689593,0.1228906661468964,-0.163533582473957,10.02244882211926,-1.0014949974025285,0.2814176155763902,-0.8172065352952534
1.72,1.4370470779585345,-1.5271818824161665,2.0563610532294274,0.0104436607592315,0.1027493881813976,0.0546908668237111,-0.7416805915936496,0.9552666221315868,-0.3780263217888838,1.4427911692986113,-1.53833303845594,2.062059959224817,-0.974482657886224,1.1647437753253538,-0.4040817946192245,0.202028930293424,0.0281042031719414,0.0847950935515595,-0.1812060554980371,9.987950519821425,-1.001550372150099,0.2810727837269534,-0.8172305686193925
1.74,1.422962430731528,-1.5090205567861052,2.049143448016808,0.0092942368733742,0.1013737036266854,0.0544635952955863,-0.7410363992505941,0.9565433179476126,-0.3815348849290599,1.4241015161528077,-1.5158381629613538,2.054091642289821,-1.0144826584822704,1.2047437759214004,-0.4097477424886445,0.1894396426972969,0.0322096171527785,0.0638347908012926,-0.1754281570088056,9.97194810361998,-1.002525650763797,0.2816054967722289,-0.815968116250182
1.76,1.4081436722567648,-1.4898658539909324,2.041476839538272,0.0068730088666547,0.0988608889287708,0.0541338661474059,-0.7409821168973234,0.9589994981365868,-0.3849180454773812,1.404411862992103,-1.4923432874518665,2.045981676658089,-1.0544826590783167,1.2447437765174467,-0.4154136903580646,0.2090546758045803,0.0027141176635325,0.1228090094487044,-0.1691580274160664,9.967714322086067,-1.004317906946191,0.2831217244107641,-0.8132609914545147
1.78,1.3933157688269708,-1.4706389001329312,2.0337503807402344,0.0040113899585516,0.0954293717935617,0.0537776784748688,-0.7419423740901233,0.9636281775564556,-0.3875474261579123,1.3837222098164972,-1.467848411927478,2.0377300623296217,-1.094482659674363,1.284743777113493,-0.4210796382274847,0.2704644607494342,-0.0480128596399953,0.2314339709934498,-0.1314690340265545,9.98320815545958,-1.007150785444707,0.2851624347008335,-0.8088727261360186
1.8,1.3784548014160238,-1.4513032977020812,2.0259797414158287,0.0015401531280038,0.0913653010894099,0.0534591608257099,-0.7442386951769815,0.9695639266724008,-0.3893723424230367,1.356218650122465,-1.4224574912551085,2.014373009432339,-0.8419423755802394,1.0636281790465718,-0.3949979783494976,0.3310457954577777,-0.1148160543429088,0.2967874557972594,-0.0912458132562188,10.060307516710054,-1.0110964074962625,0.2873941655235693,-0.8027238676382561
1.82,1.364233762069906,-1.4327700768502722,2.0186290753791325,0.0014227524158314,0.0888343466603768,0.0533200110710099,-0.7525881289019832,0.9801648329341076,-0.3842771375565506,1.356218650122465,-1.4224574912551085,2.014373009432339,-0.8419423755802394,1.0636281790465718,-0.3949979783494976,0.7212027622817886,-0.4174716862500871,0.5300453130853366,0.2547602433243034,10.060307516710054,-1.0146739255772383,0.2879280577033772,-0.7978539636319556
1.84,1.3490983431320405,-1.413081989833358,2.010996781660327,0.0039241418015555,0.0892309633397056,0.0533558801932388,-0.7601346134261802,0.9879547405202392,-0.379271132965139,1.356218650122465,-1.4224574912551085,2.014373009432339,-0.8419423755802394,1.0636281790465718,-0.3949979783494976,0.597269141266416,-0.3773242262098464,0.3894953793065814,0.2503002295705797,10.523396381592647,-1.0171671021142834,0.2870533957880798,-0.7947023782997383
1.86,1.333836404308488,-1.393268217479988,2.003445767600472,0.0075007691988572,0.0914164781216731,0.0534702503342775,-0.765478038597176,0.9927906059026854,-0.3761693155056835,1.3477992263666625,-1.4118212094646427,2.010423029648844,-0.8619423758782626,1.083628179344595,-0.3964880887878146,0.3922979037254611,-0.267171258549792,0.241793269122309,0.1550908729727768,10.444343106592896,-1.017232347428943,0.2854628871962173,-0.7945667976866466
1.88,1.3184887615442713,-1.3733844510187032,1.995933128835464,0.0107661841100718,0.0943339961017132,0.0535693899578532,-0.7689143124560036,0.9954971989006368,-0.3752461099104277,1.3309603788550577,-1.3905486458837113,2.002523070081854,-0.9019423764743092,1.1236281799406416,-0.3994683096644488,0.2235281428619921,-0.1718136929413805,0.1353296498975642,0.0461602797627885,10.315680365964909,-1.0158244846004676,0.2836348220321135,-0.796683166941086
1.9,1.3038602998835729,-1.3544547657255614,1.9887966744533887,0.0131248714729921,0.0970785430364381,0.0536129503649615,-0.7707362158082126,0.9971836220822716,-0.3760077041101929,1.3141215313434529,-1.36927608230278,1.994623110514864,-0.9419423770703556,1.163628180536688,-0.4024485305410829,0.1298401006763933,-0.0910951676104498,0.0843211590817516,-0.038079709988259,10.194700282310803,-1.0137785890793911,0.2819017315038655,-0.7997235930394988
1.92,1.2884366088265264,-1.3344995169881524,1.9812566771898343,0.0146766977234986,0.0994349833085822,0.0535867254553489,-0.7715349700446333,0.9983843787124074,-0.3780069182642736,1.2952826838020457,-1.346003518692046,1.9865741399040424,-0.981942377666402,1.2036281811327345,-0.405428751417717,0.1232546352971302,-0.0399377118210364,0.0600378315067817,-0.0999607077040359,10.100168578050216,-1.0118319050373377,0.280614770304364,-0.8025927137341651
1.94,1.2730056016944626,-1.3145258421666175,1.9736700587945295,0.0150683714448871,0.1009266880218469,0.0534650079066281,-0.7715731118464056,0.9990313795172464,-0.3805728099120583,1.2764438362606385,-1.3227309550813122,1.9785251692932209,-1.0219423782624484,1.2436281817287809,-0.4084089722943512,0.1323240793154829,-0.0019070900886153,0.0323500402419518,-0.128294582389235,10.03530179207337,-1.010473338797016,0.2799719380705204,-0.8046286296541669
1.96,1.2583454536754872,-1.295533549950914,1.966414657274877,0.0144149353447445,0.1015203221942351,0.0532635654236714,-0.7716736432403871,1.0001805232217829,-0.3830235474576366,1.25660498870433,-1.298458391455677,1.970401693160483,-1.0619423788584947,1.2836281823248272,-0.4113891931709852,0.13543220012389,-0.0050265696990736,0.0574571852268224,-0.122536877278917,10.01172191598107,-1.009655040549779,0.2801221553367714,-0.8056356238902553
1.98,1.2429091150008635,-1.2755123510199613,1.9587294223244456,0.0129287240862589,0.1014760060850637,0.0529857997721326,-0.7720166968566095,1.0019282950934467,-0.385357051708238,1.2357661411331209,-1.2731858278151411,1.9622037115058295,-1.101942379454541,1.3236281829208736,-0.4143694140476194,0.1467790378984447,-0.0171526808111166,0.087388593583193,-0.1166752125300679,10.015558854024675,-1.009567879503275,0.2809177662872313,-0.8055060514575201
2.0,1.227462299844481,-1.2554474689084416,1.9510018363597028,0.0108817913108569,0.1009226498602544,0.0526643714171215,-0.7727081138657157,1.004519215526391,-0.38726358183549,1.2043082801580332,-1.225415936265289,1.9394615697390336,-0.8720166983467256,1.1019282965835628,-0.383778063200848,0.1645127905091926,-0.0345708504553121,0.1295460216472088,-0.0953265063626002,10.031054753613716,-1.010051653753525,0.2821880298549006,-0.8044743343521742
2.02,1.212748082913523,-1.2362884981469573,1.943680059583678,0.0100723411197675,0.1009123045194016,0.0524453670852833,-0.7760168920598368,1.0117578272952363,-0.3830391210851667,1.2043082801580332,-1.225415936265289,1.9394615697390336,-0.8720166983467256,1.1019282965835628,-0.383778063200848,0.4505318582214278,-0.165438909706056,0.3619305884422719,0.2112230375161644,10.054784316333098,-1.0106917702051428,0.2818467754230429,-0.8047590488903068
2.04,1.1972075730561356,-1.2159963107236866,1.936069315734279,0.0110691040729589,0.1019598444776344,0.0523527739000546,-0.7777322492292804,1.017004754777165,-0.3783161398951986,1.2043082801580332,-1.225415936265289,1.9394615697390336,-0.8720166983467256,1.1019282965835628,-0.383778063200848,0.3632466432748315,-0.0857678584721799,0.2623463740964338,0.2361490594984083,10.462387294012842,-1.0115362291697994,0.2819792706300966,-0.803098186619275
2.06,1.181646840720615,-1.195612058478474,1.9285405254758343,0.0128730890467657,0.1031694783301064,0.0523159917187869,-0.7782259179287017,1.021135866373626,-0.3748567452040665,1.1955881131745658,-1.2143966532994537,1.9356237891070252,-0.8920166986447488,1.121928296881586,-0.38346226549937,0.2705420643644716,-0.0246834349710622,0.2065555798230534,0.1729697345566022,10.422302224211307,-1.0115571545496085,0.2815896565519836,-0.8023788975814361
2.08,1.1660860963459363,-1.1751583072167886,1.9210666044713884,0.0149518989326485,0.103998788817537,0.0522908290122489,-0.7778849009726224,1.0240601332578043,-0.3727009375862375,1.1781477792076314,-1.192358087367782,1.927948227843008,-0.9320166992407952,1.1619282974776326,-0.3828306700964139,0.1824495537081825,0.0170508478039621,0.146213344208923,0.1077903808914509,10.341561940940664,-1.0115096277287716,0.280891467422162,-0.8019312828667858
2.1,1.150537268387651,-1.1546603989396085,1.9136253157073349,0.0167370312459406,0.1041423499748624,0.0522313741099866,-0.7771253702579712,1.0257144473792874,-0.3715303078174833,1.160707445240697,-1.1703195214361108,1.9202726665789915,-0.9720166998368416,1.201928298073679,-0.382199074693458,0.1082129402443345,0.0379765357325589,0.0827157060741434,0.0585314884377075,10.27042263138992,-1.0116735582552527,0.2800604699544324,-0.8014123886195238
2.12,1.1357818850870869,-1.13516631505564,1.9065716028263844,0.017726328196574,0.1034852374149428,0.0521087869902306,-0.7762078067116518,1.026345011311725,-0.3710177381292955,1.14126711124396,-1.1462809554746372,1.9126286850851224,-1.0120167004328882,1.241928298669725,-0.381567479290502,0.0612833872202412,0.0458781773159722,0.0315281966218772,0.0256284844093929,10.21554697753254,-1.012420465916754,0.2795197256453296,-0.8002691419840562
2.14,1.1202699855922862,-1.1146412003601764,1.8991567306203905,0.017599509633424,0.1017702668125335,0.0518782374779761,-0.7750970692635875,1.026250323531253,-0.3704865607030223,1.1218267772472232,-1.1222423895131637,1.904984703591253,-1.0520167010289347,1.281928299265772,-0.3809358838875459,0.0617424674046432,0.0555368724032168,-0.0047343890235973,0.0265588713136588,10.180547501468029,-1.0140183859525829,0.2795663531217104,-0.7981161239946775
2.16,1.1047746130875182,-1.0941113492448575,1.891757384740167,0.0162544819823913,0.0989185891845852,0.0515460242865385,-0.774624046614851,1.026818733938908,-0.3694612853076049,1.101386443235585,-1.097203823536789,1.8973565119824576,-1.092016701624981,1.3219282998618185,-0.3803042884845899,0.0632066146498241,0.0236511324368249,0.0284205203827547,0.0512637697708678,10.204710061810149,-1.0164120037150903,0.2804524499580876,-0.7946274185492773
2.18,1.0900531658715702,-1.0745893908635182,1.8847546424109545,0.0141749242492145,0.0953299177040351,0.051169416276016,-0.7751500280210436,1.0281385063773698,-0.3677073374592361,1.079946109209046,-1.0711652575455128,1.8897441102587365,-1.1320167022210277,1.3619283004578646,-0.3796726930816339,0.1128581940288463,-0.0262990703096321,0.0659886219230854,0.0876973924184398,10.204710061810149,-1.0200428301751276,0.2821838998775248,-0.7891428841236781
2.2,1.0745323231725312,-1.0539980932151487,1.87742787188818,0.0116171970423689,0.0908919471170931,0.0507534882864514,-0.7770726388210535,1.0310401352461436,-0.3650122974354223,1.051295664470518,-1.0231824655446498,1.8663692755379928,-0.8515748055288256,1.128138507867486,-0.3639304241832939,0.2201086272183257,-0.0961305400004941,0.1450814434386882,0.134752001190691,10.24542548352838,-1.0245953075856795,0.2844329947507956,-0.7820906557185315
2.22,1.05885499519396,-1.033283487272282,1.8701807616579784,0.011128938298514,0.0893328319980418,0.0505261724023815,-0.7906020380909656,1.0396937934757768,-0.3597113519352287,1.051295664470518,-1.0231824655446498,1.8663692755379928,-0.8515748055288256,1.128138507867486,-0.3639304241832939,0.8456217661520157,-0.6764699634956073,0.4326829114816632,0.2650472750096805,10.288005952961612,-1.0269055037804835,0.2863359924325656,-0.7769098576460401
2.24,1.04292637655382,-1.0124289364976968,1.863045225908532,0.013323154345726,0.0935145761354854,0.0505536942733334,-0.8008380363126618,1.045233747258133,-0.3541086762363206,1.051295664470518,-1.0231824655446498,1.8663692755379928,-0.8515748055288256,1.128138507867486,-0.3639304241832939,0.6458651610288815,-0.5117999110848093,0.2769976891178083,0.280133784945405,10.520972610962415,-1.0269252753479374,0.2848959630784667,-0.7783440536211199
2.26,1.0276501405818612,-0.99253682185892,1.8563544988816945,0.0164347434166166,0.1004850774614742,0.0507045653064436,-0.8062502392351973,1.0481760040568708,-0.3504681168637563,1.0427799164152298,-1.011901080465975,1.86272997129616,-0.866859761030382,1.148138508165509,-0.3631750415281055,0.3577795693216258,-0.2706101461267762,0.1471128399368915,0.1820279686282178,10.473038913653,-1.0230721266971723,0.2829177435622431,-0.784286785512529
2.28,1.0115039576814429,-0.9715632706626992,1.849366680114472,0.0194580378305864,0.1091501796955165,0.0508905506097412,-0.8077404885792823,1.0491404376740536,-0.3486121851520595,1.0257484203046532,-0.9893383103086252,1.8554513628124936,-0.8974296720334948,1.1881385087615557,-0.3616642762177286,0.1284081172276445,-0.0745124672042463,0.0482216808591395,0.0927965855848367,10.344529721819526,-1.016698161243929,0.2806192603551949,-0.7934822793302925
2.3000000000000003,0.995367619219407,-0.950579777955404,1.842394859584002,0.0216640833122927,0.1177717442347006,0.0510397574371368,-0.8056081153244301,1.0493456140867468,-0.3487617188759896,1.0087169241940768,-0.9667755401512754,1.848172754328828,-0.9279995830366076,1.228138509357602,-0.3601535109073517,0.1073717070848604,0.106618662742608,0.0102588206346565,-0.0074766861965058,10.225934392218733,-1.0093011075642024,0.2786985315313776,-0.8034910215221722
2.32,0.9793071532389508,-0.92959845098135,1.8354025654910475,0.02283383596255,0.1253116397898434,0.0511059966758019,-0.8005232428746536,1.048975982627078,-0.3504792890322564,0.9901569325333446,-0.9422127699641234,1.840969684110681,-0.9585694940397204,1.2681385099536484,-0.3586427455969749,0.2689916471201819,0.2542436224888256,-0.0184815729834419,-0.0858785078133389,10.124990752479787,-1.0024092879594382,0.2774699347559147,-0.8123158565568426
2.34,0.9641655751268304,-0.9096779649920012,1.828720654671838,0.0227321081487483,0.1309053367510529,0.051051947904062,-0.7936574909116749,1.0481206010671762,-0.3528077329243931,0.9715969408726124,-0.9176499997769714,1.833766613892534,-0.9891394050428332,1.308138510549695,-0.357131980286598,0.3650064334672537,0.3432875981489336,-0.0427690779950862,-0.1164221946068327,10.038095894055004,-0.9960433208331936,0.2770048670400668,-0.8200365668171131
2.36,0.9483781644094114,-0.8887184186475404,1.8216386528221555,0.0213854031734634,0.1349643209473788,0.0508646680959028,-0.7854945196814703,1.0479594522374391,-0.3552715469052454,0.9522727014368024,-0.8920872295749182,1.8266013128071463,-1.019709316045946,1.3481385111457411,-0.3556212149762211,0.4264107397296551,0.4081485615102298,-0.0080574414868528,-0.1231906990426134,10.038095894055004,-0.991045141643134,0.2775809933998156,-0.8255170457817712
2.38,0.9327611903658458,-0.8677519790992475,1.8145127159106271,0.019105163687143,0.1372092605661649,0.0505706749669414,-0.7767688541775783,1.0487722701655502,-0.3572007159081005,0.9321842142259148,-0.8655244593579638,1.8194737808545185,-1.0502792270490588,1.3881385117417877,-0.3541104496658442,0.4486635836337912,0.4362832751945988,0.0406408964055526,-0.0964584501427584,10.050776959941686,-0.9878440565022868,0.2789361718573803,-0.828464525337864
2.4,0.9180877513507107,-0.8478016821976521,1.807715263879662,0.0166317375607216,0.1378188900970164,0.0502415556603955,-0.768377733001632,1.0512560327967553,-0.358220776594651,0.8939227476569669,-0.81531336559097,1.796652680115222,-0.8028041574275335,1.1149851701484794,-0.3243157754030727,0.4405125287714054,0.4195560587973157,0.1241881315602544,-0.0510030343275236,10.087634247865935,-0.9861827671334196,0.2809866514096011,-0.8290800075317619
2.42,0.9027244136014936,-0.826575681838801,1.8006187780806062,0.019732426654002,0.1398633951061276,0.0503189840127642,-0.767982088392462,1.0691659410282504,-0.3509891690815661,0.8939227476569669,-0.81531336559097,1.796652680115222,-0.8028041574275335,1.1149851701484794,-0.3243157754030727,0.9659418910325897,0.0197822304585038,0.8954954115747538,0.361580375654244,10.137988725287869,-0.985417518411834,0.2804974043896899,-0.8284680538581823
2.44,0.8874058632880653,-0.8051189381460861,1.7936858375662268,0.0292011215480568,0.1453269150260489,0.0509292914507818,-0.7633588164118627,1.0745122947947807,-0.3427445136146734,0.8939227476569669,-0.81531336559097,1.796652680115222,-0.8028041574275335,1.1149851701484794,-0.3243157754030727,0.5429836235358564,0.2311635990299654,0.2673176883265182,0.412232773344634,10.658460553368968,-0.9832799268164796,0.2757028758497738,-0.831319970970943
2.46,0.8729742028251546,-0.7847147728242827,1.7872321864011615,0.0389124479798444,0.1520491579069076,0.0516514868893699,-0.755697286646886,1.0729700601596428,-0.3370380279060504,0.8858947060826916,-0.8041635138894853,1.7934095223611912,-0.8080112180775245,1.1282277501450653,-0.3177387873020672,0.4838427046886253,0.3830764882488346,-0.0771117317568959,0.2853242854311516,10.658460553368968,-0.9773559188618076,0.2691894476227228,-0.8390836749808895
2.48,0.8579761346078681,-0.7633090829716352,1.7805353557051573,0.0480755785301653,0.1595501128344643,0.0524130232282186,-0.7442768496380835,1.0677898660648364,-0.3330561384732547,0.8698386229341409,-0.7818638104865157,1.7869232068531298,-0.8184253393775066,1.154712910138237,-0.3045848111000561,0.6578682158816124,0.5710218504401232,-0.2590097047403206,0.1990944716397852,10.530543972080524,-0.9696829437309812,0.2625017822733048,-0.8491253057887446
2.5,0.8432402587933843,-0.7420305231237397,1.7738990841772484,0.0555291366218781,0.1664044929165058,0.0530731777510356,-0.7297699861916065,1.0605560183579676,-0.3308489990887823,0.8537825397855903,-0.759564107083546,1.7804368913450683,-0.8288394606774887,1.1811980701314089,-0.291430834898045,0.8179992419974944,0.7253431723238501,-0.3616923853434373,0.1103569692236211,10.364167669282324,-0.96156873046066,0.2565539643613606,-0.8593168468676696
2.52,0.8288223861523466,-0.7209117586951062,1.7672955672478254,0.06110427484313,0.1717445229357254,0.0535468400966126,-0.7128389891185805,1.0521012754245551,-0.329609864707262,0.8372057505720405,-0.7359401456809179,1.7746082746471077,-0.8392535819774708,1.2076832301245803,-0.2782768586960339,0.9482573410899212,0.8465498536513016,-0.4227371466706264,0.0619567190760145,10.364167669282324,-0.9544771596874196,0.2519198174882346,-0.8678672172949937
2.54,0.8154558584082872,-0.7010120935437564,1.7610469078846187,0.0648037495320438,0.1749916694112548,0.0537826908016034,-0.6951813980585343,1.0433970930870913,-0.3281893532701483,0.8206289613584907,-0.7123161842782897,1.7687796579491466,-0.8496677032774529,1.234168390117752,-0.2651228824940227,0.9868778609212622,0.8828795530023081,-0.4352091168731919,0.0710255718556845,10.343045851994248,-0.9484937532162792,0.2482567586237037,-0.8747301436416505
2.56,0.8017553207687537,-0.6802399303217614,1.7545078246557142,0.067424209898089,0.1763729920564415,0.0538065568936268,-0.6759173050788554,1.0344390391258529,-0.3257307731230536,0.8037918191124414,-0.6880300938758322,1.763279890656236,-0.8600818245774349,1.2606535501109235,-0.2519689062920117,1.0693416496165582,0.9632046489839452,-0.4479026980619305,0.1229290073547328,10.382497030880586,-0.9445376437785912,0.2459209184423651,-0.878729511577969
2.58,0.7884463984126018,-0.6596485110631939,1.748030977562674,0.0690777020882471,0.1756162955969837,0.0536088449661981,-0.6560098853996991,1.0252544824934646,-0.3220068777418959,0.7866943238338925,-0.6630818744735455,1.7581089727683756,-0.870495945877417,1.2871387101040954,-0.2388149300900005,1.1119002154256146,0.9953709839578162,-0.459227831619402,0.1861947690578846,10.452712788874123,-0.9429552921297888,0.2445770261714254,-0.8798142439379601
2.6,0.7755429606722323,-0.6392465907025884,1.7416448082822154,0.069753700834271,0.1723785845249482,0.0531600126670113,-0.6355309993020011,1.0155271816202198,-0.3167657053228118,0.7556459041426168,-0.6083857869385206,1.731930633675579,-0.6961703625611065,1.0312800254642114,-0.2771753410316336,1.1634808189305113,1.0239443048848995,-0.4863650436622402,0.2620586209542058,10.53287423358961,-0.9438903255265334,0.2442788824731447,-0.8778392269920694
2.62,0.7636410580342228,-0.6198495674224633,1.7356203675787063,0.0756325231801584,0.1666451283471696,0.0528885393237833,-0.6186838068431157,1.022711015130321,-0.3178255833865989,0.7556459041426168,-0.6083857869385206,1.731930633675579,-0.6961703625611065,1.0312800254642114,-0.2771753410316336,0.917276810943228,0.8423596229442665,0.359191675505055,-0.052993903189355,10.619252186153972,-0.9478450505712468,0.2442755019257693,-0.8687323311917976
2.64,0.7514376034383264,-0.5994578530731991,1.729266676594689,0.0866724774384357,0.1583726341469307,0.0526748230361599,-0.6029337949166576,1.01537082557183,-0.3173359313447685,0.7556459041426168,-0.6083857869385206,1.731930633675579,-0.6961703625611065,1.0312800254642114,-0.2771753410316336,0.8691677305909153,0.7875005963229098,-0.3670094779245514,0.0244826020915189,10.146572610565272,-0.953497947319463,0.236232241555751,-0.863325655366271
