t,x,y,z,roll,pitch,yaw,v_x,v_y,v_z,ref_x,ref_y,ref_z,ref_v_x,ref_v_y,ref_v_z,a_com,a_x,a_y,a_z,thrust,wind_x,wind_y,wind_z
0.0,0.8955387954469114,2.3334840455792665,2.309346200543956,0.0324362166518943,0.1001588653788838,0.043073750704008,0.0037971908822384,-0.0046613388030663,0.0144263349578026,0.8956455158597912,2.333447968191621,2.309786137144151,-0.0963786067106436,-0.1021238126758597,-0.0853979420010594,0.7814503796592663,0.1898595441119237,-0.2330669401533158,0.7213167478901309,10.242997257244497,-0.9434493362565058,0.2546298843528086,-0.8735357522486992
0.02,0.8957578046748861,2.333652632661096,2.3094107386120912,0.0389461088849729,0.0943335544506546,0.0432978445750899,0.0180093073819492,0.017167517079189,-0.0077535065266697,0.8956455158597912,2.333447968191621,2.309786137144151,-0.0963786067106436,-0.1021238126758597,-0.0853979420010594,1.7105763449828442,0.7106058249855377,1.091442794112767,-1.1089920742236197,10.242997257244497,-0.9517729770021542,0.2545843118191665,-0.859817626769878
0.04,0.896221353576792,2.33403177340082,2.30894650083652,0.0527076597740279,0.0780346663647249,0.0434420648916509,0.026257396571848,0.0187899550294247,-0.037665328166527,0.8956455158597912,2.333447968191621,2.309786137144151,-0.0963786067106436,-0.1021238126758597,-0.0853979420010594,1.553528527257808,0.4124044594949397,0.0811218975117865,-1.4955910819928648,8.89536977249918,-0.9516739727358592,0.2401484643423123,-0.865119097736461
0.06,0.896740481307477,2.334356705783529,2.307875245617123,0.0670261140164641,0.0556218106855988,0.0429707410335197,0.024214753751377,0.013238368697709,-0.0679473980601292,0.8946817297926848,2.3324267300648627,2.3089321577241404,-0.1163786070086668,-0.1221238129738829,-0.1053979422990826,1.5427218296986658,-0.1021321410235477,-0.2775793165857863,-1.5141034946801073,8.585263056902477,-0.959358751117702,0.2222513499978107,-0.866059726036114
0.08,0.8971165802255162,2.334528541765332,2.306207517336967,0.0808220135883795,0.0311161963004911,0.0419265109947577,0.0128185978636144,0.0038865451029138,-0.0973773884426313,0.892754157658472,2.3303842538113453,2.30722419888412,-0.1563786076047133,-0.1621238135699294,-0.145397942895129,1.645792595894544,-0.5698077943881288,-0.4675911797397594,-1.4714995191251057,8.585263056902477,-0.971179829883269,0.2035227338855927,-0.8646455972041288
0.1,0.8971807088194131,2.33448854738048,2.3040841878817755,0.0933349598949251,0.0086110673308359,0.0405914229998153,-0.0057926321312493,-0.0078948514691958,-0.1247347987022282,0.8908265855242591,2.3283417775578283,2.3055162400440983,-0.1963786082007597,-0.2021238141659758,-0.1853979434911755,1.7561371552522156,-0.930561499743194,-0.5890698286054821,-1.367870512979847,8.732232187433965,-0.9861798744642186,0.1839423713177819,-0.8606010528942382
0.12,0.8968014115831303,2.3341759364286827,2.301288860880786,0.1059001673132538,-0.0123818389827025,0.0390521725341337,-0.0314366462716058,-0.0230458950535889,-0.1534083598265904,0.8868990133602439,2.324299301274509,2.301808281174275,-0.2363786087968062,-0.2421238147620223,-0.2253979440872219,2.067209889246563,-1.282200707017823,-0.7575521792196588,-1.4336780562181066,8.732232187433965,-1.001149301756021,0.1637800887644787,-0.8576030013952791
0.14,0.8958572901629506,2.333532573127409,2.297916269870304,0.1178669797792654,-0.0295400353637821,0.0375847440276502,-0.061775345723968,-0.0408098559493098,-0.1824810417275941,0.8829714411962287,2.320256824991189,2.2981003223044514,-0.2763786093928527,-0.2821238153580688,-0.2653979446832684,2.281017220497477,-1.5169349726181096,-0.8881980447860439,-1.453634095050188,8.836216163415429,-1.0141466431702666,0.1429397273461511,-0.8578832024999283
0.16,0.894264538757007,2.3325073229693216,2.2939603354052904,0.1292494755776269,-0.0421408684622327,0.0363911979727587,-0.0957075677124526,-0.0610763828124118,-0.2116928819905073,0.8780438690173124,2.3152143486929684,2.293392363419726,-0.3163786099888991,-0.3221238159541152,-0.3053979452793148,2.457366177289513,-1.696611099424231,-1.0133263431551016,-1.460592013145659,8.888117629075623,-1.0243646435597795,0.1246304034259264,-0.8589450939618931
0.18,0.892099023165343,2.331131078647984,2.289661283096161,0.1393855912438752,-0.0495652853985481,0.0356570860450528,-0.1304457006962424,-0.0828826502979059,-0.2394057804828326,0.8721162968234948,2.3091718723798467,2.2876844045201006,-0.3563786105849455,-0.3621238165501616,-0.3453979458753612,2.4750029937831943,-1.736906649189491,-1.0903133742747042,-1.3856449246162663,8.888117629075623,-1.031571238940692,0.1074170166020104,-0.8619392517883891
0.2,0.8890902551466842,2.3291928041781795,2.284563082734412,0.1486056029949227,-0.0520649672030506,0.0354482952537387,-0.1682073341119279,-0.1095916345551698,-0.2688631244049235,0.8855767381305308,2.3269869461330885,2.277690994072019,-0.2304457021863586,-0.1828826517880221,-0.3394057819729488,2.741826904282855,-1.888081670784271,-1.3354492128631954,-1.4728671961045408,8.950284073414878,-1.0358672301150906,0.0902218197053024,-0.8694514939144874
0.22,0.8852989705296752,2.326554453722287,2.2789914548735184,0.1519224464002398,-0.0482632983651533,0.0357448020027692,-0.2084729614603561,-0.1511169495987502,-0.285663262082986,0.8855767381305308,2.3269869461330885,2.277690994072019,-0.2304457021863586,-0.1828826517880221,-0.3394057819729488,3.011609686377432,-2.013281367421413,-2.076265752179017,-0.8400068839031244,8.984505368941427,-1.0408039667576487,0.0795953655745807,-0.873914082428257
0.24,0.8807495893901581,2.3231502336738914,2.273121331110932,0.1485643224436877,-0.0387523185092843,0.0364260042995712,-0.2437090917733248,-0.1859728712662761,-0.3002609100181032,0.8855767381305308,2.3269869461330885,2.277690994072019,-0.2304457021863586,-0.1828826517880221,-0.3394057819729488,2.583414155706961,-1.7618065156484342,-1.742796083376294,-0.7298823967558626,9.920933145647268,-1.0401861351888262,0.0797856989806816,-0.8775705870293323
0.26,0.8758268507512408,2.3193364010938016,2.267267329560164,0.1427699076613749,-0.0268131855090654,0.0372670135413414,-0.272212214752782,-0.2131651030520863,-0.3150714290944399,0.8832722811086673,2.3251581196152085,2.2742969362522896,-0.2504457024843818,-0.2028826520860453,-0.359405782270972,2.104279546772375,-1.4251561489728586,-1.3596115892905116,-0.7405259538168341,9.79632106666395,-1.0342577017649657,0.081590999857724,-0.887868873028746
0.28,0.8701130961352013,2.3148121589841693,2.260785273466358,0.1361210454838491,-0.0130202070756901,0.038198961889602,-0.2971987656006056,-0.2376044389718866,-0.3324280584202018,0.8786633670649401,2.321500466579448,2.267508820612831,-0.2904457030804283,-0.2428826526820917,-0.3994057828670184,1.9511928691339109,-1.2493275423911792,-1.221966795990012,-0.8678314662880937,9.630357440869377,-1.0262542843999964,0.084915404002328,-0.8990978912463429
0.3,0.8639483224719708,2.3098289318450624,2.2539304938401,0.1297934706864773,0.0006331318010475,0.0390367011070541,-0.3177352148283083,-0.2594425087382883,-0.3521753669972487,0.8740544530212129,2.3178428135436877,2.260720704973372,-0.3304457036764747,-0.2828826532781382,-0.4394057834630649,1.7948560067881152,-1.0268224613851378,-1.091903488320084,-0.9873654288523463,9.313657839327789,-1.0170205131407255,0.0873434009280846,-0.911871750830103
0.32,0.8574128434854286,2.304430196746352,2.2466573539267536,0.124097422052206,0.0132215289909404,0.0396928804567422,-0.3346045901875779,-0.2793709402008531,-0.3741867054802371,0.8674455389476834,2.3121851604781245,2.2519325893041104,-0.3704457042725211,-0.3228826538741846,-0.4794057840591113,1.7074961401001474,-0.8434687679634761,-0.9964215731282422,-1.100566924149421,9.313657839327789,-1.0061415473038446,0.0890509365398454,-0.9266147431354308
0.34,0.8509205369139056,2.298946336870647,2.2393254205454225,0.1193790500807998,0.0236605162642116,0.0401102316531789,-0.3478841272252751,-0.2969639973917197,-0.3965393930160123,0.8608366248741539,2.3065275074125617,2.243144473634849,-0.4104457048685677,-0.3628826544702311,-0.5194057846551579,1.5696372234760774,-0.6639768518848621,-0.8796528595433312,-1.117634376788759,9.18416822033123,-0.9957457312930073,0.0901234319358258,-0.94058052208522
0.36,0.8438322128201852,2.292816077561596,2.231133904969361,0.1149256203160139,0.0329051517647764,0.0403243369097624,-0.3601566579689064,-0.3150613806802315,-0.4215182653561431,0.8532277107857232,2.2998698543320977,2.233356357950687,-0.4504457054646141,-0.4028826550662776,-0.5594057852512042,1.659875263483095,-0.6136265371815636,-0.9048691644255868,-1.2489436170065398,9.106461560278149,-0.985898319848554,0.0904197184890537,-0.9540945576388662
0.38,0.8365123848750915,2.286329942542745,2.222430488927068,0.1107200064544007,0.0405123674684342,0.0403250815780217,-0.3711530660529125,-0.3325388314247956,-0.4476295712295282,0.8446187966823915,2.2922122012367327,2.222568242251623,-0.4904457060606605,-0.442882655662324,-0.5994057858472507,1.6644688114321458,-0.5498204042003046,-0.8738725372282069,-1.3055652936692557,8.993073802622348,-0.9771315585469956,0.0904259460154378,-0.966423869594276
0.4,0.8289830881938959,2.2795022737614232,2.213193912544328,0.1066449385787075,0.0466782863721701,0.0401416530913083,-0.3812144630540044,-0.3492379313689739,-0.4747366997033493,0.8179547315724459,2.2697030009715053,2.2000490103655914,-0.4711530675430286,-0.4325388329149117,-0.5476295727196443,1.6694969771277532,-0.5030698500545994,-0.8349549972089143,-1.3553564236910565,8.952596109500519,-0.9697238686008864,0.0902969113530723,-0.9771384212965806
0.42,0.8216817722845693,2.2727116323606924,2.2041187461997658,0.1034560134961464,0.0506892974710583,0.0397955062658735,-0.3870380879446797,-0.3650376446231994,-0.4792503916196972,0.8179547315724459,2.2697030009715053,2.2000490103655914,-0.4711530675430286,-0.4325388329149117,-0.5476295727196443,0.8716635826090592,-0.2911812445337614,-0.7899856627112734,-0.2256845958173936,8.952596109500519,-0.971840663138447,0.0913541123275548,-0.976919682274987
0.44,0.8138809092992217,2.265248847265634,2.1944501532940803,0.1012286111442354,0.052437094604199,0.0392408197438801,-0.3928705367611264,-0.380623588662245,-0.4877230017691668,0.8179547315724459,2.2697030009715053,2.2000490103655914,-0.4711530675430286,-0.4325388329149117,-0.5476295727196443,0.9337079756669456,-0.2916224408223339,-0.7792972019522809,-0.4236305074734769,10.198849086608789,-0.9693675624573134,0.0917393288864689,-0.9804475700084714
0.46,0.8059575328430162,2.257471960515556,2.1845620515688142,0.0998439091385986,0.05184413119443,0.0385012676856594,-0.3992919734925769,-0.3963072725708936,-0.5008476130887392,0.8132432008970156,2.2653776126423564,2.194572714638395,-0.4911530678410518,-0.452538833212935,-0.5676295730176675,1.071760482724887,-0.3210718365725284,-0.7841841954324302,-0.6562305659786188,9.89782440028921,-0.9686167930689832,0.0907436449373698,-0.9830388454251276
0.48,0.797898099577249,2.2493854144040424,2.1743714629583617,0.0990429865226905,0.0491363107223514,0.037587151887765,-0.4064846524806996,-0.4116088876615223,-0.5175429693012134,0.803820139546155,2.256726835984058,2.183620123184002,-0.5311530684370983,-0.4925388338089814,-0.607629573613714,1.1880750970260028,-0.3596339494061323,-0.7650807545314359,-0.83476781062371,9.660323327866536,-0.9698524436687688,0.0890552225717196,-0.9839263171664
0.5,0.7900970715082873,2.2414227860794003,2.164357611536882,0.098818062485497,0.0448010503974075,0.0365773205351201,-0.4145667360510705,-0.4258471448035527,-0.5357162418560549,0.7943970781952945,2.24807605932576,2.1726675317296094,-0.5711530690331448,-0.5325388344050279,-0.6476295742097604,1.2230248123337455,-0.4041041785185439,-0.711912857101521,-0.908663627742079,9.361959176803794,-0.9727262673139484,0.0864118177382122,-0.9837714413994676
0.52,0.7816949779311225,2.2327515041391184,2.153423936869097,0.0992400291375288,0.0389932612733837,0.0354298126777091,-0.4254933372362422,-0.4405873649130706,-0.5567877775582647,0.7829740168146315,2.237425282637659,2.159714940245414,-0.6111530696291912,-0.5725388350010744,-0.6876295748058069,1.3970274864747043,-0.5463300592585874,-0.7370110054758933,-1.0535767851104882,9.361959176803794,-0.977481839222238,0.0833523221124392,-0.9815789793849166
0.54,0.7730481686737972,2.223783262956915,2.1420617080510067,0.1003969307618117,0.0327361278010843,0.0342759302336834,-0.4388272713351691,-0.4555826605544164,-0.5783771716646465,0.7715509554339687,2.2267745059495585,2.146762348761219,-0.6511530702252377,-0.6125388355971209,-0.7276295754018534,1.4737321905680183,-0.6666967049463429,-0.7497647820672915,-1.0794697053190916,9.24852348549939,-0.9837883514502668,0.0803314853379833,-0.9771529161107284
0.56,0.7645622294100938,2.214970523940452,2.1308659690790046,0.1017942776697157,0.027101892290645,0.0332157085059121,-0.4538255334455081,-0.4712558087238751,-0.5990278802260951,0.7591278940384046,2.2151237292465566,2.1328097572621223,-0.6911530708212841,-0.6525388361931672,-0.7676295759978997,1.4975373150293485,-0.7499131055169528,-0.7836574084729347,-1.0325354280724286,9.24852348549939,-0.9905578574591476,0.0768609044913831,-0.9723147996116892
0.58,0.7553007459898059,2.2053617687117084,2.1186531774270043,0.1030439077406314,0.0221735567839084,0.0321710770314233,-0.4716893334869364,-0.4887573781956196,-0.6211760646898485,0.7457048326279394,2.202472952528654,2.117857165748125,-0.7311530714173305,-0.6925388367892137,-0.8076295765939462,1.6703011412129256,-0.8931900020714145,-0.8750784735872236,-1.107409223187672,9.255048740178609,-0.9965121943811024,0.0735991382370756,-0.9682186892024978
0.6,0.7456566894734109,2.195389441395539,2.105992906178136,0.103525700035109,0.0191157760889568,0.0312560630490887,-0.4918729031872366,-0.5074234824063627,-0.6437218173804965,0.7317162793154591,2.180923899801928,2.087594374192512,-0.5716893349770525,-0.5887573796857357,-0.7211760661799647,1.7777168620459896,-1.009178485015008,-0.9333052105371552,-1.127287634532398,9.244532717616494,-1.0006249764256194,0.0711019236415472,-0.9658731106123593
0.62,0.7360852565585704,2.1855122546293675,2.093762986537022,0.1019853391171423,0.0195234301925862,0.0305875286213304,-0.5140685860393741,-0.530769604213698,-0.6423825054956777,0.7317162793154591,2.180923899801928,2.087594374192512,-0.5716893349770525,-0.5887573796857357,-0.7211760661799647,1.6120510980118044,-1.109784142606876,-1.1673060903667654,0.0669655942409419,9.243705572371256,-1.0062141507055384,0.070072240887789,-0.9624015784963076
0.64,0.7255833273074479,2.1746713861832894,2.0809028119819746,0.0981837885753993,0.023445270352374,0.0300835168066587,-0.5345635016241022,-0.5514699042120491,-0.6439250839402957,0.7317162793154591,2.180923899801928,2.087594374192512,-0.5716893349770525,-0.5887573796857357,-0.7211760661799647,1.4585296818240134,-1.0247457792364023,-1.035014999917555,-0.0771289222309012,10.695228619835689,-1.0061932011743668,0.0737402868664281,-0.9612551829330952
0.66,0.7146989236037965,2.163454305931713,2.0679519416409917,0.0937389551319412,0.0295015733291559,0.0297287273425285,-0.5524870849762534,-0.5689703298290771,-0.6510120800086964,0.7259993859656886,2.17503632600507,2.080382613530712,-0.5916893352750757,-0.6087573799837589,-0.7411760664779878,1.3016770435021237,-0.8961791676075637,-0.8750212808514013,-0.3543498034200343,10.350222323007984,-1.002689201808998,0.0769679450387859,-0.9646729770253888
0.68,0.7040510799107698,2.1524960087641256,2.055472827563157,0.0895257998481114,0.0363182784616316,0.0294701618015251,-0.5671863515266163,-0.5835756343561974,-0.6621959095369699,0.7145655992661476,2.163261178411356,2.065959092207113,-0.6316893358711222,-0.6487573805798054,-0.7811760670740343,1.1773502031745078,-0.7349633275181455,-0.7302652263560139,-0.5591914764136785,10.019605274947024,-0.9974526156735216,0.0797767676882495,-0.970561157463396
0.7000000000000001,0.6925656913497237,2.140679598976047,2.042067635157938,0.0854253534259506,0.0438687559490178,0.0292296741806647,-0.5803501896187443,-0.5972569055178212,-0.6779161856510891,0.7031318125666065,2.1514860308176407,2.0515355708835137,-0.6716893364671687,-0.6887573811758518,-0.8211760676700808,1.2324679458486774,-0.6581919046063978,-0.6840635580811882,-0.7860138057059596,9.745868721522127,-0.9912477689051106,0.0820444174199018,-0.9776970495280318
0.72,0.6808385997304979,2.128602694340154,2.02831026863806,0.0818054384208829,0.051254636598127,0.0289852944889679,-0.5915270433481806,-0.6097434488621853,-0.6971825845866264,0.6896980258372631,2.137710883194124,2.035112049530112,-0.7116893370632151,-0.7287573817718983,-0.8611760682661272,1.276743858339616,-0.5588426864718166,-0.6243271672182082,-0.9633199467768638,9.32836953225069,-0.9846373016068284,0.0836499516481371,-0.9854847137624374
0.74,0.6689073680721856,2.116286728134232,2.0141434301464933,0.0787210196989496,0.0580892956279689,0.0287146667328839,-0.6009281071805462,-0.6213064321173172,-0.7185427002016781,0.6762642391079197,2.1239357355706066,2.0186885281767104,-0.7516893376592616,-0.7687573823679448,-0.9011760688621736,1.3022452937398612,-0.4700531916182804,-0.5781491627565916,-1.0680057807525845,9.32836953225069,-0.9785637838303344,0.0845957928936794,-0.992804000243824
0.76,0.6574086539295587,2.1043707378310788,2.000275201481829,0.0760317363434541,0.0639865043347923,0.028414673124375,-0.6088988639748306,-0.6323356097052399,-0.7402033490344505,0.6618304523636752,2.1091605879321884,2.001265006808408,-0.791689338255308,-0.8087573829639911,-0.94117606945822,1.2790225076169042,-0.3985378397142192,-0.5514588793961384,-1.0830324416386206,9.232769537806234,-0.9723284915147468,0.0851766119496463,-1.0005197306858251
0.78,0.6451508987132015,2.091606498237055,1.985218399725356,0.0732505112892617,0.0696420741760381,0.0280496498454166,-0.6163569162561988,-0.6434122799523088,-0.764403217448761,0.6463966656045295,2.093385440278869,1.982841485425204,-0.8316893388513544,-0.8487573835600376,-0.9811760700542664,1.3819811855302753,-0.3729026140684099,-0.553833512353441,-1.2099934207155272,9.093844296467978,-0.9663962935396248,0.085665546301423,-1.0079440280799143
0.8,0.6327528076095694,2.0786258579964256,1.969663350971196,0.0704562839147782,0.0747884688429603,0.0276373590717463,-0.6229884628109184,-0.6539739847164281,-0.7898889776161535,0.6143330529003916,2.05943588423944,1.946998238852918,-0.6977279479577636,-0.7434122814424249,-0.8479712018509408,1.4186710229486623,-0.3315773277359768,-0.5280852382059664,-1.2742880083696229,9.093844296467978,-0.9610786663541114,0.0861514632947568,-1.0146397902294817
0.8200000000000001,0.6208591667337097,2.066078886237257,1.954698930239652,0.0676281061924405,0.0799950346089134,0.0272473677999871,-0.6283230990051332,-0.6659969779723882,-0.784016060462562,0.6143330529003916,2.05943588423944,1.946998238852918,-0.6977279479577636,-0.7434122814424249,-0.8479712018509408,0.7202462531149306,-0.2667318097107407,-0.6011496627980062,0.2936458576795753,9.036065441579012,-0.9579597006639988,0.0870009816072885,-1.019111851181056
0.84,0.6082527722376515,2.052648801937036,1.9390486725309355,0.064863261209729,0.0861107659836312,0.0268845850747544,-0.6318269493145328,-0.6764114246108958,-0.7817089533869996,0.6143330529003916,2.05943588423944,1.946998238852918,-0.6977279479577636,-0.7434122814424249,-0.8479712018509408,0.5613831330631307,-0.1751925154699796,-0.5207223319253773,0.1153553537781182,10.893291843320185,-0.95240503220169,0.0892675121701406,-1.0238779343283353
0.86,0.5955956632384706,2.039021074116203,1.9233743224541413,0.0626173287019226,0.0921158277830683,0.0265423051508636,-0.6335804777959863,-0.6859175179760878,-0.785830872004363,0.607355773420814,2.0520017614250152,1.9385185268344085,-0.7140021542980766,-0.7634122817404481,-0.8646847987313767,0.5254305051364621,-0.0876764240726746,-0.4753046682596018,-0.2060959308681664,10.51579533293352,-0.946617653341802,0.0906465408164668,-1.029268424520868
0.88,0.5835527259159039,2.025905747849602,1.9083602124980048,0.0609113760376037,0.0972586451169372,0.026206999025488,-0.6339587140033911,-0.6942534473720811,-0.794401748546894,0.5934012144616587,2.037133515796167,1.9215591027973895,-0.7465505669787025,-0.8034122823364945,-0.8981119924922486,0.5981026379955326,-0.0189118103702423,-0.4167964697996629,-0.428543827126554,10.172083844735424,-0.9406197586527678,0.0913487959251744,-1.0352435986345845
0.9,0.5708787486883969,2.011937108381668,1.89234133245434,0.059637351469239,0.1017907431465127,0.0258352044205155,-0.633387878815892,-0.7021951656960674,-0.8072138927251873,0.5794466555025035,2.0222652701673183,1.904599678760371,-0.7790989796593284,-0.843412282932541,-0.9315391862531204,0.7542343488502123,0.0285417593749559,-0.397085916199319,-0.6406072089146619,9.908687419128,-0.935051679215318,0.0912661753506269,-1.0411597266949342
0.92,0.5582236551476624,1.9978175645795495,1.8760327811929376,0.0591266482730685,0.1052636361465515,0.0254551741529014,-0.632159592920665,-0.7094137230339054,-0.8231304826144293,0.563864675909317,2.0053970245086674,1.8859688950353088,-0.8116473923399543,-0.8834122835285875,-0.9649663800139924,0.8760052653700058,0.0614142947613471,-0.3609278668918969,-0.7958294944621025,9.544955866345845,-0.9302751856557911,0.0902548378192785,-1.046621988648113
0.94,0.5455995646846861,1.983559468550715,1.8593915242193604,0.0596369194587525,0.1075995762215378,0.0250830489023166,-0.6303843836091648,-0.7161785513834168,-0.840203938859722,0.5482826963161304,1.9885287788500168,1.8673381113102463,-0.8441958050205802,-0.923412284124634,-0.9983935737748642,0.9225198898369528,0.0887604655750107,-0.338241417475571,-0.8536728122646331,9.544955866345845,-0.9267252254305672,0.088291438473204,-1.0510790286337337
0.96,0.5336391892482499,1.9698801033615627,1.8432617139912693,0.0609304491251409,0.1088953926066724,0.0247347113098139,-0.6287464839757191,-0.7234402824587038,-0.856823479683103,0.5318870064059282,1.9706605331764648,1.847871647741162,-0.8767442177012061,-0.9634122847206804,-1.031820767535736,0.910528130536146,0.0818949816722869,-0.3630865537643524,-0.8309770411690509,9.487964172439206,-0.9240105645909964,0.0852183575256124,-1.0551058036626997
0.98,0.5210812783798916,1.9553244110649384,1.825936964043705,0.0628317687816056,0.1095242656367988,0.0243633747917328,-0.6271769870347021,-0.73178952233625,-0.874802698038864,0.5146776061787104,1.9517922874880116,1.827569504328056,-0.909292630381832,-1.0034122853167269,-1.065247961296608,0.9942653316202904,0.0784748470508467,-0.4174619938773105,-0.8989609177880498,9.487964172439206,-0.9222117844338136,0.0815911418708054,-1.0583462672062056
1.0,0.5085528003604481,1.9405893938134429,1.8082492903126584,0.0649259599720485,0.1095830728015615,0.0239702782207956,-0.6257942041213473,-0.741381602156332,-0.8930804589817164,0.4897224290281565,1.9187349349481264,1.7821968291417625,-0.6461332347518443,-0.8317895238263662,-0.8803812271285533,1.034403969617708,0.0691391456677403,-0.4796039910040961,-0.9138880471426192,9.466388625256512,-0.9212241868521628,0.0777530134441401,-1.0608844214415605
1.02,0.4960109394756439,1.92556920901609,1.7905922365549447,0.064976913491019,0.1119170276425846,0.0235842597915309,-0.6278737424157345,-0.7597630290813054,-0.8695639628842876,0.4897224290281565,1.9187349349481264,1.7821968291417625,-0.6461332347518443,-0.8317895238263662,-0.8803812271285533,1.4960171489795373,-0.1039769147193558,-0.9190713462486731,1.1758248048714393,9.458341421054683,-0.9217912229058224,0.0764752752491571,-1.0611438526378136
1.04,0.4840937046283444,1.9109685655902244,1.774299454503809,0.0619225677460929,0.1178608881150919,0.0232397601945488,-0.6259930643218041,-0.7756346675666601,-0.8468499235553817,0.4897224290281565,1.9187349349481264,1.7821968291417625,-0.6461332347518443,-0.8317895238263662,-0.8803812271285533,1.3886805256590389,0.0940339046965166,-0.7935819242677333,1.135701966445296,12.310794783214988,-0.9167420035032672,0.0798835973450324,-1.064320005970585
1.06,0.4716247161230688,1.8953240909490412,1.7575665098277613,0.0570792376834144,0.1260571176579176,0.0228622282947305,-0.6206166785749391,-0.7875876809200323,-0.8278744224661008,0.483261096680638,1.9104170397098623,1.7733930168704768,-0.6499244842952727,-0.8517895241243894,-0.8814969329464911,1.153093332642992,0.2688192873432526,-0.5976506676686089,0.948775054464046,11.95514615740194,-0.9079599565592622,0.0843998043202086,-1.071277283459681
1.08,0.4592925535280697,1.8794759699143475,1.741159432851864,0.0521363744222766,0.1351041193696814,0.0224934605827368,-0.6125489606727731,-0.7965143253515394,-0.8140091431791882,0.4703384319856011,1.8937812492333352,1.7557853923279056,-0.6575069833821295,-0.8917895247204358,-0.8837283445823668,0.9179038929261264,0.4033858951082991,-0.4463322215753573,0.6932639643456306,11.593452476291532,-0.8978289932240751,0.0893460991546297,-1.078884054139485
1.1,0.4471454751562334,1.863471833984488,1.7249796866052514,0.0476858193461626,0.1443649054145422,0.0221371036559924,-0.6022560486742564,-0.8034982137796752,-0.8046753311374549,0.4574157672905642,1.877145458756808,1.7381777677853345,-0.6650894824689864,-0.9317895253164824,-0.8859597562182425,0.7775583293494157,0.5146455999258337,-0.3491944214067899,0.4666906020866612,11.276338542826124,-0.8875338213881558,0.0934860092232668,-1.08672452708578
1.12,0.4358157358317678,1.848152162698792,1.709749438694637,0.0441124723772524,0.1530414279204891,0.0218127991583363,-0.5906267273762279,-0.8088592473749608,-0.7990061275614447,0.4441139776411845,1.8585096682504785,1.7204585726609696,-0.6726719815558432,-0.9717895259125288,-0.8881911678541182,0.7002172238827167,0.5814660649014258,-0.2680516797642807,0.2834601788005098,11.02963526766962,-0.8764513160006296,0.0970947175891115,-1.09518664585175
1.14,0.4241615267570619,1.831926318239164,1.6938235720500068,0.0411367180141217,0.1614937400287051,0.0214774240631871,-0.5752169428335734,-0.8135537745369184,-0.7939376232487317,0.4308121879918047,1.8398738777441488,1.7027393775366046,-0.6802544806427,-1.0117895265085752,-0.8904225794899939,0.8443781452841213,0.7704892271327257,-0.2347263580978753,0.2534252156356498,10.819025198346026,-0.8663478534560295,0.1000027578266629,-1.102644911904712
1.16,0.4128444763355929,1.8156048979086057,1.6779921479061892,0.038718621993578,0.1685233464884729,0.021112202056938,-0.5571831870770595,-0.8183441814002814,-0.7895004511561785,0.4173208358652536,1.8202380872229176,1.684964397121343,-0.6878369797295569,-1.0517895271046216,-0.8926539911258696,0.9589745053716068,0.9016877878256946,-0.2395203431681536,0.2218586046276616,10.819025198346026,-0.8572211629213474,0.1022778390070528,-1.109373245735341
1.18,0.4019106327706016,1.799190455963758,1.6622448096243732,0.0365610273109347,0.1736415059308013,0.0206880411912827,-0.5372088417543742,-0.8228389032723852,-0.7854728448779577,0.4036399212615311,1.799602296686786,1.6671336314151843,-0.6954194788164137,-1.091789527700668,-0.8948854027617453,1.0433103662259506,0.9987172661342636,-0.2247360936051878,0.2013803139110426,10.802895127278134,-0.8500408119497148,0.1041330708407693,-1.1146484403744568
1.2,0.391905330127609,1.7835172376704818,1.647357010625933,0.0346738287871354,0.1765407331119712,0.0202271720727563,-0.5171437505479578,-0.8267318871081919,-0.7818695091390085,0.3750501906828829,1.758048510800139,1.6229711673804752,-0.550790727710602,-0.9228389047625012,-0.7343562405199998,1.0377225504864604,1.003254560320821,-0.1946491917903359,0.1801667869474554,10.802895127278134,-0.8444289450507818,0.1056995577040502,-1.118957902521285
1.22,0.3818366275429984,1.7669092542506182,1.6319516710946689,0.0319323300286225,0.1771053650237022,0.0196119654014286,-0.4906953793108312,-0.8333678835917617,-0.7578109444675613,0.3750501906828829,1.758048510800139,1.6229711673804752,-0.550790727710602,-0.9228389047625012,-0.7343562405199998,1.818218444299962,1.322418561856331,-0.3317998241784914,1.2029282335723646,12.247584386444032,-0.845712379760858,0.107497368874412,-1.1183959103114802
1.24,0.3723095098231269,1.7502012325509193,1.6170649615363644,0.0286623705571342,0.1744645903361894,0.0188767006630986,-0.4635138938845967,-0.8370333275771333,-0.7321937132887388,0.3750501906828829,1.758048510800139,1.6229711673804752,-0.550790727710602,-0.9228389047625012,-0.7343562405199998,1.876506836422215,1.359074271311722,-0.1832721992685804,1.280861558941121,12.247584386444032,-0.8469106742846382,0.1111411304976546,-1.116315827726193
1.26,0.3637574282183161,1.7342801474006837,1.6033890732052136,0.0260227073500448,0.1686186915487402,0.0181433625448768,-0.4386088735180787,-0.8388029000888615,-0.7086447131661457,0.3695422834057769,1.7488201217525137,1.6156276049752751,-0.5535071049018475,-0.9428389050605246,-0.7241329196484082,1.716061503199134,1.2452510183258991,-0.0884786255864078,1.1774500061296544,12.189969987367476,-0.850518248881001,0.1141642390559863,-1.112868180160062
1.28,0.3552327221932823,1.717496026429343,1.589474979170377,0.0241855391588457,0.1594915030653146,0.0173935868109167,-0.4157431238642791,-0.8396885252198901,-0.6839577154478125,0.3585264688515648,1.7303633436572636,1.6009404801648752,-0.5589398592843386,-0.9828389056565712,-0.7036862779052251,1.6830587448511258,1.1432874826899808,-0.0442812565514316,1.2343498859166635,12.11682002881389,-0.8578039900503248,0.1161751124603698,-1.106662499055587
1.3,0.3471250908771622,1.7007033613578018,1.5760556737437263,0.0236370010789252,0.1482312174690241,0.0167093452095251,-0.3967638787860166,-0.8397743968164367,-0.6591426241929887,0.3475106542973528,1.7119065655620136,1.586253355354475,-0.5643726136668298,-1.0228389062526175,-0.683239636162042,1.562056234308704,0.948962253913127,-0.0042935798273302,1.2407545627411865,12.084956372368652,-0.8674352087497768,0.1169419192630456,-1.0985393733680615
1.32,0.3393524311025747,1.6839146603006987,1.5631366989219957,0.0247441186340215,0.1357284787724769,0.0161190830361046,-0.381984526992246,-0.8393728742858585,-0.6339412885540492,0.3362232020240162,1.6914497874369612,1.5725885626312346,-0.5698053680493209,-1.062838906848664,-0.6627929944188589,1.4609053509494356,0.73896758968853,0.0200761265289117,1.260066781946978,12.063343723458274,-0.8794453475982209,0.116195557905868,-1.0883543167603795
1.34,0.3322024425379077,1.6679706864526338,1.551343082323332,0.0275839352389798,0.1234302128058846,0.0156533997997257,-0.3717791182976367,-0.8394841816784293,-0.6087199183636376,0.3249357497506796,1.6709930093119088,1.5589237699079936,-0.575238122431812,-1.1028389074447105,-0.6423463526756756,1.360404599964134,0.5102704347304643,-0.0055653696285407,1.2610685095205798,12.059465497918607,-0.892721160352051,0.1135516518867829,-1.0769799487757403
1.36,0.3248439552499452,1.651148193747589,1.5394599459530498,0.0315104612343174,0.1107379208481828,0.0151906988635286,-0.3649952827412498,-0.8429822220424018,-0.5808437559319292,0.3135124786177807,1.6495362311719552,1.5457701432283324,-0.5806708768143031,-1.1428389080407568,-0.6218997109324925,1.4451099812497596,0.3391917778193448,-0.1749020181986249,1.3938081215854214,12.12600538593415,-0.906382642472732,0.1099713810262263,-1.0649864968420448
1.38,0.3175803420095875,1.6342301986097043,1.5281450889980093,0.0352866512755858,0.0989223078004065,0.0146962636261874,-0.3620123354727834,-0.8486630252474441,-0.5519804954629649,0.3019533886253196,1.6270794530171009,1.5331276825922509,-0.5861036311967942,-1.1828389086368032,-0.6014530691893094,1.478392120142813,0.1491473634233214,-0.2840401602521136,1.443163023448213,12.203024222550084,-0.9192825395927978,0.1069115039325952,-1.0530595913218106
1.4,0.3107013909619615,1.6180383064952717,1.5179368262464463,0.0383100253189779,0.0889844978467686,0.0141970121848047,-0.362377998385918,-0.855343466084074,-0.5239938331437104,0.2994797252359484,1.5917970473473322,1.500546064224861,-0.3862003901983111,-0.9486630267375602,-0.506480235616516,1.4387627209774154,-0.0182831456567333,-0.3340220418314943,1.3993331159627254,12.256197707517458,-0.932087862128774,0.1044715139435246,-1.0405542287692056
1.42,0.3033797237513819,1.6007726922160843,1.50771881881255,0.0383035865725899,0.0815320834777369,0.0135512155457635,-0.3700627036347164,-0.8700274596449442,-0.4994857399569711,0.2994797252359484,1.5917970473473322,1.500546064224861,-0.3862003901983111,-0.9486630267375602,-0.506480235616516,1.4792912097576372,-0.3842352624399192,-0.7341996780435123,1.225404659336965,12.284793167095811,-0.9383212047895784,0.1043514978773241,-1.0347524753925446
1.44,0.2958809128111087,1.583261219172037,1.4979831400768384,0.0343835081299351,0.0788982287254939,0.0128419696535011,-0.3790355611954087,-0.8796341658775059,-0.4752241681149274,0.2994797252359484,1.5917970473473322,1.500546064224861,-0.3862003901983111,-0.9486630267375602,-0.506480235616516,1.3796963847979888,-0.4486428780346135,-0.4803353116280828,1.2130785921021818,11.979519415295728,-0.9448076930659052,0.1089029068402096,-1.0267019447838983
1.46,0.2882207434057998,1.5656165511947042,1.488726162562851,0.0295331990331234,0.0800549151908379,0.0122237618893371,-0.3861212083315604,-0.8842507589116533,-0.4516637006971015,0.2956177213339653,1.582310417079957,1.4954812618686957,-0.3910380011434167,-0.9686630270355834,-0.4973801836472262,1.2516139096456915,-0.3542823568075837,-0.2308296517073704,1.1780233708912955,11.979519415295728,-0.9470099461284188,0.1143334519238143,-1.0222220012518903
1.48,0.2808354161608023,1.5487975984906346,1.4803584900642135,0.0254763604922773,0.0833818939657175,0.0117517742515767,-0.3906398888189501,-0.886116556604611,-0.4303177571213581,0.287893713529999,1.5633371565452054,1.4853516571563654,-0.4007132230336278,-1.00866302763163,-0.4791800797086467,1.0949303419818373,-0.2259340243694868,-0.0932898846478846,1.0672971787871717,11.883556678315472,-0.9463039941863548,0.1194119668714849,-1.020532690516079
1.5,0.272994512722715,1.5310700900355414,1.471980520917551,0.0222692550637973,0.0881389837122215,0.0113661463627167,-0.3929606706440887,-0.8867314570118765,-0.408645436353905,0.2801697057260328,1.5443638960104542,1.4752220524440351,-0.4103884449238389,-1.0486630282276763,-0.4609799757700671,1.090244947521114,-0.1160390912569309,-0.0307450203632764,1.0836160383726534,11.786470752066634,-0.9438369424878386,0.1233746479155564,-1.0207387553325056
1.52,0.2651319418992355,1.5133387481152196,1.46402653991968,0.0202775055193098,0.0933123478672553,0.0110807475320063,-0.3929937492702921,-0.8865816002554063,-0.3878845690501444,0.271961936827556,1.5233906354459006,1.4660024529286335,-0.42006366681405,-1.088663028823723,-0.4427798718314875,1.0380717249392342,-0.0016539313101693,0.0074928378235084,1.0380433651880294,11.720888002924768,-0.9406014084037572,0.1260403493409307,-1.0219686142271098
1.54,0.2572908514581629,1.4956196468140188,1.456478171672473,0.0196772084338345,0.0982259033775424,0.0108978704327415,-0.3910231788219622,-0.8855910643682903,-0.3680014449062105,0.2637541679290792,1.5024173748813472,1.4567828534132323,-0.4297388887042611,-1.1286630294197693,-0.4245797678929079,1.000253636532486,0.0985285224164939,0.049526794355803,0.9941562071966976,11.65815784149072,-0.936882030365662,0.1275210969048815,-1.0238233247954454
1.56,0.2498929792874276,1.4788013648693985,1.44967019947916,0.020395975077797,0.1022773902295742,0.0108165675872169,-0.387769955502921,-0.8849309218414537,-0.3496260013663108,0.2553045184833472,1.4804441143018925,1.4480182564962956,-0.4394141105944722,-1.1686630300158156,-0.4063796639543284,0.9336436357188596,0.1626611659520604,0.0330071263418274,0.9187721769949836,11.606262683672869,-0.9342935268083442,0.1279990252455155,-1.0243641779637305
1.58,0.2421840407003946,1.4611068124803577,1.442880557913245,0.022377220708023,0.1056957264906048,0.0108172985978144,-0.3832666010664314,-0.8846732165553767,-0.3303062804457916,0.2466129884903598,1.4574708537075365,1.4397086621778232,-0.4490893324846833,-1.208663030611862,-0.3881795600157489,0.9919655105419136,0.225167721824479,0.0128852643038523,0.9659860460259628,11.576154645412316,-0.9327537968405072,0.1274186610610416,-1.0239387531551083
1.6,0.2345746262917029,1.4434031701661418,1.4364775242011512,0.0253028183379846,0.108120825920588,0.0108801964177342,-0.3779531489986224,-0.8860302865693441,-0.3109693420332445,0.2230207106470731,1.4168731516525883,1.4263652438909558,-0.3804044989471793,-0.9846732180454928,-0.2908040807065738,1.0049771130109786,0.2656726033904516,-0.0678535006983727,0.966846920627354,11.57798675439244,-0.9325217803573168,0.12608096202559,-1.0224692254872518
1.62,0.2274120223742732,1.426476639165863,1.43073233683728,0.026127537807527,0.1106154141699385,0.0108248351743973,-0.3759984470616955,-0.8946035751122466,-0.2947299214766852,0.2230207106470731,1.4168731516525883,1.4263652438909558,-0.3804044989471793,-0.9846732180454928,-0.2908040807065738,0.9233646572656036,0.0977350968463464,-0.4286644271451256,0.8119710278279652,11.580091218901543,-0.9312372652468328,0.1265066225347696,-1.0217363905578625
1.64,0.2199300737320469,1.4085278197506268,1.4250198951110071,0.0244692320118603,0.1141220217107502,0.0106266205999419,-0.372111802115362,-0.8997005774117863,-0.2773426648945913,0.2230207106470731,1.4168731516525883,1.4263652438909558,-0.3804044989471793,-0.9846732180454928,-0.2908040807065738,0.9265556281626296,0.1943322473166753,-0.2548501149769844,0.8693628291046918,11.46071984664377,-0.930657207627168,0.1295884909100532,-1.0198297146702535
1.66,0.2125441485428109,1.3905019767677835,1.4196522205305238,0.0217949313226252,0.1178129872670272,0.0103722221543685,-0.3665609276342703,-0.9024446492266114,-0.2603158067488835,0.2192166656576013,1.4070264194721336,1.42345720308389,-0.3798320785233289,-1.004673218343516,-0.2829036407587302,0.9058918753689787,0.2775437240545825,-0.1372035907412527,0.8513429072853934,11.471503020229648,-0.9295182932927524,0.1337596230041333,-1.0181803042053854
1.68,0.2052843529192676,1.3724513767196629,1.4146184227330312,0.0193485120891511,0.1211843659869092,0.0101364284307553,-0.3596594483347337,-0.9026717262597214,-0.2439183844829036,0.2116085756786577,1.387332955111224,1.4176411214697586,-0.3786872376756281,-1.0446732189395624,-0.2671027608630432,0.8896030539933959,0.3450739649768303,-0.0113538516554989,0.8198711132989935,11.435165330083692,-0.9286396568810342,0.1375938720725887,-1.016383685177383
1.7,0.1985254810038736,1.3553133939938105,1.410135418896072,0.0179312272209569,0.1237986498258252,0.0099754786566313,-0.3521582821086424,-0.9015641281809028,-0.2287986715531023,0.2040004856997141,1.367639490750314,1.4118250398556271,-0.3775423968279273,-1.0846732195356088,-0.251301880967356,0.8457245227248289,0.3750583113045658,0.0553799039409219,0.7559856464900649,11.392955212701963,-0.928110690591338,0.1407356045529877,-1.0142880359381337
1.72,0.1915716506202702,1.3373055658835105,1.4057259416467722,0.0178454033185378,0.1257725840615467,0.0099044062490041,-0.3436331589596428,-0.8994362470654538,-0.2129443524382127,0.1964496377631555,1.345946026359602,1.40679900223628,-0.3763975559802264,-1.1246732201316552,-0.2355010010716689,0.9063181523944094,0.4262561574499807,0.1063940557724574,0.7927159557444774,11.36220881170084,-0.9281689215221668,0.1425092374292277,-1.011889252701472
1.74,0.18479268165139,1.319346364520834,1.4016336219151035,0.0196715192361426,0.126885866264658,0.0099661823404338,-0.3347363218359847,-0.8968077794139123,-0.1970746311691567,0.188898789826597,1.3242525619688896,1.401772964616933,-0.3752527151325256,-1.1646732207277015,-0.2197001211759818,0.9191172479037016,0.4448418561829065,0.1314233825770727,0.7934860634528001,11.357646256689804,-0.9289960704685256,0.1425914318697735,-1.0090973290123124
1.76,0.1781934209008925,1.3014214823902364,1.3978618142081458,0.0231991566432756,0.1271384329917703,0.0101413893850922,-0.3257350395262741,-0.8963471781380958,-0.1808953340380125,0.181376562911231,1.3015590975632765,1.397141948994978,-0.3741078742848248,-1.204673221323748,-0.2038992412802947,0.9260195629848268,0.4500641154855267,0.0230300637908242,0.8089648565572122,11.357646256689804,-0.9311779740784284,0.1411237748244382,-1.0051755916392764
1.78,0.1720896634701338,1.2843706946240436,1.394583629854301,0.0268481714778349,0.1266676034716288,0.0103187911259718,-0.3173145005737355,-0.8985346703386042,-0.1649757687703488,0.1738829570170575,1.2778656331427618,1.3929059553704153,-0.3729630334371239,-1.2446732219197945,-0.1880983613846076,0.907087587680912,0.4210269476269318,-0.10937461002542,0.795978263383186,11.372987820626804,-0.9339385825634332,0.1392623491124067,-1.0008738649376767
1.8,0.1658337813042417,1.2663615283756486,1.3914661480728103,0.0303282030419592,0.1255493626116047,0.0104675273662939,-0.3087964596627708,-0.902255007385112,-0.147569531702389,0.156223938441447,1.2394439611071135,1.3863348414157837,-0.2934162529443314,-0.9985346718287204,-0.121635905350816,0.986629385289256,0.4259020455482348,-0.1860168523253824,0.8703118533979883,11.40745631180107,-0.937387379966172,0.1377451488620759,-0.9959120021062028
1.82,0.1597056292781255,1.2481794884934894,1.3886800717207983,0.0303739806408513,0.1250629269435266,0.0104034788879814,-0.3042040731918249,-0.9143115375078588,-0.1318669736633282,0.156223938441447,1.2394439611071135,1.3863348414157837,-0.2934162529443314,-0.9985346718287204,-0.121635905350816,1.0161449958904711,0.2296193235472921,-0.6028265061373383,0.7851279019530379,11.445478907698089,-0.9391709781958164,0.1389269431783639,-0.9925542840952416
1.84,0.1539762676504978,1.23073725108583,1.386328799528128,0.026939770406413,0.1258794023542159,0.0101538254113957,-0.2989806370406674,-0.9205707343593792,-0.1163931164190514,0.156223938441447,1.2394439611071135,1.3863348414157837,-0.2934162529443314,-0.9985346718287204,-0.121635905350816,0.874502842287491,0.2611718075578778,-0.3129598425760216,0.7736928622138394,11.359063856753892,-0.9406108628725928,0.1435757624834419,-0.9889907262088404
1.86,0.1480629471394974,1.2123059440333583,1.3841711594583548,0.0225786801569665,0.1275124821271805,0.0098752498466494,-0.2925176069516231,-0.9221801556676796,-0.1001973757681655,0.1532897759120037,1.2294586143888264,1.3851184823622755,-0.2886366034184506,-1.0185346721267436,-0.1129679326669094,0.8755898156532315,0.3231515044522126,-0.0804710654150331,0.8097870325442985,11.373793811435462,-0.9414404627489772,0.1491861057000187,-0.985608122433412
1.88,0.1422889313060101,1.193873594168687,1.382331578074735,0.0190950632260855,0.1294960921109449,0.009679607847606,-0.2851300951934502,-0.9213018896209476,-0.0845730776498275,0.1474214508531171,1.209487920952252,1.3826857642552592,-0.279077304366689,-1.05853467272279,-0.0956319872990963,0.865253391956205,0.3693755879086463,0.0439133023366122,0.7812149059169015,11.307607198154985,-0.9419695971029344,0.1541350413779555,-0.9824371241232642
1.9,0.1366720199221544,1.175471194804397,1.3808002709939446,0.0169357868537079,0.1314753468509497,0.0095899558200807,-0.2768911356337314,-0.9193786931293804,-0.0693401870209468,0.1415531257942305,1.1895172275156776,1.380253046148243,-0.2695180053149273,-1.0985346733188366,-0.0782960419312832,0.871234894106203,0.4119479779859408,0.0961598245783623,0.7616445314440328,11.307607198154985,-0.942323888951036,0.1577097324906761,-0.9797446997917628
1.92,0.1314957204774652,1.158032211596381,1.3796267894447345,0.0162908931576932,0.1331154301637272,0.0096122083527028,-0.2683913727425788,-0.9166690923977404,-0.0549440316297884,0.1361627656879319,1.1675465340493008,1.3786871253096171,-0.2599587062631657,-1.138534673914883,-0.0609600965634701,0.8468134318979267,0.4249881445576309,0.1354800365819863,0.7198077695579219,11.281096767652343,-0.9426358701962564,0.1601071938475099,-0.977241333359524
1.94,0.1262267821371617,1.1397373036725431,1.3786894652509616,0.0174981041082002,0.1344407234379698,0.0097748226877347,-0.2589470698087381,-0.913177709535179,-0.0395290358403623,0.1307724055816334,1.1455758405829242,1.3771212044709915,-0.2503994072114041,-1.1785346745109295,-0.043624151195657,0.9206067393126708,0.4722151466920343,0.1745691431280782,0.7707497894713022,11.29128101862716,-0.9432506396236612,0.1607938695671342,-0.9747143905002178
1.96,0.1211516881011178,1.1215007044084977,1.378064186533121,0.0206288387341383,0.1352470251039603,0.0100752251024152,-0.2490576568742426,-0.9110833879663076,-0.0237508873037229,0.1256210279516288,1.1226051471016465,1.3759886822665612,-0.2408401081596425,-1.218534675106976,-0.0262882058278439,0.9369320176339654,0.4944706467247733,0.104716078443573,0.788907426831968,11.29128101862716,-0.9448158873278424,0.1599842901277922,-0.9715027995083702
1.98,0.1162778460815188,1.1032721464315964,1.3777612498016476,0.0245031069912148,0.1354450085637019,0.0104241118005487,-0.238900347975815,-0.9120270227100998,-0.0073247668117185,0.1207086327979184,1.098634453605467,1.375289558696326,-0.2312808091078808,-1.2585346757030222,-0.0089522604600308,0.9667972964970682,0.5078654449213779,-0.0471817371896166,0.8213060246002223,11.308918914794958,-0.9468730991428048,0.1583857530435362,-0.9679502088465636
2.0,0.1118360344958005,1.085917415636771,1.377784047390696,0.0279283361744086,0.1350752537473554,0.0107296483126905,-0.2292490528807084,-0.9146770058958392,0.0089138163897854,0.1043328286827281,1.0576707952960915,1.3773950114610616,-0.2105414470562584,-1.0120270242002158,0.0138819846540788,0.9537576897326924,0.482564754755331,-0.1324991592869695,0.8119291600751977,11.34642927810637,-0.9493450046640164,0.1570113235536381,-0.9639848439151572
2.02,0.1073398778983521,1.0675133288246073,1.378046798903455,0.0285642325149465,0.1342676427175224,0.010839350754149,-0.2210058329905769,-0.9247488375831592,0.0160306221312575,0.1043328286827281,1.0576707952960915,1.3773950114610616,-0.2105414470562584,-1.0120270242002158,0.0138819846540788,0.7416896110513653,0.412160994506576,-0.5035915843659922,0.355840287073605,11.385235069374176,-0.9515072368646916,0.1588839978144953,-0.95911129727913
2.04,0.1030003313381485,1.0489573141521948,1.3784397915658664,0.0257221336618746,0.1332895898002014,0.0107185206930011,-0.2133919817782329,-0.9300299072779638,0.0230266508482779,0.1043328286827281,1.0576707952960915,1.3773950114610616,-0.2105414470562584,-1.0120270242002158,0.0138819846540788,0.5805274438268877,0.3806925606172004,-0.2640534847402342,0.3498014358510243,10.724958804870766,-0.9522534565547672,0.1616483861268996,-0.9575516309758032
2.06,0.0988078302523659,1.0303429242760525,1.3789773441154085,0.022018312140377,0.1323328807885498,0.0105608975466426,-0.2062651705886702,-0.9310592425958272,0.0303881776750116,0.1022274142121655,1.0475505250540893,1.3775338313076024,-0.2048696668723471,-1.032027024498239,0.0181233349472383,0.514886021729559,0.3563405594781355,-0.0514667658931655,0.3680763413366844,10.772676489552396,-0.9534572489949455,0.1657254515911262,-0.9549340576851184
2.08,0.0949526989301648,1.0126676098158574,1.3796249379542571,0.0192262527620039,0.1315751519084176,0.0104858829424121,-0.1998898725002945,-0.929763870095921,0.0374111401056586,0.0980165852710403,1.027309984570085,1.377811471000684,-0.1935261065045244,-1.0720270250942856,0.0266060355335573,0.4786554526259941,0.3187649044187834,0.0647686249953038,0.3511481215323483,10.779472890766556,-0.95498177447864,0.1694425728600995,-0.9517687530596072
2.1,0.0910228796955388,0.9940994313032944,1.3804521967051373,0.0175598491988413,0.1310142614679336,0.0105187026217595,-0.1934222849990385,-0.9273492057936834,0.0449529061500954,0.0938057563299152,1.0070694440860808,1.3780891106937656,-0.1821825461367018,-1.112027025690332,0.0350887361198763,0.5112204193103118,0.323379375062803,0.1207332151118789,0.3770883022218413,10.774954046620223,-0.956333918707804,0.1720626863765744,-0.9489170888972324
2.12,0.0872212724215274,0.9755880752631227,1.3814326378134238,0.0175490365167918,0.1307215663480966,0.0106865617008816,-0.1870457304081281,-0.9240946549821614,0.0527259680412284,0.0901621054071811,0.9848289035722742,1.3787908854161632,-0.1708389857688792,-1.1520270262863783,0.0435714367061952,0.5283773287126858,0.3188277295455163,0.1627275405761019,0.3886530945566468,10.781099773194,-0.95740820781747,0.1732753485480029,-0.9465634212945044
2.14,0.083547072754391,0.9571484677422076,1.382569241201822,0.0196587011161475,0.1306754087848012,0.0110170501698588,-0.1806647330677725,-0.9203773717138172,0.0605488479371256,0.0865184544844471,0.9625883630584676,1.3794926601385606,-0.1594954254010565,-1.192027026882425,0.0520541372925142,0.537895835223632,0.319049867017783,0.1858641634172153,0.3911439947948611,10.792260330438694,-0.9582271927653836,0.1728039657085397,-0.9447510164920764
2.16,0.080177249429962,0.939677352651858,1.3837966406552031,0.0232396186097201,0.1307722343733305,0.0114496226994631,-0.1743605539938789,-0.9193337260398052,0.0682583989043501,0.0831583925709086,0.9393478225297596,1.3804065023756162,-0.1481518650332339,-1.2320270274784713,0.0605368378788332,0.500672163708033,0.3152089536946803,0.0521822837005858,0.3854775483612241,10.80466996640098,-0.9596339991168296,0.170969221098724,-0.9424944317199766
2.18,0.0767622035586053,0.921276042543054,1.385252230717294,0.0272476392310731,0.1309101258490094,0.0119267263702851,-0.1674671419104052,-0.9209208638681842,0.0769231572338776,0.0800819196665657,0.9151072819861508,1.3815324121273296,-0.1368083046654112,-1.2720270280745176,0.0690195384651521,0.5592767059961666,0.344670604173683,-0.0793568914189413,0.4332379164763783,10.80466996640098,-0.9606363871118831,0.168711557220316,-0.940918929952996
2.2,0.0734877819320078,0.9028240704727788,1.3868870256673609,0.0307740984916876,0.1309898375459483,0.0123725080669608,-0.1603345791006131,-0.9240876712497086,0.0861262705162208,0.0683888464630851,0.8752299993496447,1.389098388578988,-0.1362706128647042,-1.0209208653583004,0.0991472798922496,0.6033229137761719,0.3566281404896051,-0.1583403690762208,0.4601556641171581,10.86953891806752,-0.9616699531561156,0.1668787152356769,-0.9392448617073624
2.22,0.0703673011322205,0.8842134508574365,1.3886930094911596,0.0308075496772513,0.1305835448891376,0.0125656367172161,-0.152210446596528,-0.9353782218773028,0.094052728132652,0.0683888464630851,0.8752299993496447,1.389098388578988,-0.1362706128647042,-1.0209208653583004,0.0991472798922496,0.8004792201601447,0.4062066252042556,-0.5645275313797049,0.3963228808215583,10.86953891806752,-0.9645433595126784,0.1682102308485464,-0.935027520295689
2.24,0.0675459929952682,0.8663797852232399,1.3905589946577843,0.0273837020426254,0.1296345262542641,0.0125052253656527,-0.1452517438279011,-0.9407718341895932,0.1019985166207098,0.0683888464630851,0.8752299993496447,1.389098388578988,-0.1362706128647042,-1.0209208653583004,0.0991472798922496,0.5929800854462547,0.3479351384313447,-0.2696806156145204,0.3972894244028926,10.804961566258498,-0.9651823205534388,0.1719557901699131,-0.9331363297999264
2.26,0.0647094297581009,0.8475539678109087,1.3926842838636622,0.0231294526298648,0.1284286824952173,0.0124123669104317,-0.1388265470986645,-0.9415161448358356,0.1100956029689268,0.067026140334438,0.8650207906960617,1.3900898613779105,-0.130031307055564,-1.0409208656563236,0.103592104423924,0.5181697566386517,0.3212598364618291,-0.0372155323121181,0.4048543174108486,10.784593362515809,-0.9667757782807572,0.1767875695930572,-0.9296193856080186
2.28,0.0619927525991452,0.8287434856696377,1.394964938308356,0.0198561869266472,0.1273003199711857,0.0124114918085831,-0.1331693761275616,-0.9398726641067204,0.1175683526999491,0.0643007280771439,0.8446023733888957,1.3920728069757555,-0.1175526954372836,-1.0809208662523702,0.1124817534872727,0.4757798883038149,0.2828585485551468,0.082174036455751,0.3736374865511156,10.742990079897936,-0.968497175890806,0.180734389176592,-0.926044766024198
2.3000000000000003,0.0593833554809912,0.8099775276669894,1.3973908530458876,0.0180174445652952,0.1264278011112747,0.0125333252888473,-0.1280363583735582,-0.9372080530267162,0.1246524181957153,0.0615753158198499,0.8241839560817297,1.3940557525736006,-0.1050740838190031,-1.1209208668484163,0.1213714025506215,0.4572526856643399,0.2566508877001688,0.1332305540002132,0.3542032747883103,10.742990079897936,-0.9701216428539974,0.1836714017228531,-0.9227478142993764
2.32,0.0569965231275179,0.7922063329986426,1.399825762610976,0.0178327123241091,0.1259207614273033,0.0127755950634992,-0.1234355402914995,-0.9338680418945438,0.1313029043891435,0.0594738341434698,0.8017655387447613,1.396483180624613,-0.0925954722007227,-1.1609208674444629,0.1302610516139703,0.4374704789931881,0.2300409041029329,0.1670005566086208,0.3325243096714065,10.717126722266585,-0.9712818861308644,0.185113081850128,-0.9203076350487144
2.34,0.0545777787746262,0.7735723113328135,1.4025272900809067,0.0196613091213427,0.1257445992520253,0.0131857674707204,-0.1186512527366219,-0.929940640061414,0.1385121927542013,0.0573723524670897,0.779347121407793,1.3989106086756256,-0.0801168605824423,-1.2009208680405097,0.139150700677319,0.4750992825115236,0.2392143777438814,0.1963700916564836,0.3604644182528926,10.710127940707023,-0.97206076727498,0.184769558460123,-0.918673598506474
2.36,0.0522572601548912,0.7549971322175671,1.40537685682186,0.0233109650197699,0.1258601381967552,0.0137323929302268,-0.1136057191895355,-0.9283069230089804,0.1460965589517442,0.0555828360811667,0.7559287040559235,1.4015602779532217,-0.0676382489641619,-1.2409208686365558,0.1480403497406678,0.4627338619568948,0.2522766773543183,0.0816858526216823,0.3792183098771426,10.720954243016422,-0.9731059141954762,0.1830776850486783,-0.9170838044897348
2.38,0.0500415525129447,0.7364188398594446,1.4083846385515335,0.0272900068725983,0.1261252872569156,0.0143073568740327,-0.1082011330816959,-0.9296402164325284,0.1543017222881381,0.0541052849857006,0.7315102866891529,1.4044321884574016,-0.0551596373458815,-1.2809208692326022,0.1569299988040166,0.4957618574659412,0.2702293053919814,-0.066664671177391,0.4102581668196964,10.776982008206687,-0.9738370910812104,0.1808621536111077,-0.916018119749205
2.4,0.0480399422096652,0.7187276144647916,1.4113992274846427,0.0306282056102294,0.1264009870123622,0.0148249626277546,-0.1027643824754491,-0.9324172704263743,0.1626157874457443,0.0446314958588599,0.6899368290378182,1.4160997246659404,-0.0634258706066822,-1.000788231991248,0.1541498824387154,0.5157372525913383,0.2718375303123424,-0.13885269969231,0.4157032578803121,10.809817268343068,-0.974486291147025,0.1790257765768204,-0.914973028488637
2.42,0.046024100181704,0.6998759634432472,1.4146685014274665,0.0281117200270832,0.1271161330867294,0.0149672534381385,-0.0990967697393247,-0.9505190898973296,0.1635638505606974,0.0446314958588599,0.6899368290378182,1.4160997246659404,-0.0634258706066822,-1.000788231991248,0.1541498824387154,0.9246973491515624,0.1833806368062192,-0.905090973547762,0.0474031557476536,10.809817268343068,-0.9744106759164668,0.1826009256068217,-0.913224553902024
2.44,0.0440807700296363,0.6807990146618098,1.4179453968457576,0.019288927355084,0.1286618383870493,0.0147031362474674,-0.0952968618422571,-0.9553199793562848,0.1641424610029512,0.0446314958588599,0.6899368290378182,1.4160997246659404,-0.0634258706066822,-1.000788231991248,0.1541498824387154,0.3075005271019309,0.1899953948533761,-0.240044472947748,0.0289305221126912,10.333908143720691,-0.9717250358006508,0.1898486051902169,-0.9149394429752558
2.46,0.0422184840340005,0.661719179528627,1.421222731688362,0.0100957355098157,0.1308507602219616,0.0144310536318512,-0.0909855932371305,-0.9525484356906554,0.1635435023755461,0.0439972371527931,0.6799289467179057,1.4176412234903275,-0.0544708181116794,-1.015017835102992,0.1541195144688309,0.2580079587599156,0.2155634302563318,0.138577183281463,-0.0299479313702583,10.333908143720691,-0.9692780984931731,0.1977049355902502,-0.915617130920542
2.48,0.040535676610804,0.6436852579409431,1.4243134446113974,0.0028942925286416,0.1333074824512952,0.0142846897184705,-0.0862617696990648,-0.9463661544535829,0.1618103195255154,0.0427287197406594,0.6599131820780807,1.4207242211391018,-0.0365607131216739,-1.0434770413264798,0.1540587785290618,0.3985568745633518,0.2361911769032845,0.309114061853627,-0.0866591425015314,10.256467362753938,-0.9665514756463476,0.2047504976650406,-0.9166437040475256
2.5,0.0388693032466473,0.6248451241097529,1.4275238968590402,-0.0025930262000011,0.1360875485590722,0.0142785554512463,-0.0805253668649484,-0.9383568761327484,0.1592893257082155,0.0414602023285258,0.6398974174382558,1.423807218787876,-0.0186506081316684,-1.0719362475499676,0.1539980425892927,0.5084541929286989,0.2868201417058215,0.4004639160417156,-0.1260496908649946,10.16125352430845,-0.9634713732994818,0.2099948086037645,-0.9183948458375676
2.52,0.0373269265344878,0.6061748277127201,1.430680194706757,-0.0059251780957557,0.1388738728333104,0.014426448737927,-0.0739174452760709,-0.9296603580719608,0.1564601654294247,0.0410871901658924,0.6184586924872565,1.4268871796396618,-0.0007405031416629,-1.1003954537734555,0.1539373066495236,0.5641325243004661,0.3303960794438731,0.4348259030393819,-0.1414580139395424,10.153946830046152,-0.960404172146348,0.213291078590143,-0.9205632275895076
2.54,0.0359920622974772,0.5886010351894406,1.4336249987496317,-0.0073381787091889,0.1413664751378901,0.0146960589494271,-0.0668768663050314,-0.9210348505820598,0.1536551572626813,0.040714178003259,0.5970199675362571,1.4299671404914478,0.0171696018483425,-1.1288546599969431,0.1538765707097546,0.5741019128196686,0.3520289485519766,0.4312753744950548,-0.1402504083371683,10.153946830046152,-0.9570620329084594,0.2152148224129696,-0.923293155405077
2.56,0.0347406103394415,0.570274245696162,1.4366689247012252,-0.0071770587443368,0.14365802472418,0.0151055222418265,-0.058598601979589,-0.9122443949488368,0.1508920526039213,0.0407889184653758,0.5748697624296706,1.4330455829447393,0.035079706838348,-1.1573138662204312,0.1538158347699855,0.6193474748410893,0.4139132162721191,0.4395227816611446,-0.1381552329380017,10.171667555966453,-0.9540010138966222,0.2157030293876615,-0.9260504272091874
2.58,0.033663561105118,0.5521219393944421,1.439662591767826,-0.0053780193990657,0.1454212997373231,0.01564186715608,-0.0495407972682482,-0.903637924220724,0.1486092346991054,0.0413114115522427,0.5520080771674969,1.4361225069995367,0.0529898118283534,-1.185773072443919,0.1537550988302164,0.6350716931363004,0.4528902355670414,0.4303235364056523,-0.1141408952407954,10.171667555966453,-0.9514837077283448,0.2148969246276336,-0.9285236903574292
2.6,0.0328136375693651,0.5350266110093774,1.4424704617175843,-0.0023426721686619,0.1465155300847634,0.0162536761889029,-0.0404143463963951,-0.896719324044817,0.1470700531938148,0.0311865212417055,0.5069400431834059,1.4470930535027813,-0.0102066602755552,-0.906758877903534,0.138670547613,0.5777720433194964,0.4563225435926532,0.3459300087953421,-0.0769590752645307,10.202788254961888,-0.9494747315187104,0.2129871208405529,-0.9307006274306852
2.62,0.0321737179458225,0.5177833288829878,1.445228714690144,-0.0071298498129526,0.1459328859889801,0.0163343866056695,-0.0276669249594343,-0.9137013323385802,0.1433610052540903,0.0311865212417055,0.5069400431834059,1.4470930535027813,-0.0102066602755552,-0.906758877903534,0.138670547613,1.077778265229106,0.6373710718480415,-0.8491004146881587,-0.1854523969862256,10.242076921857006,-0.9519865941993796,0.2174567757517141,-0.9272424168359524
2.64,0.0317494846515678,0.499501197377729,1.4480516986786196,-0.0203448224176568,0.1425720946246703,0.0159224966746605,-0.0156417676309336,-0.912345687861922,0.1391365382166662,0.0311865212417055,0.5069400431834059,1.4470930535027813,-0.0102066602755552,-0.906758877903534,0.138670547613,0.6408749926322791,0.6012578664250325,0.0677822238329128,-0.2112233518712036,10.118391229167171,-0.95196675456593,0.2287901363102288,-0.9246783080261882
