t,x,y,z,roll,pitch,yaw,v_x,v_y,v_z,ref_x,ref_y,ref_z,ref_v_x,ref_v_y,ref_v_z,a_com,a_x,a_y,a_z,thrust,wind_x,wind_y,wind_z
0.0,-0.0354375818627425,0.1114711782396716,2.563950624578534,0.0259584829567732,0.1000721861755175,0.0427551539062282,0.0047065195353579,-0.0071978919697281,0.0166429362003223,-0.0352913836831994,0.1112258436820679,2.5644700580223256,-0.0109253903483861,-0.0157039001192808,-0.0832716422853024,0.93668070909006,0.2353259767678983,-0.3598945984864055,0.832146810016118,10.24064399775216,-0.944366451419093,0.2604560943883001,-0.870488419397281
0.02,-0.0353735555078363,0.1113772194631939,2.5640710062788905,0.0250416794549555,0.1002282601978703,0.0426908966247299,0.001646525857457,-0.0025480924194802,-0.0057733410856468,-0.0352913836831994,0.1112258436820679,2.5644700580223256,-0.0109253903483861,-0.0157039001192808,-0.0832716422853024,1.1548524630096004,-0.1529996838950449,0.2324899775123946,-1.1208138642984584,10.240453719768992,-0.9367668525076788,0.2635653679614592,-0.8741668956428761
0.04,-0.0353753233566968,0.1113752546994565,2.563681762922057,0.0263730678605656,0.1008433180288102,0.0427951077462241,-0.0015770402292953,0.0018878842555844,-0.0320021995698533,-0.0352913836831994,0.1112258436820679,2.5644700580223256,-0.0109253903483861,-0.0157039001192808,-0.0832716422853024,1.3397968920343046,-0.1611783043376188,0.2217988337532311,-1.311442924210329,8.906633255603083,-0.9288372859829692,0.2570829925230961,-0.8892432881508526
0.06,-0.0354334248995507,0.1114443213343467,2.562817708460233,0.0294547744732577,0.1018183288339567,0.0430285159821047,-0.0042733764074861,0.004700585768994,-0.0576852202434352,-0.0354006375866833,0.1110688046808751,2.5636373415994727,-0.0140534383809083,-0.0172957187127232,-0.1032716425833256,1.2988447458308778,-0.1348168089095433,0.1406350756704813,-1.2841510336790931,8.849628331128315,-0.9194055005120756,0.2475837474307304,-0.9079197958900512
0.08,-0.035543464757408,0.1115412644434879,2.561372170081538,0.0334250515262559,0.1031657685961264,0.0433304670940609,-0.0065041033424859,0.0046818920363534,-0.0855859406382941,-0.035619145393651,0.1107547266784895,2.5619719087537667,-0.0203095344459527,-0.0204793558996081,-0.143271643179372,1.399488023051886,-0.1115363467499905,-0.0009346866320276,-1.3950360197429463,8.831395137468462,-0.9098516795017724,0.2372543680750178,-0.9268588529531904
0.1,-0.0356911212944889,0.1116170715288166,2.559363169784153,0.0371930886199827,0.1047310976428912,0.0436211721946309,-0.0080756820127625,0.0028931013314714,-0.1139608701878642,-0.0358376532006187,0.1104406486761039,2.5603064759080607,-0.0265656305109971,-0.023662993086493,-0.1832716437754185,1.4237329969536123,-0.0785789335138289,-0.0894395352441013,-1.418746477478504,8.809227728895621,-0.9005229811511978,0.2272531420587396,-0.945033430459971
0.12,-0.0358631399233432,0.1116454437865351,2.5567829695284825,0.0404274033890998,0.1063958892607224,0.0438731019472253,-0.0089827740841656,7.621029971925178e-05,-0.1426799670664469,-0.0363689658108387,0.109967388814374,2.556641043032552,-0.0328217265760415,-0.0268466302733779,-0.223271644371465,1.4435582917154643,-0.0453546035701545,-0.14084455158761,-1.435954843929136,8.813608767110509,-0.8913642028330498,0.2179237066756823,-0.9625258813719334
0.14,-0.0360381727575698,0.1116134455456423,2.5537891932207266,0.0429254696164204,0.1079756553893205,0.0440662434244167,-0.0093518320846659,-0.0032048309348692,-0.1710553733548192,-0.0369002784210586,0.1094941289526442,2.552975610157044,-0.0390778226410859,-0.0300302674602627,-0.2632716449675115,1.428342673714014,-0.0184529000250132,-0.1640520617294243,-1.418770314418613,8.813608767110509,-0.8812860241596703,0.2085396607899291,-0.981071845914002
0.16,-0.0362249646550161,0.1115084379786603,2.55004407004723,0.0449966635272492,0.109561296986703,0.0442194760666714,-0.0092639621048603,-0.0070595845741824,-0.2020374589256915,-0.0375879934329047,0.1089412781612422,2.5483101772666346,-0.0453339187061303,-0.0332139046471476,-0.3032716455635579,1.5610545098378212,0.0043934989902784,-0.1927376819656587,-1.5491042785436129,8.773000026062164,-0.8713243217614506,0.1999161732555719,-0.998866260255732
0.18,-0.0364047861904784,0.1113216870098589,2.545671829100678,0.0465083775737858,0.1110057991965306,0.0443179237462434,-0.008686022275535,-0.0113849013722994,-0.2336813171188841,-0.0384321108463769,0.1083088364401681,2.542644744361324,-0.0515900147711747,-0.0363975418340325,-0.3432716461596043,1.5971663510740512,0.0288969914662665,-0.2162658399058527,-1.5821929096596326,8.73510594859681,-0.8619501179294545,0.1924991536410865,-1.0149784928680108
0.2,-0.0365681137057508,0.1110422594361706,2.5406615306524976,0.0473399165879596,0.1122601599958053,0.0443495776133679,-0.0076554002985242,-0.016269206524048,-0.2658013547410593,-0.0368390873042552,0.1107524419412439,2.533987763244734,-0.0107649901429541,-0.0234433708391645,-0.3336813186090003,1.625281079786542,0.0515310988505407,-0.2442152575874283,-1.6060018811087582,8.72349817941813,-0.8530744827553733,0.1858705389099905,-1.0302539795842225
0.22,-0.0366926445003514,0.1106912314223073,2.535489944432153,0.047939469786655,0.1136520271326137,0.0443652804882553,-0.0053676524998397,-0.0205888573117051,-0.2769873030406285,-0.0368390873042552,0.1107524419412439,2.533987763244734,-0.0107649901429541,-0.0234433708391645,-0.3336813186090003,0.6103658990276398,0.1143873899342219,-0.2159825393828569,-0.5592974149784602,8.719245903368574,-0.8488795286405091,0.1790867748217024,-1.0416889479707754
0.24,-0.0367700694547869,0.1102270706775203,2.529801691793736,0.048619053329518,0.1155580979556819,0.0443948512111572,-0.0024199837133715,-0.025616859390183,-0.2915169736580162,-0.0368390873042552,0.1107524419412439,2.533987763244734,-0.0107649901429541,-0.0234433708391645,-0.3336813186090003,0.7827529693742435,0.1473834393234111,-0.2514001039238963,-0.7264835308693873,9.865233730705768,-0.842845979630224,0.1762896218190031,-1.0495394437695202
0.26,-0.0367817493549595,0.1096569376410999,2.523779150260776,0.0490336776498244,0.1175780952522682,0.0443997882116446,0.0011609696972899,-0.031103587869399,-0.3100158553645385,-0.0369467372056847,0.1105180082328523,2.530650950058644,-0.0111807837164379,-0.0258550647325375,-0.3536813189070235,0.9812441606525244,0.1790476705330725,-0.2743364239607974,-0.9249440853261126,9.64022977006789,-0.8360553890247879,0.1731935979746853,-1.0586592778928308
0.28,-0.03672115265961,0.1090112525162922,2.517686187136054,0.0489643620322273,0.1193313441576294,0.0443529709572152,0.0050550506934176,-0.0365304233303957,-0.3304352640962701,-0.0371620370085438,0.110049140816069,2.523977323686464,-0.0120123708634056,-0.0306784525192835,-0.3936813195030699,1.074205128081516,0.1947040498063879,-0.2713417730498329,-1.0209704365865797,9.452512606113489,-0.8288581315359657,0.1701339461900853,-1.068519425587973
0.3,-0.0365742109142458,0.1082206586644065,2.5108284912409684,0.0482958364913607,0.1208452989970032,0.0442341141968161,0.0094391502692433,-0.0421916642617301,-0.3543804146574238,-0.0373773368114029,0.1095802733992857,2.517303697314284,-0.0128439580103732,-0.0355018403060295,-0.4336813200991164,1.2496401615762165,0.2192049787912836,-0.2830620465667198,-1.197257528057688,9.308258781887162,-0.822580342238414,0.1677518317482333,-1.0773887192469913
0.32,-0.0363373628089064,0.1073185209982949,2.503471449909801,0.0469703731770423,0.1219423919806775,0.0440376336112751,0.0140108809938371,-0.0476723298537313,-0.3801976813437059,-0.0376342159716104,0.1088702365931651,2.508630070912301,-0.0136755451573409,-0.0403252280927756,-0.4736813206951628,1.339281221682131,0.2285865362296929,-0.2740332796000611,-1.2908633343141045,9.185705704628162,-0.8185840269302755,0.1668038554876161,-1.083241335541103
0.34,-0.0360072648686346,0.1063104431887974,2.495589881843815,0.0449949506725824,0.1225843256095337,0.0437641001816854,0.0187307357211782,-0.0527658515268011,-0.4066672857302634,-0.0378910951318178,0.1081601997870445,2.4999564445103197,-0.0145071323043085,-0.0451486158795216,-0.5136813212912094,1.3682661912636886,0.2359927363670517,-0.2546760836534923,-1.3234802193278716,9.100448598744151,-0.8154874542271541,0.1665896620195184,-1.0880623298539114
0.36,-0.0356056505493778,0.1052671993537812,2.4876096982548104,0.0427152859435509,0.1227761233823587,0.0434495662274648,0.0232605845600643,-0.0566547894971123,-0.4320301342613558,-0.0381687639706995,0.1073295782862553,2.490282818093436,-0.0153387194512762,-0.0499720036662676,-0.5536813218872557,1.3028022246788082,0.2264924419443033,-0.1944468985155593,-1.2681424265546193,9.07904460901682,-0.8128044254738921,0.1668468114730296,-1.092588634220336
0.38,-0.0350915685277122,0.1040995220435034,2.478683590982286,0.0402905218328956,0.1225748362527367,0.0430931927249871,0.0278671591452322,-0.0598598727219081,-0.4592779553204321,-0.0384672224882553,0.1063783720907974,2.479609191661651,-0.0161703065982438,-0.0547953914530136,-0.5936813224833022,1.3909860175016389,0.2303287292583986,-0.1602541612397891,-1.362391052953818,9.070500420743883,-0.810449014858588,0.167208722875487,-1.0968156689768986
0.4,-0.0344871343255851,0.1028739498450287,2.4692083130030693,0.0380006254662047,0.1220150817174639,0.0427266716072952,0.0323076411774623,-0.0625118224916076,-0.4869060374243384,-0.0336982105704506,0.101106528407408,2.455719693216264,0.0172864713615737,-0.0528026641540504,-0.5592779568105483,1.4054017566160153,0.2220241016115013,-0.1325974884849735,-1.3814041051953134,9.042169829404884,-0.8084716911236706,0.1673827158881391,-1.1008773721497418
0.42,-0.0337704590034572,0.1015526920989429,2.4593679917838065,0.0346020374524113,0.1211468692653955,0.0422681166288756,0.0391745642410357,-0.0687905129581619,-0.4947089053254768,-0.0336982105704506,0.101106528407408,2.455719693216264,0.0172864713615737,-0.0528026641540504,-0.5592779568105483,0.6071682917825438,0.343346153178671,-0.3139345233277149,-0.3901433950569216,10.233289779830557,-0.8060665963755845,0.1648391857811621,-1.1099640865717773
0.44,-0.0329636050241538,0.1002093892805139,2.449878675808939,0.0302146181949462,0.120026292820821,0.0417442100325754,0.0453400826809271,-0.0719763129578095,-0.5038768440498677,-0.0336982105704506,0.101106528407408,2.455719693216264,0.0172864713615737,-0.0528026641540504,-0.5592779568105483,0.5749218201733624,0.3082759219945722,-0.1592899999823809,-0.4583969362195406,10.233289779830557,-0.8063534100743551,0.1696913643068023,-1.1089328684771689
0.46,-0.0319940056772825,0.0987549276289253,2.439661752478506,0.0253985572658991,0.1184058843893281,0.0411735057150265,0.0512308906279842,-0.0731608276964481,-0.5175098776818654,-0.0335253458568349,0.1005785017658675,2.4501269136481585,0.015170333804842,-0.0513912224404788,-0.5792779571085714,0.7449233172722295,0.2945403973528555,-0.0592257369319317,-0.6816516815998874,9.984831428048892,-0.8069354499422204,0.1746296070917856,-1.1078515782330136
0.48,-0.0309127386380357,0.0972931714762938,2.429135493876048,0.0208096571934373,0.1161762785566308,0.040614934786271,0.0565290747009627,-0.0728906529988087,-0.5345641875913715,-0.0331796164296034,0.0995224484827865,2.438941354511948,0.0109380586913786,-0.0485683390133357,-0.6192779577046179,0.8930190862012471,0.2649092036489234,0.0135087348819694,-0.8527154954753036,9.568760148780711,-0.807890985048101,0.1789231337669609,-1.1071126322901843
0.5,-0.0297328261718542,0.0958488158000003,2.4182363734166348,0.0166291122897803,0.1132125243735518,0.0400843496266958,0.061108314963683,-0.0715612097697803,-0.5544780241745442,-0.0328338870023719,0.0984663951997055,2.4277557953757367,0.0067057835779152,-0.0457454555861926,-0.6592779583006644,1.0238380586599567,0.2289620131360168,0.0664721614514196,-0.9956918291586347,9.568760148780711,-0.8093983297872932,0.1823513307731487,-1.1064062477937415
0.52,-0.0285356373580404,0.0945091556240402,2.407492770932101,0.0130819755596761,0.1096917696563061,0.0396137718691462,0.0645870940154088,-0.0695496908830627,-0.5754222090331597,-0.0326997713308136,0.0975514860879817,2.414570236209724,0.0024735084644518,-0.0429225721590495,-0.6992779588967108,1.0663102167219043,0.1739389525862878,0.1005759443358803,-1.0472092429307744,9.42522288543296,-0.812169183976828,0.1852343008207191,-1.1051634084637958
0.54,-0.0272150699853674,0.09314610509541,2.3957425722583543,0.0097864354162655,0.1053196590274768,0.0391578162863773,0.0671521670149042,-0.0668686691061575,-0.5985348017206022,-0.0325656556592553,0.0966365769762578,2.40138467704371,-0.0017587666490115,-0.0400996887319064,-0.7392779594927573,1.170426650837853,0.1282536499747716,0.134051088845262,-1.1556296343721295,9.311417561460075,-0.8155944048129617,0.1873023759229946,-1.104013502652362
0.56,-0.0258569841227757,0.0918425489093523,2.383523831822331,0.0069397001696968,0.1004511384208296,0.0387460588713309,0.0683658575309002,-0.0636518807063885,-0.6221981662139153,-0.0325373468655336,0.0957922399502125,2.387199117862796,-0.0059910417624749,-0.0372768053047633,-0.7792779600888037,1.1955914764468016,0.0606845257997999,0.1608394199884504,-1.183168224665654,9.25321824286948,-0.8194968121286017,0.1886859051864191,-1.10291556347385
0.58,-0.0244923954148749,0.0906077563057613,2.370825322533034,0.0045431446688091,0.0954385913747481,0.0383807509800574,0.0679003011394647,-0.0600565258358232,-0.6464637021843218,-0.0326148449496485,0.0950184750098458,2.37201355866698,-0.0102233168759383,-0.0344539218776202,-0.8192779606848501,1.226743203904137,-0.0232778195717785,0.1797677435282651,-1.213276798520324,9.19398316627212,-0.8235619639368209,0.18942372935337,-1.1018434700467397
0.6,-0.0232203854874545,0.0895038629783099,2.3583063913266087,0.0026442725493826,0.0909188608348929,0.0380734627457686,0.0659129383230399,-0.0563860829708943,-0.6701024812819288,-0.0210973803579017,0.0876049300139701,2.3385021374238177,0.0324914243031648,-0.0635024365913681,-0.7464637036744379,1.2002225200085588,-0.0993681408212363,0.1835221432464447,-1.1819389548803516,9.161741429893482,-0.8276886651978075,0.1897306309368042,-1.1009662313249984
0.62,-0.0218975821417682,0.0884805183241452,2.344857049354655,0.0029519377878764,0.0860537291860775,0.0379156830816731,0.0664821954535665,-0.0466676183768007,-0.6724515735890326,-0.0210973803579017,0.0876049300139701,2.3385021374238177,0.0324914243031648,-0.0635024365913681,-0.7464637036744379,0.5007265781207324,0.0284628565263296,0.4859232297046767,-0.1174546153551892,9.161741429893482,-0.8352390344530912,0.1867555780645832,-1.0983736958250132
0.64,-0.0205752874907686,0.087635704098939,2.3313594515513616,0.006857268492222,0.0805312317032976,0.0379857540055582,0.0654962518731403,-0.039204230402537,-0.6773072483271811,-0.0210973803579017,0.0876049300139701,2.3385021374238177,0.0324914243031648,-0.0635024365913681,-0.7464637036744379,0.4479169062473042,-0.0492971790213091,0.3731693987131891,-0.2427837369074259,10.213905966501445,-0.8397424742340102,0.1833941253921439,-1.0950769369721245
0.66,-0.019357220254891,0.0869247656805617,2.3184006345542474,0.0120394844562631,0.0750516550662671,0.0381136831497623,0.0626284295172128,-0.0363305968589129,-0.6865192659316743,-0.02077246611487,0.0869699056480564,2.3310375003870734,0.0254096489359048,-0.0641916187424771,-0.7664637039724611,0.5033474027788652,-0.1433911177963751,0.1436816771812048,-0.4606008802246597,9.943021902964574,-0.8451164922298621,0.17771331448185,-1.0919686406638307
0.68,-0.0181529765347479,0.0862053120661851,2.304531274215856,0.0175985155487773,0.0693878673502042,0.0382087229266844,0.0577885269023077,-0.035888936957621,-0.7000980046534296,-0.0201226376288067,0.0856998569162291,2.3161082263135846,0.0112460982013848,-0.065569983044695,-0.8064637045685076,0.721113489791779,-0.2419951307452556,0.0220829950645911,-0.6789369360877651,9.943021902964574,-0.8510086951772721,0.1715339893177359,-1.0887756048741075
0.7000000000000001,-0.0170640265819218,0.0854761159823506,2.290355551776652,0.0227336021677158,0.0641179580298894,0.0382343521051955,0.0511994106231942,-0.0370860710210685,-0.7169145882949364,-0.0194728091427434,0.0844298081844017,2.301178952240096,-0.002917452533135,-0.066948347346913,-0.846463705164554,0.9050511983823588,-0.3294558139556782,-0.0598567031723725,-0.8408291820753366,9.555511367353574,-0.8565924451040533,0.1654019818761286,-1.0861891474227798
0.72,-0.0161255762413122,0.0847096046549003,2.2758131594981013,0.0272379956090259,0.0595958483233385,0.0381930366108711,0.0428650741144616,-0.0394503165779187,-0.7364655093397611,-0.0195311581934061,0.0830908412374634,2.284249678136805,-0.017081003267655,-0.0683267116491309,-0.8864637057606005,1.0692162267226957,-0.416716825436628,-0.1182122778425085,-0.9775460522412348,9.555511367353574,-0.861245160076252,0.1598459225641975,-1.0845252173672013
0.74,-0.0154031574776626,0.0839285677342445,2.26162432174277,0.0308944133127624,0.0563713304428075,0.038110314832601,0.0335246891094473,-0.0425640276305922,-0.7561102205762741,-0.0195895072440688,0.0817518742905252,2.267320404033514,-0.031244554002175,-0.0697050759513489,-0.926463706356647,1.098695440201034,-0.467019250250714,-0.1556855526336761,-0.9822355618256506,9.4238626246306,-0.8651345282388465,0.1543342466157644,-1.0838251819293114
0.76,-0.0148483630511192,0.0830355580162749,2.2462761955714914,0.034099875281619,0.0545580668222747,0.0380053979370859,0.0223778538323668,-0.0465172490416123,-0.7777059362011014,-0.0200019450630945,0.0803784482360315,2.2493911299153218,-0.0454081047366949,-0.0710834402535669,-0.9664637069526932,1.2311121288974094,-0.557341763854024,-0.1976610705510077,-1.0797857812413658,9.329113016203337,-0.8675297693180155,0.149401797830555,-1.084254125634714
0.78,-0.0145200592607277,0.0820573034145055,2.230488434658158,0.0366587487029293,0.0546205486879401,0.0379049615389604,0.0112200151286165,-0.0510225042099783,-0.7999996459178359,-0.0207684716504832,0.0789705630739823,2.230461855782228,-0.0595716554712149,-0.0724618045557848,-1.0064637075487397,1.266692722807133,-0.5578919351875158,-0.2252627584182997,-1.114685485836725,9.329113016203337,-0.8690444839318436,0.1454929064215871,-1.084694258560254
0.8,-0.0144059108554599,0.0809844272127855,2.21424728596948,0.0385775822629607,0.0561373493823385,0.0378046523289759,0.0009373699582011,-0.0558907235904897,-0.8229831227989046,-0.0139590585042968,0.0795061782040066,2.1904884523622665,-0.0037481444799263,-0.034997950061662,-0.8385580359093577,1.2822563717721138,-0.5141322585207712,-0.2434109690255665,-1.149173844053436,9.253769800877308,-0.86882628862637,0.141923051605119,-1.0866791229853587
0.8200000000000001,-0.0144882322232812,0.0797678058528537,2.198769443867014,0.0370275531269217,0.0596600453149693,0.0375474429626937,-0.0086156607863747,-0.0706432286440716,-0.8050205762172649,-0.0139590585042968,0.0795061782040066,2.1904884523622665,-0.0037481444799263,-0.034997950061662,-0.8385580359093577,1.2565328104155824,-0.4776515372287967,-0.7376252526790985,0.898127329081988,9.253769800877308,-0.8672072136627403,0.1365040584331073,-1.096362253848853
0.84,-0.0147424317343841,0.0782391560077377,2.1828476277157107,0.0308370639065843,0.0657931073420602,0.0370255221990988,-0.0159620251744257,-0.0801843758481459,-0.7884103723876204,-0.0139590585042968,0.0795061782040066,2.1904884523622665,-0.0037481444799263,-0.034997950061662,-0.8385580359093577,1.0257941203698904,-0.3673182194025491,-0.4770573602037128,0.8305101914822255,11.879177293917564,-0.8637743290404284,0.1444167274362889,-1.0951968301614885
0.86,-0.0151154720784679,0.0765841966465963,2.167198721620823,0.0229494889238501,0.073195802549149,0.0363789321739983,-0.0206659862693328,-0.0842727136969087,-0.7772670238001549,-0.0139965399490961,0.07915619870339,2.1821028720031728,-0.0067417764016349,-0.0317930392319987,-0.8462697139076621,0.6383885456557684,-0.2351980547453561,-0.2044168924381403,0.5571674293732731,11.142081933427107,-0.8574927041591053,0.1536511816890815,-1.0968403616474127
0.88,-0.0155555825446152,0.0748876122976419,2.1517263358647347,0.0147582147172462,0.0809502513797356,0.0356633936426671,-0.0228787697184401,-0.0848747869225742,-0.7705238768209485,-0.0140715028386946,0.0784562397021567,2.1653317112849857,-0.0127290402450521,-0.0253832175726721,-0.8616930699042709,0.3561212361854001,-0.1106391724553648,-0.0301036612832733,0.3371573489603208,11.142081933427107,-0.8503946353776622,0.1624680318444334,-1.0996457989414226
0.9,-0.0159932488800514,0.0732910461570002,2.137117875307667,0.0072408015341296,0.0880430645000288,0.0349475966816372,-0.0229444233640275,-0.0830166059763858,-0.7675530145921917,-0.0141464657282932,0.0777562807009235,2.1485605505667986,-0.0187163040884692,-0.0189733959133456,-0.8771164259008796,0.1752367627825997,-0.0032826822793683,0.0929090473094196,0.1485431114378377,10.87348845735687,-0.8427439481699188,0.171209651824199,-1.1031264093548108
0.92,-0.0164365445846118,0.0716702420760518,2.121772757198028,-0.0001334624743526,0.0947993942723905,0.0341820029806477,-0.0212589642262373,-0.0790479162337704,-0.767254285805671,-0.0145207918100625,0.0773768127826566,2.1310182220487808,-0.0247035679318864,-0.012563574254019,-0.8925397818974883,0.2161047758970019,0.0842729568895127,0.1984344871307691,0.0149364393260353,10.665142950675545,-0.835353076514504,0.1792284186386688,-1.106725391373516
0.94,-0.0168282840370704,0.0701489189680791,2.106422078023868,-0.0067876974884565,0.1005317426957023,0.0334329677100065,-0.0179240467079609,-0.073244061639707,-0.7678607232204933,-0.0148951178918319,0.0769973448643897,2.113475893530764,-0.0306908317753036,-0.0061537525946925,-0.9079631378940972,0.3360586605818772,0.1667458759138184,0.2901927297031717,-0.0303218707411123,10.473529082873029,-0.8292666437328398,0.185952999422783,-1.1097822835262656
0.96,-0.0171392802049666,0.0687620752255818,2.09105375742747,-0.0125515616162084,0.1050409229990883,0.0327337833630604,-0.0133567664707805,-0.0658303075049311,-0.7689589566198985,-0.0154191255696867,0.0767781224876059,2.0955479811128304,-0.0366780956187207,0.000256069064634,-0.9233864938907058,0.4388334414541993,0.2283640118590194,0.3706877067387946,-0.0549116699702645,10.45728162066007,-0.8237320398000595,0.1921523308492695,-1.112522534555309
0.98,-0.0173420981445203,0.0675940668933767,2.07642814114994,-0.017145929901572,0.1081524362945457,0.0321377390137067,-0.0082667601680824,-0.0576272165387544,-0.7705367722474389,-0.016092814843627,0.0767191456523053,2.077234484794982,-0.0426653594621379,0.0066658907239605,-0.9388098498873144,0.4891021562909599,0.2545003151349033,0.4101545483088359,-0.0788907813770167,10.45728162066007,-0.8193290409555773,0.1974316349017806,-1.114530546038064
1.0,-0.0174471087231652,0.0665412257108152,2.0609937749578253,-0.021082092290832,0.1102365685407734,0.0315944757274841,-0.0025443481039738,-0.0481812309002083,-0.7728508451334382,-0.0177554361529244,0.064712706066439,2.037901302537568,-0.0169677791571686,-0.0479964852317842,-0.7853052339442425,0.5641976112958809,0.2861206032054292,0.4722992819273037,-0.1157036442999637,10.433293021639656,-0.8160770818973363,0.2017800633692558,-1.1158441912040222
1.02,-0.017418406500668,0.0657629688817368,2.045708875937372,-0.0217741871325923,0.1112509736907,0.031305835200846,0.0052163173192937,-0.0309531391386004,-0.7544615785566707,-0.0177554361529244,0.064712706066439,2.037901302537568,-0.0169677791571686,-0.0479964852317842,-0.7853052339442425,1.3183324683001048,0.388033271163382,0.8614045880803938,0.9194633288383712,10.40090546549709,-0.8163197837991073,0.2012926816973285,-1.116694221787058
1.04,-0.017229734656117,0.0653027018780919,2.030804731443604,-0.0181044061985088,0.1112859406620314,0.0313459981131196,0.0131594816663002,-0.0169117516887617,-0.7369645091911904,-0.0177554361529244,0.064712706066439,2.037901302537568,-0.0169677791571686,-0.0479964852317842,-0.7853052339442425,1.1899599339268463,0.3971582173503269,0.7020693724919341,0.8748534682740172,11.592343630111827,-0.8149324702532297,0.1992871341467845,-1.116147373159278
1.06,-0.0169046010313716,0.0650772352060829,2.0169393572639067,-0.0127183565451731,0.1103774954277277,0.0315288001458686,0.0205852934135768,-0.0079979707895034,-0.7234039640723675,-0.0179251139444961,0.0642327412141212,2.030048250198125,-0.0187079829549858,-0.0460703389703902,-0.7882589262836032,0.8923095790497863,0.3712905873638265,0.4456890449629137,0.6780272559411438,11.592343630111827,-0.81485733428867,0.1947478398491837,-1.1152886496931549
1.08,-0.0164126959608547,0.0649881670022364,2.0025973539570696,-0.0066242526161253,0.1083066595777243,0.0317501170783099,0.028131187639659,-0.0016082461310012,-0.7116121318537898,-0.0182644695276395,0.0632728115094855,2.0143421455192403,-0.0221883905506203,-0.0422180464476022,-0.7941663109623246,0.7694420185332036,0.3772947113041129,0.3194862329251111,0.5895916109288857,11.379228642080308,-0.8163221574291889,0.1894582598968769,-1.1136919290487506
1.1,-0.0157737342157325,0.065004089680895,1.988465013006788,-0.0007171138106274,0.104877519025734,0.0319430880976049,0.0352451721493147,0.0027583199135266,-0.7021870779399402,-0.0186038251107829,0.0623128818048498,1.9986360408403556,-0.0256687981462547,-0.0383657539248141,-0.800073695641046,0.6294984430159791,0.355699225482782,0.2183283022263965,0.4712526956924812,11.213961528409529,-0.8191947474333071,0.1844164844042182,-1.1112945322467565
1.12,-0.015042445611002,0.0650841665433558,1.975196551918132,0.0044752282577399,0.1002038105725428,0.0320683468630356,0.0412068830417072,0.005414371056351,-0.6949451311094736,-0.019117201073708,0.0615455667263535,1.9826345669275345,-0.0291492057418892,-0.0345134614020261,-0.8059810803197675,0.4874484545392345,0.2980855446196289,0.1328025571412197,0.3620973415233264,11.073010794881156,-0.8236807486639655,0.1792920452938989,-1.1080082940110054
1.14,-0.0141693037791518,0.0652089397839312,1.961372036515029,0.0093832986972081,0.0939483618570181,0.0321184237623296,0.0454458998252681,0.0068832443731121,-0.6878979344790785,-0.0196305770366331,0.0607782516478572,1.9666330930147136,-0.0326296133375237,-0.030661168879238,-0.8118884649984889,0.417701545542554,0.2119508391780423,0.0734436658380542,0.3523598315197551,10.959125485213915,-0.8292138919046621,0.1743365871249272,-1.1044969372314104
1.16,-0.0132392367995304,0.0653509702010423,1.947682900554468,0.0136817147451571,0.0870088804125265,0.0320807584533169,0.0470818387811149,0.0072342688659586,-0.6813793050482326,-0.020230963189449,0.0601072438824306,1.9504839344849243,-0.0361100209331581,-0.02680887635645,-0.8177958496772103,0.3364968206332924,0.081796947792339,0.0175512246423229,0.3259314715422956,10.922293781040024,-0.8356885849228309,0.1701521791714628,-1.100069003439501
1.18,-0.0123029923268073,0.0654889739828806,1.9341170107691912,0.0173524166849763,0.0800056192134028,0.031963025769955,0.0462595258779164,0.0066071579462343,-0.6755180560113534,-0.0209183595321558,0.0595325434300737,1.9341870913381676,-0.0395904285287926,-0.0229565838336619,-0.8237032343559317,0.2975890912345486,-0.0411156451599226,-0.0313555459862115,0.2930624518439617,10.886984788244265,-0.8430362437563531,0.166318853755238,-1.094815590325083
1.2,-0.0114502906013108,0.0656005688993985,1.921331652586646,0.0202701381980607,0.0737233366209976,0.0317906357134963,0.0434195713884437,0.0052506596736288,-0.6705878215446924,-0.0099900160329115,0.0658193318801923,1.9003411079686237,0.0222598888851043,0.0003767994462007,-0.6475388180525645,0.2924578643245454,-0.1419977244736355,-0.0678249136302757,0.2465117233330482,10.846743131392032,-0.8503589844092347,0.1630586519023133,-1.089399057971288
1.22,-0.0106040726852471,0.0656949280726241,1.908187595499757,0.0232523903035931,0.0674514934100543,0.0315856313953399,0.0412445753640584,0.0040108809221373,-0.6429457677354381,-0.0099900160329115,0.0658193318801923,1.9003411079686237,0.0222598888851043,0.0003767994462007,-0.6475388180525645,1.3877597034901734,-0.1087498012192652,-0.0619889375745765,1.3821026904627165,10.80495179754871,-0.8607816024732614,0.1578410129934404,-1.083518162690167
1.24,-0.0098204848153034,0.0657457514028547,1.8956197006025857,0.0261473122209157,0.0614824295586585,0.03135733220013,0.0369966099174261,0.0011195818785091,-0.6154749136528398,-0.0099900160329115,0.0658193318801923,1.9003411079686237,0.0222598888851043,0.0003767994462007,-0.6475388180525645,1.3973659547724746,-0.2123982723316174,-0.14456495218141,1.3735427041299153,12.170462626596418,-0.8678612921066351,0.1560847291267101,-1.0761847253136352
1.26,-0.0091466018349364,0.0657275381865922,1.8835671855507696,0.0285739285163365,0.0562800808520416,0.0310965957782971,0.0304429702817187,-0.0027050360885941,-0.5911204319108462,-0.0097674171440605,0.0658230998746543,1.8938657197880977,0.0174599614865418,-0.0008692722538059,-0.6419429704608067,1.2754594034994848,-0.3276819817853691,-0.1912308983551656,1.2177240870996808,12.170462626596418,-0.8744525284465753,0.154925971392905,-1.0689708298552882
1.28,-0.0086484859404432,0.0656335590006494,1.872545293357688,0.0303634731163369,0.0525121604677168,0.030834213235066,0.0222138048003331,-0.0068789421339152,-0.5702739301999881,-0.0093222193663584,0.0658306358635784,1.8809149434270465,0.007860106689417,-0.0033614156538194,-0.6307512752772912,1.139865441374558,-0.4114582740692802,-0.2086953022660536,1.0423250855429056,11.977407786795991,-0.8806493719047389,0.154156785237174,-1.0618554149527988
1.3,-0.0083104895416335,0.0654447482896982,1.8613539476681575,0.031670234405786,0.0502911752683394,0.0305644982694721,0.0119775988890918,-0.0117454686107937,-0.5500179492465227,-0.0088770215886563,0.0658381718525024,1.8679641670659952,-0.0017397481077078,-0.0058535590538328,-0.6195595800937757,1.1605685630270206,-0.5118102955620617,-0.2433263238439262,1.0127990476732684,11.715589653948882,-0.8855664710849257,0.1538725716579927,-1.0557079195434624
1.32,-0.0081792482967921,0.0651525290890348,1.850551214309747,0.0321869542229331,0.0499559854291722,0.0302985026524763,0.0018284608101398,-0.0171631383070225,-0.5313073940893647,-0.0089118165508105,0.0657211006714257,1.85557297546412,-0.0113396029048327,-0.0083457024538463,-0.6083678849102601,1.098227006328976,-0.5074569039476008,-0.2708834848114372,0.9355277578579012,11.605842109832338,-0.8892091811192308,0.1543258431589713,-1.0504595894651898
1.34,-0.0082349979347986,0.0647705470190138,1.8406304162640843,0.0316995466461244,0.0509149099860582,0.0300211484527058,-0.0070501897788314,-0.0226354888180193,-0.5138921149688268,-0.0089466115129646,0.0656040294903491,1.843181783862244,-0.0209394577019575,-0.0108378458538597,-0.5971761897267446,1.014974141594861,-0.4439325294485658,-0.2736175255498407,0.8707639560268932,11.605842109832338,-0.8921053661920103,0.1557939554777791,-1.0455234889693428
1.36,-0.0084666410497166,0.0642574305293255,1.8305438986883,0.0300104473287438,0.0528152875498994,0.0296789128147078,-0.0155205928584973,-0.028256017023626,-0.4956661280448404,-0.0092214028450469,0.0654246547242721,1.8310703846399567,-0.0305393124990824,-0.0133299892538732,-0.585984494543229,1.043461385240675,-0.4235201539832958,-0.2810264102803333,0.911299346199318,11.57783003898112,-0.8938201668829251,0.1584331848715555,-1.0414863079307417
1.38,-0.0088583595234358,0.06364051284844,1.820818536936761,0.0271483840406248,0.055290589200894,0.0292748733104971,-0.0231209571081486,-0.0327544171397983,-0.4777780388678391,-0.0097361905470573,0.0651829763731947,1.819238777797257,-0.0401391672962073,-0.0158221326538866,-0.5747927993597135,0.9974779129596144,-0.3800182124825629,-0.2249200058086176,0.8944044588500649,11.559442865534038,-0.894768418103068,0.1623028004938882,-1.037845730266727
1.4,-0.0093932224092654,0.0629575105860763,1.811445814867208,0.023852638800003,0.058071246380597,0.0288503867376307,-0.0298789849788479,-0.035168334106279,-0.4603731373489831,-0.0100144073788432,0.06200279199145,1.7969296349933697,-0.0090956349465337,-0.0445849668269455,-0.4563924976821025,0.9413136202978382,-0.3379013935349642,-0.1206958483240355,0.8702450759428021,11.524193662789004,-0.895019553287657,0.1663859690254002,-1.0349256506140472
1.42,-0.0100783908921907,0.0623110203554731,1.802879085426684,0.0219404224327439,0.0627324365967186,0.0285787825422707,-0.0411970449578104,-0.0334012445999356,-0.4422313761711879,-0.0100144073788432,0.06200279199145,1.7969296349933697,-0.0090956349465337,-0.0445849668269455,-0.4563924976821025,1.0727821139949354,-0.5659029989481255,0.0883544753171719,0.9070880588897572,11.484221491079552,-0.8926969944280402,0.1694355373614794,-1.0344549464123955
1.44,-0.0109941548599016,0.061653246036524,1.7942270133234346,0.0215651846498753,0.0706936611907619,0.0284751307287783,-0.0492575831569989,-0.0325626243454219,-0.4239752287127364,-0.0100144073788432,0.06200279199145,1.7969296349933697,-0.0090956349465337,-0.0445849668269455,-0.4563924976821025,0.9987022579535192,-0.4030269099594259,0.0419310127256863,0.912807372922575,11.642617995536966,-0.8885792671995464,0.1712769818749583,-1.0349900119652071
1.46,-0.0120270126103179,0.0610094015471879,1.785928027824348,0.0224078268530509,0.0802382656420513,0.0284991401064668,-0.0532023766245969,-0.0319694270635955,-0.4068336163981234,-0.0101053637283086,0.0615569423231806,1.7923657100165489,-0.0062905705142107,-0.0469510767643749,-0.4521153894449551,0.8799831692448203,-0.1972396733799009,0.0296598640913175,0.8570806157306515,11.541844495200166,-0.8820915169341805,0.1718751669119964,-1.03814599354245
1.48,-0.0130433222800071,0.0604051524951216,1.7783527364728031,0.0241776716886795,0.0896492412337686,0.0286142960107115,-0.053320779972116,-0.0317519214041233,-0.391436129921111,-0.0102872764272392,0.0606652429866417,1.7832378600629066,-0.0006804416495647,-0.0516832966392337,-0.4435611729706605,0.7699738922106178,-0.0059201673759553,0.0108752829736099,0.7698743238506223,11.459133663260218,-0.874043323244215,0.1714557869753955,-1.0428327770627297
1.5,-0.0140803655105727,0.0597641218802403,1.7706877776996846,0.0268264189760699,0.0990479227673419,0.0288036859568625,-0.0501296863034826,-0.0326331685532552,-0.3759226642829762,-0.0104691891261699,0.0597735436501028,1.7741100101092646,0.0049296872150811,-0.0564155165140926,-0.4350069564963658,0.7931382153279344,0.1595546834316733,-0.0440623574565965,0.7756732819067358,11.35895743981746,-0.8660791032621633,0.1702069106828314,-1.047630861833847
1.52,-0.0150221266197532,0.0590865445750887,1.7633247435143085,0.029573128652904,0.1072960562571279,0.0289967843208967,-0.0440610553109726,-0.0351145425355193,-0.3612065901837452,-0.0103705953818683,0.0586452333198209,1.765409870979337,0.0105398160797271,-0.0611477363889515,-0.4264527400220712,0.8055251949150474,0.3034315496254998,-0.1240686991132035,0.7358037049615546,11.35895743981746,-0.8585423864032214,0.168710473743225,-1.052319520600521
1.54,-0.0158170436310395,0.0583487526089574,1.7562492447430234,0.0319881696550907,0.11393893809063,0.0291415543179972,-0.0357448608688534,-0.0384821700606672,-0.3470976553801684,-0.0102720016375667,0.057516922989539,1.75670973184941,0.016149944944373,-0.0658799562638103,-0.4178985235477765,0.8360054521934166,0.4158097221059579,-0.1683813762573958,0.7054467401788389,11.321967506632063,-0.8523940227721235,0.1674548776227647,-1.0560814936709229
1.56,-0.0164025955039135,0.0575792051874673,1.7497841607872269,0.0338337197189942,0.1185687339708801,0.0292081199565657,-0.0263858773796832,-0.0422529583769948,-0.3341529608048997,-0.0100331546716489,0.0562703071623857,1.74822344813134,0.021760073809019,-0.0706121761386692,-0.4093443070734818,0.8206316684787761,0.4679491744585115,-0.1885394158163758,0.647234728763435,11.300581889728164,-0.8472859731424783,0.1665312974278464,-1.0589565608006402
1.58,-0.0168186256044296,0.0566878854820316,1.7432413549934598,0.0352488747145319,0.1216554124509661,0.0291897923759867,-0.0157768605016246,-0.0466489169339887,-0.3208230370341978,-0.009654054484115,0.0549053858383609,1.7399510198251276,0.0273702026736649,-0.075344396013528,-0.4007900905991872,0.8797194985994993,0.5304508439029268,-0.2197979278496978,0.6664961885350928,11.273200236070808,-0.8437847198906528,0.1660831977131688,-1.0605507751900949
1.6,-0.0170187075472705,0.0557028468525307,1.7369613331340057,0.0359651743819892,0.123013633700513,0.0290671181261592,-0.0048765844367962,-0.0515902166302097,-0.3078575569444469,-0.0176074686295108,0.0543554396353322,1.72720020314175,-0.0001354990266338,-0.0485890775745041,-0.3166735744721434,0.8822359873286059,0.5450138032414217,-0.2470649848110476,0.6482740044875451,11.273200236070808,-0.8419211839335714,0.16626084633882,-1.0608299027240164
1.62,-0.0169909465996296,0.05457348349566,1.7309252607187342,0.0344207945939224,0.1224505501032631,0.0287235888516562,0.0070322322686832,-0.0606731841084819,-0.2964397957843703,-0.0176074686295108,0.0543554396353322,1.72720020314175,-0.0001354990266338,-0.0485890775745041,-0.3166735744721434,0.9416547714590132,0.5954408352739722,-0.4541483739136112,0.5708880580038295,11.255646189082654,-0.8418880044866929,0.1679197434231473,-1.060119665828581
1.64,-0.016747528554753,0.0533549552180468,1.725393236827497,0.0302371463019742,0.1197934626564256,0.0281516156830797,0.0178085402697695,-0.0663498089231328,-0.2863882722235674,-0.0176074686295108,0.0543554396353322,1.72720020314175,-0.0001354990266338,-0.0485890775745041,-0.3166735744721434,0.7895980137290813,0.5388154000543153,-0.283831240732545,0.5025761780401483,11.168765304980298,-0.8456939247182814,0.1737546770059318,-1.054107410771381
1.66,-0.0162841377161592,0.0520030548375242,1.7197723858156884,0.0250590159812169,0.1149102836532591,0.0274682661792267,0.0276825537936097,-0.0683617276106601,-0.2762244581334453,-0.0176088236197772,0.0538695488595872,1.7240334673970286,0.0029927732683643,-0.0489771097026072,-0.3158436819597325,0.715623987742105,0.4937006761920104,-0.1005959343763671,0.5081907045061035,11.105199270747107,-0.8514975906663691,0.1805562733536255,-1.0460616109887015
1.68,-0.0156533752870745,0.0506369411329207,1.7143482724009682,0.0201827647704125,0.108514454715389,0.0268159459652082,0.0345619842360682,-0.0681733735381359,-0.2666624317960342,-0.0176115336003099,0.0528977673080971,1.7176999959075856,0.0092493178583606,-0.0497531739588133,-0.3141838969349108,0.5890551505305016,0.3439715221229251,0.0094177036262098,0.478101316870555,11.057375294793928,-0.8583098193596546,0.1869785240654876,-1.0369414195111852
1.7,-0.0149574142646554,0.0493565392305988,1.7093672543448928,0.0161882694213675,0.1019803636086763,0.0262776475520128,0.0381664737549562,-0.0667174938797236,-0.2581111572704035,-0.0176142435808425,0.051925985756607,1.7113665244181429,0.015505862448357,-0.0505292382150195,-0.312524111910089,0.4696706992251381,0.1802244759444002,0.0727939829206186,0.4275637262815324,11.007022993440842,-0.8665492009856169,0.1930194180792132,-1.0263845300785657
1.72,-0.0141788653243294,0.0480470087841223,1.7042950663838852,0.0127293843195993,0.0953849889762757,0.0258111431186604,0.0393236261060677,-0.0643820928660275,-0.2495661278204275,-0.0173041263318754,0.0509154009923066,1.705116042179941,0.0217624070383533,-0.0513053024712256,-0.3108643268852673,0.4466839703845785,0.0578576175555744,0.1167700506848043,0.4272514724987991,10.961014792665992,-0.8749079577223258,0.1980751569525389,-1.01591650029722
1.74,-0.0134048880248072,0.0467917418436414,1.6993869477276995,0.010043008861125,0.0897311566339703,0.0254468254553904,0.0378934193009843,-0.0614136656209525,-0.2416543957782333,-0.0169940090829083,0.0499048162280062,1.6988655599417393,0.0280189516283496,-0.0520813667274318,-0.3092045418604455,0.4285223323296389,-0.0715103402541664,0.1484213622537495,0.3955866021097126,10.922302097086686,-0.8821973445255992,0.2022482471570248,-1.0065325815833628
1.76,-0.0126848489234018,0.0455996690441582,1.6946307802873168,0.0080431620708943,0.0857227596167105,0.0251742092830593,0.0340971797780479,-0.0580855914675496,-0.2343451769306737,-0.0165274782191912,0.0488748298573007,1.692656572329158,0.034275496218346,-0.0528574309836379,-0.3075447568356237,0.4441626735993612,-0.1898119761468194,0.1664037076701426,0.3654609423779806,10.881953660335968,-0.8875968620833876,0.2054250721084198,-0.9992084430144644
1.78,-0.0120893475287688,0.0445323514510015,1.6902426030435835,0.0067393073040809,0.084092983986933,0.0249923963188253,0.0289092103819217,-0.0545134504229285,-0.2279209852055572,-0.0159045337407243,0.04782544188019,1.6864890793421972,0.0405320408083423,-0.0536334952398441,-0.305884971810802,0.4498484673166743,-0.2593984698063139,0.1786070522310549,0.3212095862558231,10.847002819116824,-0.8917975934633985,0.2078590556046317,-0.9932382460464596
1.8,-0.0115635568135593,0.0434865385308472,1.6857515655902378,0.0060872669103404,0.0846245044434763,0.0248798262921835,0.024171422576953,-0.0502945674678267,-0.2215293753857552,-0.0106438870096727,0.0418066789298551,1.6788465537833055,0.0102821926454867,-0.0552101903615043,-0.2132194353104495,0.4502729249087367,-0.2368893902484325,0.2109441477550905,0.3195804909900998,10.77402713369338,-0.8941056926914301,0.2093911825237263,-0.9893551269008428
1.82,-0.0110465272323184,0.0425326815753535,1.681467783085728,0.0064193420947771,0.0846257275473309,0.0248434759720413,0.0278702990190633,-0.0453916187878171,-0.2067381044601989,-0.0106438870096727,0.0418066789298551,1.6788465537833055,0.0102821926454867,-0.0552101903615043,-0.2132194353104495,0.8007844408547369,0.1849438221055137,0.2451474340004814,0.7395635462778146,10.77402713369338,-0.9026583632324198,0.2088266961446652,-0.981138802215872
1.84,-0.0104510599883214,0.0416770609119801,1.6774836668960946,0.0079229109743456,0.0814665387646414,0.0248747365218802,0.031222271020489,-0.0405637395783428,-0.1924328868117596,-0.0106438870096727,0.0418066789298551,1.6788465537833055,0.0102821926454867,-0.0552101903615043,-0.2132194353104495,0.7732777410620911,0.1675986000712843,0.2413939604737146,0.715260882421967,11.30090424460832,-0.907938194792612,0.2105508065396983,-0.9720430970364542
1.86,-0.0098446262956511,0.0409475203197381,1.673950739924039,0.0103703886085561,0.0760497492445263,0.0249527509703538,0.032015919451065,-0.0367351618001151,-0.1801456257267241,-0.0105410650832178,0.04125457702624,1.6767143594302012,0.0065567890981997,-0.0553495383492195,-0.2102791253314279,0.6447182923710221,0.0396824215287994,0.1914288889113866,0.614363054251775,11.198053808911029,-0.9147528847061284,0.2111009083885243,-0.9620056832593716
1.88,-0.0092282972866619,0.040236212311435,1.6704735154826853,0.0133909921671828,0.0690268849777953,0.0250373678609824,0.0292444087880629,-0.0347287422427968,-0.1682521686728328,-0.0103354212303081,0.0401503732190099,1.6724499707239924,-0.0008940179963741,-0.0556282343246498,-0.2043985053733848,0.6187917894734069,-0.1385755331501044,0.1003209778659149,0.5946728526945652,11.101593410427997,-0.9235550621586884,0.2107396259960647,-0.9507142419706276
1.9,-0.0087048097579374,0.0395493091355531,1.6672218071056717,0.0162351609609773,0.0618406366075883,0.0250891657505223,0.0230596931568353,-0.0340504944189582,-0.1574814690087741,-0.0101297773773984,0.0390461694117799,1.668185582017783,-0.0083448250909481,-0.0559069303000801,-0.1985178854153417,0.6219298569835812,-0.3092357815613813,0.0339123911919272,0.5385349832029346,11.0291599157581,-0.933091781316185,0.2102730652249698,-0.9388757090612364
1.92,-0.0083356753859494,0.0388670561797858,1.6641769856916568,0.0186945573938899,0.055361600876514,0.0251106919120938,0.0139842998762566,-0.0341837366566274,-0.1475628542932453,-0.0102966738792173,0.0379280308057783,1.6642152243094763,-0.0157956321855221,-0.0561856262755104,-0.1926372654572986,0.6722340265230844,-0.4537696640289325,-0.0066621118834611,0.4959307357764397,10.961105191542629,-0.9417098022170544,0.2097983979522813,-0.9283454097346366
1.94,-0.0081804612071226,0.0382102864689036,1.661462672847376,0.0205979385454622,0.0506414472972077,0.0251198834899159,0.0027185442401029,-0.0348634461294011,-0.1386297013381003,-0.0104635703810363,0.0368098921997766,1.6602448666011695,-0.0232464392800961,-0.0564643222509407,-0.1867566454992555,0.7196882601879132,-0.5632877818076847,-0.033985473638684,0.4466576477572481,10.906243149040163,-0.9494914257123372,0.2092860605626427,-0.9189402153096172
