t,x,y,z,roll,pitch,yaw,v_x,v_y,v_z,ref_x,ref_y,ref_z,ref_v_x,ref_v_y,ref_v_z,a_com,a_x,a_y,a_z,thrust,wind_x,wind_y,wind_z
0.0,0.5210636769563693,-1.6035493520267563,2.454019984854184,0.0328518983114801,0.1000779357092518,0.0432119585735026,0.0045586631054071,-0.0041384167414162,0.014167113977401,0.5211985497327741,-1.6035750764388028,2.4544666802389448,-0.0453261909377778,0.0983445047244353,-0.085650120494811,0.7723584350593087,0.227933155270355,-0.2069208370708121,0.7083556988700515,10.24092964949068,-0.9433254654726856,0.2545659120182968,-0.8735703335083843
0.02,0.5212170722238589,-1.603898364639719,2.4540725353143213,0.0231255471823662,0.097741420879449,0.0424596402199711,0.0106702861345736,-0.0259908129377881,-0.0098579967203084,0.5211985497327741,-1.6035750764388028,2.4544666802389448,-0.0453261909377778,0.0983445047244353,-0.085650120494811,1.6523355437161102,0.3055811514583295,-1.0926198098185964,-1.2012555348854754,10.242226285088693,-0.9393378475310504,0.2577506500226344,-0.8808528133040355
0.04,0.5214740705658882,-1.6044398568675635,2.4535725469656025,0.0061738499447801,0.0903980426995618,0.041202658187575,0.0139280202078827,-0.0262918855911035,-0.0389800133471893,0.5211985497327741,-1.6035750764388028,2.4544666802389448,-0.0453261909377778,0.0983445047244353,-0.085650120494811,1.4652604959966158,0.1628867036654547,-0.0150536326657688,-1.4561008313440438,8.87269718676771,-0.936219561948695,0.2681924696235127,-0.8835943241740071
0.06,0.5217360858765513,-1.6049036171122464,2.452485044990912,-0.0111851745219597,0.0799446477526388,0.0401016654142045,0.0116084951943037,-0.019712869969741,-0.0683204834615845,0.5207452878233964,-1.6025916313915585,2.453610179033997,-0.0552719933283532,0.1183445050224585,-0.1056501207928342,1.5079181255695426,-0.1159762506789525,0.3289507810681257,-1.467023505719757,8.675275060918466,-0.936402734649638,0.2775163724186367,-0.8847023101675937
0.08,0.5218933082476614,-1.6051879016860966,2.450912548444674,-0.0270362670433478,0.0691052243991842,0.0393324636119156,0.004798192256775,-0.0102582757349754,-0.0957683912178303,0.5198387640046408,-1.6006247412970698,2.4518971766241004,-0.075163598109504,0.158344505618505,-0.1456501213888807,1.4909369691911514,-0.3405151468764366,0.4727297117382811,-1.372395387812294,8.675275060918466,-0.9392445450945208,0.286834479423671,-0.8838575086564534
0.1,0.5218777017984857,-1.605264354053601,2.4486949335485773,-0.0429149365244645,0.0581922685326121,0.0387948088657314,-0.0062284533687639,0.0024285675444964,-0.1245745369078199,0.5189322401858852,-1.598657851202581,2.450184174214204,-0.0950552028906548,0.1983445062145515,-0.1856501219849271,1.6675857816481312,-0.5513322812769471,0.6343421639735909,-1.4403072844994806,8.739049891482864,-0.9431297594042642,0.2956941271197834,-0.8823050888815451
0.12,0.5216072918200234,-1.6050593635517725,2.4459044390367857,-0.0579886973932924,0.0487577692583224,0.0384579703449094,-0.020363928173652,0.0177347007304807,-0.1530478609424671,0.5170311361280722,-1.59469096107829,2.4464711717745056,-0.1149468076718056,0.2383445068105979,-0.2256501225809735,1.764100013214056,-0.7067737402444074,0.7653066592992178,-1.4236662017323565,8.739049891482864,-0.9464163881533962,0.3034792092165321,-0.8819028821877776
0.14,0.5210269665835326,-1.604522256858199,2.4425396472326386,-0.0723025991096836,0.041459447112481,0.0382194487234213,-0.036935394095438,0.0354952687202874,-0.1820606071540548,0.5151300320702591,-1.590724070953999,2.442758169334807,-0.1348384124529565,0.2783445074066444,-0.2656501231770201,1.891950515245744,-0.828573296089296,0.888028399490335,-1.4506373105793848,8.783234041830838,-0.94835738203255,0.3113492088556479,-0.8832973791458358
0.16,0.520145437033398,-1.60363405034179,2.438798651628181,-0.0843779349426104,0.0370553120055872,0.0380296682896623,-0.0550040394635538,0.0567366405766395,-0.210294346030353,0.5127316378929172,-1.5857571808148068,2.4380451668802072,-0.1547300172341073,0.3183445080026908,-0.3056501237730665,1.9841974666811495,-0.9034322684057944,1.062068592817605,-1.4116869438149118,8.787914278212156,-0.947948666292022,0.3186318949642915,-0.8869261193795952
0.18,0.5188304854404712,-1.6022405610995156,2.434274316914571,-0.0948722897407006,0.0357926458795316,0.0377639133897589,-0.0752495174309079,0.0812180747919332,-0.2406599384534996,0.5098359535960465,-1.5797902906607135,2.4323321644107065,-0.1746216220152581,0.3583445085987372,-0.3456501243691129,2.197321780357297,-1.0122738983677,1.224071710764685,-1.5182796211573284,8.787914278212156,-0.9453905734439616,0.323506703411505,-0.8947819984305423
0.2,0.5171229541154427,-1.6003391497729051,2.429141718343833,-0.103049198547366,0.037708231550144,0.0373798148395221,-0.0941343671568253,0.1073627328400701,-0.2710439937131547,0.5150680095689257,-1.598179657359919,2.422241319991896,-0.1090204698046509,0.1812180762820494,-0.3406599399436157,2.215497408961624,-0.9442424862958724,1.3072329024068456,-1.5192027629827534,8.784794416397744,-0.9409756190081756,0.3272126757208906,-0.9035483499603156
0.22,0.5151147645846398,-1.5978926592046991,2.4238458504692915,-0.1045854188065219,0.0434159141835418,0.0370473453188048,-0.1153409208065126,0.1462164383544929,-0.2845882854351825,0.5150680095689257,-1.598179657359919,2.422241319991896,-0.1090204698046509,0.1812180762820494,-0.3406599399436157,2.314506528479636,-1.060327682484366,1.9426852757211377,-0.6772145861013906,8.8036255021143,-0.9379433204732532,0.3275799897341382,-0.9083528812362012
0.24,0.5126186299347604,-1.59462488006424,2.4180004052177364,-0.0998096237325552,0.053651981680918,0.0367282314907642,-0.1324493749715203,0.1772915164836994,-0.2992695072980766,0.5150680095689257,-1.598179657359919,2.422241319991896,-0.1090204698046509,0.1812180762820494,-0.3406599399436157,1.9195689360114028,-0.8554227082503841,1.5537539064603256,-0.7340610931447084,9.830334789127846,-0.9291054230130156,0.322758525344854,-0.9205927931924022
0.26,0.5098379046712888,-1.5908128537332595,2.411837317842395,-0.0931205196596743,0.0661779064842608,0.0363841008962026,-0.1442378760194191,0.2020305954236931,-0.3164084155516597,0.5139778048708792,-1.5963674765970983,2.4188347205924594,-0.1157746602793995,0.2012180765800726,-0.360659940241639,1.6161164561072685,-0.5894250523949401,1.236953946999683,-0.8569454126791526,9.635624694210492,-0.9177577863925476,0.3166376143672001,-0.934895173790563
0.28,0.5068723837232626,-1.5865452872129433,2.40530109543028,-0.0864235840371561,0.0793759681916853,0.0360662343944193,-0.1513469360114449,0.223448286904189,-0.3363668538917153,0.5117973954747862,-1.5927431150714575,2.412021521793587,-0.1292830412288967,0.241218077176119,-0.4006599408376854,1.506316287585155,-0.3554529996012884,1.070884574024794,-0.9979219170027808,9.450618308735102,-0.9048276619680208,0.3106748500392992,-0.950551108406952
0.3,0.503963653196512,-1.5821149151325982,2.398698304261235,-0.0806931120670518,0.0914509403535529,0.035837794562715,-0.1542829738666662,0.2419229612322768,-0.3577066999768959,0.5096169860786932,-1.5891187535458164,2.405208322994715,-0.142791422178394,0.2812180777721655,-0.4406599414337319,1.4189106215292424,-0.1468018927610656,0.923733716404393,-1.0669923042590317,9.296020308878724,-0.8902244971460814,0.3047807907508938,-0.9676737042148652
0.32,0.500875077791251,-1.577086458216847,2.391286608318321,-0.0755466932131773,0.1029030671436746,0.0357030765480285,-0.1542364553525864,0.260029103162855,-0.3824872429114819,0.5067611576351253,-1.583494391990373,2.3963951241660406,-0.1562998031278912,0.3212180783682119,-0.4806599420297783,1.534527490561224,0.0023259257039873,0.9053070965289068,-1.239027146729299,9.16962931501712,-0.8754154609541828,0.2995227729385616,-0.9845858733634044
0.34,0.4978159434915436,-1.5717044201598025,2.383364877231918,-0.0713161604598747,0.1125868804500442,0.0356869361228297,-0.1515864839119186,0.2773582006298798,-0.4085201232371944,0.5039053291915574,-1.5778700304349298,2.387581925337366,-0.1698081840773884,0.3612180789642584,-0.5206599426258248,1.5692600371758596,0.1324985720333946,0.8664548733512439,-1.3016440162856246,9.058792980709768,-0.8629067401127108,0.2952712287396194,-0.9982326364381744
0.36,0.4948304091325777,-1.565973403124962,2.3749136004010816,-0.0676346514404493,0.1202589112072921,0.035808350378863,-0.1471320165880513,0.2948204953940033,-0.4353346725561032,0.5007117912242521,-1.5712456688645853,2.37776872649379,-0.1833165650268857,0.4012180795603048,-0.5606599432218712,1.6153901020687875,0.2227233661933628,0.873114738206171,-1.3407274659454376,9.01880233338943,-0.8522650395366439,0.2917578213981533,-1.009653102280987
0.38,0.4920880990538416,-1.5602080505317648,2.3663823838361444,-0.0643159616223449,0.125717827021786,0.036054793926519,-0.1418166922272671,0.3110907238837963,-0.4613645518927602,0.4971805437332093,-1.5636213072793397,2.366955527635313,-0.1968249459763829,0.4412180801563513,-0.6006599438179177,1.5576646192708998,0.2657662180392109,0.8135114244896519,-1.301493966832851,9.000243907736149,-0.8427005365181492,0.288275254685894,-1.0199564287732468
0.4,0.489316333496579,-1.5538120810034926,2.356860567406913,-0.0609371324015405,0.1297066370538968,0.0364316510933095,-0.1356830599532366,0.3275610938839766,-0.4894873500873024,0.4849972644424783,-1.544653514337575,2.3433141562415063,-0.1684908026696671,0.4110907253739124,-0.5613645533828764,1.6581513132905048,0.3066816137015246,0.8235185000090128,-1.406139909727108,8.984261137660724,-0.8350327536711101,0.2849444663295673,-1.028383294144025
0.42,0.4866886969784316,-1.5470853880525075,2.346964289024248,-0.0577951550921551,0.132342742069551,0.0368803055035663,-0.12728610811889,0.3443250829115197,-0.4977342072122013,0.4849972644424783,-1.544653514337575,2.3433141562415063,-0.1684908026696671,0.4110907253739124,-0.5613645533828764,1.024146938508362,0.4198475917173289,0.8381994513771585,-0.412342856244946,10.15386962314642,-0.8287697406042559,0.2799411932915202,-1.03839476951572
0.44,0.4843543189225493,-1.5404017370646292,2.33741335525502,-0.0554913720760207,0.1338734802739135,0.0373157473914373,-0.1189626106609515,0.3586418229942826,-0.5073438485992877,0.4849972644424783,-1.544653514337575,2.3433141562415063,-0.1684908026696671,0.4110907253739124,-0.5613645533828764,0.957333359021431,0.4161748728969239,0.7158370041381451,-0.480482069354321,9.913008804868696,-0.8255864504483011,0.2792714179418495,-1.0398202348931602
0.46,0.4820648568570157,-1.5330725870144208,2.327122663117042,-0.0538293397809106,0.1344423758726283,0.0377761169874113,-0.1105255876847964,0.373571874493051,-0.5213938357714739,0.4833123564157816,-1.540542607083836,2.3377005107076774,-0.173825624758147,0.4310907256719357,-0.5813645536808996,1.1084808681193403,0.4218511488077551,0.7465025749384208,-0.7024993586093098,9.913008804868696,-0.8239799273720468,0.2791588783365247,-1.0398419652670623
0.48,0.4799402838628101,-1.52544781345081,2.316516313483989,-0.0528029281219533,0.1339484485734688,0.0382452588400477,-0.1024178950235068,0.3881738221671283,-0.5386582421604855,0.4799425403623883,-1.5323207925763576,2.32647321964002,-0.1844952689351071,0.4710907262679821,-0.621364554276946,1.2010529590023953,0.4053846330644789,0.7300973837038621,-0.8632203194505805,9.521359500030483,-0.8232982744208248,0.2791626071444825,-1.039772535740016
0.5,0.4779753443411123,-1.517535683930496,2.305535583675156,-0.0524531117075296,0.1322647140324608,0.038725938307209,-0.0945764039616732,0.4023678187835529,-0.5585315417763667,0.4765727243089949,-1.5240989780688794,2.3152459285723626,-0.195164913112067,0.5110907268640286,-0.6613645548729925,1.2824844634950474,0.3920745530916827,0.709699830821231,-0.9936649807940569,9.521359500030483,-0.8239876142147378,0.2795917126476041,-1.038736851419372
0.52,0.4762498799108963,-1.5097585139330807,2.2947180390609327,-0.0528196524256742,0.1294285757148367,0.0391967385845436,-0.0875480579460991,0.4156373539880426,-0.5791480814746659,0.4726694260467536,-1.5138771635315988,2.3020186374749025,-0.205834557289027,0.551090727460075,-0.701364555469039,1.2752646013566913,0.3514173007787044,0.6634767602244851,-1.030826984914962,9.3905364947841,-0.8266772747336596,0.2809775291011695,-1.0354408173490526
0.54,0.4745707312868465,-1.501301040307027,2.282899966342009,-0.0540507356241504,0.1250491659518477,0.0397094940569818,-0.0808850960883401,0.4294895924941914,-0.6015923493577818,0.4687661277845122,-1.5036553489943183,2.2887913463774425,-0.216504201465987,0.5910907280561215,-0.7413645560650854,1.360169780908115,0.3331480928879485,0.6926119253074403,-1.1222133941557966,9.290315072784324,-0.8305331763003526,0.2829803984418981,-1.031365317318683
0.56,0.4730071555522679,-1.4925531226999798,2.270630262022665,-0.055862007921878,0.1194460280204203,0.0402571545784863,-0.07609370022482,0.4446110065632684,-0.6242400920484623,0.4645960884178469,-1.4924335344421364,2.2745640552650817,-0.227173845642947,0.6310907286521679,-0.7813645566611318,1.3825111995502146,0.2395697931760046,0.7560707034538511,-1.1323871345340242,9.24522589704702,-0.8355925258961036,0.2856770160011867,-1.0259229116972508
0.58,0.4715151443628308,-1.483489591474846,2.2579055260636878,-0.0576206671298281,0.1132792557968336,0.0408524984548287,-0.0735500539426639,0.4609041878135874,-0.6470756798436262,0.4601593079467576,-1.4802117198750535,2.2593367641378195,-0.237843489819907,0.6710907292482143,-0.8213645572571783,1.4083695907104006,0.1271823141078092,0.8146590625159489,-1.1417793897581965,9.217364571816688,-0.8414835748250745,0.2881330915950514,-1.0197934129667132
0.6,0.4701249083044281,-1.4745670439059115,2.2453914017636625,-0.0587568395433785,0.1074003265671621,0.0414660283685423,-0.0730423928651872,0.4773543064075143,-0.6690350130448617,0.4678376416656976,-1.4604443820841666,2.225551742071506,-0.1224080296938254,0.5609041893037036,-0.6838806352963068,1.372111908853216,0.0253830538738342,0.8225059296963461,-1.097966660061772,9.217364571816688,-0.8482439498649487,0.2900603241250116,-1.0130274600593872
0.62,0.4687119452966419,-1.4647628525016854,2.2321274681004044,-0.0575329317792221,0.1008673933865611,0.0422987643584198,-0.0683243792583073,0.5018384332210944,-0.6542311651208851,0.4678376416656976,-1.4604443820841666,2.225551742071506,-0.1224080296938254,0.5609041893037036,-0.6838806352963068,1.4499017480284666,0.2359006803439929,1.2242063406790042,0.7401923961988299,11.63770407381162,-0.8509284145807915,0.2837759993335382,-1.0205919274096007
0.64,0.4673761364277333,-1.4544923865247243,2.2192046505601484,-0.0530810969888261,0.0936775425984625,0.0433599196250087,-0.0657897889486282,0.5231019416705699,-0.6391386182418961,0.4678376416656976,-1.4604443820841666,2.225551742071506,-0.1224080296938254,0.5609041893037036,-0.6838806352963068,1.3099102172604358,0.1267295154839566,1.0631754224737722,0.7546273439494489,11.63770407381162,-0.8600941586991192,0.2843224373496708,-1.0064974245643632
0.66,0.4660635147111144,-1.4438485389593314,2.206528774153117,-0.0475470570199488,0.0862682696294276,0.0444508163359365,-0.0658372083120336,0.5399367759713068,-0.6291362403409059,0.4666135613687593,-1.4548353401911296,2.2187129357185427,-0.1321796248440578,0.5809041896017267,-0.6912416263868429,0.9791085974031598,-0.0023709681702704,0.8417417150368478,0.5001188950495117,11.320655581555911,-0.8690937037167258,0.2834693877366351,-0.99367720122371
0.68,0.4647920178178111,-1.4334530589236811,2.194631758841552,-0.042390650740937,0.0793218937965411,0.0454182449883049,-0.0681781811240107,0.5534333854078276,-0.6236462915736302,0.4641654007748829,-1.4436172564050556,2.2050353230126167,-0.1517228151445224,0.6209041901977732,-0.7059636085679152,0.737865430576113,-0.1170486405988532,0.6748304718260378,0.2744974383637855,10.990720178907395,-0.8781763003904683,0.2818949587118052,-0.9816822297822124
0.7000000000000001,0.4633830138594333,-1.422253191246494,2.1821880404099807,-0.0375283302831626,0.0723720376811354,0.0463257422558958,-0.0727912771762101,0.5658441695472322,-0.6211473434732817,0.4617172401810063,-1.4323991726189815,2.1913577103066904,-0.171266005444987,0.6609041907938197,-0.7206855907489874,0.6737079481309921,-0.2306548026099711,0.6205392069702276,0.1249474050174226,10.507258689090122,-0.887198015611642,0.2807592966853804,-0.9695867022986948
0.72,0.4618600884660251,-1.410818427752185,2.1697633097628835,-0.033402078570443,0.0660219384198272,0.0471104008730035,-0.0794200198788073,0.5770510026573717,-0.6215550274108123,0.4582919200721066,-1.4191810888031051,2.1769439984917107,-0.1908091957454516,0.7009041913898661,-0.7354075729300596,0.6513438883736394,-0.331437135129859,0.5603416555069796,-0.0203841968765272,10.507258689090122,-0.8951974830896157,0.2797955446068416,-0.9591533343350824
0.74,0.4601851661952019,-1.399170371549276,2.157318284076118,-0.0300591282425505,0.0605261174486613,0.0477724942785333,-0.0878739710583287,0.587329856380307,-0.6229046802347095,0.4548665999632069,-1.4059630049872287,2.16253028667673,-0.2103523860459163,0.7409041919859126,-0.7501295551111319,0.6688529119849234,-0.4226975589760699,0.5139426861467622,-0.0674826411948603,10.2880893267411,-0.9021220127237388,0.2784183798974322,-0.9510332420207014
0.76,0.458417510108511,-1.38791284039629,2.145465563548523,-0.0273220965782707,0.0565149655094925,0.0483061259517531,-0.0978551557406236,0.5971152139726047,-0.624671930269856,0.4509527000967955,-1.3917449211564512,2.147748525307224,-0.2298955763463809,0.780904192581959,-0.7648515372922041,0.7044509272439472,-0.4990592341147466,0.4892678796148852,-0.0883625017573275,10.2880893267411,-0.9077031545466842,0.2772628769487034,-0.9443491794445324
0.78,0.456334156719111,-1.375866874734483,2.132946742058237,-0.0246656753801965,0.054161500937968,0.0487780150624061,-0.1100385859926705,0.6069098317586905,-0.6271411799901347,0.4465502204728725,-1.3765268373107726,2.1325987143831906,-0.2494387666468455,0.8209041931780054,-0.7795735194732764,0.7913085751827437,-0.6091715126023467,0.4897308893042906,-0.1234624860139366,10.26132517311271,-0.9115627066962008,0.2758962128925586,-0.939867143312272
0.8,0.4540016109969485,-1.3636296965227828,2.1203711044806623,-0.0221594807665034,0.0540472037028043,0.0491668237459311,-0.1223528800791178,0.616262258067175,-0.6303150940120091,0.4508322274194775,-1.345521383146549,2.10158968305873,-0.1603004522939687,0.7069098332488066,-0.6452186056488376,0.7892772752990483,-0.6157147043223655,0.467621315424227,-0.1586957010937195,10.176749720259068,-0.9137435483370656,0.2738672956454802,-0.9382831240413873
0.8200000000000001,0.4514253451820837,-1.3511891632678708,2.107930451942536,-0.0191746817200811,0.0562843339227219,0.0495256058585655,-0.1342123693636984,0.6268607125091892,-0.6135418280731488,0.4508322274194775,-1.345521383146549,2.10158968305873,-0.1603004522939687,0.7069098332488066,-0.6452186056488376,1.1557650852425214,-0.5929744642290277,0.5299227221007063,0.8386632969430152,10.176749720259068,-0.912458217630713,0.2670871396873928,-0.9469552413367146
0.84,0.4487818870909997,-1.339203796977036,2.0964108359251217,-0.0163442119436292,0.0602433024883826,0.0498258090679772,-0.1431997485888956,0.634369783422357,-0.5999324615875401,0.4508322274194775,-1.345521383146549,2.10158968305873,-0.1603004522939687,0.7069098332488066,-0.6452186056488376,0.8977388086967436,-0.449368961259862,0.3754535456583885,0.6804683242804366,11.436430847365044,-0.9113448142309232,0.2672709009022899,-0.9443608154857944
0.86,0.44583910678095,-1.3264440963218105,2.084531454641339,-0.0140433006425396,0.0653365001972137,0.0500777308885262,-0.1503932132739678,0.641352541482013,-0.5888690589522629,0.4492292228965377,-1.3384522848140603,2.095137497002242,-0.1703528255542283,0.7269098335468298,-0.6488340907805782,0.7464980277357242,-0.3596732342536088,0.3491379029828045,0.5531701317638582,10.96088828079337,-0.9086033807371656,0.2676062794806322,-0.9439961177164384
0.88,0.4427744300281875,-1.3135512049689393,2.0728386392833063,-0.0126249809306193,0.0706085868176332,0.0502627725184599,-0.1555812774198001,0.6477708995469316,-0.5809542793467903,0.4460232138506584,-1.3243140881490845,2.082233124889265,-0.1904575720747476,0.7669098341428763,-0.6560650610440593,0.5717409073041305,-0.2594032072916141,0.3209179032459264,0.3957389802736299,10.96088828079337,-0.90544952660414,0.2683649979737852,-0.9443902490440276
0.9,0.4396245357090603,-1.300535329055429,2.061279178503136,-0.0122735152833904,0.0755162469278922,0.0503718039827087,-0.1590814491974035,0.6536677097239958,-0.5753889272498529,0.442817204804779,-1.3101758914841084,2.0693287527762885,-0.2105623185952668,0.8069098347389227,-0.6632960313075404,0.4415787492054649,-0.1750085888801683,0.2948405088532113,0.2782676048468713,10.779844293687349,-0.9024477533955808,0.2696262919850137,-0.9450452668980132
0.92,0.4365805856090464,-1.2880643028316767,2.0503833000267315,-0.0131827723117363,0.0795061455211356,0.0503877043232914,-0.1611558087490063,0.6589604355768451,-0.5718258095325287,0.4386059584328737,-1.29403769478933,2.056062832150137,-0.2306670651157861,0.8469098353349692,-0.6705270015710216,0.3354538804748554,-0.1037179775801422,0.2646362926424672,0.1781558858662102,10.642471029178523,-0.8996534999514356,0.2718485183972747,-0.9454403818445812
0.94,0.4333444126607059,-1.2748271278109808,2.0389810484064994,-0.015673747049888,0.0827857137335334,0.050297591489162,-0.1623562393920456,0.664744324427768,-0.5686086667570248,0.4343947120609683,-1.2778994980945515,2.042796911523987,-0.2507718116363054,0.8869098359310157,-0.6777579718345027,0.3363198314348793,-0.0600215321519659,0.2891944425461423,0.1608571387751944,10.538927685315684,-0.8975427050964827,0.2751062987947977,-0.945302373924338
0.96,0.4300883179116339,-1.2614437737970017,2.0276400498301133,-0.0190360728341024,0.085073547540901,0.0501503771785325,-0.1632260062376886,0.6734773068056094,-0.5656599426760872,0.4296808470260501,-1.260761301384872,2.029350216641249,-0.2708765581568246,0.926909836527062,-0.6849889420979839,0.4629158921525834,-0.0434883422821469,0.4366491188920685,0.1474362040468801,10.51130455033308,-0.8966307304455196,0.2793260057437619,-0.94328595976441
0.98,0.4268164787632816,-1.2478627640972184,2.016356164810852,-0.0221093072118362,0.0864491342758974,0.0500323158812769,-0.1639773010025214,0.6840869732355733,-0.5628681667309293,0.4244643633281187,-1.2426231046602911,2.015722747501924,-0.2909813046773439,0.9669098371231084,-0.692219912361465,0.5498260600106452,-0.0375647382416396,0.5304833214981985,0.1395887972578946,10.499742718680864,-0.896657778266383,0.2839140387066586,-0.9396820392762342
1.0,0.4236935218293023,-1.2347538768928008,2.0056861892423887,-0.0244054067103994,0.0870300820864303,0.049975085886147,-0.1647739567642861,0.6950988555580465,-0.5604154920863091,0.4186176137131556,-1.2136584154354395,1.9882127564743055,-0.1946518162945698,0.7840869747256894,-0.5563260778013656,0.5654905516432461,-0.0398327880882357,0.5505941161236594,0.1226337322310089,10.49235432030855,-0.8975574520223907,0.2881296477972299,-0.9350610892311918
1.02,0.4203589972706613,-1.22065688384876,1.9946679524207207,-0.0239874560904829,0.0882852101123593,0.050091553367048,-0.168398980917367,0.7134132858900382,-0.5406220783400898,0.4186176137131556,-1.2136584154354395,1.9882127564743055,-0.1946518162945698,0.7840869747256894,-0.5563260778013656,1.360457998455686,-0.1812512076540443,0.9157215165995825,0.9896706873109672,10.478644067606185,-0.8992963001201157,0.2862092157870706,-0.9358441426904808
1.04,0.4169690542033112,-1.2062266643624224,1.9840611024262789,-0.0198605009719343,0.0910653181585119,0.0504255870611163,-0.1701583654605078,0.7278700676105428,-0.5211060383740179,0.4186176137131556,-1.2136584154354395,1.9882127564743055,-0.1946518162945698,0.7840869747256894,-0.5563260778013656,1.2175485489727669,-0.0879692271570406,0.7228390860252343,0.9758019983035936,11.677173037610372,-0.9004656184981874,0.2875824801654534,-0.9285976512149444
1.06,0.4137346820578408,-1.192300147632169,1.9743176983340711,-0.0149446847752947,0.09425495395036,0.0508027658856077,-0.1701014348737151,0.7372328803825728,-0.5054776129341062,0.4166710955502098,-1.2058175456881828,1.982649495696292,-0.2007867193529795,0.8040869750237126,-0.5550176600154528,0.9109242364580606,0.0028465293396354,0.4681406386014997,0.781421271995586,11.48952983626441,-0.8999648095356239,0.287425216151028,-0.92414654596847
1.08,0.4103469135348191,-1.1774769295193537,1.9643564818458037,-0.0101629012494565,0.0975640193183662,0.0511766202462621,-0.1686034566086192,0.7446448484029607,-0.4915803655965445,0.4127780592243185,-1.190135806193669,1.971522974140265,-0.2130565254697989,0.8440869756197591,-0.5524008244436273,0.7910668308988159,0.0748989132547908,0.3705984010193952,0.6948623668780851,11.273684362576205,-0.8989749880937435,0.2870584201000795,-0.9210103107593168
1.1,0.4070011508340903,-1.1625199750446116,1.9546477581285464,-0.0062623089170982,0.100383442478165,0.0514952227284313,-0.166030758045166,0.7508037841458219,-0.4800812092602344,0.4088850228984271,-1.1744540666991552,1.9603964525842372,-0.2253263315866183,0.8840869762158056,-0.5497839888718018,0.6647967054483401,0.1286349281726606,0.3079467871430597,0.5749578168155023,10.954985655171184,-0.8982097811600145,0.2870554664387424,-0.918083836089841
1.12,0.4037153710313892,-1.147448668736754,1.945147001123928,-0.0033632588122245,0.1024152912024267,0.0517463689418334,-0.1627424530559388,0.756254860145412,-0.4705557483873401,0.4043784962666947,-1.1567723271748391,1.9494007728068012,-0.2375961377034376,0.924086976811852,-0.5471671532999763,0.5728472398827735,0.1644152494613623,0.2725537999795024,0.4762730436447177,10.954985655171184,-0.8977919758409555,0.2874960270611479,-0.9153138654391388
1.14,0.4006592483702145,-1.1330336475786984,1.936290996699816,-0.0014799459717582,0.1034948377560057,0.0519219798531871,-0.1592115166592874,0.7610529006080019,-0.4621218330080202,0.3998719696349623,-1.1390905876505228,1.9384050930293653,-0.249865943820257,0.9640869774078984,-0.5445503177281508,0.5162839159400943,0.1765468198325667,0.2399020231294957,0.4216957689659933,10.843383513239132,-0.8979880368723158,0.2882824029983094,-0.912206480136546
1.16,0.3975138628130329,-1.1177560268644144,1.927139156343848,-0.0001296972880505,0.1037577866982231,0.0520571383029248,-0.1555893095366641,0.7664641169798498,-0.4535066514853597,0.3950586978503095,-1.1204088481113057,1.927474834141225,-0.2621357499370764,1.004086978003945,-0.5419334821563253,0.5399606460903661,0.1811103561311672,0.2705608185923969,0.4307590761330276,10.80606473285934,-0.8992995712569808,0.2899132590176787,-0.9074501123729958
1.18,0.3944384724142995,-1.1023697763223148,1.9181562615014849,0.0007960469658554,0.1032277844998103,0.0521554514211633,-0.1522428428172299,0.7718819589166084,-0.4451969223754505,0.3899386809127362,-1.1007271085571873,1.91660999614238,-0.2744055560538958,1.0440869785999911,-0.5393166465844997,0.523458328417965,0.1673233359717085,0.2708920968379269,0.415486455495459,10.786575156243998,-0.9012691432170864,0.2918085523847655,-0.9021009276968932
1.2,0.3915749238458829,-1.087652736091826,1.9097737348374448,0.0013643184044756,0.1021018248430365,0.0522202833158815,-0.1494263859199555,0.7769958770686667,-0.4375743457233646,0.386826330273438,-1.0637756783764845,1.895896415382712,-0.1835196462809274,0.8718819604067245,-0.4435913170181239,0.480073596277385,0.1408228448637194,0.2556959076029153,0.3811288326042938,10.738831738075532,-0.9040233946979794,0.2939938234391992,-0.8958204347960984
1.22,0.3885954426807362,-1.0720162391067858,1.9011577409768663,0.0030043027955396,0.1010102905098807,0.0523540432413341,-0.1486589160599742,0.7859958725556048,-0.4241361322116034,0.386826330273438,-1.0637756783764845,1.895896415382712,-0.1835196462809274,0.8718819604067245,-0.4435913170181239,0.8095901912982981,0.038373492999065,0.4499997743469042,0.6719106755880583,10.738831738075532,-0.9076373984503812,0.2946224408825624,-0.8900052086283389
1.24,0.3856346134648672,-1.056238824497434,1.892807282276609,0.0056976443522972,0.1005545708886448,0.0525522970233807,-0.1474257683911915,0.7912116056317633,-0.4116844263384497,0.386826330273438,-1.0637756783764845,1.895896415382712,-0.1835196462809274,0.8718819604067245,-0.4435913170181239,0.6778080551422542,0.0616573834391384,0.2607866538079262,0.6225852936576876,11.099260763023269,-0.9103343132592748,0.2959192044092819,-0.8833595146491077
1.26,0.3827023615471259,-1.040377793922964,1.8846838017053476,0.0079249878421908,0.1002897426009898,0.0527095288285359,-0.1458864075168623,0.7948299493831196,-0.4012651086743826,0.3849911338106287,-1.0550568587724172,1.8914605022125308,-0.1897750069736669,0.8918819607047477,-0.4432701959466586,0.5568308180882553,0.0769680437164563,0.1809171875678139,0.5209658832033531,10.977504217832577,-0.9124480664285742,0.2970932707738388,-0.8777495946547533
1.28,0.3799468121065905,-1.0252514365676526,1.877144697940612,0.0092419274809185,0.0999703927115071,0.0527956282835767,-0.1442947431796371,0.7974189895789895,-0.3928313191330871,0.3813207408850102,-1.0376192195642828,1.882588675872168,-0.2022857283591458,0.931881961300794,-0.442627953803728,0.448233562233716,0.0795832168612606,0.1294520097934959,0.4216894770647766,10.852591069468872,-0.9143877487375331,0.2984612004137949,-0.8727752210519056
1.3,0.377078874306369,-1.0092828625896513,1.8693711690441783,0.0094450998877063,0.0994107123622914,0.0527967603420933,-0.1426365870919145,0.7994273843587664,-0.3850027727544571,0.3776503479593917,-1.0201815803561485,1.8737168495318055,-0.2147964497446248,0.9718819618968406,-0.4419857116607973,0.4125205134446251,0.0829078043861328,0.1004197389888439,0.3914273189314976,10.756082334774874,-0.9162571629071842,0.3003924076312033,-0.8680861720838169
1.32,0.3742428438576514,-0.9932794936250152,1.861744407101316,0.0080308899857229,0.09853328128932,0.0526810932103236,-0.1411391918971249,0.8010597512625071,-0.3780459170674488,0.3733544189644991,-1.0007439411182115,1.8648771352985896,-0.2273071711301038,1.011881962492887,-0.4413434695178667,0.3650501853432885,0.0748697597394792,0.0816183451870344,0.3478427843504189,10.687688426583009,-0.9181514060813976,0.3031455429051725,-0.8634430744564654
1.34,0.3714339235304961,-0.9772380966291154,1.8542545169764029,0.0048877503747179,0.0973130526906041,0.0524471120977905,-0.1399350535807153,0.803564796018711,-0.3712718257724579,0.3690584899696066,-0.9813063018802746,1.8560374210653736,-0.2398178925155827,1.0518819630889336,-0.4407012273749361,0.366106238640173,0.0602069158204793,0.1252522378101972,0.3387045647495451,10.61930266397394,-0.9205142980196912,0.3070887160300855,-0.8580697075046874
1.36,0.3687818107071415,-0.9619183565207016,1.8472657188681016,0.0013490832040293,0.0958653816582312,0.0521945341250924,-0.1393604957387462,0.808968860482456,-0.3647162380205475,0.3644497929400772,-0.9608686626274366,1.847213762885731,-0.2523286139010617,1.09188196368498,-0.4400589852320055,0.4257633151619462,0.028727892098454,0.2702032231872486,0.327779387595517,10.61930266397394,-0.9235965981349564,0.3119391934539027,-0.8511615587880608
1.38,0.3659956093902267,-0.9456631003836828,1.8400453008271371,-0.0020332636023772,0.0941186042367439,0.0519641266519962,-0.1393571734868423,0.8162432843470264,-0.3576525342384153,0.3595283278759107,-0.9394310233596976,1.8384061607596616,-0.2648393352865407,1.1318819642810265,-0.4394167430890748,0.5069841336780128,0.0001661125951984,0.3637211932285222,0.3531851891066084,10.619951744731225,-0.9272102395762468,0.3168380821461078,-0.8432629188793753
1.4,0.3632021604371686,-0.9292504379137136,1.832966597419473,-0.0047393522329645,0.0922506081849192,0.0517926638155826,-0.1400548161573148,0.8245524189534353,-0.3505593032956348,0.3590277507158846,-0.9048509361663314,1.8221626741152168,-0.1853115350448028,0.9162432858371424,-0.3371941153624826,0.5473626503761155,-0.0348821335236282,0.4154567303204459,0.3546615471390291,10.622530359491977,-0.9308814434099631,0.321172608689208,-0.8353623482922158
1.42,0.3604067539740871,-0.9125918315183824,1.8261481130382835,-0.0043427694358769,0.0899913103456756,0.0518449654704294,-0.1395044255549747,0.8397373822767756,-0.3315941049531476,0.3590277507158846,-0.9048509361663314,1.8221626741152168,-0.1853115350448028,0.9162432858371424,-0.3371941153624826,1.2150769410990114,0.0275195301170039,0.7592481661670147,0.9482599171243584,10.615878931084808,-0.9381571778137314,0.3217412591689343,-0.8270606999542851
1.44,0.3577584987078262,-0.8965256764140478,1.820019074955585,-0.0007044431120112,0.0871269858500292,0.0521141894288441,-0.139368628523112,0.8500701870755663,-0.3145105860609699,0.3590277507158846,-0.9048509361663314,1.8221626741152168,-0.1853115350448028,0.9162432858371424,-0.3371941153624826,0.9982884272382994,0.0067898515931349,0.5166402399395309,0.854175944608887,11.362645136349784,-0.9445694309252962,0.324475392860393,-0.8134707387831306
1.46,0.3549659087684111,-0.8794558549318396,1.8138993878636065,0.0040010503013732,0.083340183809871,0.0524352017062113,-0.1400346233898425,0.856256573099251,-0.2984275880889722,0.3571746353654366,-0.89568850330796,1.818790732961592,-0.1945024073563949,0.9362432861351656,-0.3331024315872961,0.8622321975022635,-0.033299743336522,0.3093193011842354,0.8041498985998818,11.227840479078624,-0.9508498185955556,0.3256436332755603,-0.8014722641077272
1.48,0.3521467404197978,-0.8622903622854606,1.8080800447939656,0.0081227102868152,0.0788600546362883,0.0526852864579527,-0.1420220208967206,0.860094290781499,-0.2843757639866421,0.3534684046645405,-0.8773636375912172,1.812046850654342,-0.2128841519795791,0.9762432867312122,-0.324919064036923,0.7350707218727481,-0.0993698753439048,0.1918858841124027,0.702591205116504,11.08513748288351,-0.9568920999544984,0.3265676582281437,-0.7905813360122171
1.5,0.3492700875134308,-0.8450630456664664,1.8025225320133669,0.011164062199567,0.0739440925802226,0.052832808591047,-0.1457246962678996,0.8627375179563045,-0.2720416221806379,0.3497621739636444,-0.8590387718744743,1.8053029683470925,-0.2312658966027633,1.0162432873272589,-0.31673569648655,0.6573193837332584,-0.1851337685589496,0.1321613587402736,0.6167070903002142,10.949330153104713,-0.9634171279383598,0.3276313644666168,-0.7794818436303315
1.52,0.3464501520774336,-0.828654317973578,1.7974603008640608,0.0129991870397605,0.0692407903276708,0.0528837991597189,-0.151078960782011,0.8646266614380808,-0.2614170945926152,0.3451368560315891,-0.8387139061279292,1.7989682544173615,-0.2496476412259475,1.056243287923305,-0.3085523289361769,0.6023238291203189,-0.2677132257055695,0.0944571740888133,0.531226379401134,10.844537118020526,-0.9698490225238424,0.3289879762900802,-0.7687862630109984
1.54,0.3433523423706963,-0.8113490474143649,1.7923468939574874,0.0137253297823878,0.0647406898184914,0.0528517695783174,-0.1585985086280946,0.8659212012202399,-0.2504774094709279,0.3405115380995339,-0.8183890403813839,1.7926335404876306,-0.2680293858491317,1.0962432885193516,-0.3003689613858038,0.6668885656892006,-0.3759773923041803,0.0647269891079549,0.5469842560843652,10.770453404652471,-0.9759130891353688,0.3305708073523217,-0.759002202705133
1.56,0.3400797677523808,-0.7940147798177046,1.7874499855959864,0.0132034906237439,0.061383011763755,0.0527498538678962,-0.1683828665225824,0.8675460599507924,-0.2397438238572192,0.335426676551899,-0.7970641746199376,1.7865034107466589,-0.2864111304723159,1.136243289115398,-0.2921855938354307,0.7307251286025616,-0.4892178947243919,0.0812429365276257,0.5366792806854315,10.754254592891812,-0.981126047210602,0.3327047274553639,-0.7502905217313038
1.58,0.336592108513635,-0.7766426845722076,1.782766849716912,0.01168694592873,0.0599254037673009,0.0526103914110217,-0.1797546568093808,0.8696690823586445,-0.2290869067661435,0.3298822713886845,-0.7747393088435901,1.7805778651944464,-0.3047928750955001,1.1762432897114443,-0.2840022262850576,0.7864393179979409,-0.5685895143399191,0.1061511203926057,0.5328458545537873,10.743956492033249,-0.9850609642457568,0.3347764216949404,-0.7439281949236888
1.6,0.3330704293092669,-0.7600914504422869,1.7785152150223529,0.0095389645241205,0.060342981663077,0.0524563704441227,-0.1901827402128983,0.8725797571874441,-0.2189654404964513,0.3276043756731659,-0.7331592304542754,1.7713125043786049,-0.2016273858724148,0.9696690838487606,-0.2127578790537984,0.7410482961289414,-0.5214041701758778,0.1455337414399793,0.5060733134846104,10.735423949705364,-0.9885601626109954,0.3373767928684302,-0.7381741463434348
1.62,0.3290996066527657,-0.7425400989855087,1.7742664147190794,0.0088091901806436,0.0640238836333663,0.0524346638845618,-0.2058655485250617,0.8819129683219542,-0.2063213897437485,0.3276043756731659,-0.7331592304542754,1.7713125043786049,-0.2016273858724148,0.9696690838487606,-0.2127578790537984,1.1101028399143118,-0.7841404156081672,0.4666605567255066,0.6322025376351403,10.722127106149856,-0.988808404151512,0.3395114783052705,-0.7361921903419687
1.64,0.3248524750571439,-0.7248298016257724,1.7702677187203024,0.0104012049010907,0.0716793342261899,0.0526176171158637,-0.2174414668894671,0.8885826236781593,-0.194163777477207,0.3276043756731659,-0.7331592304542754,1.7713125043786049,-0.2016273858724148,0.9696690838487606,-0.2127578790537984,0.9031801101849708,-0.5787959182202707,0.3334827678102559,0.6078806133270748,10.8889070499863,-0.9878650094845328,0.3400039634407448,-0.7372883670166535
1.66,0.3206479274667203,-0.7078968427086695,1.766681935782804,0.0128555212371855,0.0808315506593585,0.0528950976980231,-0.2241837311079269,0.8934462847182455,-0.1838915975516945,0.3255881018144418,-0.7234625396157879,1.769184925588067,-0.2060019316850217,0.9896690841467838,-0.2094920735113293,0.6607401265370481,-0.3371132109229915,0.2431830520043088,0.5136089962756246,10.701110928370326,-0.9847549473814696,0.339926931502973,-0.7413344663332017
1.68,0.3161278323398928,-0.6899951417013407,1.7631056246243555,0.0154474500960275,0.0909986964210088,0.0532214426517795,-0.2271401402907825,0.8965318716273151,-0.1743499661509335,0.3215555540969935,-0.7040691579388126,1.7649297680069909,-0.2147510233102353,1.0296690847428305,-0.2029604624263913,0.522742603051163,-0.1478204591427806,0.1542793454534785,0.4770815700380487,10.701110928370326,-0.980040058892366,0.3396488331238082,-0.7473667680148708
1.7,0.311588008179133,-0.6720429513773063,1.759705889841967,0.0173145937911464,0.1006053420206274,0.0535122771659778,-0.2264873560043654,0.8986938455984337,-0.1661712545691976,0.3175230063795452,-0.6846757762618374,1.760674610425915,-0.2235001149354489,1.0696690853388766,-0.1964288513414532,0.4242392659620533,0.0326392143208578,0.1080986985559306,0.4089355790867957,10.54610852271071,-0.9749360577058722,0.3397984393262429,-0.7533531706556829
1.72,0.307316993199711,-0.6549551482475146,1.7566166178220364,0.0180893646655572,0.1084586341735624,0.0537100436577863,-0.2231094027461374,0.9000988622540782,-0.1594376203090672,0.3130530040808362,-0.6632823945550599,1.756746033399086,-0.2322492065606625,1.109669085934923,-0.1898972402565152,0.3831659900311277,0.1688976629114005,0.0702508327822259,0.3366817130065203,10.49877298188312,-0.9696700436848736,0.3406245418569707,-0.7588581497845276
1.74,0.3029116104564984,-0.636943250289737,1.7534979368829768,0.0175271340190266,0.1149760839330779,0.0537945945083044,-0.2175833847550832,0.9011647598776744,-0.1528098904069669,0.3085830017821273,-0.6418890128482824,1.752817456372257,-0.2409982981858762,1.1496690865309696,-0.1833656291715771,0.4347407740154935,0.2763008995527075,0.053294881179805,0.3313864951050141,10.48484272502992,-0.9652383154640504,0.3424113289763237,-0.7626227019053109
1.76,0.2986317921571138,-0.6188992421963165,1.7505098301195754,0.0156092508670401,0.1195089421274698,0.0537475771108657,-0.2107957871359216,0.9032808645312996,-0.1463360721623983,0.303894272192788,-0.6194956311266037,1.7490521696225514,-0.2497473898110898,1.189669087127016,-0.1768340180866391,0.4807798430894652,0.3393798809580794,0.1058052326812719,0.323690912228429,10.48484272502992,-0.9623259414371056,0.3452067023844358,-0.763783124949858
1.78,0.2946971651911501,-0.6017029345994723,1.7477928818864612,0.0130391744614896,0.1220388453540759,0.0536210818965432,-0.2038615915197331,0.906951507896421,-0.1399761836019954,0.2989868153128183,-0.5961022493900239,1.7454501731499692,-0.2584964814363034,1.2296690877230625,-0.170302407001701,0.5049873118659057,0.3467097808094274,0.183532168256062,0.3179944280201477,10.483961895261018,-0.9611369298148008,0.3492176831275956,-0.7618336756064484
1.8,0.2906964080996254,-0.583504943928137,1.745067372356071,0.0104188277814871,0.1230453256999191,0.053474795698729,-0.1966951876239414,0.9126298635691112,-0.1328863276246957,0.2845040856151635,-0.5563553592046513,1.740794072706361,-0.2175107124465901,0.9378908242734648,-0.1418975598154267,0.5785048092324797,0.3583201947895853,0.2839177836345075,0.3544927988649846,10.498309651682575,-0.9613520892266388,0.3534002154572504,-0.7578500095660166
1.82,0.2868056972587365,-0.5648916901018933,1.7424607947885442,0.0176902119057467,0.1229072432544678,0.0540044559383799,-0.1924678471442683,0.9422547298466314,-0.1281539831706753,0.2845040856151635,-0.5563553592046513,1.740794072706361,-0.2175107124465901,0.9378908242734648,-0.1418975598154267,1.5148417355647563,0.2113670239836537,1.4812433138760128,0.2366172227010202,10.519807373315416,-0.9648688663902768,0.3548520415648139,-0.7488215250108343
1.84,0.2831953242278334,-0.5469104015312695,1.740054936242267,0.0318281049943557,0.1221804973948277,0.0549764040636229,-0.1878245227878576,0.948379199314527,-0.1253280712250122,0.2845040856151635,-0.5563553592046513,1.740794072706361,-0.2175107124465901,0.9378908242734648,-0.1418975598154267,0.409436703492319,0.2321662178205341,0.3062234733947788,0.1412955972831517,10.243196996289043,-0.9642040873654072,0.3467156679452992,-0.7515164852159769
1.86,0.2794866344351083,-0.5279443379702895,1.7375555101242808,0.0473470248572824,0.1209742158129489,0.0559881194161598,-0.1833421781982133,0.9474872955858394,-0.1248968943074207,0.2823289784906976,-0.5469764509619166,1.7393750971082071,-0.2202405366319615,0.9440786875488736,-0.142281835058113,0.2295257001722481,0.2241172294822166,-0.0445951864343763,0.0215588458795781,10.243196996289043,-0.9647646762538972,0.3375564802466068,-0.7537982974958436
1.88,0.2758621955170932,-0.5090384737311685,1.7350404816164442,0.062316273002105,0.1194593296194219,0.0568968725528431,-0.1793723285468553,0.9427906912855104,-0.1267316273334716,0.2779787642417657,-0.5282186344764473,1.7365371459118986,-0.2257001850027043,0.9564544140996908,-0.1430503855434855,0.3208739763721018,0.198492482567901,-0.234830215016446,-0.0917366513025486,10.095577097628848,-0.9647046795311894,0.3281075930241569,-0.757427672190452
1.9,0.2723128810370424,-0.4902840242399204,1.7324666991379465,0.0757423520721141,0.1177514127947952,0.0576335029881252,-0.1758236860833172,0.9331275612494933,-0.1305522569217539,0.273628549992834,-0.5094608179909781,1.73369919471559,-0.2311598333734471,0.9688301406505084,-0.1438189360288581,0.5490131052121227,0.1774321231769043,-0.4831565018008632,-0.1910314794141152,9.902713358738763,-0.9638020086098152,0.317889449920917,-0.7627543822392489
1.92,0.2690027158003512,-0.4726812881184993,1.729937656345648,0.0862885627601632,0.1160602331121832,0.0581287376486084,-0.1728591937926504,0.9207378806612716,-0.1354543239283508,0.269005353325365,-0.4900842151779679,1.7308228159950128,-0.2366194817441899,0.981205867201326,-0.1445874865142306,0.6825002940599025,0.1482246145333376,-0.619484029411077,-0.2451033503298408,9.902713358738763,-0.9622959539255372,0.3081911191607874,-0.7689012401835583
1.94,0.2655746565759345,-0.4544238710926029,1.7271672980371096,0.0949687390606256,0.1143168884045262,0.0584437102088947,-0.1701699616756918,0.905976454403026,-0.141331816854892,0.264382156657896,-0.4707076123649577,1.7279464372744358,-0.2420791301149327,0.9935815937521434,-0.1453560369996032,0.8057242047655803,0.1344616058479297,-0.7380713129122862,-0.2938746463270636,9.85408826132516,-0.9604254507654072,0.299445450093873,-0.7753205557279714
1.96,0.2621954065500326,-0.4364750205283311,1.7242759802204444,0.1013506076985778,0.112739017064067,0.0585808728105858,-0.1679521167694831,0.8901232473901542,-0.1474769232329426,0.2596224687811586,-0.4510216163881771,1.7250508447917243,-0.2475387784856755,1.0059573203029608,-0.1461245874849757,0.8573291973018871,0.1108922453104357,-0.792660350643587,-0.3072553189025273,9.83338742768956,-0.9582484715184756,0.291790363081267,-0.7818218198497077
1.98,0.2588568495585784,-0.4188497352635931,1.721262908605702,0.1058461869949708,0.1114488108006809,0.0585903968854139,-0.1660284789640337,0.8736191173435095,-0.1534971204443495,0.2547262896951525,-0.4310262272476261,1.7221360385468785,-0.2529984268564183,1.0183330468537783,-0.1468931379703482,0.8836422713227157,0.0961818902724689,-0.8252065023322375,-0.3010098605703434,9.836088240030222,-0.9561620383609531,0.285456828682232,-0.7878522418568952
2.0,0.2557206391078453,-0.4024152439672089,1.718292060162938,0.1086552328561354,0.1104791159341477,0.0585070413361011,-0.1642098762743127,0.8575061451851871,-0.1588997237923866,0.2505554256103767,-0.3751687793964176,1.7135880525834843,-0.1971447056520611,0.8393688616693857,-0.1585238679169337,0.8545807604523934,0.0909301344860502,-0.8056486079161207,-0.2701301674018594,9.855285978716893,-0.953853071658298,0.2797403415990273,-0.7940480703883774
2.02,0.2524692464848716,-0.3852892828232538,1.7150631231604498,0.115349028826805,0.1089249009257461,0.0586012261552441,-0.1608804408277502,0.8534756729194795,-0.164014566800764,0.2505554256103767,-0.3751687793964176,1.7135880525834843,-0.1971447056520611,0.8393688616693857,-0.1585238679169337,0.3656893014493744,0.1664717723281292,-0.2015236132853815,-0.2557421504188681,9.8837182296038,-0.9557790455353152,0.2740284124270025,-0.7945485250940122
2.04,0.2492931515475681,-0.3683662678937941,1.7117143088514375,0.1258623478442973,0.1058641846949252,0.0587385149691786,-0.1569697340308992,0.8384365443442362,-0.1706932893226855,0.2505554256103767,-0.3751687793964176,1.7135880525834843,-0.1971447056520611,0.8393688616693857,-0.1585238679169337,0.8456866300209196,0.1955353398425494,-0.7519564287621627,-0.3339361260960738,9.825470310416677,-0.9545156473432638,0.263124933676667,-0.800648590979471
2.06,0.246191429832773,-0.3518137158395946,1.7082208518787187,0.1361908382178035,0.1012424292633241,0.05859145776545,-0.153564651322053,0.8176012217594091,-0.1783255480991078,0.2485839785538561,-0.3667750907797237,1.712002813904315,-0.2033679509896666,0.832518810534561,-0.1595292174114506,1.122448918100692,0.1702541354423103,-1.041766129241356,-0.3816129388211145,9.806335748847232,-0.9540801597373806,0.2518690321835038,-0.8061776768109016
2.08,0.2432928468382774,-0.3365121048226029,1.704757038791895,0.1445615357962493,0.0956961009492008,0.0581149434939088,-0.1520031702535802,0.7944449481935953,-0.1858763421898311,0.2446410844408149,-0.349987713546336,1.7088323365459763,-0.2158144416648776,0.8188187082649114,-0.1615399164004843,1.2203131974850807,0.0780740534236393,-1.1578136782906867,-0.3775397045361645,9.813837464184871,-0.9541058152997708,0.2398223076458591,-0.8120075764183694
2.1,0.2402503411029484,-0.3209001352087919,1.7009574633037083,0.1515425745297318,0.0893874511273182,0.0573389450972407,-0.1525516387999585,0.7681908176989323,-0.1936388985208645,0.2406981903277736,-0.3332003363129483,1.7056618591876376,-0.2282609323400885,0.805118605995262,-0.1635506153895179,1.3691580136799686,-0.0274234273189163,-1.3127065247331535,-0.3881278165516699,9.813837464184871,-0.955376279520445,0.2282698066439703,-0.817022473816889
2.12,0.2371755105631301,-0.3058307337213755,1.6970080714079954,0.156635987156873,0.0832190936536741,0.0563861446946392,-0.1550701119749612,0.7403541080288011,-0.2008402500618182,0.2361329716809719,-0.3170979641930431,1.7023908468798472,-0.2407074230152995,0.7914185037256125,-0.1655613143785516,1.4431602270787365,-0.1259236587501364,-1.3918354835065594,-0.3600675770476846,9.849807307952688,-0.9571572188284996,0.2175546985479915,-0.8217285279470926
2.14,0.2340312760639958,-0.2913309375132608,1.6929236023529843,0.1598858190137519,0.0776758325130452,0.0553547668896969,-0.1593629448637519,0.7114920397079475,-0.2071855382896651,0.2315677530341701,-0.3009955920731378,1.6991198345720568,-0.2531539136905104,0.7777184014559629,-0.1675720133675853,1.493075755498658,-0.2146416444395324,-1.4431034160426792,-0.3172644113923456,9.96752372856281,-0.9590049194723964,0.2085174599868733,-0.8259742086406032
2.16,0.2307813027158074,-0.2774192775709089,1.6887215099155763,0.1613770043820813,0.0732726793009409,0.0543529634025316,-0.16553993664973,0.6815378874437222,-0.2126567371153356,0.2266913721204881,-0.2852357225099738,1.695798554789541,-0.2656004043657214,0.7640182991863135,-0.1695827123566191,1.5534964451057267,-0.3088495892989068,-1.4977076132112632,-0.2735599412835285,9.96752372856281,-0.9601112356800756,0.1996238709087194,-0.8317827289845676
2.18,0.2275632286710883,-0.2647694689227433,1.6846361079688554,0.1608907805343065,0.0707383458583647,0.0535206358881139,-0.1729541694349733,0.6518630968724057,-0.2170748464070745,0.2215038289399258,-0.2698183555035511,1.692427007532299,-0.2780468950409323,0.7503181969166639,-0.1715934113456527,1.5452214509246085,-0.370711639262164,-1.483739528565825,-0.2209054645869457,10.038900868304154,-0.9598080344736712,0.1915334150834698,-0.8396738413039386
2.2,0.2240170264448238,-0.2520676132642689,1.680253769999484,0.157969506541508,0.0702247968887748,0.0528175346923637,-0.1810406276673376,0.6203234859323842,-0.220814086128536,0.2189155201993396,-0.2321763140791229,1.6737823656485018,-0.184269877483615,0.6010476971362397,-0.1912449221365639,1.6386883311708906,-0.404322911618217,-1.5769805470010778,-0.1869619860730711,10.113398971162496,-0.9593178672393357,0.1854892156453333,-0.8478028383725555
2.22,0.2202764110606499,-0.2399385470290143,1.6758333887261918,0.1543497576326532,0.0728421499036546,0.0525535375190833,-0.1922080737256534,0.594018065290295,-0.2209318936675996,0.2189155201993396,-0.2321763140791229,1.6737823656485018,-0.184269877483615,0.6010476971362397,-0.1912449221365639,1.428898951324851,-0.5583723029157869,-1.3152710321044592,-0.0058903769531812,10.173580537122689,-0.9572462623991864,0.1821738050510275,-0.8555598924476158
2.24,0.2165478843046068,-0.2289082197354961,1.6716555215276443,0.1513711632955938,0.0784272011188781,0.0527982409193066,-0.1992854240147374,0.5684907366926696,-0.2188486652598915,0.2189155201993396,-0.2321763140791229,1.6737823656485018,-0.184269877483615,0.6010476971362397,-0.1912449221365639,1.3286019278213324,-0.3538675144542036,-1.2763664298812705,0.1041614203854041,10.369833657547131,-0.9534809046946842,0.1778583478034709,-0.8664546716479451
2.26,0.2125199032542628,-0.2178206611747122,1.6673169639581895,0.1482703648497483,0.0858690196814439,0.053268401453224,-0.202789753952862,0.5417491602652139,-0.2150472719446917,0.2170728214245035,-0.2261658371077606,1.6718699164271362,-0.1865330190933433,0.5908846171890065,-0.1860789372824617,1.3618395915796533,-0.1752164969062261,-1.3370788213727836,0.1900696657599926,10.481095741274656,-0.94756301099798,0.1743507543216283,-0.8785994671526268
2.28,0.2084612433389405,-0.20726454079178,1.663068919616402,0.1450393662704494,0.0936178851415926,0.053742547706769,-0.2026601616005894,0.5153743068408172,-0.2098962195773664,0.2133874238748312,-0.2141448831650357,1.6680450179844049,-0.1910593023128,0.5705584572945401,-0.1757469675742575,1.343673163223767,0.0064796176136305,-1.3187426712198358,0.2575526183662621,10.574158041992632,-0.9411562394919376,0.1718576735142623,-0.889967571213339
2.3000000000000003,0.2046390380441916,-0.1977200463491805,1.6591404154413,0.1417675412308482,0.100345633745174,0.0540550714278658,-0.1996328351913167,0.4908338002391421,-0.2038955232273832,0.2097020263251589,-0.2021239292223109,1.6642201195416737,-0.1955855855322567,0.5502322974000737,-0.1654149978660532,1.2722121738725805,0.1513663204636334,-1.227025330083753,0.3000348174991604,10.727406510958645,-0.9345178984035892,0.1703517152660208,-0.9005779249477566
2.32,0.2007011103607962,-0.1881675192243145,1.655137828871753,0.1381760077769668,0.1061697374919882,0.0541637764872681,-0.1942647224617763,0.4658651102300031,-0.1966390823273302,0.2057903146145137,-0.1911192832743095,1.6609118195843526,-0.2001118687517133,0.5299061375056073,-0.1550830281578489,1.327505225588107,0.268405636477019,-1.248434500456949,0.3628220450026503,10.727406510958645,-0.9287984033722854,0.1698610628512463,-0.9091367420230276
2.34,0.1968898427757823,-0.179107160264554,1.6512908453735518,0.1344655031289539,0.1103200647887625,0.0540053610215091,-0.1872437930516762,0.4416073228615121,-0.1884218011011597,0.2018786029038686,-0.180114637326308,1.6576035196270316,-0.20463815197117,0.5095799776111409,-0.1447510584496447,1.3278341467842527,0.3510464705050051,-1.2128893684245523,0.4108640613085232,10.792799234252016,-0.9247167773978994,0.1701733660579802,-0.9150785221404676
2.36,0.1934073972290334,-0.1709448968832808,1.6477960024938976,0.1307570334999163,0.1126300341446002,0.053603284052622,-0.179823798871655,0.4190170143604402,-0.1798484474904861,0.197853734112737,-0.1696181453756682,1.6545535189124156,-0.2091644351906267,0.4892538177166745,-0.1344190887414404,1.2638045180513489,0.3709997090010616,-1.1295154250535957,0.42866768053368,10.853486558043189,-0.9217541779497432,0.1711861959295035,-0.9193111722158676
2.38,0.1898951311044421,-0.1628074204509062,1.6443017995099842,0.1266594157993984,0.1134596146831111,0.0529447043666975,-0.1719143004388389,0.3961057748967426,-0.1699651612102109,0.1937157082411191,-0.15962980742239,1.6517618174405049,-0.2136907184100833,0.4689276578222081,-0.1240871190332361,1.3087822650459198,0.3954749216408038,-1.1455619731848805,0.4941643140137619,10.907202673472057,-0.920619467295361,0.172864759103761,-0.9211979890370614
2.4,0.1865399638609417,-0.1551194657750587,1.6410137588620843,0.1224042100203191,0.112795557527088,0.0520815468183075,-0.1640848514537036,0.3740271250217598,-0.159277730130324,0.1812994160825002,-0.143002131706069,1.6358035414494736,-0.1668857811250564,0.3825753351995365,-0.1486118996649104,1.2874278958452845,0.3914724492567634,-1.1039324937491406,0.534371553994345,10.959734486846171,-0.921451784207536,0.1751146731642023,-0.9207247299275838
2.42,0.1832866805405379,-0.147930550299504,1.63782912293876,0.1155048817014904,0.1120556518202383,0.0510270294574023,-0.1616101571400287,0.3479510573175666,-0.1594741529931556,0.1812994160825002,-0.143002131706069,1.6358035414494736,-0.1668857811250564,0.3825753351995365,-0.1486118996649104,1.309698439337129,0.1237347156837445,-1.303803385209659,-0.0098211431415778,11.00174047393557,-0.9150506132101944,0.1784682562349426,-0.9265744459920058
2.44,0.1802441821762096,-0.1415143145960789,1.6348197842966574,0.1069914930878992,0.1123023128602179,0.0500071663362268,-0.158700408203948,0.3292053113760551,-0.1572172716667075,0.1812994160825002,-0.143002131706069,1.6358035414494736,-0.1668857811250564,0.3825753351995365,-0.1486118996649104,0.9552004280468946,0.1454874468040365,-0.9372872970755758,0.1128440663224025,10.515135591917897,-0.9149069744851972,0.1822786763205152,-0.9290479263488008
2.46,0.1771103178731545,-0.1351020920007322,1.631723313461203,0.0979562300025493,0.113030767120483,0.048984501436564,-0.1547792772444048,0.3131960681083384,-0.1524511610002073,0.1796305582712496,-0.1391763783540737,1.6343174224528243,-0.1658800772622999,0.3798692472600953,-0.1443412473558503,0.8578854074002921,0.1960565479771608,-0.8004621633858316,0.2383055333250117,10.515135591917897,-0.9146498281790728,0.1875499512560403,-0.9301757043689818
2.48,0.17406363910152,-0.128982082890056,1.6287440023895223,0.0896091916618869,0.1138583336948844,0.0480237646007908,-0.1500746275890702,0.2996380475520545,-0.1457355927913063,0.1762928426487485,-0.1315248716500829,1.631345184459526,-0.163868669536787,0.374457071381213,-0.1357999427377301,0.7922318255290844,0.2352324827667298,-0.6779010278141956,0.3357784104450478,10.636309596060528,-0.9146260318888038,0.1930424364538585,-0.9300086188473664
2.5,0.1711173151206853,-0.1231134117900124,1.6259130508915132,0.0821693330333842,0.1145178051483924,0.047116150512898,-0.1448113740558532,0.2878838566309969,-0.1377070522582481,0.1729551270262473,-0.1238733649460922,1.628372946466228,-0.161857261811274,0.3690448955023305,-0.1272586381196099,0.7588153679495314,0.2631626766608497,-0.5877095460528808,0.4014270266529104,10.73141259300337,-0.91492804744731,0.1989256315961924,-0.9286684905366626
2.52,0.1684192177305235,-0.1177415187462248,1.6233816949780595,0.0759716302584161,0.1148377882281773,0.0462959668027368,-0.1394993289081898,0.2781093982115026,-0.1291614505447733,0.1697179817900219,-0.1164924670360456,1.6258277737038358,-0.159845854085761,0.3636327196234481,-0.1187173335014897,0.701400687358126,0.2656022573831712,-0.4887229209747157,0.4272800856737382,10.80008121373885,-0.9157618984519144,0.2046872439139705,-0.9261568084356984
2.54,0.1656885435879312,-0.1122754653887139,1.6208961855310966,0.0703133499136055,0.1147887831251713,0.0454730683874486,-0.1338863934661518,0.2690011332872678,-0.1198298603753292,0.1664808365537964,-0.109111569125999,1.6232826009414436,-0.157834446360248,0.3582205437445657,-0.1101760288833695,0.7098311582640574,0.2806467721019001,-0.4554132462117388,0.4665795084722042,10.850136945905431,-0.9170029012005796,0.2102129646284293,-0.9227274855204664
2.56,0.1630690173851413,-0.1069810597716985,1.6185992217892582,0.0654517765897086,0.1143398435666997,0.0446893310253595,-0.1283991174765237,0.2608846125877735,-0.1103266863743462,0.1632939765107087,-0.1018659756129244,1.6209509607945043,-0.155823038634735,0.3528083678656833,-0.1016347242652493,0.6824558999390172,0.2743637994814057,-0.4058260349747156,0.4751587000491539,10.862721023548149,-0.9187295239205452,0.2153334273337314,-0.9185943847980216
2.58,0.1605564548641445,-0.1018397048664365,1.6164939719527502,0.0612890333145083,0.1135254301455076,0.0439436946141924,-0.1231918044020549,0.2536418478426794,-0.10066318142946,0.1601574016607589,-0.0947556864968219,1.618832853263018,-0.1538116309092221,0.3473961919868009,-0.0930934196471292,0.6575657351705444,0.2603656537234364,-0.3621382372547055,0.4831752472443107,10.867837464008517,-0.921255544251443,0.2202437480272699,-0.9133350845947824
2.6,0.1581439797223551,-0.0968346942295938,1.6145838389288485,0.0577646068849837,0.1124102992849017,0.0432383661704939,-0.1183886266888722,0.2471612990339072,-0.090822066302442,0.1543968646440418,-0.0891576124743026,1.6114608128812773,-0.1232660818520944,0.2454139640045622,-0.0821445323878073,0.6362302569638477,0.2401588856591342,-0.3240274404386067,0.4920557563508954,10.867837464008517,-0.9246742511784782,0.2249110288212511,-0.90685319967231
2.62,0.1559358258538122,-0.0921703845017573,1.6129136078797777,0.0556124327704995,0.1109975916924079,0.0426442925164274,-0.1143325841582042,0.2436396241540483,-0.0855096743004052,0.1543968646440418,-0.0891576124743026,1.6114608128812773,-0.1232660818520944,0.2454139640045622,-0.0821445323878073,0.3777405980078198,0.2028021265333995,-0.1760837439929441,0.2656196001018441,10.869156531860426,-0.9279348873671244,0.2294331992343695,-0.89967893753902
2.64,0.1536903191760697,-0.0873451037119593,1.6112650161833524,0.0545500339038971,0.1090417801225495,0.0420874586080158,-0.1105034275199565,0.239007250059047,-0.0795784830379085,0.1543968646440418,-0.0891576124743026,1.6114608128812773,-0.1232660818520944,0.2454139640045622,-0.0821445323878073,0.4221977028259198,0.1914578319123859,-0.2316187047500695,0.2965595631248339,10.586415570713145,-0.9311367359590972,0.2312581543286662,-0.8947736106485857
