t,x,y,z,roll,pitch,yaw,v_x,v_y,v_z,ref_x,ref_y,ref_z,ref_v_x,ref_v_y,ref_v_z,a_com,a_x,a_y,a_z,thrust,wind_x,wind_y,wind_z
0.0,-1.4359358466066985,1.3139684211899525,2.0189667881363165,0.0316392471638326,0.100199742626733,0.0430696156234134,0.0038333201010518,0.0045864274697827,0.0154430798727096,-1.4358239857890391,1.3141593475915865,2.0194365829455303,0.0412270087103966,-0.0941011298220399,-0.0843963939370569,0.8279770164195327,0.1916660050525939,0.2293213734891387,0.7721539936354826,10.237539853573251,-0.9442738783152173,0.2572440645554228,-0.8701025523803916
0.02,-1.4359649301003683,1.314263883554527,2.019067732610329,0.040054550926811,0.1026772336602657,0.0437324155965801,-0.0063199374290984,0.0213559154184815,-0.0066095703961063,-1.4358239857890391,1.3141593475915865,2.0194365829455303,0.0412270087103966,-0.0941011298220399,-0.0843963939370569,1.4753167019438749,-0.5076628765075174,0.8384743974349408,-1.1026325134408006,10.237539853573251,-0.9342196643423676,0.2576535394821188,-0.8727889313027777
0.04,-1.436161324069298,1.314682528225333,2.018666060938974,0.053499662006766,0.1089712293979906,0.0449383415698926,-0.0132240336903105,0.0213093011314043,-0.0345276986350435,-1.4358239857890391,1.3141593475915865,2.0194365829455303,0.0412270087103966,-0.0941011298220399,-0.0843963939370569,1.4379591461873875,-0.3452048130606053,-0.0023307143538641,-1.3959064119468592,8.906536807070552,-0.9183424462308918,0.2364682564592161,-0.903426979011482
0.06,-1.4364592541939225,1.3150530577292667,2.017662603428041,0.0680489711063888,0.1179783414806306,0.0464561324877642,-0.0157361316524655,0.0154006811405663,-0.0644130270825991,-1.4354117157019353,1.313218336293366,2.01859261900616,0.0487213622133854,-0.1141011301200632,-0.1043963942350801,1.528361281557691,-0.1256048981077472,-0.2954309995418963,-1.4942664223777788,8.700718534015323,-0.9006538695717998,0.2133018953920532,-0.936115203255262
0.08,-1.4367646509195355,1.3152693519359728,2.016067227762397,0.0820881471887864,0.1279989054728156,0.0481252006127028,-0.0143135183814911,0.0062298970982936,-0.0937350479193869,-1.4345871755277273,1.3113363136969254,2.0169046911274187,0.063710069219363,-0.1541011307161096,-0.1443963948311266,1.5377808803774469,0.0711306635487161,-0.4585392021136366,-1.4661010418393898,8.700718534015323,-0.8820746007980157,0.1916033574341381,-0.9663243875368904
0.1,-1.4369967178548897,1.3152790794982865,2.0140148644946625,0.0948273745803881,0.1377253883916055,0.0497963403212692,-0.0099146427546607,-0.0049908819539182,-0.1209369293177125,-1.433762635353519,1.3094542911004845,2.0152167632486773,0.0786987762253406,-0.1941011313121561,-0.184396395427173,1.4876141476601492,0.2199437813415201,-0.5610389526105929,-1.3600940699162816,8.854419323656657,-0.8632075345015661,0.1711728523291112,-0.9946077124355724
0.12,-1.4371161278029498,1.3150337418864826,2.0112983777052538,0.1076046972643649,0.1475898900844583,0.051580984080353,-0.0019949268619373,-0.0192288518983627,-0.1493459932287046,-1.4321886598290126,1.3055722684742417,2.0115288353401337,0.0936874832313183,-0.2341011319082025,-0.2243963960232195,1.6374649616550552,0.3959857946361713,-0.7118984972222259,-1.4204531955496065,8.854419323656657,-0.8429518811505418,0.1498210633421742,-1.0233182132090914
0.14,-1.4370435379532134,1.3144791461864866,2.008009864437461,0.1197456038750107,0.1564381993260177,0.0532998710264712,0.0090257504808933,-0.0357759603030979,-0.1781774136690899,-1.4306146843045058,1.3016902458479982,2.00784090743159,0.1086761902372959,-0.274101132504249,-0.264396396619266,1.7510803310121916,0.5510338671415375,-0.8273554202367615,-1.4415710220192626,8.917433534399606,-0.823437503286837,0.1296588854492579,-1.0490861064668229
0.16,-1.4367195238816717,1.31357018006585,2.0041434543755043,0.1312596733265187,0.1636706822477169,0.0548418067933307,0.0228125811809281,-0.0545411624960512,-0.2071227727500143,-1.4286659911048494,1.2968082232068538,2.0031529795081457,0.1236648972432735,-0.3141011331002954,-0.3043963972153124,1.857446719570638,0.689341535001737,-0.9382601096476632,-1.447267954046219,8.94533337116809,-0.8065338553909187,0.1115985189163038,-1.070422249794744
0.18,-1.4361368551305678,1.3123384723425735,1.99993490786748,0.1416268528920706,0.1687396911522819,0.0560576429638703,0.0377531285520872,-0.074383240154161,-0.2345136080074267,-1.4263425802300438,1.2909262005508084,1.9974650515698,0.1386536042492512,-0.3541011336963419,-0.3443963978113588,1.848773821779599,0.7470273685579566,-0.99210388290549,-1.3695417628706212,9.044678052021482,-0.790032075006963,0.092731720091208,-1.091200153035367
0.2,-1.4352057307160662,1.3106135003567287,1.994941988754079,0.1519537029855086,0.1721424589850681,0.0570210756724779,0.0545205692475408,-0.0973050435960953,-0.2633832270273571,-1.4342491987029633,1.3086193103348658,1.9882092274671088,0.0731442916330179,-0.1743832416442771,-0.3345136094975428,2.0248524902212965,0.8383720347726806,-1.146090172096715,-1.4434809509965216,9.044678052021482,-0.7761440186760368,0.0748207310151738,-1.1087724254111264
0.22,-1.433869270057375,1.308257441721837,1.9894806064654948,0.157347471288747,0.172607855929333,0.0571550970696949,0.0783616612888933,-0.1353165783096445,-0.2803369194726947,-1.4342491987029633,1.3086193103348658,1.9882092274671088,0.0731442916330179,-0.1743832416442771,-0.3345136094975428,2.3982817435273804,1.192054602067622,-1.900576735677463,-0.8476846222668755,9.086668496672246,-0.771731236519217,0.059070711856977,-1.1217722836217008
0.24,-1.432050441556461,1.3052035981626595,1.9837067698079076,0.1571240060634514,0.1688424333266784,0.0561790638179847,0.1017705852498831,-0.1675870916833187,-0.296149227867943,-1.4342491987029633,1.3086193103348658,1.9882092274671088,0.0731442916330179,-0.1743832416442771,-0.3345136094975428,2.1444071740217208,1.17044619804949,-1.6135256686837087,-0.7906154197624193,9.982239083848071,-0.7690304306172495,0.0556323185706344,-1.1267135019985752
0.26,-1.4299223933450629,1.30172650927401,1.9779162828495545,0.1539858116432898,0.1621877806197499,0.0545382048164162,0.1205810397793425,-0.1962861347505966,-0.3124554357992996,-1.4335177557866332,1.306875477918423,1.9848640913721327,0.0802225242492041,-0.1943832419423003,-0.354513609795566,1.8995793545433743,0.940522726472974,-1.4349521533638945,-0.8153103965678282,9.79120709106246,-0.7704385616044555,0.0553240369180616,-1.128801724426017
0.28,-1.4273404141115895,1.2975189663676057,1.9714763644661364,0.149146934413035,0.1533552167146747,0.0524311336681222,0.1362031995363372,-0.2226413155611488,-0.3306844536907011,-1.4320548699539728,1.3033878130855374,1.9781738191821825,0.0943789894815764,-0.2343832425383468,-0.3945136103916125,1.782515444754264,0.7811079878497301,-1.3177590405276094,-0.911450894570076,9.79120709106246,-0.7755808756304478,0.0570429388879607,-1.127969220345211
0.3,-1.4244880227831116,1.2928107346716715,1.964658305027772,0.1441189062430441,0.1438307818163892,0.0502372126539834,0.1479313356682616,-0.2467517244602663,-0.350249133236658,-1.4305919841213124,1.299900148252652,1.9714835469922316,0.1085354547139486,-0.2743832431343933,-0.4345136109876589,1.6595463839160849,0.5864068065962236,-1.2055204449558763,-0.9782339772978432,9.676632992358464,-0.7819572464567086,0.0587057212353867,-1.126574052436891
0.32,-1.4214390110226995,1.2876367548664738,1.9574325691477676,0.139397486440052,0.1345451389822169,0.0481329524387523,0.156201359730195,-0.2694234186317122,-0.3713253770893822,-1.4284212750270335,1.2944124833899642,1.9627932747724783,0.1226919199463209,-0.3143832437304397,-0.4745136115837053,1.60203547832751,0.4135012030966681,-1.1335847085722923,-1.053812192636208,9.574564296513016,-0.7883495622199932,0.0597639967622968,-1.125291106729374
0.34,-1.4184163993877683,1.2823110436257716,1.9501700682297136,0.1353522272059243,0.1265367609054781,0.0463049508650919,0.1614758502297109,-0.2900642873900937,-0.3920908549508767,-1.4262505659327545,1.2889248185272764,1.954103002552725,0.1368483851786932,-0.3543832443264862,-0.5145136121797519,1.487506961283234,0.2637245249757974,-1.032043437919075,-1.038273893074726,9.480522371607549,-0.7949393314283391,0.0601831605612731,-1.124298240147752
0.36,-1.4151462715518703,1.2762814625509318,1.9420908205012304,0.1313515666388669,0.1192833864861326,0.0445788729614669,0.1651596790835498,-0.3116812049798591,-0.4147620221855889,-1.4237259452076665,1.2824371536496872,1.9444127303180707,0.1510048504110655,-0.3943832449225326,-0.5545136127757982,1.5770570256742242,0.1841914426919416,-1.0808458794882707,-1.1335583617356093,9.430425708686926,-0.8008437628538914,0.060217181431007,-1.1239268779178897
0.38,-1.411819781763455,1.269823201617068,1.9335514276729469,0.1273373706724533,0.1133791418761393,0.0430453971400963,0.1671927022744877,-0.332894072352117,-0.4380493570750301,-1.4208474128517683,1.274949488757197,1.9337224580685155,0.1651613156434378,-0.434383245518579,-0.5945136133718447,1.578305176210294,0.1016511595468977,-1.0606433686128958,-1.1643667444720618,9.382666492033422,-0.8052574519415124,0.0598623327148048,-1.1251205995594846
0.4,-1.408470633802151,1.2629466998733985,1.924539635299928,0.123186339241023,0.1091073805664097,0.0417222364096985,0.1675586617693496,-0.3534730365453069,-0.4619418525461535,-1.4034601466497307,1.253178497999462,1.9116489598191952,0.2039085189809067,-0.4328940738422331,-0.5380493585651462,1.5767680817530876,0.018297974743095,-1.0289482096594942,-1.1946247735561717,9.349906031320645,-0.8077414952578127,0.0595848258589812,-1.1276486993093937
0.42,-1.405300256949268,1.2560378837632813,1.915711223020096,0.1197852946208173,0.1076876295767,0.0408311098735751,0.1662972002656076,-0.3730293084623174,-0.4651770015017739,-1.4034601466497307,1.253178497999462,1.9116489598191952,0.2039085189809067,-0.4328940738422331,-0.5380493585651462,0.9931078053042978,-0.0630730751871019,-0.977813595850524,-0.161757447781019,9.319681240627688,-0.8068340749931691,0.0558698222070777,-1.1361449252760745
0.44,-1.4019831230324318,1.248371266022501,1.906355137414108,0.1172987435216443,0.1098048540362907,0.040392119450612,0.165882694569312,-0.3927402626243031,-0.4706340388085122,-1.4034601466497307,1.253178497999462,1.9116489598191952,0.2039085189809067,-0.4328940738422331,-0.5380493585651462,1.0228303685305036,-0.0207252848147793,-0.985547708099288,-0.2728518653369122,10.60791265789976,-0.8063465320854153,0.0583102808447829,-1.135939722959618
0.46,-1.39864953358788,1.240307964059503,1.8968429102229103,0.1154443571060456,0.1143864461522169,0.0402678566083484,0.1678122706446624,-0.4125696740635353,-0.4804924000172022,-1.4014210614599216,1.2488495572610396,1.906268466233544,0.2112516823221905,-0.4528940741402563,-0.5580493588631694,1.1114361290442212,0.0964788037675218,-0.9914705719616084,-0.4929180604345023,10.303418973117914,-0.802146254329529,0.0592315717716503,-1.1394362836656298
0.48,-1.395252218343242,1.23185210302205,1.8870942782458024,0.1137560125871321,0.1202411477223151,0.0402806017409442,0.1720870487995181,-0.4319613685281414,-0.4938739618506918,-1.3973428910803036,1.240191675784195,1.8955074790622408,0.2259380090047581,-0.4928940747363028,-0.5980493594592159,1.197265362801172,0.2137389077427817,-0.9695847232303018,-0.6690780916744798,10.057354481624316,-0.7958367452388946,0.0594255023848055,-1.1450396863046015
0.5,-1.3919243048992578,1.2234656307609957,1.8775604837471385,0.1121968706947522,0.1261559620743214,0.0403149694370917,0.1781610215833393,-0.4498035141725546,-0.5090262037082841,-1.3932647207006854,1.2315337943073503,1.884746491890938,0.2406243356873257,-0.5328940753323492,-0.6380493600552624,1.2091585296043978,0.3036986391910592,-0.8921072822206638,-0.7576120928796143,9.87905506131301,-0.7878319270663197,0.0591412145154069,-1.1523974023532113
0.52,-1.3882783029143742,1.214279676082516,1.867192277180267,0.1106538663215814,0.1321652355673147,0.0403117223600427,0.1862547686656302,-0.4678215151702785,-0.5271103494348339,-1.388452233986939,1.2208759128007034,1.8719855046898328,0.2553106623698933,-0.5728940759283957,-0.6780493606513088,1.3390233646628056,0.4046873541145482,-0.9009000498861912,-0.9042072863274908,9.746577880399856,-0.779297352677737,0.0586192427808171,-1.1602563757708764
0.54,-1.3844528410775117,1.2047382382697005,1.8564512509309563,0.1092669359138906,0.1375491099801871,0.040229000315892,0.1959759889716202,-0.4853896306899019,-0.5461295249982435,-1.3836397472731925,1.2102180312940565,1.859224517488728,0.2699969890524609,-0.6128940765244422,-0.7180493612473553,1.3828140206298736,0.4860610152994979,-0.8784057759811725,-0.9509587781704798,9.635101722642505,-0.7708221011079428,0.0575478727994634,-1.1684702651871732
0.56,-1.380415688376858,1.1948384185246774,1.845322226736701,0.1077059429731202,0.1419482805053932,0.040006816915144,0.2072302034827289,-0.5035280037821344,-0.5658226042073039,-1.3784601023923817,1.1985601497725082,1.8454635302727207,0.2846833157350286,-0.6528940771204885,-0.7580493618434017,1.4521323040871643,0.5627107255554376,-0.9069186546116216,-0.9846539604530192,9.604294648216635,-0.763406191589863,0.0565388221119317,-1.1759874525095355
0.58,-1.3763620225379265,1.1850986291722536,1.834379116803917,0.1057519414289605,0.1450107083003543,0.0396251554242942,0.2188402546786623,-0.5205642173252896,-0.5850878068358725,-1.3729132993445068,1.185902268236059,1.8307025430418136,0.2993696424175961,-0.692894077716535,-0.7980493624394481,1.4108276763836047,0.5805025597966695,-0.8518106771577605,-0.9632601314284284,9.567399650652987,-0.7567779954808007,0.0559271345832928,-1.1831650564483782
0.6,-1.3718528502279437,1.1745044077134863,1.8224567084319867,0.1032699206852956,0.1470202610321606,0.0390493412954379,0.2314050623990922,-0.5377820245832657,-0.6061684620936035,-1.3654200098039937,1.1590704183059892,1.8051247264621235,0.2681900283538657,-0.6205642188154057,-0.6290640653223818,1.498934042844695,0.628240386021496,-0.8608903628988085,-1.0540327628865531,9.567399650652987,-0.7512815445663369,0.0557492294802367,-1.1896688523017247
0.62,-1.3670218720829852,1.1635121702958522,1.8104726513412983,0.0996649345194939,0.1474483404015827,0.0382199089120156,0.2512527935854028,-0.5601588683375941,-0.5891885711686594,-1.3654200098039937,1.1590704183059892,1.8051247264621235,0.2681900283538657,-0.6205642188154057,-0.6290640653223818,1.71971819310074,0.9923865593155292,-1.118842187716418,0.8489945462472059,9.52740322236059,-0.7514775052789858,0.0540746860090071,-1.1949775843505763
0.64,-1.3617886459954642,1.1521005289607134,1.7988653005333402,0.0951408702837648,0.1458791911832016,0.0371252539080005,0.2708712412211724,-0.5796002040688394,-0.5725719171493556,-1.3654200098039937,1.1590704183059892,1.8051247264621235,0.2681900283538657,-0.6205642188154057,-0.6290640653223818,1.611646838989292,0.9809223817884766,-0.9720667865622644,0.8308327009651895,12.070308584724444,-0.7522141775568936,0.059206743014648,-1.1935530874409794
0.66,-1.3564642208341486,1.1409217320330207,1.7880975694629913,0.0907343267643286,0.1424534779380259,0.0359040822427278,0.2884474104005744,-0.5960096482051664,-0.561655465958076,-1.3627381095204547,1.1528647761178352,1.7988340858088996,0.2780599830889063,-0.6405642191134289,-0.6378593170196837,1.3203791941122347,0.8788084589701012,-0.8204722068163528,0.5458225595639798,11.38181994876959,-0.7576450844728686,0.0657014797726125,-1.187592535462082
0.68,-1.3505182136134608,1.1288372197218242,1.776946605275144,0.0863043780414211,0.1367630072981043,0.0344674091442958,0.3047822893606198,-0.6115020088013883,-0.5541626301425341,-1.3573743089533774,1.140453491741527,1.786252804502452,0.2977998925589877,-0.6805642197094753,-0.6554498204142873,1.186364294853575,0.8167439480022687,-0.7746180298110916,0.3746417907770971,11.38181994876959,-0.7641049189601908,0.0712077671092586,-1.1819280316510288
0.7000000000000001,-1.3442827001766935,1.1164566539479568,1.765906087938908,0.0822435177083793,0.1296402498701719,0.0329649421027846,0.317592666391404,-0.6257295869732249,-0.550388442554969,-1.3520105083863,1.128042207365219,1.7736715231960043,0.317539802029069,-0.7205642203055218,-0.6730403238088911,0.9756718611458168,0.6405188515392124,-0.711378908591831,0.1887093793782546,10.861602753493573,-0.7721049797683506,0.0758416295866012,-1.175701875627102
0.72,-1.33782794090416,1.1038038281580225,1.7549038165776178,0.0786142487722466,0.1219500738545615,0.0314810115061238,0.326982318275297,-0.6388570536339616,-0.5499837298595137,-1.3456597123457188,1.1136309229591086,1.7602107167198264,0.3372797114991503,-0.7605642209015683,-0.6906308272034949,0.8072480037065922,0.4694825941946479,-0.656373333036836,0.0202356347727639,10.861602753493573,-0.7803865481061086,0.0794553342362199,-1.1696285816482035
0.74,-1.3315499586869626,1.0915483310789826,1.7444477109915,0.0755994615455332,0.1147579447065194,0.0301413379165668,0.3332334835672737,-0.6505802520996918,-0.5506575825052004,-1.3393089163051373,1.0992196385529982,1.7467499102436486,0.3570196209692317,-0.8005642214976147,-0.7082213305980986,0.6651400738991239,0.3125582645988362,-0.5861599232865111,-0.0336926322843322,10.658943854447898,-0.7890223174076022,0.0822500150972191,-1.163793921973682
0.76,-1.324835931648816,1.078406315048425,1.7334187665960752,0.0726619853795311,0.107733636312066,0.0288179426968527,0.3376715789902195,-0.6629034892797616,-0.5522212663954943,-1.3324646225278038,1.0838083541319865,1.7328493411826058,0.376759530439313,-0.8405642220936611,-0.7258118339927023,0.6595528274675797,0.221904771147291,-0.616161859003489,-0.0781841945146966,10.58755618235682,-0.797246043371499,0.0846426196792689,-1.1582652770274406
0.78,-1.3180540392696432,1.0650210489930425,1.722348391949977,0.0697074513475652,0.1015170172269815,0.027580058143109,0.3401502813282885,-0.6748642612169581,-0.5547611105678649,-1.3251268310137183,1.0673970696960735,1.7185090095366975,0.3964994399093943,-0.8805642226897076,-0.743402337387306,0.623808542411653,0.1239351169034508,-0.5980385968598234,-0.1269922086185315,10.464034750174504,-0.8045766580617011,0.0869548002110765,-1.153379087070042
0.8,-1.311243687603577,1.0514026943554795,1.7112153996250752,0.0666455820606023,0.0964108905743865,0.0264389327523624,0.3406480455457656,-0.6862015281527526,-0.5583853358144729,-1.3010465252032288,1.0312778359321946,1.6946103364215834,0.3905808138731398,-0.7748642627070742,-0.5652617642147513,0.5956433484641013,0.0248882108738524,-0.5668633467897255,-0.1812112623303996,10.464034750174504,-0.8102013211960334,0.0891371227594524,-1.1497949755163177
0.8200000000000001,-1.304764338153122,1.0382351385742576,1.7007910501676229,0.0632827318030387,0.0931288800529041,0.0254503638686986,0.341310166258151,-0.6990375749280238,-0.5374022644970465,-1.3010465252032288,1.0312778359321946,1.6946103364215834,0.3905808138731398,-0.7748642627070742,-0.5652617642147513,1.2303371312031928,0.0331060356192708,-0.6418023387635585,1.0491535658713191,10.400801664026403,-0.8150140515040795,0.089275712913364,-1.149838930911999
0.84,-1.297946236310305,1.0241364282690195,1.6902725021858909,0.059538740631876,0.0920982588317407,0.024568693475484,0.3406779123013613,-0.7100517548834767,-0.5158808443238139,-1.3010465252032288,1.0312778359321946,1.6946103364215834,0.3905808138731398,-0.7748642627070742,-0.5652617642147513,1.2092181683114545,-0.0316126978394837,-0.5507089977726476,1.0760710086616332,12.20167963724998,-0.8205323140286411,0.0953516837235737,-1.1416004781040414
0.86,-1.2911345192271315,1.009836122017747,1.6801408362075854,0.0561984618056311,0.0931977173887382,0.0238547708822724,0.3407234588176012,-0.7194236754030656,-0.4985285552879338,-1.2971407170644975,1.0235291933051238,1.688957718779436,0.4006669203821101,-0.7948642630050974,-0.5673618949441286,0.986074164927968,0.0022773258119945,-0.4685960259794453,0.8676144517940021,11.615776117601854,-0.8230148350544698,0.1006460660998736,-1.136067828659075
0.88,-1.2843116627675073,0.995361987635218,1.6703164372325776,0.0534577872331316,0.0957212805737305,0.0232697258133492,0.3417802177494836,-0.7276288084403877,-0.4847606271541774,-1.2893291007870349,1.0080319080509823,1.677652483495141,0.4208391334000506,-0.8348642636011439,-0.5715621564028831,0.803113928245158,0.052837946594117,-0.4102566518661033,0.688396406687819,11.615776117601854,-0.8231151609626114,0.1046531834479498,-1.1331658618561096
0.9,-1.27779868163083,0.9814673601738944,1.6612133306647987,0.0514462739381789,0.0988939930196565,0.0228012484558027,0.343900754187611,-0.7346796319610759,-0.4741502815432004,-1.2815174845095718,0.9925346227968408,1.666347248210846,0.4410113464179911,-0.8748642641971903,-0.5757624178616376,0.645736442152866,0.1060268219063742,-0.3525411760344099,0.5305172805488534,11.22710430677398,-0.8216590909742186,0.1078415963811841,-1.131898862114801
0.92,-1.270886886294919,0.9667039228195424,1.6518299366145062,0.0500082467116204,0.1026076538186309,0.0223797689052904,0.3473044110792957,-0.7413523594600088,-0.4648364822958657,-1.272697257581212,0.9750373375128972,1.6548319998536132,0.4611835594359317,-0.9148642647932368,-0.5799626793203921,0.5976140663734795,0.1701828445842323,-0.3336363749466442,0.4656899623667304,11.22710430677398,-0.8192670286950285,0.1100258279502559,-1.1318124719274505
0.94,-1.263893284616054,0.9518137423604732,1.6426250751433311,0.0494538461121089,0.106346513916307,0.0220280826469872,0.3519974294383073,-0.7473980426637601,-0.4561367546949725,-1.2638770306528522,0.9575400522289532,1.6433167514963805,0.4813557724538722,-0.9548642653892832,-0.5841629407791467,0.5793530164068479,0.2346509179505823,-0.3022841601875659,0.4349863800446635,11.10735806853063,-0.8164804630822998,0.1110501026234266,-1.132453453066898
0.96,-1.256790398815377,0.9367974893126068,1.6335902586502,0.0496854145753487,0.109730378703596,0.0217228219365589,0.3580901146823295,-0.7539361372383768,-0.4477841864837397,-1.254552498399044,0.9390427669301084,1.6316964966026788,0.5015279854718128,-0.9948642659853296,-0.5883632022379013,0.6116226162280449,0.3046342622011089,-0.3269047287308368,0.4176284105616407,11.078522359278397,-0.8142846069863735,0.1114238555264899,-1.1325780689198328
0.98,-1.249919306215423,0.9224059826990236,1.6251587871024336,0.0503337204601736,0.1123300234537843,0.0214416977856753,0.3648610426266601,-0.7606150786784223,-0.4401595303144358,-1.244723660819787,0.9195454816163622,1.6199712351725084,0.5217001984897532,-1.034864266581376,-0.5925634636966558,0.6094856554648693,0.3385463972165298,-0.3339470720022719,0.3812328084651928,11.06208909846373,-0.8124214907033724,0.111290704276925,-1.1325452290895162
1.0,-1.2425411967198654,0.907115581927182,1.6164365893561083,0.0512534347497196,0.1142733121702777,0.0211323722162622,0.3725762173371223,-0.7680759220285664,-0.4324767647346409,-1.23167625408409,0.8843752287651026,1.6031508105867118,0.4281200779755523,-0.8606150801685384,-0.4465126478400134,0.6599488451054889,0.385758735523109,-0.3730421675072093,0.3841382789897457,11.026119698582988,-0.8112592935881466,0.1109292574471002,-1.1320449188095074
1.02,-1.234986975683854,0.8916126578213944,1.6079831195326513,0.0505558360021386,0.1152716433866155,0.0206718643107935,0.3824603841638726,-0.7814389740941783,-0.4125915422569609,-1.23167625408409,0.8843752287651026,1.6031508105867118,0.4281200779755523,-0.8606150801685384,-0.4465126478400134,1.29584913025602,0.4942083413375153,-0.6681526032805918,0.9942611238839992,11.903612161030653,-0.812022415412388,0.1107546686278871,-1.1317401367126223
1.04,-1.227239727175919,0.8758702718844072,1.5999323537351853,0.0474764413549813,0.1154136077239189,0.020015062249252,0.3916632885416712,-0.7916880207708415,-0.3936412609059129,-1.23167625408409,0.8843752287651026,1.6031508105867118,0.4281200779755523,-0.8606150801685384,-0.4465126478400134,1.171376935545519,0.4601452188899319,-0.5124523338331632,0.9475140675523992,11.714051447354905,-0.8149193353796738,0.116056953937844,-1.125616785139783
1.06,-1.2197183802971996,0.8607620010531631,1.5926052811622522,0.0440347612726415,0.115041392059722,0.0193476249835267,0.3995387300365197,-0.7981125314615247,-0.3785519185388957,-1.2273950533043343,0.8757690779634172,1.5986856841083117,0.4407718850453307,-0.8806150804665616,-0.4477832713451289,0.9096498906482424,0.3937720747424239,-0.3212255345341586,0.75446711835086,11.714051447354905,-0.8179460152739838,0.1221083905375413,-1.1193473429906584
1.08,-1.211648867726232,0.8447491095139945,1.5851784358199783,0.0409126821389906,0.1143572540931228,0.0186868829238361,0.4069385176170739,-0.8029326657001038,-0.3650320320794645,-1.2188326517448234,0.8585567763600463,1.5897554311515114,0.4660754991848876,-0.920615081062608,-0.4503245183553599,0.8074309261341752,0.3699893790277075,-0.2410067119289538,0.6759943229715598,11.508822218788737,-0.8206753158480339,0.1272527888448285,-1.1138746730493256
1.1,-1.203439744584287,0.8286510652638602,1.5779981120528834,0.0386430877505667,0.1135861899722139,0.0181019999458783,0.4135648186834151,-0.806784702285525,-0.3537672129839672,-1.2102702501853124,0.8413444747566756,1.5808251781947111,0.4913791133244445,-0.9606150816586544,-0.4528657653655909,0.6812528916112951,0.3313150533170605,-0.1926018292710607,0.5632409547748685,11.344743539641058,-0.8231241837453115,0.131195684764507,-1.1091226652722028
1.12,-1.1951053323695535,0.8124850018981109,1.5710220197360418,0.0373770937097605,0.1128848446047024,0.0176080683971898,0.4195443912708858,-0.8098201765925104,-0.3443941201464798,-1.2004426679188236,0.8221321731235025,1.5717678628873992,0.5166827274640015,-1.0006150822547009,-0.4554070123758219,0.5762470432404757,0.2989786293735336,-0.1517737153492682,0.4686546418743692,11.200356757743066,-0.8251677225745473,0.1336819683254113,-1.105316382249754
1.14,-1.1870809263987154,0.7970779419753942,1.5645604005522489,0.0373363843090814,0.1123771539463209,0.0172403251351749,0.4248437722693264,-0.8120074620308525,-0.3362415044800342,-1.1906150856523343,0.8029198714903294,1.562710547580087,0.5419863416035583,-1.0406150828507474,-0.4579482593860529,0.4983292053457027,0.2649690499220342,-0.1093642719171061,0.4076307833222797,11.087908806507585,-0.8269752566858691,0.1347383832706703,-1.1021303392934714
1.16,-1.1785251640002363,0.7808089562131415,1.5579213570693502,0.038513386878335,0.1119824419293656,0.0169558518436446,0.4304499417147086,-0.8148603986337426,-0.3281079465727158,-1.1801549130323568,0.7827075698422551,1.5535897010975197,0.5672899557431151,-1.0806150834467938,-0.460489506396284,0.5141088098402586,0.2803084722691057,-0.1426468301445049,0.4066778953659172,11.038119302399537,-0.8285592938571569,0.1343966695377064,-1.0994131504910756
1.18,-1.169856709220917,0.7644745810587436,1.5514409106411151,0.0406692538440526,0.1116095646255898,0.0167506023646779,0.4361007407389587,-0.8185156683473336,-0.3203546797337007,-1.16906215005889,0.7614952681792797,1.5444053234396964,0.592593569882672,-1.1206150840428402,-0.463030753406515,0.5133363248605471,0.2825399512125071,-0.182763485679549,0.3876633419507558,11.007426198467329,-0.8300677778332761,0.1330681569367967,-1.0968712873264244
1.2,-1.1610750255647686,0.7480495929554538,1.5451117691575682,0.0432831587671083,0.1111611341884226,0.016582351115818,0.4417532784376514,-0.823919504921151,-0.3129439674278295,-1.1480516721839686,0.7235487976413769,1.5354231766544302,0.4995721474371856,-0.9185156698374496,-0.3038354722263288,0.5386819308090344,0.2826268849346364,-0.2701918286908689,0.3705356152935601,10.963067492956723,-0.8314575279113888,0.1312828575915225,-1.0946736603121523
1.22,-1.1525903005405205,0.732268220938481,1.539378152924484,0.0437105464203831,0.109954575729266,0.016253359955265,0.451164386341395,-0.8364801760949144,-0.2900697687822795,-1.1480516721839686,0.7235487976413769,1.5354231766544302,0.4995721474371856,-0.9185156698374496,-0.3038354722263288,1.3870547717983228,0.4705553951871777,-0.6280335586881736,1.1437099322775006,12.162243827598104,-0.836593171927173,0.1293555001653011,-1.0915681318423285
1.24,-1.1434711592869424,0.7154277491621756,1.5338336672225787,0.0409800439541394,0.1071278089668001,0.015637357405929,0.4600487616310263,-0.8465737276795684,-0.2657398136862538,-1.1480516721839686,0.7235487976413769,1.5354231766544302,0.4995721474371856,-0.9185156698374496,-0.3038354722263288,1.3899268171865284,0.4442187644815659,-0.5046775792326985,1.216497754801285,12.162243827598104,-0.8438516887651547,0.1352976842801577,-1.0806859330766514
1.26,-1.1341952894691416,0.6984300922511104,1.528745903229222,0.0369624417664108,0.1031458478144201,0.0149191974832856,0.4668961077742668,-0.8524278102676431,-0.2443604617986611,-1.1430559507095968,0.7143636409430024,1.532384821932167,0.512266428776831,-0.9385156701354728,-0.3005316307248544,1.1599925854147335,0.3423673071620253,-0.2927041294037369,1.0689675943796342,12.00160843519734,-0.851748072597447,0.1424548931135361,-1.0691572458661536
1.28,-1.1248088068414457,0.6813498988361589,1.5240510834847785,0.033348494378488,0.0985639956668666,0.0142481118582762,0.4712488156594177,-0.855480506936247,-0.226157985621032,-1.1330645077608532,0.6959933275462534,1.5263081124876403,0.5376549914561218,-0.9785156707315192,-0.2939239477219057,0.9481497269433709,0.2176353942575426,-0.152634833430193,0.9101238088814564,11.56363185990449,-0.8584798152726756,0.1481353911587308,-1.0598325717262809
1.3,-1.1158364550110251,0.6650815853066808,1.5199035761490185,0.0308279010179419,0.0943225274486924,0.0137130625223316,0.4728705049672467,-0.8570947512878881,-0.2113172384824029,-1.1230730648121094,0.6776230141495044,1.5202314030431137,0.5630435541354126,-1.0185156713275658,-0.2873162647189569,0.750805295450589,0.0810844653914538,-0.0807122175820573,0.742037356931452,11.56363185990449,-0.8649671983396899,0.1527174992272918,-1.0511457816128869
1.32,-1.106384652938778,0.6479316750206248,1.5158240261148836,0.0293171404550083,0.0907987454235087,0.0132878571387577,0.4720598841330617,-0.8579741556078643,-0.1974942155972963,-1.1118121937294012,0.657252700722953,1.5144850777487344,0.5884321168147034,-1.0585156719236122,-0.2807085817160081,0.6937334138143196,-0.0405310417092519,-0.0439702159988064,0.6911511442553294,11.395865594256064,-0.870163977252357,0.1556287735570852,-1.0443035926410726
1.34,-1.0969732017661316,0.630773198543248,1.5120094949286178,0.0292940212240787,0.0891458482314866,0.0130426008735278,0.4692526376886125,-0.8580841025483503,-0.1846326584025146,-1.100551322646693,0.6368823872964018,1.5087387524543554,0.6138206794939942,-1.0985156725196588,-0.2741008987130594,0.6582407887776266,-0.1403623222224592,-0.0054973470243024,0.643077859739087,11.281490131303144,-0.8740946575260594,0.1568205041180553,-1.038947137164058
1.36,-1.0876141761920255,0.6136055720964994,1.508448446783169,0.0307117822891101,0.0894441061778372,0.0129707269417409,0.4670130370494105,-0.8588042659795185,-0.1721015117146856,-1.0886557374970025,0.6155120738549493,1.50315761923505,0.6392092421732849,-1.1385156731157051,-0.2674932157101106,0.6375031052916406,-0.1119800319600988,-0.0360081715584104,0.6265573343914504,11.228500581463775,-0.8765597311414561,0.1567378995216213,-1.0349374887691616
1.38,-1.0787534154240412,0.5972745298712577,1.5052976219292262,0.0331265182137497,0.0909510841822819,0.0130287712453249,0.4659621417304765,-0.8603979244711816,-0.1601864761127121,-1.0761254382803296,0.5931417603985957,1.4977416780908182,0.6645978048525757,-1.1785156737117517,-0.2608855327071619,0.6033494048967472,-0.0525447659467021,-0.079682924583152,0.5957517800986758,11.197727307537209,-0.8774822085823749,0.155626496377208,-1.0323010371244616
1.4,-1.0694346302051374,0.5800297368893851,1.5022272837140531,0.0361200636278199,0.0932809245402145,0.0131630139866423,0.466104197436217,-0.8641167096283768,-0.1474629975339655,-1.055455308337517,0.5542546336476987,1.4972882981235909,0.5458752140185128,-0.9017560228588998,-0.1517485175667292,0.6628281263131727,0.0071027852870275,-0.1859392578597629,0.6361739289373294,11.189578431224618,-0.8777360047535054,0.154105336648248,-1.0302784964312566
1.42,-1.0600993658821354,0.5624474699839724,1.4994455118080112,0.0309674009825069,0.0961273286369293,0.0127646473818139,0.46752412681708,-0.8902538692566097,-0.1309479982414778,-1.055455308337517,0.5542546336476987,1.4972882981235909,0.5458752140185128,-0.9017560228588998,-0.1517485175667292,1.5475080892431805,0.0709964690431497,-1.306857981411641,0.8257499646243865,11.19823361444287,-0.8789997750828696,0.159826090516061,-1.0268505255443143
1.44,-1.0507319465996747,0.5445375795762342,1.496994666270315,0.0172516233375334,0.0994637623033111,0.011785284930912,0.4692999463101929,-0.8978948881761843,-0.1149240960047627,-1.055455308337517,0.5542546336476987,1.4972882981235909,0.5458752140185128,-0.9017560228588998,-0.1517485175667292,0.8920540172730825,0.088790974655642,-0.3820509459787347,0.8011951118357501,11.531571499558597,-0.8793114428130218,0.1736246514030057,-1.0222525041106956
1.46,-1.0417949285910924,0.5274988976254094,1.494934246365483,0.0033560449564291,0.1029665220841928,0.0107903043194229,0.4714872894037756,-0.8951790103849383,-0.1027734797913751,-1.049996556197332,0.5452370734191097,1.4957708129479237,0.5618578284761201,-0.9100276425364434,-0.1500609258575327,0.6320560425133739,0.1093671546791352,0.1357938895623023,0.6075308106693843,11.376714159580844,-0.8775643117553988,0.1891587075662871,-1.0188520178071545
1.48,-1.0323356281755978,0.509682367391966,1.492986564655841,-0.0096412302733718,0.1068672734818506,0.0098450422782362,0.4744578890273878,-0.8867589299464408,-0.0927748552795188,-1.039079051916962,0.5272019529619317,1.4927358425965889,0.5938230573913346,-0.9265708818915308,-0.1466857424391395,0.6702512753506434,0.148529981180609,0.4210040219248756,0.4999312255928118,11.152556448110772,-0.8746857268669169,0.2030075186766608,-1.0167247041573788
1.5,-1.0228081680437933,0.4920730016587232,1.4912125196049602,-0.0200926040510028,0.1108573350922045,0.0090687731569677,0.4782645056103777,-0.8749418938412504,-0.0852344802360591,-1.0281615476365915,0.5091668325047537,1.4897008722452545,0.6257882863065491,-0.943114121246618,-0.1433105590207464,0.7262746173406064,0.1903308291494987,0.590851805259518,0.3770187521729882,10.984045661877644,-0.8715308883024385,0.2144398343351439,-1.0151540424334435
1.52,-1.0131948066574032,0.4747244043855987,1.4895703851583917,-0.0277725673990553,0.1147854844912768,0.0084875766858631,0.4830025994911376,-0.8611501524186694,-0.0793514190150717,-1.0156457819104607,0.4903045500798213,1.4868346610648393,0.6577535152217637,-0.9596573606017051,-0.1399353756023533,0.786244355178648,0.2369046940379926,0.6895870711290497,0.294153061049366,10.852135896199798,-0.8680884147356297,0.2227548377054204,-1.0146734329133065
1.54,-1.003964616685119,0.4585080823413762,1.4881133090612848,-0.0327553057663095,0.1183300845878037,0.0081104929276256,0.4884427273337124,-0.847085332669223,-0.074312491631961,-1.0031300161843295,0.4714422676548889,1.4839684498844243,0.6897187441369783,-0.9762005999567924,-0.1365601921839601,0.7949920356523046,0.2720063921287402,0.70324098747232,0.2519463691555354,10.75214895278168,-0.864543731670594,0.229284927968538,-1.014477743655215
1.56,-0.9941239945671396,0.4417240026290014,1.4866823460498004,-0.0360711487387064,0.1216532919213728,0.0078778651622245,0.4953997070443107,-0.8323793444484092,-0.0690429680630129,-0.9898151197353184,0.4521664042460794,1.4811866182894693,0.7216839730521928,-0.9927438393118798,-0.133185008765567,0.8550344070388205,0.3478489855299138,0.7352994110406907,0.2634761784474082,10.75214895278168,-0.8614493379671143,0.2338916917669491,-1.0143502433980944
1.58,-0.9841327679945918,0.4252360057344865,1.4853573733118686,-0.0377923450662081,0.1242971017080827,0.0078030629938916,0.5033941761582775,-0.8173859003839743,-0.063708645599602,-0.9757010925634266,0.4324769598533927,1.478489166279974,0.7536492019674073,-1.0092870786669672,-0.1298098253471739,0.8904632185991153,0.399723455698342,0.7496722032217462,0.2667161231705426,10.756144575565486,-0.8590121605648715,0.2371335107351986,-1.013820279213446
1.6,-0.973973386277704,0.4090545759910578,1.4841405858522858,-0.0378504944056609,0.1260823622051253,0.0079017662252084,0.5120861986778401,-0.8017918176638607,-0.0582271152270151,-0.958963059186678,0.3843667107152878,1.4821719410318883,0.584215287956564,-0.8060778384936702,-0.0554851268703921,0.9337743927040444,0.434601125978129,0.7797041360056822,0.2740765186293459,10.764391321408766,-0.8575177594465303,0.2389475134883842,-1.0127064627106532
1.62,-0.9641113738243328,0.393808130291933,1.483133284342748,-0.0415512669212428,0.1256810749710176,0.0078488067845241,0.5253253131256846,-0.8009394721273252,-0.0481637871968013,-0.958963059186678,0.3843667107152878,1.4821719410318883,0.584215287956564,-0.8060778384936702,-0.0554851268703921,0.8325731429136789,0.6619557223922268,0.0426172768267729,0.5031664015106897,11.067525810628467,-0.8603378707323772,0.2435703418426644,-1.0076280594378622
1.64,-0.9534732480662708,0.3779052482607626,1.4822716947535075,-0.0494534321578429,0.122009647262485,0.0077035925001802,0.5375121215436803,-0.7888127474536876,-0.0385810700729826,-0.958963059186678,0.3843667107152878,1.4821719410318883,0.584215287956564,-0.8060778384936702,-0.0554851268703921,0.9841293337288922,0.6093404208997844,0.6063362336818812,0.4791358561909327,10.98714318310158,-0.8643909588130699,0.2534379196348814,-0.9989263472153456
1.66,-0.9426273759637626,0.3623150772988316,1.4815784183523495,-0.0573140143599097,0.1160837147178335,0.0077567832191785,0.5460776712021712,-0.7709457200027067,-0.0311907969739418,-0.9531209063071122,0.3763059323303511,1.4816170897631846,0.6003795103162213,-0.8038162261156094,-0.0538404231245501,1.057373452670088,0.4282774829245439,0.893351372549045,0.3695136549520427,10.98714318310158,-0.8692496753018422,0.2633120027346393,-0.9894761103562978
1.68,-0.9316538084518172,0.3471160025262663,1.481012866999213,-0.0636854152980537,0.10944659915313,0.0080442988709606,0.5506653451383106,-0.7502627424664112,-0.0256874679495484,-0.941436600547981,0.3601843755604776,1.4805073872257768,0.6327079550355358,-0.7992930013594878,-0.0505510156328662,1.094439288245315,0.2293836968069673,1.0341488768147722,0.2751664512196678,10.858257857897115,-0.8751541915844316,0.271437565173032,-0.9793120101876857
1.7,-0.921177065141626,0.333074127673655,1.480564032795456,-0.0680200557834893,0.1036299212086596,0.008476770905463,0.5518470121495135,-0.7293183133473404,-0.0217901465916795,-0.9297522947888496,0.3440628187906042,1.479397684688369,0.6650363997548504,-0.7947697766033661,-0.0472616081411822,1.066834759716386,0.0590833505601462,1.0472214559535398,0.1948660678934481,10.74926278507064,-0.8806935480308131,0.2780277407933439,-0.969981454981828
1.72,-0.9101543498217474,0.3187254449745959,1.48016396540129,-0.0709090788764604,0.0990352152400502,0.0089993757710397,0.5501898706748154,-0.7069736165519397,-0.0184266507212924,-0.9164515667937528,0.3281674232585369,1.4784524525255454,0.697364844474165,-0.7902465518472445,-0.0439722006494983,1.132855570246785,-0.0828570737349043,1.1172348397700371,0.168174793519352,10.67106482912368,-0.8841735695816793,0.2826769797964374,-0.9635260931453776
1.74,-0.8991922480348832,0.3048284946978322,1.4798275681157067,-0.0721918622157881,0.0971006592105785,0.0094837862363169,0.5461683172520546,-0.6840627850968816,-0.0153656645952978,-0.9031508387986557,0.3122720277264695,1.4775072203627218,0.7296932891934795,-0.7857233270911228,-0.0406827931578143,1.1730821859078455,-0.2010776711380391,1.145541572752906,0.1530493062997332,10.634798933406271,-0.8859941352292336,0.2858284409410838,-0.9587959051193534
1.76,-0.8883056959970418,0.2913990850632824,1.4795542683231244,-0.0715554086537721,0.0980160787948995,0.00992352247271,0.5430461460322055,-0.6603613357922143,-0.0120805355049663,-0.8890418996855758,0.2964897128133053,1.47664422338719,0.7620217339127942,-0.7812001023350013,-0.0373933856661303,1.206543332632428,-0.1561085609924573,1.185072465233361,0.1642564545165714,10.62596201049746,-0.8867887907030119,0.2874347100286109,-0.9551149260807564
1.78,-0.8780023556022079,0.2790829229389938,1.4793620489360109,-0.0688642064998172,0.1006458722353579,0.0103840301548265,0.5419045450528643,-0.6376886126482592,-0.0082812299268194,-0.8741247494545131,0.280820478519044,1.4758634615989503,0.7943501786321087,-0.7766768775788796,-0.0341039781744464,1.150858755923823,-0.0570800489670564,1.1336361571977591,0.1899652789073445,10.629932592266414,-0.8851496428564071,0.2871762915937456,-0.9542427445908344
1.8,-0.8671581267418658,0.2665564402288218,1.479248699660917,-0.0643970083797992,0.1044186517430669,0.0109425349301983,0.5427867841332754,-0.616601552981634,-0.0031832548374307,-0.8509071283495646,0.2471984923065808,1.4789479874396698,0.6058204831918261,-0.6138845086926327,-0.0053895438803234,1.0856239924472495,0.0441119540205536,1.0543529833312582,0.2548987544694362,10.660664070144776,-0.8821528130800207,0.285439405588181,-0.9551443450621188
1.82,-0.8562139551305162,0.2543765351964263,1.4792434066772944,-0.0610160939733616,0.1065537997594144,0.0115575894967505,0.5515830104404393,-0.6017798924340105,0.0023458440191152,-0.8509071283495646,0.2471984923065808,1.4789479874396698,0.6058204831918261,-0.6138845086926327,-0.0053895438803234,0.9050223102240056,0.4398113153581962,0.741083027381173,0.2764549428272991,10.708550253900285,-0.8847493988480851,0.2847667604209079,-0.94986403903003
1.84,-0.8450947885316824,0.2425144055577285,1.4793509408640626,-0.0592370025625957,0.1049423890257063,0.0123080823923231,0.5596144053943305,-0.5850397939371211,0.0081436226189929,-0.8509071283495646,0.2471984923065808,1.4789479874396698,0.6058204831918261,-0.6138845086926327,-0.0053895438803234,0.972559046130551,0.4015697476945579,0.83700492484447,0.2898889299938848,10.696846468872536,-0.8859423490867111,0.2860334213906446,-0.945534019778174
1.86,-0.8344024783445613,0.2315650663812072,1.4795576345372683,-0.058018725614442,0.1007786352648043,0.0131558221681909,0.565152450736643,-0.5684013078597591,0.0133531559051112,-0.8448489235176464,0.2410596472196545,1.4788940920008666,0.6186036708196185,-0.6091236879015074,-0.0048112066710242,0.9146698888386672,0.2769022671156251,0.8319243038681035,0.2604766643059186,10.684883215046284,-0.8898904466959713,0.2886619370888564,-0.9370097794673544
1.88,-0.8230711137199996,0.2203831483390099,1.479877710421697,-0.0568412417456418,0.0948974675739328,0.0141375932998462,0.5673856864091366,-0.5507264106164351,0.0183802727596554,-0.8327325138538099,0.2287819570458019,1.47878630112326,0.6441700460752032,-0.5996020463192567,-0.0036545322524258,0.9255555601910128,0.111661783624678,0.883744862166197,0.2513558427272078,10.684883215046284,-0.8952483973351621,0.2912402746237786,-0.9273066464128824
1.9,-0.8117315885189017,0.2095559358099296,1.480291360295557,-0.055533823911622,0.0888549042772527,0.0151455600026121,0.5662756837168788,-0.5329625388315208,0.0227236849250833,-0.8206161041899733,0.2165042668719492,1.4786785102456537,0.6697364213307879,-0.5900804047370062,-0.0024978578338274,0.9160410416658236,-0.0555001346128902,0.8881935892457171,0.2171706082713961,10.598015446224965,-0.901031335075774,0.2933558339862837,-0.917657776599308
1.92,-0.8004481092731811,0.1990840002807044,1.4807842312861133,-0.0538781742835209,0.0838012074549223,0.0161285074285847,0.5620175648970388,-0.5152574087021318,0.0263737818612158,-0.8072213757633575,0.2047026587772091,1.4786285530889771,0.6953027965863726,-0.5805587631547556,-0.001341183415229,0.9286097356069956,-0.2129059409919975,0.8852565064694506,0.1825048468066255,10.561754030110931,-0.9051826395367844,0.2947791572185074,-0.910387414617758
1.94,-0.789835543791755,0.1894592874714885,1.4813154851202508,-0.0519296300181985,0.0809903718131927,0.0169856081098861,0.555272430098376,-0.4989516245791945,0.0293867384530624,-0.7938266473367418,0.192901050682469,1.4785785959323006,0.7208691718419574,-0.571037121572505,-0.0001845089966305,0.8950605380926955,-0.3372567399331394,0.8152892061468603,0.1506478295923263,10.561754030110931,-0.9076753646660368,0.2957319715550919,-0.9050166718842004
1.96,-0.77881182079613,0.1796547680742651,1.4819356642390895,-0.0496513367210538,0.0808324740355447,0.0177655366469843,0.5478028734511299,-0.4824813011495872,0.0324904941282578,-0.7797927595287364,0.1813374836272851,1.478557555636089,0.7464355470975421,-0.5615154799902544,0.0009721654219678,0.917468159765774,-0.3734778323623067,0.8235161714803652,0.1551877837597737,10.542424263713656,-0.9098778831851858,0.2960105664062181,-0.9005002519431025
1.98,-0.7679208252432591,0.170174012957676,1.4826198128385517,-0.0472249023774559,0.0829167379389931,0.0184564565866666,0.5419206854497698,-0.4665349948277402,0.035791891308318,-0.7651197123393414,0.1700119576116575,1.4785654322003423,0.7720019223531268,-0.5519938384080038,0.0021288398405662,0.8657136425141305,-0.2941094000680044,0.7973153160923535,0.1650698590030068,10.521589407955616,-0.9098725740845424,0.296215383411784,-0.8982439757627243
2.0,-0.7571278617270365,0.1610067936648259,1.4833739870303535,-0.0446915684401705,0.0864125022591627,0.0191039744050972,0.5379022847433486,-0.4511114688680979,0.0394748224317337,-0.7408247909707706,0.146847263216289,1.484409407403967,0.6006126750802305,-0.4342764060070443,0.0370160797916381,0.8179191263886536,-0.2009200353210616,0.7711762979821152,0.1841465561707889,10.519644408290333,-0.908754106262335,0.2964583922204888,-0.8970997473942327
2.02,-0.746896156445251,0.1525471315165421,1.4841812070836968,-0.0432808377956794,0.089330098018354,0.0196822105521286,0.5393367722202334,-0.4398466345712447,0.0454153814188711,-0.7408247909707706,0.146847263216289,1.484409407403967,0.6006126750802305,-0.4342764060070443,0.0370160797916381,0.6407895269442165,0.0717243738442396,0.5632417148426577,0.2970279493568692,10.52976504272374,-0.9095796429563544,0.2969677040849968,-0.8944217110022811
2.04,-0.7360974069407524,0.1438831034127532,1.485155348249109,-0.0434350928674256,0.0908054679115327,0.0202579028644926,0.5403382575687589,-0.4270229662629168,0.0516661259419494,-0.7408247909707706,0.146847263216289,1.484409407403967,0.6006126750802305,-0.4342764060070443,0.0370160797916381,0.7150546288188732,0.0500742674262755,0.6411834154163965,0.3125372261539145,10.668814345731334,-0.910053051269745,0.301001457549984,-0.8885522602980471
2.06,-0.7252876664936664,0.1354874812051798,1.4862472294458486,-0.0446371271233923,0.0913641056586953,0.0208123725661836,0.5405269862958936,-0.4131360457382068,0.0572274799263752,-0.7348186642199683,0.1425044991562185,1.4847795682018836,0.6123510730063226,-0.4278246882429051,0.0372609174883022,0.7480154382299662,0.0094364363567356,0.6943460262355011,0.2780676992212911,10.651024049013358,-0.9115633784768764,0.3058524281630604,-0.8812803138238697
2.08,-0.715022770012411,0.1277802555952232,1.4873808239332174,-0.0462826475315576,0.0915048306236258,0.0213338196171157,0.539966787902568,-0.398861966342487,0.0618388010463342,-0.7228064107183637,0.1338189710360776,1.4855198897977164,0.635827868858507,-0.4149212527146267,0.0377505928816302,0.7505455470965352,-0.0280099196662775,0.7137039697859865,0.2305660559979497,10.607194784046442,-0.9135857586231046,0.31142920383697,-0.8729504410993111
2.1,-0.7042359310723705,0.1199716652173873,1.4886630670762069,-0.0481108813019171,0.0916185500502507,0.0218914768125427,0.5387444535295715,-0.3827368315071733,0.0661314710741715,-0.7107941572167591,0.1251334429159367,1.4862602113935492,0.6593046647106913,-0.4020178171863484,0.0382402682749583,0.8365720093697082,-0.0611167186498284,0.8062567417656846,0.2146335013918632,10.522911257214218,-0.9159408689637965,0.3168225851660411,-0.8646014635731714
2.12,-0.6934784970873553,0.1125000058842682,1.4900254124942094,-0.049516346869345,0.091965872137076,0.0224810863282311,0.5370911941465147,-0.3652994578247053,0.0698837967031137,-0.6976080639225453,0.1170930865722098,1.4870250167590484,0.6827814605628756,-0.3891143816580701,0.0387299436682864,0.8956495061620212,-0.0826629691528357,0.8718686841234002,0.1876162814471074,10.522911257214218,-0.9181129888251152,0.3218419930197226,-0.8565907983904314
2.14,-0.6827567324117727,0.1053894147335333,1.4914590885685417,-0.0499509704241968,0.0927135736343276,0.0231306361241235,0.5352543924541714,-0.3468051284310659,0.0733247036411427,-0.6844219706283314,0.1090527302284828,1.4877898221245476,0.7062582564150599,-0.3762109461297917,0.0392196190616145,0.9450580679693809,-0.0918400846171674,0.9247164696819716,0.1720453469014539,10.4878305269649,-0.9198929195208598,0.3259029953663157,-0.8495428759797893
2.16,-0.6726017288441335,0.0989857802221344,1.4928837347756343,-0.0490172037375457,0.0937519065707735,0.0238347812736464,0.5338464457289843,-0.3284097077516866,0.0764932157018419,-0.6706489574378129,0.1013349597729628,1.48856686937488,0.7297350522672441,-0.3633075106015134,0.0397092944549425,0.9359664585751666,-0.0703973362593535,0.9197710339689636,0.1584256030349583,10.467605209561953,-0.9216384329605136,0.3290890061945468,-0.8427108224716248
2.18,-0.6619367738724085,0.0926223311899213,1.4944493094802132,-0.0463054793262503,0.0950379469749359,0.0246957705658059,0.5327808417406105,-0.3091903137068148,0.0799280178469098,-0.6562890243509899,0.0939397752056497,1.4893561585100457,0.7532118481194284,-0.350404075073235,0.0401989698482706,0.9776483072760058,-0.0532801994186926,0.9609697022435916,0.171740107253393,10.455388653973388,-0.9228984945842762,0.3309664518732493,-0.8369196844603233
2.2,-0.6512877638969766,0.0866209636570339,1.4960858497777467,-0.042305005380033,0.0963875280733815,0.0256515027588902,0.5322235166235125,-0.2922601259502974,0.0835835646778831,-0.635297731785378,0.0771628155045806,1.4984457103725586,0.5546494916107677,-0.2779119642476435,0.0620764397751963,0.8664653648451838,-0.0278662558548969,0.8465093878258695,0.1827773415486684,10.450723570387709,-0.9238259064130117,0.3316479738475295,-0.8323012330073788
2.22,-0.6405475788485294,0.0809331169384014,1.4977846880279446,-0.038130136715873,0.0945111082856842,0.0267527357529607,0.5418941677093418,-0.277432929829591,0.0860808504550848,-0.635297731785378,0.0771628155045806,1.4984457103725586,0.5546494916107677,-0.2779119642476435,0.0620764397751963,0.893873136242998,0.4835325542914659,0.7413598060353216,0.1248642888600833,10.4478224014656,-0.9314360785251704,0.3301305194162696,-0.8237900442168625
2.24,-0.6296394249445487,0.0755266924179087,1.4995236316304343,-0.034325257801195,0.0865849001869657,0.0280379963801754,0.5475153404429217,-0.2639359339131445,0.0877482993591146,-0.635297731785378,0.0771628155045806,1.4984457103725586,0.5546494916107677,-0.2779119642476435,0.0620764397751963,0.7357765753217228,0.2810586366789935,0.6748497958223243,0.0833724452014905,10.287818181600414,-0.937267211599088,0.332672849267286,-0.8110438775235517
2.26,-0.6192379444051219,0.0706325673265045,1.5011938122339716,-0.0311342722386703,0.0761515568981732,0.0292955843940884,0.5466404418934324,-0.2519003175178538,0.0880125741226537,-0.6297512368692703,0.0743836958621042,1.4990664747703106,0.5590232215847991,-0.2716562943558093,0.0585061241608536,0.6035133607409466,-0.043744927474465,0.6017808197645358,0.0132137381769543,10.287818181600414,-0.946014086010106,0.3346325200909947,-0.7959249531664965
2.28,-0.608368757935162,0.0657200626966417,1.502942613651372,-0.0282016306447953,0.064461426539675,0.0305740225121659,0.5399370798293551,-0.2399907237869203,0.0867968422637446,-0.618658247037055,0.0688254565771513,1.5003080035658145,0.567770681532862,-0.2591449545721407,0.0513654929321682,0.6860238511720401,-0.3351681032038645,0.5954796865466738,-0.0607865929454526,10.184854606330193,-0.9552154911737892,0.3359019910592331,-0.7814095763672526
2.3000000000000003,-0.5976894038019277,0.0610388010687923,1.5046481478818008,-0.025674417572914,0.0538848503001548,0.0317598397670088,0.5282719595558393,-0.228710388908887,0.0838395253783712,-0.6075652572048396,0.0632672172921984,1.5015495323613184,0.576518141480925,-0.2466336147884722,0.0442248617034829,0.8247222397824004,-0.5832560136757925,0.5640167439016643,-0.1478658442686721,9.999677023249204,-0.9628114737426744,0.336426457601133,-0.7701050469027264
2.32,-0.5877964392500006,0.0567953746258035,1.5062005280131534,-0.0235921245333272,0.0459862267741981,0.0327861848368482,0.5137179381532785,-0.2185103139629831,0.0797268777550505,-0.5960348943752211,0.058334544996429,1.502434029595388,0.5852656014289879,-0.2341222750048037,0.0370842304747975,0.912105994884721,-0.7277010701280395,0.5100037472951929,-0.2056323811660355,9.999677023249204,-0.9686823654680824,0.3363438690517313,-0.7619005771220888
2.34,-0.5777102472208498,0.0525329291544285,1.507739917888374,-0.0217044243484901,0.0408318149593517,0.0337557253307007,0.49554290851964,-0.2082694192415578,0.074379065352068,-0.5845045315456026,0.0534018727006595,1.5033185268294578,0.5940130613770508,-0.2216109352211351,0.0299435992461121,1.076808623173642,-0.9087514816819214,0.5120447360712668,-0.267390620149125,9.934206975114648,-0.971223576982154,0.3357260005727774,-0.7588165286401192
2.36,-0.5680073040070138,0.0484734918348267,1.5091650276730044,-0.0200219135530012,0.0397705954651132,0.0346148479028233,0.4760881837855288,-0.19821062370329,0.0683996222466246,-0.5727554822172826,0.0487819838994818,1.5040245082828103,0.6027605213251136,-0.2090995954374666,0.0228029680174267,1.1351425263066623,-0.9727362367055598,0.50293977691339,-0.2989721552721702,9.895441477054192,-0.9714202171622582,0.3336419205834176,-0.7612749382508813
2.38,-0.5586765746526703,0.0446129841652058,1.5104695407182325,-0.0184337807341307,0.0423096048694063,0.0353941625756814,0.4584233300536534,-0.188380335662694,0.0623694429861978,-0.5607877463902609,0.0444748785928958,1.5045519739554456,0.6115079812731765,-0.1965882556537981,0.0156623367887414,1.0548041076931327,-0.8832426865937743,0.4915144020298023,-0.3015089630213397,9.86438721736613,-0.9690262808418282,0.3312349161230953,-0.767594118850626
2.4,-0.5501150334438635,0.041125155147242,1.511599614729153,-0.0169878487120956,0.0470171975241358,0.0360903600544444,0.4440156636798282,-0.1792885626133319,0.0568918617227964,-0.5357554081499876,0.0351939673820711,1.5135880128675423,0.4842121885865589,-0.1592092059740734,0.0653655398393646,0.8947696407703536,-0.7203833186912562,0.454588652468102,-0.2738790631700693,9.853479034537486,-0.9643966363360572,0.3287774171914655,-0.7767063844562098
2.42,-0.5413500795181035,0.037649484466492,1.5127957661673277,-0.0152355278092486,0.0529067728924511,0.0368278113730275,0.4335085478338453,-0.1689275899098216,0.0636486716180343,-0.5357554081499876,0.0351939673820711,1.5135880128675423,0.4842121885865589,-0.1592092059740734,0.0653655398393646,0.8114858574309484,-0.5253557922991481,0.5180486351755165,0.3378404947618929,9.86001623512402,-0.96291156036133,0.3267306308358711,-0.7815439922787941
2.44,-0.5327731115168128,0.0343683224494876,1.514146462494508,-0.0133589824567268,0.0586569984686709,0.0375818689060401,0.4248480377689658,-0.1597109997568121,0.0710187768096555,-0.5357554081499876,0.0351939673820711,1.5135880128675423,0.4842121885865589,-0.1592092059740734,0.0653655398393646,0.7318955170787587,-0.433025503243975,0.4608295076504759,0.3685052595810617,10.62620767956014,-0.961111811939786,0.3278647281557513,-0.7817808735193973
2.46,-0.5243534497908751,0.0312660495763448,1.515633658834331,-0.0116532387008193,0.0640410808025134,0.0383336560339669,0.4176573651114192,-0.1509603968186524,0.0773360528503258,-0.5309132862641219,0.0336018753223304,1.514241668265936,0.48936996029314,-0.1533749800363493,0.065964759209998,0.6484342711935859,-0.3595336328773291,0.4375301469079815,0.3158638020335141,10.572836618191104,-0.9592463337314768,0.3290824831631105,-0.7820986427868138
2.48,-0.5164759165861943,0.0284774560508279,1.5171545331430565,-0.0102518077757101,0.0686590452803206,0.039040974033717,0.4119797335685496,-0.1430098702616551,0.0824426909960528,-0.5212290424923908,0.0304176912028489,1.5155489790627232,0.4996855037063022,-0.1417065281609011,0.0671631979512647,0.5511899074309643,-0.2838815771434799,0.3975263278498675,0.2553319072863498,10.507694090758378,-0.9574215314541518,0.3303541467040865,-0.7824420825387127
2.5,-0.5082902642896154,0.0257012855143935,1.5188526497127286,-0.0091064007482088,0.0729201337988611,0.0397692974587379,0.4069519924860627,-0.1350276923194512,0.0870670297233589,-0.5115447987206596,0.0272335070833674,1.5168562898595106,0.5100010471194645,-0.1300380762854528,0.0683616366925314,0.5253043255066417,-0.251387054124344,0.3991088971101925,0.2312169363653055,10.451942881997638,-0.9557795369101294,0.3317638092234269,-0.782587083275936
2.52,-0.5001965246640788,0.0230820798339,1.5206350153700063,-0.0083915207258783,0.0765412768824631,0.0404719469204739,0.4027044137935743,-0.1272738450703882,0.0909421382524901,-0.5013447777782704,0.0246327455576584,1.5182235225933611,0.5203165905326267,-0.1183696244100046,0.0695600754337982,0.4826503341530708,-0.2123789346244187,0.38769236245315,0.1937554264565592,10.406537198891783,-0.9544796173690794,0.3333145549089368,-0.7823733847301796
2.54,-0.4925802328142356,0.0207369564497017,1.5223985512293765,-0.0081321793240506,0.0794149389961959,0.0411120084301643,0.3992384574963961,-0.1199525153532284,0.0945026047023309,-0.491144756835881,0.0220319840319493,1.519590755327212,0.5306321339457889,-0.1067011725345564,0.0707585141750649,0.4424128253728628,-0.1732978148589109,0.3660664858579923,0.1780233224920435,10.365835613731178,-0.9535678796217538,0.3351753929798151,-0.7815949147602439
2.56,-0.4846288551542791,0.0184219569076356,1.524327041175581,-0.0082119636096992,0.0818688251984505,0.0417616949888128,0.3960997461195503,-0.1119333804734,0.0981568356063656,-0.4806868473081627,0.0197229338031265,1.520987949029594,0.5409476773589512,-0.0950327206591081,0.0719569529163316,0.4677377385566166,-0.1569355688422896,0.4009567439914194,0.1827115452017309,10.359734446140465,-0.9532482940070508,0.3373303358244864,-0.7799696239635894
2.58,-0.476736502671321,0.0162722011784909,1.5263266995613356,-0.0084542799851786,0.0837587206043701,0.0424000710705436,0.393294914769001,-0.1034593029747917,0.1016210195954193,-0.4699710491951153,0.0177055948711898,1.5224151037005085,0.5512632207721134,-0.0833642687836599,0.0731553916575983,0.4787422037680094,-0.1402415675274659,0.4237038749304159,0.1732091994526848,10.352622162092302,-0.9534092257291346,0.3397426298047803,-0.7775169440069188
2.6,-0.4688983796008594,0.0142976119235729,1.528392858628412,-0.0086089055729601,0.0851415247330662,0.0430441268980557,0.3906427932335872,-0.0944912658953713,0.1048289874147323,-0.457071756932871,0.0110992360297513,1.5314077505411066,0.4173496804702949,-0.0811588677446558,0.0794770949865926,0.4943442505638456,-0.1326060767706888,0.4484018539710185,0.1603983909656506,10.33917463054604,-0.9539349631565124,0.3420693740372851,-0.7746290187256375
2.62,-0.4614824697319022,0.0126265535532486,1.530379811800246,-0.0073806566577802,0.0853287255768848,0.0437560120097205,0.3899715588658172,-0.0824022942630378,0.1041699903582929,-0.457071756932871,0.0110992360297513,1.5314077505411066,0.4173496804702949,-0.0811588677446558,0.0794770949865926,0.6062756547648857,-0.0335617183885,0.6044485816166768,-0.0329498528219694,10.32257951345673,-0.9560276612802404,0.3442590662482748,-0.7692503285212698
2.64,-0.4537009905392155,0.0110934924337191,1.5324460839890215,-0.0041754421988196,0.083960736964207,0.0446385042955773,0.3880916538687701,-0.0720411147277277,0.1024692291873701,-0.457071756932871,0.0110992360297513,1.5314077505411066,0.4173496804702949,-0.0811588677446558,0.0794770949865926,0.5333401183142176,-0.0939952498523549,0.5180589767655029,-0.0850380585461413,10.084069904563876,-0.9563963599165292,0.3439214113086981,-0.7676058622944582
