t,x,y,z,roll,pitch,yaw,v_x,v_y,v_z,ref_x,ref_y,ref_z,ref_v_x,ref_v_y,ref_v_z,a_com,a_x,a_y,a_z,thrust,wind_x,wind_y,wind_z
0.0,1.248796305656433,0.5057675242424011,2.561837673187256,0.0047943381512173,0.079131134604177,0.0013830755562571,-0.0075557827949523,0.0074256956577301,0.0022476911544799,1.2485172069072723,0.5059351921081543,2.561847150325775,-0.1069576516747474,-0.0662233382463455,-0.0992811694741249,0.5414862075151542,-0.3777891397476196,0.3712847828865051,0.112384557723999,11.464986987588418,-0.9270307616934368,0.1171867982099437,-1.7828891717060849
0.02,1.248553476333618,0.5060076117515564,2.561687707901001,0.0074886985655936,0.080667013979353,0.0009840930118882,-0.0092348456382751,0.0102218985557556,-0.0031810998916625,1.2484185165166857,0.5061388090252876,2.56195005774498,-0.1075557842850685,-0.0727262049913406,-0.0977523103356361,0.3166613921108445,-0.0839531421661377,0.1398101449012756,-0.2714395523071289,11.464986987588418,-0.932707418417838,0.1272675747598311,-1.7604454924907762
0.04,1.2484989976882934,0.5062750577926636,2.5616629123687744,0.0161644385034976,0.0902597787709804,0.0002282733405307,-0.006689429283142,0.0114195048809051,-0.0039321184158325,1.2484185165166857,0.5061388090252876,2.56195005774498,-0.1075557842850685,-0.0727262049913406,-0.0977523103356361,0.1455801682464287,0.1272708177566528,0.0598803162574768,-0.037550926208496,10.443905051924048,-0.9355648183566502,0.1370875917499698,-1.773625206403722
0.06,1.248375973701477,0.5064606666564941,2.561650276184082,0.0231082302123183,0.0859016239004804,0.0013737973399767,-0.003993809223175,0.0101937353610992,-0.0008422136306762,1.2484185165166857,0.5061388090252876,2.56195005774498,-0.1075557842850685,-0.0727262049913406,-0.0977523103356361,0.2139882590512468,0.134781002998352,-0.0612884759902954,0.1544952392578125,10.29643629825796,-0.9296697635351662,0.1530148289765814,-1.7452604668052911
0.08,1.2483188724517822,0.5065934658050537,2.5614538192749023,0.0186657261801208,0.0749307256579158,0.0032866531536701,-0.0040528178215026,0.007164180278778,-0.0047045946121215,1.2473429586738347,0.5054115469753743,2.5609725346416234,-0.1275557845830917,-0.0887565851211547,-0.1177523106336593,0.2454570881912206,-0.0029504299163818,-0.1514777541160583,-0.1931190490722656,10.127390106379607,-0.9253486853992224,0.162137839292339,-1.7896150078160546
0.1,1.2483272171020507,0.506635308265686,2.561177968978882,0.0261138833153489,0.0694144302170442,0.0043815939766679,-0.0029906630516052,0.0062079727649688,-0.0118768215179443,1.2451918429881337,0.5039570228755474,2.559017488434911,-0.1675557851791382,-0.120817345380783,-0.1577523112297058,0.3656615386983191,0.053107738494873,-0.0478103756904602,-0.3586113452911377,10.127390106379607,-0.9135567830500206,0.1532439162064848,-1.776115850642677
0.12,1.2482031202316284,0.5066559910774231,2.5605647563934326,0.0430130803243697,0.0519502322515958,0.006309064537842,-0.0037497282028198,0.0036290287971496,-0.0199878215789794,1.243040727302432,0.5025024987757206,2.5570624422281982,-0.2075557857751846,-0.1528781056404113,-0.1977523118257522,0.4272454033779996,-0.0379532575607299,-0.1289471983909607,-0.4055500030517578,9.941131393333762,-0.8849273888510756,0.1589185291684055,-1.840819992314738
0.14,1.2479211902618408,0.5065197348594666,2.5594496726989746,0.0661744157527475,0.0325103907425873,0.0070257074773253,-0.0091356039047241,-0.0026004016399383,-0.0388866662979126,1.2388896115869283,0.4994449366629124,2.5531073959916832,-0.247555786371231,-0.1849388659000396,-0.2377523124217987,1.0307519007467647,-0.2692937850952148,-0.3114715218544006,-0.9449422359466552,9.76443935147563,-0.8457970852203073,0.1831256543284132,-1.7520868254230877
0.16,1.2475916957855224,0.5062798261642456,2.557882070541382,0.0933555773354042,0.005150900237731,0.0088575816150837,-0.013757050037384,-0.0084637105464935,-0.0603604316711425,1.2347384958714245,0.4963873745501042,2.549152349755168,-0.2875557869672775,-0.216999626159668,-0.2777523130178452,1.1367263907767091,-0.2310723066329956,-0.2931654453277588,-1.073688268661499,9.882165712743245,-0.8210384143275696,0.2017155172890895,-1.7435561291956685
0.18,1.246778688430786,0.5055565237998962,2.5559797286987305,0.1215565135119991,-0.0277561754104105,0.0079768129897165,-0.0257062911987304,-0.021672248840332,-0.0780737400054931,1.2295873801410198,0.4925282934308052,2.544197303503752,-0.327555787563324,-0.2490603864192963,-0.3177523136138916,1.2559967559070246,-0.5974620580673218,-0.660426914691925,-0.8856654167175293,10.00700809809814,-0.761468990533997,0.2529449643950121,-1.7343234482464809
0.2,1.2462074375152588,0.5050151348114014,2.5548486709594727,0.1353832620152297,-0.0430203311794914,0.0077756913232179,-0.0345253944396972,-0.0311739742755889,-0.0879335403442382,1.2234362643957135,0.4878676933050155,2.5382422572374344,-0.3675557881593704,-0.2811211466789245,-0.357752314209938,0.8143632956822133,-0.4409551620483398,-0.4750862717628479,-0.4929900169372558,10.04888195106605,-0.7048277844217767,0.2909945192197318,-1.6542405562378262
0.22,1.2447204208374023,0.5034603476524353,2.552308320999145,0.1594574734992458,-0.0753413554972716,0.0058761563312214,-0.0553071498870849,-0.0564242899417877,-0.1048314571380615,1.244481167793274,0.5034564360976219,2.5504519939422607,-0.1345253959298133,-0.1089710369706153,-0.1879335418343544,1.8405158194706468,-1.0390877723693848,-1.2625157833099363,-0.8448958396911621,10.04888195106605,-0.6751176351850521,0.3003568900098499,-1.5558622843562944
0.24,1.2426244831085205,0.5014216899871826,2.549081802368164,0.1805938549901684,-0.1090776700523683,0.0017754462775299,-0.0806164741516113,-0.0808525085449218,-0.1297545433044433,1.244481167793274,0.5034564360976219,2.5504519939422607,-0.1345253959298133,-0.1089710369706153,-0.1879335418343544,2.155492973142308,-1.2654662132263184,-1.2214109301567078,-1.2461543083190918,9.896336589436489,-0.590016601246193,0.3480827267601066,-1.4156119924059225
0.26,1.2396084880828857,0.4985956251621246,2.5452942848205566,0.2147968850216425,-0.142655245020597,-0.0038593053120333,-0.1150184869766235,-0.10945625603199,-0.1578158140182495,1.244481167793274,0.5034564360976219,2.5504519939422607,-0.1345253959298133,-0.1089710369706153,-0.1879335418343544,2.6406002020325694,-1.7201006412506104,-1.4301873743534088,-1.4030635356903076,11.104307650036844,-0.5389245567972294,0.3736104996314068,-1.366976435467823
0.28,1.235795578956604,0.4948944449424743,2.541313886642456,0.2040252277687315,-0.1588052880148912,-0.0054409115712298,-0.1536503434181213,-0.1468630135059356,-0.1747781038284301,1.2431359138339757,0.5023667257279157,2.548572658523917,-0.1545253962278366,-0.1245304495096206,-0.2079335421323776,2.819310692543321,-1.93159282207489,-1.8703378736972809,-0.8481144905090332,11.104307650036844,-0.5101389954729357,0.4112583890389215,-1.3721107756447697
0.3,1.2335345363616943,0.4927237629890442,2.5393433570861816,0.2023742809700917,-0.1648360440024169,-0.0059332352588017,-0.1742899417877197,-0.1663345098495483,-0.1794236898422241,1.2404454059153796,0.5001873049885035,2.54481398768723,-0.194525396823883,-0.1556492745876312,-0.247933542728424,1.4376314375816286,-1.0319799184799194,-0.9735748171806335,-0.2322793006896972,12.087293104118087,-0.4935388798347094,0.3771982052402127,-1.3046735790323112
0.32,1.227622947692871,0.4875915348529815,2.534759998321533,0.1939188708033587,-0.1663289979996071,-0.0073919523920099,-0.2284544706344604,-0.2055061608552932,-0.1936393976211547,1.2377548979967832,0.4980078842490911,2.541055316850543,-0.2345253974199295,-0.1867680996656417,-0.2879335433244705,3.4169799441031388,-2.708226442337036,-1.9585825502872467,-0.7107853889465332,13.52685110495304,-0.4903194481321219,0.3384738870063745,-1.209376112662193
0.34,1.2214130973815918,0.4821660220623016,2.5308291912078857,0.1749246663738481,-0.1569420747722816,-0.0062190347039986,-0.2727323770523071,-0.2375491708517074,-0.1915687322616577,1.2330643900483846,0.4942725222557783,2.5352966459840536,-0.2745253980159759,-0.2178869247436523,-0.3279335439205169,2.734764679734304,-2.213895320892334,-1.6021504998207092,0.1035332679748535,12.176083313258914,-0.4466263215468325,0.3691864274987328,-1.0791944029581215
0.36,1.2137803649902343,0.4757705330848694,2.5265703201293945,0.1483285942581717,-0.1387464256403325,-0.0037505622500644,-0.3114581108093261,-0.2659725546836853,-0.1842677593231201,1.228373882099986,0.4905371602624654,2.5295379751175644,-0.3145253986120224,-0.2490057498216629,-0.3679335445165634,2.429442018925705,-1.936286687850952,-1.4211691915988922,0.3650486469268799,11.366237688982435,-0.4249204533202344,0.3980519914818564,-1.288146531813812
0.38,1.2049941635131836,0.4686885774135589,2.5218400955200195,0.1125704007050418,-0.08602629663386,0.0005478429146971,-0.3694260120391845,-0.3032425045967102,-0.2022546529769897,1.2226833741366865,0.4860238276422023,2.522779304236174,-0.3545253992080688,-0.2801245748996734,-0.4079335451126099,3.561198914280701,-2.89839506149292,-1.863497495651245,-0.8993446826934814,10.633539144512724,-0.423360586383352,0.3734375780454201,-1.214268580485344
0.4,1.2004823303222656,0.4649737179279327,2.5198686122894287,0.1048192514356931,-0.1000645272830259,-0.0003317660447024,-0.3884375095367431,-0.317080020904541,-0.198826789855957,1.2159928661584851,0.480732524394989,2.515020633339882,-0.3945253998041153,-0.311243399977684,-0.4479335457086563,1.1881331367377317,-0.9505748748779296,-0.6918758153915405,0.1713931560516357,10.633539144512724,-0.5943671498761903,0.2781902950813256,-1.6386308640720555
0.42,1.190570077896118,0.4575041532516479,2.5156190395355225,0.080132094619274,-0.0721339325952927,0.001433016255808,-0.4267635941505432,-0.3333804607391357,-0.1962572336196899,1.1810604548454284,0.4491197168827057,2.509927272796631,-0.4884375110268593,-0.3234156346879899,-0.2988267913460731,2.086381868137244,-1.9163042306900024,-0.8150219917297363,0.1284778118133545,10.485628626575815,-0.5821347862031443,0.2517859052732094,-1.8463302594814957
0.44,1.180152735710144,0.4495119452476501,2.511079788208008,0.0489780343959703,-0.0066112336398447,0.0063534387338977,-0.4574158787727356,-0.3478899002075195,-0.1977485418319702,1.1810604548454284,0.4491197168827057,2.509927272796631,-0.4884375110268593,-0.3234156346879899,-0.2988267913460731,1.6972848806480598,-1.5326142311096191,-0.7254719734191895,-0.0745654106140136,10.994464439356308,-0.560892241609595,0.2728312616924044,-1.896821762058527
0.46,1.1692318534851074,0.4414990842342376,2.506359100341797,0.0324959157512816,0.0201760462710926,0.0073924720237511,-0.4801100492477417,-0.36011403799057,-0.2083486318588256,1.1810604548454284,0.4491197168827057,2.509927272796631,-0.4884375110268593,-0.3234156346879899,-0.2988267913460731,1.393571694123667,-1.1347085237503052,-0.6112068891525269,-0.5300045013427734,10.4674551565613,-0.6769910453973278,0.2143953654727688,-1.8679340010736372
0.48,1.1579738473892212,0.4333639740943908,2.5013017654418945,0.0220105549676468,0.0196498598308956,0.0074873169457518,-0.4990249872207641,-0.3633293509483337,-0.2200055122375488,1.17617607973516,0.4458855605358258,2.5069390048831703,-0.5084375113248825,-0.3246827574446797,-0.3188267916440964,1.122492735058351,-0.945746898651123,-0.1607656478881836,-0.5828440189361572,10.4674551565613,-0.7613736047491771,0.1533502757869527,-1.8016815892529725
0.5,1.1523089027404785,0.4293844401836395,2.4988198280334477,0.0122447674237071,0.0312097035379876,0.0082575403927261,-0.5040621757507324,-0.3647562861442566,-0.2218133211135864,1.166407329514623,0.439417247842066,2.500962469056249,-0.5484375119209289,-0.3272170029580593,-0.3588267922401428,0.2769367494216302,-0.2518594264984131,-0.0713467597961425,-0.0903904438018798,10.350485539561303,-0.81076516782562,0.1421336467222346,-1.7530424124793271
0.52,1.140599331855774,0.4213643670082092,2.4934654235839844,-0.0050054186599357,0.0603297768206771,0.0080210717694812,-0.5202761292457581,-0.3603554368019104,-0.2334862947463989,1.1566385792940854,0.4329489351483062,2.4949859332293274,-0.5884375125169754,-0.3297512484714389,-0.3988267928361892,1.022885717352162,-0.8106976747512817,0.2200424671173095,-0.583648681640625,10.469358515877047,-0.8111180358523112,0.1225588956550711,-1.6382984801154967
0.54,1.1291863536834716,0.4135629832744598,2.4879419803619385,-0.0354114302045195,0.1002742067758148,0.006375102049711,-0.5202573537826538,-0.3559827804565429,-0.2447515726089477,1.1448698290437458,0.4263539101788774,2.487009397372604,-0.6284375131130219,-0.3322854939848184,-0.4388267934322357,0.6042080795411658,0.0009387731552124,0.2186328172683715,-0.5632638931274414,9.83206118370299,-0.8712571662111634,0.1125712736069925,-1.5999550828616813
0.56,1.1178102111816406,0.4060151576995849,2.4823691844940186,-0.0447286363735799,0.093482409179159,0.0080540310852892,-0.5127552151679993,-0.345357209444046,-0.2496653795242309,1.1331010787934064,0.4197588852094486,2.47903286151588,-0.6684375137090683,-0.334819739498198,-0.4788267940282822,0.6952164079187703,0.375106930732727,0.5312785506248474,-0.2456903457641601,9.83206118370299,-0.8698023634413727,0.0874296361789472,-1.5080475869226104
0.58,1.1064756727218628,0.3988543748855591,2.47597074508667,-0.0595005062940123,0.1047196072453233,0.0074065356633479,-0.5109903216362,-0.3309437036514282,-0.2693527936935425,1.1203323285281657,0.4131005041021853,2.4700563256442547,-0.7084375143051147,-0.3373539850115776,-0.5188267946243286,1.2231703428860818,0.0882446765899658,0.7206752896308899,-0.9843707084655762,9.54383434920419,-0.8349168478163205,0.0840746053639847,-1.425013844717483
0.6,1.1007911777496338,0.395219624042511,2.472623586654663,-0.0672232866448399,0.1081522825652131,0.0067188589861665,-0.5109366774559021,-0.3281434774398803,-0.2830159664154053,1.106563578248024,0.4063787668570875,2.460079789757729,-0.7484375149011612,-0.3398882305249572,-0.558826795220375,0.6973636665352142,0.0026822090148925,0.1400113105773925,-0.6831586360931396,9.418819173050906,-0.8667891801472709,0.0803261105429836,-1.4502786845372972
0.62,1.0895398473739624,0.388444721698761,2.465228319168091,-0.0789668372814776,0.1159952546242546,0.006255838530967,-0.5076456069946289,-0.3149369359016418,-0.3138238191604614,1.0752443438768386,0.3788124501705169,2.458472788333893,-0.6109366789460182,-0.3361825132742524,-0.3830159679055214,1.6840187609876474,0.1645535230636596,0.6603270769119263,-1.5403926372528076,9.365882604254692,-0.8886740345488832,0.0194808953927412,-1.4924467230472476
0.64,1.078766188621521,0.382144570350647,2.4575862884521484,-0.0902855168429595,0.1151772229803249,0.0049173693160636,-0.4955622553825378,-0.2941887080669403,-0.3383392095565796,1.0752443438768386,0.3788124501705169,2.458472788333893,-0.6109366789460182,-0.3361825132742524,-0.3830159679055214,1.7157365114843466,0.6041675806045532,1.037411391735077,-1.2257695198059082,10.273738739064356,-0.902315012097994,-0.0248162056912087,-1.4450258441156631
0.66,1.0680223321914672,0.3762330412864685,2.44891095161438,-0.0936624968010488,0.1097208316395486,0.0049629817357746,-0.4841440916061401,-0.2747628092765808,-0.3671407699584961,1.0752443438768386,0.3788124501705169,2.458472788333893,-0.6109366789460182,-0.3361825132742524,-0.3830159679055214,1.82843504767272,0.5709081888198853,0.9712949395179749,-1.4400780200958252,10.315018774410872,-0.8528938404418723,-0.0018687218871757,-1.3794183608743271
0.68,1.0575741147994997,0.3709173798561096,2.439929246902466,-0.0985269757953619,0.1031270531218253,0.0072005662193416,-0.4768216609954834,-0.2526117861270904,-0.3972834348678589,1.0691349770873784,0.3754506250377744,2.4546426286548377,-0.6309366792440414,-0.3377903204411268,-0.4030159682035446,1.905824011061404,0.3661215305328369,1.1075511574745178,-1.5071332454681396,10.315018774410872,-0.7937465092224244,0.0119167092067493,-1.3087883507007527
0.7000000000000001,1.0523699140548706,0.3684830069541931,2.435164451599121,-0.0972997448128724,0.1001203158149407,0.0068365146418371,-0.4707518219947815,-0.2399946749210357,-0.4083126783370971,1.056916243508458,0.3687269747722894,2.446982309296727,-0.6709366798400879,-0.3410059347748756,-0.443015968799591,0.8911771038689896,0.3034919500350952,0.6308555603027344,-0.5514621734619141,10.557495552265664,-0.765116123074758,0.0331200094303585,-1.2677556841470807
0.72,1.0421565389633178,0.3637953102588653,2.425459384918213,-0.0927698743342922,0.0894723345126225,0.0070998777811255,-0.4632630944252014,-0.2170570939779281,-0.4301297664642334,1.0446975099295377,0.3620033245068043,2.439321989938617,-0.7109366804361343,-0.3442215491086244,-0.4830159693956375,1.6264985355666868,0.3744363784790039,1.1468790471553802,-1.0908544063568115,10.653059333635156,-0.7088325810342011,0.0695245190364473,-1.175927685753145
0.74,1.0320120668411257,0.359666645526886,2.4152050018310547,-0.0822115653489152,0.0826792924846775,0.0080035424436509,-0.4580515623092651,-0.1983681321144104,-0.4490876197814941,1.030478776320815,0.3551188935246318,2.429661670550704,-0.7509366810321808,-0.3474371634423733,-0.523015969991684,1.356316302462511,0.2605766057968139,0.934448093175888,-0.9478926658630372,10.378755573818124,-0.6864073816387525,0.0508619745121407,-1.0390589053355748
0.76,1.0218634223937988,0.3557172417640686,2.4040627479553223,-0.0672563277836603,0.0726506217919617,0.008881688578166,-0.4565951228141784,-0.1817565411329269,-0.481424331665039,1.0162600427120922,0.3482344625424594,2.420001351162792,-0.7909366816282273,-0.3506527777761221,-0.5630159705877305,1.819154409594157,0.0728219747543335,0.830579549074173,-1.616835594177246,10.61630905535094,-0.6787830850836559,0.0528573472165135,-1.0846153839069228
0.78,1.0117765283584594,0.3524547219276428,2.3930351734161377,-0.0508515406488974,0.0587449592762309,0.0086231724825838,-0.4552996158599853,-0.1622682809829712,-0.4988211393356323,1.0010413090884684,0.3412696412019431,2.4093410317599773,-0.8309366822242736,-0.3538683921098709,-0.6030159711837768,1.3077839453330284,0.0647753477096557,0.9744130074977876,-0.8698403835296631,10.61630905535094,-0.677995880841645,0.0599607290392773,-1.2312483099977305
0.8,1.006882152557373,0.3507966995239258,2.3876430988311768,-0.0451918069154135,0.0494128832006558,0.0093348143588527,-0.4516223073005676,-0.154031217098236,-0.4987460374832153,0.9848225754499432,0.3342244295030832,2.3976807123422623,-0.8709366828203201,-0.3570840064436197,-0.6430159717798233,0.4510472812538912,0.1838654279708862,0.4118531942367553,0.0037550926208496,11.116974622420004,-0.6055882818045832,0.1296281370806503,-1.2241582871781234
0.8200000000000001,0.9965720987319946,0.3479289710521698,2.375917673110962,-0.0250186649486581,0.0325415928418419,0.0100408775636826,-0.456855297088623,-0.1383101195096969,-0.5104297399520874,0.9843010371923446,0.343095138669014,2.362705796957016,-0.5516223087906837,-0.1715304907411337,-0.5987460389733315,1.0137134640658945,-0.261649489402771,0.7860548794269562,-0.5841851234436035,11.116974622420004,-0.6055882818045832,0.1296281370806503,-1.2241582871781234
0.84,0.9862880325317382,0.3453046977519989,2.3646891117095947,0.0091015164347777,0.0019805469378125,0.0094002253209137,-0.4633677005767822,-0.1235700398683548,-0.5164647102355957,0.9843010371923446,0.343095138669014,2.362705796957016,-0.5516223087906837,-0.1715304907411337,-0.5987460389733315,0.8603810396395974,-0.325620174407959,0.7370039820671082,-0.301748514175415,12.282644796119255,-0.5925798009143013,0.1454923723131556,-1.1885324726357729
0.86,0.975644907951355,0.3427519500255584,2.3531105518341064,0.0070278445788939,-0.0103825547782486,0.0084911847584213,-0.4708617925643921,-0.1164829730987548,-0.513160228729248,0.9843010371923446,0.343095138669014,2.362705796957016,-0.5516223087906837,-0.1715304907411337,-0.5987460389733315,0.5415429995423249,-0.3747045993804931,0.3543533384799957,0.1652240753173828,12.282644796119255,-0.5678819153022097,0.2281576230967011,-1.1867047409989029
0.88,0.9647569274902345,0.340129017829895,2.341580629348755,0.0196276373476039,-0.0287327973606907,0.0070090319630306,-0.4844498634338379,-0.1164527982473373,-0.5199408531188965,0.9787848141044376,0.3413798337616026,2.356718336567283,-0.5716223090887069,-0.1750303454697132,-0.6187460392713546,0.7592981094211859,-0.67940354347229,0.001508742570877,-0.3390312194824219,12.226308706546206,-0.5317238422364264,0.2517966472016314,-1.121493583808195
0.9,0.95917870759964,0.338870108127594,2.336085319519043,0.0241197491364999,-0.0372667209175025,0.0067065674523353,-0.4916341602802276,-0.115978717803955,-0.5111539363861084,0.9677523679286242,0.3379492239467799,2.344743415787816,-0.6116223096847534,-0.1820300549268722,-0.6587460398674011,0.567998193467186,-0.3592148423194885,0.0237040221691131,0.4393458366394043,11.324211566032318,-0.5048287220653206,0.2501213504227947,-1.1640032769749218
0.92,0.947567126750946,0.3363591432571411,2.32486629486084,0.0283770338902658,-0.044652518787809,0.0037216575427104,-0.5126546621322632,-0.1122879981994628,-0.509340763092041,0.9567199217528104,0.3345186141319572,2.3327684950083496,-0.6516223102807999,-0.1890297643840313,-0.6987460404634476,1.0709464350572475,-1.051025092601776,0.1845359802246093,0.0906586647033691,12.796243443181083,-0.48155145534428,0.2574660463053664,-1.0788424156346277
0.94,0.9354961133003236,0.3336760997772217,2.313995599746704,0.0293380111464965,-0.0442934190652911,0.0021632579064871,-0.5328583717346191,-0.116865187883377,-0.4970186948776245,0.9436874755471945,0.3307380188442766,2.3187935741990806,-0.6916223108768463,-0.1960294738411903,-0.738746041059494,1.2051700213866032,-1.010185480117798,-0.2288594841957092,0.6161034107208252,11.163844415357744,-0.4512043144504108,0.2780347412468742,-1.1082380459648142
0.96,0.9228510475158692,0.3311232924461365,2.302950382232666,0.0390152279081451,-0.0247249269251485,0.0011990233233493,-0.5561118125915527,-0.1178066432476043,-0.4931080341339111,0.9306550293415784,0.326957423556596,2.304818653389812,-0.7316223114728928,-0.2030291832983493,-0.7787460416555405,1.1799386820319964,-1.1626720428466797,-0.0470727682113647,0.1955330371856689,11.01604138377661,-0.4473500274772211,0.2624608662512968,-1.1893686861912312
0.98,0.909824571609497,0.3284535109996795,2.292257070541382,0.0383243736648911,-0.016885981140849,0.000205607875765,-0.577609658241272,-0.1175082474946975,-0.489116907119751,0.9166225831210612,0.3230018355324864,2.2898437325656413,-0.7716223120689392,-0.2100288927555084,-0.8187460422515869,1.093361219414316,-1.074892282485962,0.0149197876453399,0.1995563507080078,11.351318682183772,-0.5072754910196438,0.2755763426191011,-1.2134875911704284
1.0,0.9031894421577452,0.3269912004470825,2.286905288696289,0.0295823052525665,-0.0247628682784135,-0.000312411367021,-0.586695671081543,-0.1218527555465698,-0.4855549335479736,0.9015901368856428,0.3188712547719478,2.27386881172657,-0.8116223126649856,-0.2170286022126674,-0.8587460428476333,0.5341302165024754,-0.4543006420135498,-0.2172254025936126,0.1780986785888672,11.351318682183772,-0.565811868577328,0.2549675793371704,-1.5734770347327027
1.02,0.8895269250869751,0.3241921961307525,2.275925874710083,0.0305274470490698,-0.0152906941722924,-0.000745091784803,-0.6058546900749207,-0.1244477927684784,-0.4846751689910888,0.8738546586036682,0.320898562669754,2.2626275420188904,-0.6866956725716591,-0.1425089370459318,-0.5855549350380898,0.96769857477322,-0.9579509496688844,-0.1297518610954284,0.0439882278442382,10.62632737737522,-0.565811868577328,0.2549675793371704,-1.5734770347327027
1.04,0.8755529141426086,0.321310818195343,2.2651383876800537,0.0319133883779551,-0.0025018158563251,-0.0008849518318655,-0.6218218803405762,-0.1278086006641388,-0.4897552728652954,0.8738546586036682,0.320898562669754,2.2626275420188904,-0.6866956725716591,-0.1425089370459318,-0.5855549350380898,0.854478861739578,-0.7983595132827759,-0.16804039478302,-0.2540051937103271,12.10956723348454,-0.5488439424796019,0.2561546797812178,-1.533279751628023
1.06,0.8612161493301391,0.3182049095630646,2.2539823055267334,0.0359473249941276,0.0096252058383079,-0.0021759741734903,-0.6369924545288086,-0.1347139477729797,-0.4937303066253662,0.8738546586036682,0.320898562669754,2.2626275420188904,-0.6866956725716591,-0.1425089370459318,-0.5855549350380898,0.8567832766924556,-0.7585287094116211,-0.3452673554420471,-0.19875168800354,12.10956723348454,-0.5714915591898384,0.2536852349820515,-1.6876873406692317
1.08,0.846693000793457,0.3152225315570831,2.242990016937256,0.0458848627764637,0.0353826431285231,-0.0021896192165089,-0.6493480205535889,-0.1369864493608474,-0.4983383417129516,0.8669877018779516,0.3194734732992947,2.2567719926685097,-0.7066956728696823,-0.1466401733458042,-0.6055549353361129,0.6690632679873867,-0.6177783012390137,-0.1136250793933868,-0.2304017543792724,11.325897580342826,-0.6125936184096095,0.2252973662078753,-1.662214794423536
1.1,0.8392741298675537,0.3136476576328277,2.237373352050781,0.0396609516352494,0.0264964842812567,-0.0026346687830688,-0.6550825834274292,-0.1377307623624801,-0.5037188529968262,0.8532537884265183,0.316623294558376,2.245060893967748,-0.7466956734657287,-0.154902645945549,-0.6455549359321594,0.3949339022998921,-0.2867281436920166,-0.0372156500816345,-0.2690255641937256,11.325897580342826,-0.6643569036655349,0.2414086172213789,-1.593765647409084
1.12,0.8247137284278869,0.3104638755321502,2.2262744903564453,0.0383584270014123,0.0404131904915295,-0.0025077886346564,-0.655883252620697,-0.1424809545278549,-0.5007201433181763,0.8395198749750852,0.3137731158174574,2.233349795266986,-0.7866956740617752,-0.1631651185452938,-0.6855549365282059,0.283714894312338,-0.0400334596633911,-0.2375096082687378,0.1499354839324951,11.325897580342826,-0.6643569036655349,0.2414086172213789,-1.593765647409084
1.14,0.8098929738998413,0.3072500228881836,2.2150418758392334,0.0391143106761099,0.0760871022039837,-0.0039066512568532,-0.661076009273529,-0.1439467817544937,-0.5024582147598267,0.8237859614938496,0.3105098134465515,2.219638696536422,-0.8266956746578217,-0.1714275911450386,-0.7255549371242523,0.2834354576008777,-0.2596378326416015,-0.0732913613319397,-0.0869035720825195,11.325897580342826,-0.6643569036655349,0.2414086172213789,-1.593765647409084
1.16,0.7950000977516174,0.3037959635257721,2.2038516998291016,0.0337249879870764,0.0712742272460695,-0.0031900488160857,-0.6685566902160645,-0.1500280201435089,-0.5045127868652344,0.8080520480126142,0.3072465110756456,2.2059275978058577,-0.8666956752538681,-0.1796900637447834,-0.7655549377202988,0.4928572669758557,-0.37403404712677,-0.3040619194507599,-0.1027286052703857,10.595789481956672,-0.7657807660926286,0.2511720419442254,-1.5546609045475526
1.18,0.7802707171440124,0.3003304600715637,2.192462205886841,0.0295624028318553,0.0843713304747603,-0.0027831389241114,-0.6665008068084717,-0.1556901633739471,-0.508042573928833,0.7913181345164775,0.3037766468897461,2.1912164990603924,-0.9066956758499144,-0.1879525363445282,-0.8055549383163452,0.3490913894024064,0.1027941703796386,-0.2831071615219116,-0.1764893531799316,10.378291009606071,-0.7657807660926286,0.2511720419442254,-1.5546609045475526
1.2,0.7729789233207702,0.2986025810241699,2.186967372894287,0.0271442893208563,0.088050995425614,-0.0038746227688076,-0.66017746925354,-0.1546796411275863,-0.5075114965438843,0.7735842210054397,0.3001002208888531,2.1755054003000263,-0.946695676445961,-0.196215008944273,-0.8455549389123916,0.3212779024178401,0.316166877746582,0.0505261123180389,0.0265538692474365,10.378291009606071,-0.7742197095880786,0.2247439594812153,-1.5202099414114452
1.22,0.7584318137168884,0.2951450049877167,2.175278186798096,0.0251808179456727,0.0957777608270296,-0.0036344256392964,-0.6602928042411804,-0.1575489342212677,-0.517231822013855,0.7399700498580932,0.2908685989677906,2.161591798067093,-0.7054043971002102,-0.1781405955553054,-0.5989086404442787,0.5067811960278878,-0.005766749382019,-0.1434646546840667,-0.4860162734985351,10.183018374360472,-0.7205142157458275,0.2458720848435552,-1.4561652858013463
1.24,0.7440635776519775,0.2915088832378387,2.16335129737854,0.0253806479905167,0.1117621505003176,-0.0057056544791077,-0.6505953073501587,-0.1596082001924514,-0.5313616991043091,0.7399700498580932,0.2908685989677906,2.161591798067093,-0.7054043971002102,-0.1781405955553054,-0.5989086404442787,0.863040336373091,0.4848748445510864,-0.1029632985591888,-0.7064938545227051,11.31258058220601,-0.7566627129922489,0.239750833316359,-1.4552841466713076
1.26,0.7298108553886413,0.2879375219345093,2.151385307312012,0.0237412860378096,0.113018405687134,-0.0061069915741667,-0.6439715623855591,-0.1621683686971664,-0.5375897884368896,0.7399700498580932,0.2908685989677906,2.161591798067093,-0.7054043971002102,-0.1781405955553054,-0.5989086404442787,0.4722752292445502,0.3311872482299804,-0.1280084252357483,-0.3114044666290283,11.379855477745878,-0.7527801053779914,0.2286437240827903,-1.4591060944518266
1.28,0.7158534145355224,0.2844070792198181,2.13897705078125,0.018671833597669,0.1064392589528019,-0.0045542693418052,-0.6347286701202393,-0.1597905904054641,-0.5484205484390259,0.7329160058870912,0.2890871930122375,2.15560271166265,-0.7144497826695442,-0.1828327864408493,-0.6171880692243576,0.7217864110259239,0.4621446132659912,0.1188889145851135,-0.5415380001068115,11.379855477745878,-0.7519027490077957,0.2192431451268059,-1.3625002320657065
1.3,0.7089546537399292,0.2825536131858825,2.1326701641082764,0.0188578539691935,0.1046101094583062,-0.0044505800845233,-0.6284295320510864,-0.160192921757698,-0.5551260709762573,0.7188079179450869,0.2855243811011314,2.143624538853764,-0.7325405538082123,-0.1922171682119369,-0.6537469267845154,0.4604482691588699,0.3149569034576416,-0.0201165676116943,-0.3352761268615722,11.45395623587092,-0.7361559538394001,0.2313417444901438,-1.3213673549810403
1.32,0.6953189587593078,0.2789985537528991,2.120198965072632,0.0165497927138584,0.1110299751969256,-0.0051424123223719,-0.6204284429550171,-0.1618042588233947,-0.5622768402099609,0.7046998300030827,0.2819615691900253,2.131646366044879,-0.7506313249468803,-0.2016015499830246,-0.6903057843446732,0.5425572193239389,0.4000544548034668,-0.0805668532848358,-0.3575384616851806,11.45395623587092,-0.7058125809852575,0.2209301632800272,-1.2836051218724418
1.34,0.6819457626342773,0.2754187285900116,2.1075167655944824,0.0193244842875431,0.1350049342839004,-0.0068347528747715,-0.6077000498771667,-0.1605349034070968,-0.5659514665603638,0.689687203504145,0.2779295381903648,2.117840250357985,-0.7687220960855484,-0.2109859317541122,-0.7268646419048309,0.6654437097385251,0.6364196538925171,0.0634677708148956,-0.1837313175201416,11.077109181006108,-0.7139646306615167,0.2108927798026618,-1.1711714351819074
1.36,0.6688855504989624,0.2718314826488495,2.094743251800537,0.0176261746532288,0.1296052471870219,-0.0040404300080143,-0.5947517156600952,-0.1612590998411178,-0.5727535486221313,0.6746745770052075,0.2738975071907044,2.104034134671092,-0.7868128672242165,-0.2203703135251999,-0.7634234994649888,0.732209225302192,0.6474167108535767,-0.0362098217010498,-0.3401041030883789,11.077109181006108,-0.738135915136817,0.2201793332188965,-1.2320260305484854
1.38,0.6561209774017334,0.2682999968528747,2.081881284713745,0.0200380481753563,0.1406071403584897,-0.0040945137099732,-0.5810576677322388,-0.1601714640855789,-0.5767983198165894,0.6592096812278032,0.2696308666467666,2.0893140475451943,-0.8049036383628845,-0.2297546952962875,-0.7999823570251465,0.7160133975748524,0.6847023963928223,0.054381787776947,-0.2022385597229004,10.721426302624424,-0.7460420038985727,0.2146286007705338,-1.2977285640977023
1.4,0.6499140477180481,0.2665112018585205,2.075483798980713,0.0208850184448837,0.1437100261426921,-0.0037914885023212,-0.5708317756652832,-0.161573588848114,-0.575183629989624,0.6432925161719322,0.2651296165585518,2.073679988980293,-0.8229944095015526,-0.2391390770673751,-0.8365412145853043,0.5223553523513572,0.5112946033477783,-0.0701062381267547,0.0807344913482666,10.972182523266383,-0.7708896692338464,0.2228022713370024,-1.3617578893142877
1.42,0.6377948141098022,0.2629707157611847,2.062279224395752,0.0257237443095336,0.1524063793881666,-0.004242049968291,-0.5541538000106812,-0.160655602812767,-0.5863308906555176,0.6213724589347839,0.2584325224161148,2.046724617481232,-0.6015828680247068,-0.1659392933361232,-0.5882665244862437,1.0040654742719326,0.8338987827301025,0.0458993017673492,-0.5573630332946777,10.939356725661128,-0.7518019494118144,0.2095309215402412,-1.3568730287816977
1.44,0.6260320162773132,0.2593628168106079,2.049227237701416,0.028083448727807,0.1586608974849615,-0.0035995922322619,-0.5373457074165344,-0.1608386635780334,-0.5907726287841797,0.6213724589347839,0.2584325224161148,2.046724617481232,-0.6015828680247068,-0.1659392933361232,-0.5882665244862437,0.8693021993254141,0.8404046297073364,-0.0091530382633209,-0.2220869064331054,12.212262664448645,-0.7987932189948957,0.2255812257919288,-1.4094118962164304
1.46,0.6146620726585388,0.2556657791137695,2.035919666290283,0.0337372572013975,0.1717613796359373,-0.00635746299232,-0.5204867124557495,-0.1643610745668411,-0.5930900573730469,0.6213724589347839,0.2584325224161148,2.046724617481232,-0.6015828680247068,-0.1659392933361232,-0.5882665244862437,0.8689124891586366,0.8429497480392456,-0.1761205494403839,-0.1158714294433593,12.025202899723809,-0.8008622010931348,0.2391203633795047,-1.3834872200532444
1.48,0.6037836289405822,0.2520924508571625,2.022537469863892,0.0332912103848138,0.1630495720603041,-0.0028899056746884,-0.5005887150764465,-0.1635832339525222,-0.6005197763442993,0.6153566302545368,0.2567731294827535,2.040841952236369,-0.6077330864965915,-0.166812434233725,-0.5908831033855677,1.0627041682893463,0.9948998689651488,0.0388920307159423,-0.371485948562622,12.025202899723809,-0.8364948785198691,0.2308002910412016,-1.3662790762757535
1.5,0.5985780572891235,0.2501673400402069,2.01595401763916,0.0319369532901869,0.1620433093578752,-0.0037616683448121,-0.4873573780059814,-0.1680222898721695,-0.5948013067245483,0.6033249728940427,0.2534543436160311,2.0290766217466443,-0.620033523440361,-0.1685587160289287,-0.5961162611842156,0.754112711937071,0.6615668535232544,-0.2219527959823608,0.2859234809875488,12.424419581458096,-0.8270228578350607,0.2533055942688369,-1.3619818260753946
1.52,0.5884840703010559,0.246376633644104,2.0027763843536377,0.0290591481067209,0.158726628032561,-0.0041302773357761,-0.4676994681358337,-0.1674509793519973,-0.598529577255249,0.5912933155335486,0.2501355577493086,2.0173112912569198,-0.6323339603841305,-0.1703049978241324,-0.6013494189828634,1.0008244318103463,0.9828954935073853,0.0285655260086059,-0.1864135265350341,12.411862359595943,-0.7775536855732008,0.2142895492097185,-1.238096905930966
1.54,0.5788388466835022,0.2425294667482376,1.9896551370620728,0.0200497731321124,0.1615542986356681,-0.0074814072244902,-0.4441322386264801,-0.1718521416187286,-0.5917248129844666,0.578646636325866,0.2467294577928259,2.005284302877262,-0.6446343973279,-0.1720512796193361,-0.6065825767815113,1.2460832163478948,1.178361475467682,-0.2200581133365631,0.3402382135391235,12.718748495607542,-0.8131906741782342,0.2277863379111059,-1.2081662499049095
1.56,0.5697336411476135,0.2386468946933746,1.9769724607467647,0.0161424860148127,0.1530205083318814,-0.0051126778522398,-0.4218846559524536,-0.1739191263914108,-0.5805882811546326,0.5659999571181834,0.2433233578363433,1.993257314497605,-0.6569348342716694,-0.1737975614145398,-0.6118157345801591,1.2482484749490474,1.1123791337013245,-0.1033492386341095,0.5568265914916992,12.718748495607542,-0.7920851153609312,0.2089280611689593,-1.2452514577835831
1.58,0.5610558009147644,0.2347795963287353,1.9645872116088867,0.0089947665683591,0.1464783051685935,-0.0063499692218471,-0.4001185297966003,-0.1743720769882202,-0.5640283226966858,0.5530457669869066,0.2398736008349806,1.9810994971729812,-0.6692352712154388,-0.1755438432097435,-0.6170488923788071,1.3676637344433324,1.0883063077926636,-0.0226475298404693,0.8279979228973389,12.591056505174492,-0.7805957661117027,0.1966586959535627,-1.2730997329149147
1.6,0.5569728231430053,0.2328705042600631,1.9587186574935915,0.0025523071234631,0.1408112065136372,-0.0060459001500695,-0.39094939827919,-0.1724123954772949,-0.5567005276679993,0.5397840659320354,0.2363801867887377,1.968810850903392,-0.6815357081592083,-0.1772901250049471,-0.622282050177455,0.5949997991391928,0.4584565758705139,0.0979840755462646,0.3663897514343261,12.91864225188874,-0.7857074997345501,0.1817049099524415,-1.3381950394945874
1.62,0.548886022567749,0.2291195094585418,1.94693660736084,-0.0037017337249631,0.130458237501091,-0.0066714142054643,-0.3717823326587677,-0.1707551181316375,-0.5384990572929382,0.5374253532290458,0.2242498844861984,1.9308836311101916,-0.4444048665463924,-0.1716748244944028,-0.5286755915731192,1.324213442493534,0.9583532810211182,0.0828638672828674,0.9100735187530518,12.750101421691395,-0.7832013201081874,0.1906219341813767,-1.3740202675612327
1.64,0.5410696482658386,0.2254609614610672,1.935510516166687,-0.0113073707639361,0.1170378201607913,-0.0080928199837386,-0.3578214347362518,-0.1667147129774093,-0.5221831798553467,0.5374253532290458,0.2242498844861984,1.9308836311101916,-0.4444048665463924,-0.1716748244944028,-0.5286755915731192,1.0925193375539526,0.6980448961257935,0.2020202577114105,0.8157938718795776,12.880226995610428,-0.8126397979933274,0.1702457662332693,-1.484791098691478
1.66,0.5336339092254638,0.2219127565622329,1.924544095993042,-0.0153562625799869,0.104948860319322,-0.007919168076357,-0.343172550201416,-0.1621519327163696,-0.5038315057754517,0.5374253532290458,0.2242498844861984,1.9308836311101916,-0.4444048665463924,-0.1716748244944028,-0.5286755915731192,1.1960275115566703,0.7324442267417908,0.2281390130519867,0.917583703994751,12.822636863811567,-0.7985037869469634,0.1611395497387379,-1.5172617092248912
1.68,0.5265276646614074,0.2184232920408249,1.914110541343689,-0.021803464287438,0.0948048609711189,-0.0072165355043465,-0.3271946310997009,-0.1583475619554519,-0.481499433517456,0.532981304563582,0.2225331362412544,1.92559687519446,-0.4550959601998329,-0.1715273102978244,-0.5230706043541431,1.386081335134968,0.7988959550857544,0.1902185380458831,1.1166036128997805,12.822636863811567,-0.7785469572179778,0.1463470379236817,-1.5917732610660058
1.7,0.5228787279129028,0.216835543513298,1.9090306758880613,-0.0209048668974355,0.0886659079334022,-0.0075005041761728,-0.3270028531551361,-0.1532818675041198,-0.4756307601928711,0.5240932072326541,0.2190996397513663,1.9150233633629976,-0.4764781475067138,-0.1712322819046676,-0.5118606299161911,0.3877478744138172,0.0095888972282409,0.2532847225666046,0.293433666229248,13.421994654378976,-0.7344599788446035,0.1192734164890531,-1.6298482092515112
1.72,0.5161206340789795,0.2138781547546386,1.8994439840316768,-0.023600769538161,0.0799736999866021,-0.0067431437664754,-0.3158006072044372,-0.1413450390100479,-0.445793867111206,0.5152051099017262,0.2156661432614783,1.9044498515315356,-0.4978603348135948,-0.1709372535115108,-0.5006506554782391,1.7016303781987645,0.5601122975349426,0.596841424703598,1.491844654083252,12.676497849101906,-0.78677141573465,0.1311678210768886,-1.7224596199588416
1.74,0.5091214990615844,0.2109483927488327,1.8902225494384768,-0.0237210811505309,0.0695473541842332,-0.0070027530007111,-0.3095376491546631,-0.1324608922004699,-0.4231828451156616,0.5052479032054543,0.212247398191248,1.8944368384219703,-0.5192425221204757,-0.1706422251183539,-0.489440681040287,1.254403268241875,0.3131479024887085,0.4442073404788971,1.1305510997772217,12.78132441280286,-0.7699641566869191,0.1292919299216246,-1.7473012520390128
1.76,0.5023241257667541,0.2083111107349395,1.8816243410110476,-0.0167802212562666,0.0619563599416259,-0.0059465092031309,-0.3104214370250702,-0.1252584904432296,-0.4009419679641723,0.4952906965091824,0.2088286531210178,1.8844238253124057,-0.5406247094273567,-0.1703471967251971,-0.4782307066023349,1.1697353210664942,-0.0441893935203552,0.3601200878620147,1.112043857574463,13.168206639856637,-0.7473042122640619,0.1314879716902524,-1.7586965518934472
1.78,0.4954102253913879,0.2056512236595153,1.8737332820892332,-0.0233613123860652,0.0513242305251899,-0.006640421360632,-0.308503657579422,-0.1191863045096397,-0.3710085153579712,0.4847989351302385,0.2054172837606165,1.8746910615637895,-0.5620068967342376,-0.1700521683320403,-0.4670207321643829,1.5301641292210533,0.0958889722824096,0.3036092966794967,1.4966726303100586,13.168206639856637,-0.7503337043678097,0.1364645230924239,-1.8246409804447417
1.8,0.4920724248886108,0.204623132944107,1.8699017763137815,-0.0227580041959646,0.044760616085373,-0.0060697027906476,-0.3073073923587799,-0.1119131594896316,-0.3579434752464294,0.4737726190686226,0.2020132901100441,1.8652385471761224,-0.5833890840411187,-0.1697571399388834,-0.4558107577264308,0.7500416023068006,0.0598132610321044,0.3636572510004043,0.6532520055770874,13.03460168210222,-0.7382632910675754,0.1184690683699122,-1.7832566300563106
1.82,0.4850101685523987,0.2024984061717987,1.8626511096954343,-0.0208829074798225,0.0319666914671659,-0.0060138882574192,-0.3138720989227295,-0.0999575480818748,-0.3351178765296936,0.4767070552706718,0.1990274749696254,1.8520046025514605,-0.3751016333699226,-0.11108893470373,-0.3671087948605418,1.329511163154996,-0.3282353281974792,0.5977805703878403,1.141279935836792,13.03460168210222,-0.6936968574918723,0.1535391132194826,-1.808050746501089
1.84,0.4777660584449768,0.2004681527614593,1.8559540510177608,-0.0189016748474267,0.0195999173146292,-0.0051073541670037,-0.3218932449817657,-0.0934870541095733,-0.3138238191604614,0.4767070552706718,0.1990274749696254,1.8520046025514605,-0.3751016333699226,-0.11108893470373,-0.3671087948605418,1.1828386994748417,-0.4010573029518127,0.3235246986150741,1.0647028684616089,12.736731998647883,-0.6936968574918723,0.1535391132194826,-1.808050746501089
1.86,0.4703752017021179,0.1986711770296096,1.8496460914611816,-0.0167490486575056,0.0102706590277701,-0.0057789884083538,-0.3292867541313171,-0.086112655699253,-0.2926129102706909,0.4767070552706718,0.1990274749696254,1.8520046025514605,-0.3751016333699226,-0.11108893470373,-0.3671087948605418,1.1821044638575515,-0.3696754574775696,0.3687199205160141,1.0605454444885254,12.557386150139791,-0.6853751762614435,0.1464261192085195,-1.856515171828444
1.88,0.4626110410690308,0.197015032172203,1.8439970016479488,-0.0053454721469328,0.0104036465999888,-0.0037147091194216,-0.340987890958786,-0.0776952132582664,-0.2690336108207702,0.4729560389369726,0.1979165856225881,1.8483335146028548,-0.3886604815721511,-0.1109240897465497,-0.3689418587833643,1.3818043483535394,-0.5850568413734436,0.4208721220493316,1.1789649724960327,11.870556693334947,-0.6649212296652623,0.1463135202174461,-1.899985919751288
1.9,0.4587260103225708,0.1963549852371215,1.8414068222045896,-0.0150397329930928,0.000192881630108,-0.0055518048794097,-0.3450380265712738,-0.0719925016164779,-0.257030725479126,0.4654540062695741,0.1956948069285135,1.840991338705644,-0.4157781779766082,-0.110594399832189,-0.3726079866290092,0.6946109973819719,-0.2025067806243896,0.2851355820894241,0.6001442670822144,11.870556693334947,-0.6840231676234835,0.1687008177841271,-1.93410833775186
1.92,0.4506470775604248,0.1948578655719757,1.8361023664474487,-0.0127870216622478,0.0038979100388733,-0.005669349387287,-0.3560779988765716,-0.0670914351940155,-0.2363643050193786,0.4579519736021757,0.1934730282344389,1.8336491628084333,-0.4428958743810653,-0.1102647099178284,-0.3762741144746542,1.196873400989214,-0.5519986152648926,0.2450533211231231,1.0333210229873655,11.80200174181664,-0.6500918945557994,0.1914065248661793,-1.949714914197869
1.94,0.4422328686714172,0.1936611831188202,1.8312307596206665,-0.0094069715078099,0.0094509552260482,-0.0055895312438652,-0.3710956871509552,-0.0606105476617813,-0.2289614081382751,0.4490940561145544,0.1912677340360823,1.8261236805189405,-0.4700135707855224,-0.1099350200034678,-0.3799402423202991,0.8976855609625758,-0.7508844137191772,0.3240443766117096,0.3701448440551758,12.165375143977144,-0.6198690586257475,0.169508502915157,-1.9781818543053655
1.96,0.4336204147338867,0.1923912167549133,1.826880931854248,-0.0079517101811542,0.0179329542333157,-0.0052536975301121,-0.3830999135971069,-0.0554995983839035,-0.2074822783470153,0.4402361386269331,0.1890624398377258,1.818598198229447,-0.4971312671899796,-0.1096053300891071,-0.3836063701659441,1.2565590631575094,-0.6002113223075867,0.2555474638938904,1.0739564895629885,11.291886501509907,-0.6670014816067938,0.1696578829153381,-2.0144256525755297
1.98,0.4248417532444,0.1915510445833206,1.8222912549972532,-0.0006507235529699,0.0287142267423447,-0.0043074238513992,-0.3913000822067261,-0.0474781170487403,-0.2011388540267944,0.4307002787292003,0.1868653878872282,1.8109810627438128,-0.5242489635944366,-0.1092756401747465,-0.387272498011589,0.6554120080966703,-0.410008430480957,0.4010740667581558,0.3171712160110473,11.21511024296069,-0.6781327881295169,0.1713221578271548,-1.9577201691337256
2.0,0.4203450894355774,0.1910129487514495,1.820324182510376,0.0008753185408977,0.0330527475877119,-0.0044982663045764,-0.3972150385379791,-0.0452924519777298,-0.1957583427429199,0.4204864764213562,0.1846765781845897,1.8032722740620373,-0.5513666599988937,-0.1089459502603858,-0.390938625857234,0.4144687620290799,-0.2957478165626526,0.1092832535505294,0.2690255641937256,11.046273722729891,-0.680723143519582,0.1997513800266636,-1.9133344113226616
2.02,0.4112965083122253,0.1899623721837997,1.816124439239502,0.0064193425757861,0.0397570854917094,-0.0044591002779537,-0.404857337474823,-0.0454061105847358,-0.1885029673576355,0.4004843375086784,0.1887483261525631,1.81053626537323,-0.4076246079057455,-0.0552149144932627,-0.2481392510235309,0.5269205900807603,-0.3821149468421936,-0.0056829303503036,0.3627687692642212,11.115243901203485,-0.716433609381904,0.2025610707184338,-1.8582831667538604
2.04,0.40218909740448,0.1891189068555832,1.8118900060653689,0.0111404664159365,0.0481965998639119,-0.0039837323556279,-0.4085098206996918,-0.0426159426569938,-0.1897689700126648,0.4004843375086784,0.1887483261525631,1.81053626537323,-0.4076246079057455,-0.0552149144932627,-0.2481392510235309,0.2383717343535572,-0.1826241612434387,0.1395083963871002,-0.0633001327514648,11.221901563384565,-0.724689490190635,0.1852421056426908,-1.895610302198261
2.06,0.3930268502235413,0.1882843524217605,1.8077129125595093,0.0176725123081747,0.0565284750058847,-0.0026474088651588,-0.4110673069953918,-0.0377554446458816,-0.1892593502998352,0.4004843375086784,0.1887483261525631,1.81053626537323,-0.4076246079057455,-0.0552149144932627,-0.2481392510235309,0.2757938057699265,-0.1278743147850036,0.2430249005556106,0.0254809856414794,11.831153146115412,-0.7165648821807796,0.1970709596691355,-1.838698497925764
2.08,0.3838329529762268,0.1872798800468444,1.8034828901290891,0.0282847704651628,0.081160887565715,-0.0029970003043264,-0.4130132496356964,-0.0413781031966209,-0.1891601085662841,0.396408091429621,0.1881961770076304,1.8080548728629944,-0.4097065217792988,-0.0571994069963693,-0.2586154326796531,0.2056708332279895,-0.0972971320152282,-0.1811329275369644,0.0049620866775512,11.350615163746625,-0.7273314497084665,0.2246314667959985,-1.7882823165479205
2.1,0.3792183911800384,0.1868924796581268,1.801383376121521,0.0238640510896683,0.0716672401393604,-0.0028173063345493,-0.4112912714481354,-0.0387344509363174,-0.1903697848320007,0.3882555992715061,0.1870918787177652,1.803092087842524,-0.4138703495264053,-0.0611683920025825,-0.2795677959918975,0.1689483857549527,0.0860989093780517,0.1321826130151748,-0.0604838132858276,11.350615163746625,-0.7634605755765198,0.2129318193627619,-1.727912660387335
2.12,0.3702514088153839,0.1860705465078354,1.7970762252807615,0.0259827523838402,0.0847139292467642,-0.0017668417664175,-0.4083924889564514,-0.0381319597363472,-0.1883742213249206,0.3801031071133912,0.1859875804278999,1.7981293028220535,-0.4180341772735119,-0.0651373770087957,-0.300520159304142,0.1785231728020538,0.144939124584198,0.0301245599985122,0.0997781753540039,11.12661200580851,-0.7462361728932185,0.2502789501881218,-1.6849002580370658
2.14,0.3611063575744629,0.1850063204765319,1.7925522327423096,0.0320694395570976,0.1220708947479154,-0.0023869383733382,-0.4075207710266113,-0.042438581585884,-0.198700726032257,0.3717424235679209,0.184684832887724,1.7921188996359707,-0.4221980050206184,-0.0691063620150089,-0.3214725226163864,0.5611229441369214,0.0435858964920043,-0.2153310924768448,-0.5163252353668213,11.351632019393492,-0.7441120464084048,0.2613997869965427,-1.6172271300778804
2.16,0.3525181925296783,0.1840532124042511,1.7879571914672852,0.0278463515588295,0.1147279754922058,-0.0008599543286521,-0.3989973664283752,-0.0453900173306465,-0.2051782608032226,0.3633817400224507,0.1833820853475481,1.786108496449888,-0.426361832767725,-0.0730753470212221,-0.3424248859286308,0.5552428649018405,0.4261702299118042,-0.147571787238121,-0.3238767385482788,10.588491609441007,-0.8206798307611007,0.2501590130190187,-1.6963383857297232
2.18,0.3440819597244263,0.1829604506492614,1.78320050239563,0.0290420743440391,0.1301524426981657,-0.0013129213228813,-0.383048951625824,-0.0460320711135864,-0.2104139328002929,0.3549169607833028,0.1819801131822168,1.779574284180999,-0.4305256605148315,-0.0770443320274353,-0.3633772492408752,0.8399053950227522,0.7974207401275635,-0.0321026891469955,-0.2617835998535156,10.556491547018595,-0.8293005158343061,0.2414568291069921,-1.7422177146569715
2.2,0.3400224363803864,0.1824704855680465,1.7806226015090942,0.0311713872037795,0.1381509064073315,0.0002815631721933,-0.3783202171325683,-0.0463723763823509,-0.2176827192306518,0.3463480858504772,0.1804789163917303,1.772516262829304,-0.4346894882619381,-0.0810133170336484,-0.3843296125531196,0.4339124155685793,0.2364367246627807,-0.0170152634382247,-0.3634393215179443,10.496714917075678,-0.8155525129804673,0.2458903414374089,-1.7451372646092924
2.22,0.3319859719276428,0.1814509034156799,1.7754650115966797,0.0327922816109313,0.1531031901675066,0.0016837928711231,-0.3653430342674255,-0.0475713238120079,-0.2281352877616882,0.3211064255237579,0.180151866748929,1.7697384655475616,-0.3665143996477127,-0.0716623030602932,-0.2308486653491854,0.8353157171848999,0.6488591432571411,-0.0599473714828491,-0.5226284265518188,10.485390135178022,-0.843638207204685,0.2542571345798968,-1.7606460235410626
2.24,0.3244371926784515,0.180119901895523,1.770191311836243,0.0371180494680143,0.1818485177801119,-7.52330986993e-05,-0.3506679832935333,-0.0528881326317787,-0.2347040176391601,0.3211064255237579,0.180151866748929,1.7697384655475616,-0.3665143996477127,-0.0716623030602932,-0.2308486653491854,0.8467198316378325,0.7337525486946106,-0.2658404409885406,-0.3284364938735962,11.73498209840318,-0.9295423383216408,0.2444050127950592,-1.6548755253342504
2.26,0.3172028279304504,0.1789384633302688,1.764538288116455,0.0369318229609707,0.1735070925138571,0.0027247213818616,-0.3326207399368286,-0.0565299019217491,-0.2458512783050537,0.3211064255237579,0.180151866748929,1.7697384655475616,-0.3665143996477127,-0.0716623030602932,-0.2308486653491854,1.0761353268651572,0.9023621678352356,-0.1820884644985199,-0.5573630332946777,11.707842760078163,-0.9241702249559454,0.2400068431500631,-1.58604130548985
2.28,0.3104811227321625,0.1775623708963394,1.7587376832962036,0.038627225540233,0.190213271042844,0.0002472020751632,-0.3140115737915039,-0.0575444474816322,-0.2577066421508789,0.3174412815272808,0.1794352437183261,1.7674299788940695,-0.3641532361507416,-0.0767202883958816,-0.2334818545728922,1.104400311520099,0.9304583072662354,-0.0507272779941558,-0.5927681922912598,11.707842760078163,-0.9241702249559454,0.2400068431500631,-1.58604130548985
2.3000000000000003,0.3074358916282654,0.1769484728574752,1.7558374404907229,0.0374918263675456,0.1829118308305906,0.0030497171002228,-0.300837904214859,-0.0597871094942092,-0.263446569442749,0.3101109935343266,0.1780019976571202,1.762813005587086,-0.3594309091567993,-0.0868362590670585,-0.2387482330203056,0.7271895700799602,0.6586834788322449,-0.1121331006288528,-0.2869963645935058,11.707842760078163,-0.9157230437518424,0.2596410460206856,-1.4887036179633093
2.32,0.3012205874919891,0.1752995699644088,1.7495211362838743,0.0384866045456574,0.1832603094766657,0.0039194435607237,-0.2863761186599731,-0.0677894800901413,-0.2736416459083557,0.3027807055413723,0.1765687515959143,1.7581960322801025,-0.354708582162857,-0.0969522297382354,-0.244014611467719,0.9709798668480594,0.7230892777442932,-0.4001185297966003,-0.5097538232803345,11.664790808949874,-0.8769930119159395,0.2489688755560294,-1.4298984387967868
2.34,0.2963957107067108,0.173751026391983,1.744024634361267,0.0407070966793724,0.1858666408475132,-0.0002869113582733,-0.2484040707349777,-0.0719425454735755,-0.2657881379127502,0.2956865338981151,0.1746297070011496,1.753315740050748,-0.3499862551689148,-0.1070682004094123,-0.2492809899151325,1.9498730494151848,1.8986023962497711,-0.2076532691717147,0.3926753997802734,11.699684000395791,-0.9579270108438088,0.2325450345482107,-1.4044310401144091
2.36,0.291610232591629,0.1721402108669281,1.738183617591858,0.0397254456729069,0.1746848045736584,0.0035126935303582,-0.2162329852581024,-0.0710855796933174,-0.2550941705703735,0.288592362254858,0.1726906624063849,1.7484354478213937,-0.3452639281749725,-0.1171841710805893,-0.254547368362546,1.6956370990196947,1.6085542738437653,0.0428482890129089,0.5346983671188354,11.699684000395791,-0.8552128167740937,0.2369786825536815,-1.320687196017044
2.38,0.2873838758468628,0.1703263968229293,1.7324979305267334,0.0395516185441054,0.1697363451280654,0.0018038142630038,-0.2027662843465805,-0.0770541653037071,-0.259350836277008,0.2816162487864495,0.1704987185448408,1.743423496130854,-0.3405416011810303,-0.1273001417517662,-0.2598137468099594,0.7666408066477002,0.6733350455760956,-0.2984292805194855,-0.212833285331726,11.719506542174711,-0.7871681741240684,0.2685890543993239,-1.2351029081991105
2.4,0.2853797292709351,0.1693745851516723,1.7296258211135864,0.0401194442718983,0.1662120775998565,0.0017520370087933,-0.1905743032693863,-0.0816031917929649,-0.255008339881897,0.2747581934928894,0.1680538754165172,1.738279884979129,-0.335819274187088,-0.1374161124229431,-0.2650801252573728,0.6859214961061211,0.6095990538597107,-0.2274513244628906,0.2171248197555542,11.688014842485243,-0.8503536342853033,0.2551912680053796,-1.3204720684817464
2.42,0.2820968842506409,0.1673636138439178,1.7241636514663696,0.0401725967456553,0.1585259743861337,0.0020484518135348,-0.165424570441246,-0.0851098448038101,-0.2524226903915405,0.2758510141074657,0.1652944255620241,1.7168754041194916,-0.220325231552124,-0.1016355864703655,-0.2153513543307781,1.2762163413311691,1.257486641407013,-0.1753326505422592,0.1292824745178222,12.025939445525182,-0.8302507787251145,0.2273037910836248,-1.304395056435122
2.44,0.2792548751831055,0.1652948558330536,1.7189278602600098,0.0438218651063419,0.155805098212013,-0.001192519280499,-0.1378092169761657,-0.0917939096689224,-0.2407041192054748,0.2758510141074657,0.1652944255620241,1.7168754041194916,-0.220325231552124,-0.1016355864703655,-0.2153513543307781,1.5367249109431051,1.380767673254013,-0.3342032432556152,0.5859285593032837,12.401062060816455,-0.8487570949471418,0.2443460973679393,-1.3626921870681403
2.46,0.2768413937091827,0.1630004495382309,1.7137192487716677,0.0426799378160104,0.1480398694701701,-0.0011023722302835,-0.1182485371828079,-0.0981711968779563,-0.2349990606307983,0.2758510141074657,0.1652944255620241,1.7168754041194916,-0.220325231552124,-0.1016355864703655,-0.2153513543307781,1.0675177744015276,0.9780339896678923,-0.3188643604516983,0.2852529287338257,12.1917898656975,-0.8090236125863164,0.2335726682810934,-1.354880951582386
2.48,0.274856618642807,0.1605955064296722,1.7089985609054563,0.0387950047171407,0.1349815424943547,0.0014812118561108,-0.0989607721567154,-0.1057353615760803,-0.2234092354774475,0.2736477617919445,0.1642780696973204,1.7147218905761838,-0.2262754172086715,-0.1056420654058456,-0.2074199572205543,1.1869693702528157,0.9643882513046264,-0.3782082349061966,0.5794912576675415,12.1917898656975,-0.7916467661334462,0.2299495745282538,-1.3526999728521438
2.5,0.2741500949859619,0.1593226194381714,1.7068662643432615,0.0355222399725065,0.1282190083575943,0.0006302080047399,-0.0868640094995498,-0.1070523262023925,-0.2113875746726989,0.269241257160902,0.1622453579679131,1.7104148634895682,-0.2381757885217666,-0.1136550232768058,-0.1915571630001068,0.8552578428684232,0.6048381328582764,-0.0658482313156127,0.6010830402374268,12.71799902555631,-0.7667516967544927,0.2113870261742459,-1.3280406385808423
2.52,0.2726375675201416,0.1567846983671188,1.702550172805786,0.0314253813586986,0.1154284017551458,0.0001030580337999,-0.0715385377407074,-0.1121894270181655,-0.1978263258934021,0.2648347525298595,0.1602126462385058,1.7061078364029527,-0.2500761598348617,-0.1216679811477661,-0.1756943687796592,1.0549494749471118,0.7662735879421234,-0.2568550407886505,0.6780624389648438,12.645867598351288,-0.7089830417952128,0.223107558924623,-1.2694366236506902
2.54,0.2714562630653381,0.1541726887226104,1.6987359523773191,0.0254850609396845,0.1015723868655459,-0.000387605901619,-0.060611218214035,-0.1158734411001205,-0.1829320192337036,0.2598332293331623,0.1577792866155505,1.7025939490273596,-0.2619765311479568,-0.1296809390187263,-0.1598315745592117,0.9418315171345354,0.5463659763336182,-0.1842007040977478,0.7447153329849243,12.439829581689082,-0.7291307727582003,0.2090622031429581,-1.356813882766098
2.56,0.2705519413948059,0.1515679508447647,1.695303440093994,0.0242800560408917,0.0804144945265317,-0.0016506673874233,-0.0469265878200531,-0.1173768192529678,-0.1630514860153198,0.254831706136465,0.1553459269925952,1.6990800616517665,-0.2738769024610519,-0.1376938968896865,-0.1439687803387641,1.209095587554613,0.6842315196990967,-0.0751689076423645,0.9940266609191896,12.590557927409463,-0.7291307727582003,0.2090622031429581,-1.356813882766098
2.58,0.26965456366539,0.1488760411739349,1.6923044919967651,0.0171399303885283,0.0629120561091915,-0.0015188860517713,-0.0405382364988327,-0.1191745698451995,-0.1447078585624694,0.2495326736569404,0.1527122434228658,1.6959627441316845,-0.285777273774147,-0.1457068547606468,-0.1281059861183166,0.975360968980424,0.3194175660610199,-0.0898875296115875,0.9171813726425172,12.590557927409463,-0.6735532522726952,0.2152768234022518,-1.406686912481195
2.6,0.2694396591186523,0.1474780142307281,1.6911818981170654,0.015101705083785,0.0512764219096857,-0.0010919172484064,-0.0341042876243591,-0.123060755431652,-0.1250740885734558,0.2439361318945884,0.1498782359063625,1.6932419964671137,-0.2976776450872421,-0.153719812631607,-0.1122431918978691,1.051169658657898,0.3216974437236786,-0.1943092793226242,0.9816884994506836,12.528140072889071,-0.6515674013393223,0.2050330675074858,-1.47526036761428
2.62,0.2685399568080902,0.144820362329483,1.6892569065093994,0.0131980718319423,0.0271335344002398,-0.0017148149334018,-0.035955011844635,-0.1205106452107429,-0.1006338000297546,0.2677344447374344,0.1413249764591455,1.6849281936883926,-0.1152858138084411,-0.1121831629425287,-0.1160278692841529,1.232128185678819,-0.0925362110137939,0.1275055110454559,1.2220144271850586,12.22222004339801,-0.5777070346570965,0.1560793422595809,-1.4058520439921791
2.64,0.2675009882450104,0.1420737653970718,1.688191294670105,0.0089720752519036,-0.0002832946957954,-0.0017593253172584,-0.0436200946569442,-0.121595598757267,-0.0672885775566101,0.2677344447374344,0.1413249764591455,1.6849281936883926,-0.1152858138084411,-0.1121831629425287,-0.1160278692841529,1.711603400689816,-0.3832541406154632,-0.0542476773262023,1.6672611236572266,12.09497543157704,-0.5481365483184808,0.1523371521208738,-1.4176602853121087
