t,x,y,z,roll,pitch,yaw,v_x,v_y,v_z,ref_x,ref_y,ref_z,ref_v_x,ref_v_y,ref_v_z,a_com,a_x,a_y,a_z,thrust,wind_x,wind_y,wind_z
0.0,1.245600700378418,0.51645827293396,2.4730894565582275,0.010287684298033,0.0823933291652517,0.002834777342453,0.0062790513038635,0.0123944878578186,0.0285172462463378,1.2457948923110962,0.5169335901737213,2.4743629693984985,-0.0947214141488075,-0.0880319848656654,-0.0690794959664344,1.5860983166314404,0.3139525651931762,0.6197243928909302,1.4258623123168943,12.003089998539508,-0.8677188829846724,0.1397152031341194,-1.947959532615178
0.02,1.2457700967788696,0.5166236162185669,2.473623991012573,0.0107199442551679,0.0840808606199825,0.0028719112078308,0.0069737434387207,0.0084368884563446,0.0254863500595092,1.2459146529436111,0.5170779973268509,2.4745153188705444,-0.0937209501862526,-0.0819409191608429,-0.0714827552437782,0.2516521501999934,0.0347346067428588,-0.1978799700736999,-0.1515448093414306,12.02548913688588,-0.883508886940349,0.1103405251158112,-1.9956994767999912
0.04,1.246060490608215,0.5169201493263245,2.4742796421051025,0.0106739235386064,0.0843495112955766,0.0030937307645487,0.0103452801704406,0.0103922188282012,0.0267791748046875,1.2459146529436111,0.5170779973268509,2.4745153188705444,-0.0937209501862526,-0.0819409191608429,-0.0714827552437782,0.205316661636284,0.1685768365859985,0.0977665185928344,0.0646412372589111,12.074875455289655,-0.8818679899390353,0.1206985282731855,-2.016921028077416
0.06,1.246288776397705,0.5170234441757202,2.474679708480835,0.0167685799390022,0.0892654435660451,-0.000910066557321,0.0116702914237976,0.0089961290359497,0.0237536430358886,1.2459146529436111,0.5170779973268509,2.4745153188705444,-0.0937209501862526,-0.0819409191608429,-0.0714827552437782,0.1792941996660974,0.0662505626678466,-0.0698044896125793,-0.1512765884399414,12.018838902889913,-0.8993676223259344,0.1187362968001029,-2.05420371254489
0.08,1.2466837167739868,0.5172526240348816,2.4752650260925293,0.0161420854611647,0.0891792722267522,-0.0012366856252064,0.0140225887298583,0.0074806809425354,0.022171139717102,1.2449774434417489,0.5162585881352425,2.473800491318107,-0.1137209504842758,-0.1008080005645751,-0.0914827555418014,0.1607342705671738,0.1176148653030395,-0.0757724046707153,-0.079125165939331,11.392543787285833,-0.9015787778131102,0.1140701569877611,-2.0023233952653947
0.1,1.2468225955963137,0.5172908902168274,2.475480318069458,0.0096482527823388,0.0833121934975674,0.0039325433880346,0.0150015950202941,0.006515085697174,0.0219887495040893,1.2431030244380237,0.5146197697520256,2.4723708362132317,-0.1537209510803222,-0.1385421633720397,-0.1314827561378479,0.0693558520310303,0.0489503145217895,-0.0482797622680664,-0.0091195106506347,11.64858665490192,-0.9064177387718092,0.1041848022253831,-1.980181385067865
0.12,1.2472076416015625,0.5174512267112732,2.475862503051758,0.0142372409913259,0.0874853244996177,-0.0010337194566309,0.0165063142776489,0.0074994564056396,0.0208675861358642,1.2412286054342985,0.5129809513688087,2.470941181108356,-0.1937209516763687,-0.1762763261795044,-0.1714827567338943,0.1059501419700447,0.0752359628677368,0.0492185354232788,-0.0560581684112548,11.582947080837585,-0.9125711045634816,0.1142041492351484,-1.9579349272865592
0.14,1.2475441694259644,0.5175215601921082,2.4764623641967773,0.0061103898519663,0.0810021021562596,0.0030420165434004,0.0162354111671447,0.0051900744438171,0.022096037864685,1.237354186400771,0.5094554248452187,2.467511525973678,-0.2337209522724151,-0.2140104889869689,-0.2114827573299408,0.1314888511520541,-0.0135451555252075,-0.1154690980911254,0.06142258644104,11.119189859678954,-0.9152045157812648,0.0908140045801137,-1.8690867736932404
0.16,1.2479442358016968,0.5176700949668884,2.476529836654663,0.0076790782400189,0.0762122087527725,0.0037181191594475,0.0165733695030212,0.0049245357513427,0.0150150060653686,1.2334797673672435,0.5059298983216285,2.464081870839,-0.2737209528684616,-0.2517446517944336,-0.2514827579259873,0.3547031786470186,0.0168979167938232,-0.0132769346237182,-0.3540515899658203,11.186196183450193,-0.9079887762595678,0.0849032133564015,-1.850048456602058
0.18,1.2482842206954956,0.5178544521331787,2.47644567489624,0.0168469260854289,0.07345057651259,-0.0003411110969412,0.0166511535644531,0.0074900686740875,-0.0003755092620849,1.228605348318815,0.5014610177278518,2.4596522156894207,-0.313720953464508,-0.2894788146018982,-0.2914827585220337,0.780153785452722,0.0038892030715942,0.1282766461372375,-0.7695257663726807,11.126469488000112,-0.8989014874034629,0.1094707842882767,-1.876408826678426
0.2,1.2483865022659302,0.5178802013397217,2.4764223098754883,0.009943826563317,0.0681426808252157,0.0033158351004761,0.0139367580413818,0.0063072144985198,-0.0017863512039184,1.2227309292554855,0.4960487830638885,2.454222560524941,-0.3537209540605545,-0.3272129774093628,-0.3314827591180801,0.1639936129942545,-0.1357197761535644,-0.0591427087783813,-0.0705420970916748,11.305801405226248,-0.9022246633063667,0.0990652312409387,-1.8375194821026
0.22,1.2486398220062256,0.5179268717765808,2.476070642471313,0.0252972525262539,0.0563717408467727,9.322890277836616e-05,0.0118929147720336,0.0028994679450988,-0.0078427791595458,1.2490833401679993,0.5181955620646477,2.4763329923152924,-0.0860632434487342,-0.0824435651302337,-0.1017863526940345,0.3621821070391183,-0.1021921634674072,-0.170387327671051,-0.302821397781372,11.371528157330433,-0.885484822414535,0.0979218009581526,-1.8398616369873304
0.24,1.2488723993301392,0.5182190537452698,2.475306749343872,0.0210478634249983,0.0484108528472465,0.0046341443478922,0.0109326839447021,0.0076241791248321,-0.0251001119613647,1.2490833401679993,0.5181955620646477,2.4763329923152924,-0.0860632434487342,-0.0824435651302337,-0.1017863526940345,0.895908023189863,-0.0480115413665771,0.2362355589866638,-0.8628666400909424,10.961322447928978,-0.8510719974123635,0.1386936786733881,-1.8606402493600969
0.26,1.2490029335021973,0.5181171894073486,2.4745032787323,0.0237048581849497,0.0374147884435074,0.0037428197549962,0.0081700086593627,0.004282146692276,-0.0352656841278076,1.2490833401679993,0.5181955620646477,2.4763329923152924,-0.0860632434487342,-0.0824435651302337,-0.1017863526940345,0.5525857693237315,-0.1381337642669677,-0.1671016216278076,-0.5082786083221436,11.007648315514416,-0.8174087225401768,0.1297696839396032,-1.8424395843317107
0.28,1.2488470077514648,0.5181222558021545,2.4732913970947266,0.0405589223870175,0.0324781699175985,0.0001964496509896,-0.0005713105201721,-0.0021779537200927,-0.0453454256057739,1.248222707733512,0.5173711264133454,2.475315128788352,-0.1060632437467574,-0.1001937210559844,-0.1217863529920577,0.7411894943248767,-0.4370659589767456,-0.3230050206184387,-0.5039870738983154,12.461721724856488,-0.8228492021121426,0.133045669392447,-2.0007585866294004
0.3,1.248693346977234,0.5179507732391357,2.472405910491944,0.0353612735571449,0.0222283448677423,0.0036029168747892,-0.0048655271530151,-0.0042083859443664,-0.0608164072036743,1.2465014428645371,0.5157222551107407,2.4732794017344717,-0.1460632443428039,-0.1356940329074859,-0.1617863535881042,0.8091882091172101,-0.2147108316421508,-0.101521611213684,-0.7735490798950195,12.145345157455267,-0.7847762010911405,0.1530461676766834,-2.134563532337717
0.32,1.2481658458709717,0.5177656412124634,2.4708058834075928,0.0419819185162721,0.013561699803849,0.0034952520730572,-0.0181987881660461,-0.0075624883174896,-0.0675702095031738,1.2447801779955625,0.5140733838081359,2.471243674680591,-0.1860632449388504,-0.1711943447589874,-0.2017863541841507,0.7658976718069588,-0.6666630506515503,-0.1677051186561584,-0.3376901149749756,12.145345157455267,-0.7931665096368353,0.1724320826299482,-2.1996653819217618
0.34,1.2475073337554932,0.5173303484916687,2.46908974647522,0.0442818776743513,0.0054092329952365,0.0034986568572379,-0.0266852974891662,-0.0139595568180084,-0.0746136903762817,1.2410589130967855,0.5106494969129562,2.467207947596908,-0.2260632455348968,-0.2066946566104888,-0.2417863547801971,0.637483232527671,-0.4243254661560058,-0.3198534250259399,-0.3521740436553955,11.850162880743484,-0.7592148155141079,0.1729047320635021,-2.222916567293644
0.36,1.2463805675506592,0.5169047713279724,2.4671432971954346,0.0452260982841709,0.003354055692214,0.002889821239489,-0.0401687622070312,-0.0193695724010467,-0.0824081897735595,1.2373376481980085,0.5072256100177764,2.4631722205132247,-0.2660632461309433,-0.2421949684619904,-0.2817863553762436,0.8243577958944649,-0.6741732358932495,-0.2705007791519165,-0.3897249698638916,11.85301794606812,-0.7565129068513233,0.1807373283249168,-2.2483993337852106
0.38,1.2449872493743896,0.5160930156707764,2.465207576751709,0.0521680588202921,0.0097991186988531,-0.0015749162454681,-0.0567018985748291,-0.0278399884700775,-0.0873488187789917,1.2326163832843302,0.5029142153263092,2.4581364934146404,-0.3060632467269897,-0.2776952803134918,-0.32178635597229,0.9611222106319413,-0.8266568183898926,-0.4235208034515381,-0.2470314502716064,11.764290296001036,-0.7813638259248887,0.1785218033219542,-2.242291014503897
0.4,1.2440507411956787,0.515744686126709,2.4639785289764404,0.0504599771241075,0.0131496306569832,-0.0015735078286753,-0.0630533695220947,-0.0312544405460357,-0.0942581892013549,1.226895118355751,0.4977153128385543,2.452100766301155,-0.3460632473230361,-0.3131955921649932,-0.3617863565683364,0.4993472384183261,-0.3175735473632812,-0.1707226037979126,-0.345468521118164,11.637628920054794,-0.7463114520513607,0.2038341232241772,-2.233448807652365
0.42,1.2421694993972778,0.5147299766540527,2.4618887901306152,0.0409656994656293,0.0076955826055529,0.0014815444659844,-0.0801149010658264,-0.0409506261348724,-0.097401738166809,1.240898072719574,0.5141819640994072,2.4592656195163727,-0.1630533710122108,-0.107344701886177,-0.1942581906914711,0.993722513694244,-0.8530765771865845,-0.4848092794418335,-0.157177448272705,11.796696541772237,-0.7728881080695617,0.1756536514956723,-2.223026328362691
0.44,1.2400693893432615,0.5137555599212646,2.459303617477417,0.0399963482365783,0.012468933378841,0.0016631886391694,-0.0895804166793823,-0.0447553396224975,-0.1051855087280273,1.240898072719574,0.5141819640994072,2.4592656195163727,-0.1630533710122108,-0.107344701886177,-0.1942581906914711,0.6415974491514816,-0.4732757806777954,-0.1902356743812561,-0.3891885280609131,11.856049847901886,-0.7572369565273411,0.1853085986787353,-2.2489067093762363
0.46,1.2375144958496094,0.5125513076782227,2.456660270690918,0.0379324117945395,0.0191398997882251,0.001313835050627,-0.1047375798225402,-0.0490200519561767,-0.1176416873931884,1.240898072719574,0.5141819640994072,2.4592656195163727,-0.1630533710122108,-0.107344701886177,-0.1942581906914711,1.003847290148951,-0.757858157157898,-0.2132356166839599,-0.6228089332580566,11.754147132124215,-0.7871480168404881,0.1876022024390147,-2.287574640411361
0.48,1.2348097562789917,0.5110820531845093,2.45393443107605,0.0438071834056079,0.03230406071798,-0.0020021165069479,-0.1183417439460754,-0.0601539015769958,-0.1208066940307617,1.239267539009452,0.5131085170805454,2.457323037609458,-0.183053371310234,-0.1225627541542053,-0.2142581909894943,0.8931029558440857,-0.6802082061767578,-0.5566924810409546,-0.1582503318786621,11.398261163105415,-0.8211477739619052,0.1546532104370537,-2.2215602944035577
0.5,1.2333614826202393,0.5103868246078491,2.452634811401367,0.0347334481165681,0.0298174111007223,0.002980061182528,-0.1242908835411071,-0.0606165826320648,-0.1245349645614624,1.2360064715892076,0.5109616230428219,2.453437873795629,-0.2230533719062805,-0.1529988586902618,-0.2542581915855407,0.3518036982110382,-0.2974569797515869,-0.0231340527534484,-0.1864135265350341,11.553807588188649,-0.802207339874218,0.1781279180355029,-2.186363957027719
0.52,1.2303252220153809,0.5087534785270691,2.449723958969116,0.0348650441867991,0.0371666609672193,0.0031164725381316,-0.1323160529136657,-0.0673998892307281,-0.125543475151062,1.2327454041689634,0.5088147290050984,2.4495527099817997,-0.2630533725023269,-0.1834349632263183,-0.2942581921815872,0.5278107745183318,-0.4012584686279297,-0.3391653299331665,-0.0504255294799804,11.53368740384758,-0.8082723539338451,0.1606293939187822,-2.1362220978332958
0.54,1.227081060409546,0.507119357585907,2.446659564971924,0.0317423142285303,0.0467664681911963,0.0027375672481666,-0.1413094997406005,-0.0735180079936981,-0.1344430446624755,1.2274843367189168,0.505146029740572,2.443667546138168,-0.3030533730983734,-0.2138710677623748,-0.3342581927776336,0.7027015734207358,-0.4496723413467407,-0.3059059381484985,-0.4449784755706787,11.28451466980323,-0.8313281881342519,0.1439677404234874,-2.109366776013031
0.56,1.2237173318862915,0.505314290523529,2.4433412551879883,0.0312037021379917,0.0529516350700638,0.0031931214058441,-0.1486775279045105,-0.0773817300796508,-0.1436108350753784,1.22222326926887,0.5014773304760456,2.437782382294536,-0.3430533736944199,-0.2443071722984314,-0.3742581933736801,0.6190003401383595,-0.3684014081954956,-0.1931861042976379,-0.4583895206451416,11.035156282448952,-0.8485973003216003,0.141212324805766,-2.056933784122694
0.58,1.2202473878860474,0.5034886002540588,2.4402310848236084,0.0328734820426138,0.0635673170899256,-0.0007435601256295,-0.153757631778717,-0.0816920399665832,-0.1446408033370971,1.2159622018039224,0.4970477285981178,2.430897218436003,-0.3830533742904663,-0.2747432768344879,-0.4142581939697266,0.3370721781542613,-0.2540051937103271,-0.2155154943466186,-0.0514984130859375,11.166879330273332,-0.8649536948279934,0.1391309458317353,-1.9767181043700903
0.6,1.2184181213378906,0.502562940120697,2.4385406970977783,0.0249344469420286,0.0583747704454264,0.0035144320157954,-0.1574295759201049,-0.0834327936172485,-0.147741436958313,1.2087011343240737,0.4918572241067886,2.4230120545625686,-0.4230533748865127,-0.3051793813705444,-0.454258194565773,0.2555744798624837,-0.1835972070693969,-0.0870376825332641,-0.155031681060791,11.3091532120784,-0.8650040820527095,0.1421943323458881,-1.9366135132531892
0.62,1.2147297859191897,0.5005250573158264,2.4350295066833496,0.0231559838875301,0.060063530140948,0.0032281888564447,-0.1624989509582519,-0.0884391367435455,-0.154082179069519,1.2105466425418854,0.4983913004398346,2.4311536252498627,-0.2574295774102211,-0.1590749248862266,-0.2477414384484291,0.476883228097903,-0.2534687519073486,-0.2503171563148498,-0.3170371055603027,11.195868684633751,-0.8749249748987031,0.1224463971248601,-1.9072190164156235
0.64,1.2110538482666016,0.4985216856002807,2.4312329292297363,0.0221312558661317,0.0586231924367962,0.0023072473193234,-0.1656961441040039,-0.0909282267093658,-0.1644247770309448,1.2105466425418854,0.4983913004398346,2.4311536252498627,-0.2574295774102211,-0.1590749248862266,-0.2477414384484291,0.5553983828318177,-0.1598596572875976,-0.1244544982910156,-0.5171298980712891,11.442243201904148,-0.8721192629559011,0.1196645889176909,-1.9354127668009515
0.66,1.2073180675506592,0.496607631444931,2.427335262298584,0.0279672457044567,0.0603689013710603,-0.0017610396353006,-0.1667636632919311,-0.0881420820951461,-0.1731204986572265,1.2105466425418854,0.4983913004398346,2.4311536252498627,-0.2574295774102211,-0.1590749248862266,-0.2477414384484291,0.4596677431300842,-0.0533759593963623,0.1393072307109832,-0.4347860813140869,11.40301058658497,-0.8587313178802942,0.1572875082476502,-1.945135912439008
0.68,1.2054080963134766,0.4954831302165985,2.4254322052001958,0.0277172409113399,0.0577517035332094,-0.0019232827470231,-0.1708942651748657,-0.0914807617664337,-0.1747941970825195,1.2079723467677832,0.4968005511909723,2.4286762108653783,-0.2774295777082443,-0.1742033511400222,-0.2677414387464523,0.2784327579578211,-0.2065300941467285,-0.1669339835643768,-0.0836849212646484,11.372651354157824,-0.8616908365763847,0.1529271433127477,-1.907854252896408
0.7000000000000001,1.2013583183288574,0.493424504995346,2.4211151599884038,0.0206784482157428,0.0519807834678194,0.0023922344246845,-0.1773396134376526,-0.0932168215513229,-0.1846539974212646,1.2028237552195786,0.4936190526932478,2.42372138209641,-0.3174295783042907,-0.2044602036476135,-0.3077414393424987,0.5953404079290218,-0.3222674131393432,-0.086802989244461,-0.4929900169372558,11.42403883975112,-0.8708221566109222,0.1489454844739118,-1.9313928529640452
0.72,1.1974302530288696,0.4912406504154205,2.416690826416016,0.0200472151909757,0.0492980548925751,0.0012185349039485,-0.179501473903656,-0.0954557955265045,-0.1966810226440429,1.1976751636713745,0.4904375541955232,2.4187665533274414,-0.3574295789003372,-0.2347170561552047,-0.3477414399385452,0.6211601662320171,-0.1080930233001709,-0.1119486987590789,-0.601351261138916,11.839006652925493,-0.8517463472627884,0.1426588893009917,-2.015449835127639
0.74,1.1933025121688845,0.4890000820159912,2.412373781204224,0.0183028498469667,0.0466480677879887,0.0018491501930793,-0.1812556385993957,-0.0995495170354843,-0.1966810226440429,1.1905265720933675,0.4857432130724192,2.4118117245286705,-0.3974295794963836,-0.264973908662796,-0.3877414405345916,0.2226861556813958,-0.0877082347869873,-0.2046860754489898,0.0,11.69131308724809,-0.8279072041047199,0.1230146531721341,-1.9990053919303128
0.76,1.1890288591384888,0.486863762140274,2.4076156616210938,0.0275957195333518,0.0509267064008316,-0.0025713695623004,-0.1890313625335693,-0.0984799861907959,-0.2041912078857422,1.1833779805153608,0.481048871949315,2.4048568957299,-0.4374295800924301,-0.2952307611703872,-0.4277414411306381,0.543158957610147,-0.3887861967086792,0.0534765422344207,-0.3755092620849609,11.410570590071984,-0.8474306422050247,0.1494023301145447,-1.9954739013122944
0.78,1.186740517616272,0.4857921004295349,2.405153274536133,0.0278572075873562,0.0491156939819692,-0.002329816723108,-0.1941061019897461,-0.0990694016218185,-0.2108484506607055,1.1752293889224528,0.4755981095135212,2.3969020669162275,-0.4774295806884766,-0.3254876136779785,-0.4677414417266846,0.4195809590031669,-0.2537369728088379,-0.0294707715511322,-0.3328621387481689,11.511993655688457,-0.8464467697218588,0.1632718082675555,-1.9995898272339976
0.8,1.1823453903198242,0.4835203289985657,2.400402307510376,0.0211600150563665,0.0439103944944781,0.0016680415779014,-0.1983734965324401,-0.0996541231870651,-0.2145177125930786,1.166080797314644,0.4693909257650375,2.387947238087654,-0.517429581284523,-0.3557444661855697,-0.507741442322731,0.2829135849523743,-0.2133697271347046,-0.0292360782623291,-0.1834630966186523,11.40254956905892,-0.833035090046343,0.1656253429322913,-1.972523057514888
0.8200000000000001,1.177753210067749,0.4810559451580047,2.395348072052002,0.0212939860727143,0.040572763900846,0.0010146293990901,-0.2022144198417663,-0.1065634936094284,-0.2206170558929443,1.1724267154932022,0.4785376228392124,2.389676421880722,-0.2983734980225563,-0.1684825047850608,-0.3145177140831947,0.4992346146632125,-0.1920461654663086,-0.345468521118164,-0.3049671649932861,11.567078694551128,-0.8149071550782712,0.1302047508175762,-1.983475493046224
0.84,1.1730369329452517,0.4787757098674774,2.390120029449463,0.0222656097474072,0.03556294427954,0.0009660588292514,-0.2094402909278869,-0.1067539304494857,-0.2313512563705444,1.1724267154932022,0.4785376228392124,2.389676421880722,-0.2983734980225563,-0.1684825047850608,-0.3145177140831947,0.6470559076242851,-0.3612935543060303,-0.0095218420028686,-0.5367100238800049,11.682670733861414,-0.8129094504275433,0.1413099316713909,-2.035259520959797
0.86,1.167999029159546,0.4763621985912323,2.384772777557373,0.0238816968610632,0.0302456326759647,0.001357557932951,-0.2194690704345703,-0.1056092977523803,-0.2379441261291504,1.1724267154932022,0.4785376228392124,2.389676421880722,-0.2983734980225563,-0.1684825047850608,-0.3145177140831947,0.6028111936147497,-0.5014389753341675,0.0572316348552703,-0.3296434879302978,11.34840236405944,-0.8193424082508086,0.1603959873376652,-2.0155623904436872
0.88,1.1654677391052246,0.4751652181148529,2.3818936347961426,0.0345160700580125,0.032790670811038,-0.0024125099953457,-0.2227038145065307,-0.107746347784996,-0.2425682544708252,1.169442980512977,0.4768527977913618,2.3865312447398903,-0.3183734983205795,-0.18224818110466,-0.3345177143812179,0.3017164023270282,-0.1617372035980224,-0.106852501630783,-0.2312064170837402,11.316270685434574,-0.7871864122754556,0.1719577964578843,-1.98199272655508
0.9,1.1601022481918335,0.4725897908210754,2.3763716220855717,0.0266096356228483,0.0273763836294861,0.0012196266489291,-0.2348649501800537,-0.1133816689252853,-0.2500784397125244,1.1634755105525254,0.4734831476956606,2.3802408904582264,-0.3583734989166259,-0.2097795337438583,-0.3745177149772644,0.7682007348158761,-0.6080567836761475,-0.2817660570144653,-0.3755092620849609,11.730824388483144,-0.8070476333294967,0.1514232472881025,-2.0205879505777373
0.92,1.1546818017959597,0.4701237380504608,2.370729923248291,0.0272793109723176,0.0250564751950015,0.0015147005399467,-0.2426835894584655,-0.113433301448822,-0.2511835098266601,1.1575080405920743,0.4701134975999593,2.3739505361765625,-0.3983734995126724,-0.2373108863830566,-0.4145177155733108,0.3948258034898668,-0.3909319639205932,-0.0025816261768341,-0.0552535057067871,11.434477736003828,-0.7940215371634962,0.1669982081033848,-1.9799821541126328
0.94,1.1490434408187866,0.4674270153045654,2.3649327754974365,0.0273347584754257,0.0268832415975427,0.000744576578708,-0.2488231658935547,-0.1161624491214752,-0.2573740482330322,1.149540570601821,0.4653672798722982,2.3656601818650964,-0.4383735001087188,-0.2648422390222549,-0.4545177161693572,0.4567970325599148,-0.3069788217544555,-0.1364573836326599,-0.3095269203186035,11.04487280230842,-0.773655009451515,0.1633440489645865,-1.9279798812313305
0.96,1.143100023269653,0.4646947383880615,2.359097003936768,0.0339836027490623,0.0362572376732835,-0.0030086198456504,-0.2605900168418884,-0.122152492403984,-0.2617406845092773,1.1415731006115677,0.4606210621446371,2.35736982755363,-0.4783735007047653,-0.2923735916614532,-0.4945177167654038,0.6953540683271578,-0.588342547416687,-0.2995021641254425,-0.2183318138122558,11.155953632655836,-0.8026064251109077,0.1499657402985142,-1.8840322279547543
0.98,1.137116312980652,0.4619506895542145,2.3530874252319336,0.0323217380719733,0.0400470420822619,-0.0030666935004453,-0.2683603763580322,-0.1232173293828964,-0.2665203809738159,1.1326056306064127,0.455186560600996,2.3480794732272625,-0.5183735013008117,-0.3199049443006516,-0.5345177173614502,0.4592326836553236,-0.3885179758071899,-0.0532418489456176,-0.2389848232269287,11.41900091709249,-0.8102859652717038,0.1667718561235256,-1.879517023167127
1.0,1.133998155593872,0.4605399370193481,2.349998712539673,0.0226912220258522,0.0337295597384837,-1.28455803458356e-05,-0.2720376849174499,-0.1230121403932571,-0.2711445093154907,1.1226381605863571,0.449063775241375,2.3377891188859943,-0.5583735018968582,-0.3474362969398498,-0.5745177179574966,0.2955810535323442,-0.1838654279708862,0.0102594494819641,-0.2312064170837402,11.441301839340213,-0.7838003338939519,0.1758016014125333,-1.8779812841886336
1.02,1.1275516748428345,0.4577375054359436,2.3436241149902344,0.0244657940575128,0.0385068991646807,0.0004456551813946,-0.2829515933990478,-0.1273506134748459,-0.2797865867614746,1.1203962713479996,0.4543893299996853,2.3364414870738983,-0.372037686407566,-0.1949801594018936,-0.3711445108056068,0.7290768985620586,-0.545695424079895,-0.2169236540794372,-0.4321038722991943,11.606732744193778,-0.8116793987345275,0.1592199460340791,-1.920620948275824
1.04,1.1210622787475586,0.4548856019973755,2.337277412414551,0.023751010425728,0.0399412548145918,0.0010212472774252,-0.2910572290420532,-0.1272225379943847,-0.2862292528152466,1.1203962713479996,0.4543893299996853,2.3364414870738983,-0.372037686407566,-0.1949801594018936,-0.3711445108056068,0.5177491631723806,-0.4052817821502685,0.006403774023056,-0.3221333026885986,11.76042676976931,-0.8219651482274464,0.171041536589359,-1.963291131659851
1.06,1.1142938137054443,0.4518369436264038,2.330516815185547,0.0319429104871762,0.0475103756710898,-0.0028643159772492,-0.2983018755912781,-0.1327626407146453,-0.2949142456054687,1.1203962713479996,0.4543893299996853,2.3364414870738983,-0.372037686407566,-0.1949801594018936,-0.3711445108056068,0.6296958423327205,-0.3622323274612427,-0.277005136013031,-0.4342496395111084,11.934752204972028,-0.8373718052894216,0.1597381547264051,-2.03463466143096
1.08,1.107520341873169,0.4489126205444336,2.323705673217773,0.0319273291342278,0.0484842932293185,-0.0030701978191247,-0.3046935796737671,-0.1343920826911926,-0.3053641319274902,1.116675894483924,0.4524395284056663,2.332730041965842,-0.3920376867055893,-0.2093737632036209,-0.3911445111036301,0.6178775897704427,-0.3195852041244507,-0.081472098827362,-0.5224943161010742,11.844010618488028,-0.8465615452271348,0.1730889332998757,-2.0968977672890112
1.1,1.1039693355560305,0.4474393129348755,2.3202872276306152,0.0244758181449937,0.0420815658740866,0.0007592642441075,-0.3080087900161743,-0.1338301599025726,-0.3075313568115234,1.1092351407557726,0.4485399252176285,2.32530715174973,-0.4320376873016357,-0.2381609708070755,-0.4311445116996765,0.2000202523042794,-0.1657605171203613,0.0280961394309997,-0.1083612442016601,11.5465333275165,-0.8255282365247364,0.1862182664876117,-2.066217337532944
1.12,1.0969669818878174,0.4443825781345367,2.313110828399658,0.0323723571267867,0.0511089011135876,-0.0032055145393286,-0.3118041157722473,-0.1355186104774475,-0.3183996677398681,1.1017943870276212,0.4446403220295906,2.317884261533618,-0.4720376878976822,-0.2669481784105301,-0.4711445122957229,0.5817549857407408,-0.1897662878036499,-0.0844225287437439,-0.5434155464172363,11.412516824147133,-0.8215265529638851,0.1949392927685114,-2.074842661350674
1.14,1.0897780656814575,0.4413084685802459,2.3059511184692383,0.0260599909710907,0.0465850138047119,0.000516821056661,-0.3193035721778869,-0.1379439979791641,-0.3225624561309814,1.0923536332696675,0.4393013584613799,2.308461371287704,-0.5120376884937287,-0.2957353860139847,-0.5111445128917694,0.445682504993073,-0.3749728202819824,-0.1212693750858306,-0.208139419555664,11.035573008580286,-0.8322276482057053,0.1879810898266554,-1.996965809242525
1.16,1.0825039148330688,0.4380249977111816,2.298691987991333,0.0316792286827631,0.054539625713724,-0.0033421533434268,-0.325419008731842,-0.1430455595254898,-0.3244239091873169,1.0829128795117138,0.4339623948931694,2.299038481041789,-0.5520376890897751,-0.3245225936174393,-0.5511445134878159,0.4089300121577635,-0.3057718276977539,-0.2550780773162842,-0.0930726528167724,11.434468244009622,-0.8463956728193635,0.1750279685715347,-1.9620751498608835
1.18,1.0751076936721802,0.4348802864551544,2.2912847995758057,0.0310186703459226,0.0558152092355019,-0.0033718852655129,-0.3300833702087402,-0.1446340978145599,-0.3299921751022339,1.072472125738859,0.4279037511348724,2.288615590780973,-0.5920376896858215,-0.3533098012208939,-0.5911445140838623,0.3717704506218862,-0.2332180738449096,-0.0794269144535064,-0.2784132957458496,11.660398899127358,-0.8533200825548849,0.1848228734986167,-1.9809906624244071
1.2,1.0714163780212402,0.4331676661968231,2.2874698638916016,0.0227811661053593,0.0487735019770791,-7.202098817786986e-05,-0.332934558391571,-0.1459463685750961,-0.3363972902297973,1.061031371951103,0.4211254271864891,2.277192700505257,-0.632037690281868,-0.3820970088243484,-0.6311445146799087,0.3566399739240358,-0.1425594091415405,-0.0656135380268096,-0.3202557563781738,11.57154335313544,-0.8381259571670038,0.1829732362882312,-1.992733888470944
1.22,1.063839554786682,0.4299441874027252,2.2796247005462646,0.0241155029201419,0.0487352168534829,0.0010366817092007,-0.336855947971344,-0.1487995684146881,-0.3426843881607055,1.0547696501016617,0.4258703477680683,2.270649999380112,-0.4329345598816871,-0.2096729800105095,-0.4363972917199135,0.3970064418678549,-0.1960694789886474,-0.142659991979599,-0.3143548965454101,12.013035339476572,-0.8338878514295278,0.1751285832547335,-2.055667128911845
1.24,1.056143045425415,0.426681250333786,2.2716853618621826,0.0323574368905616,0.0514259841318766,-0.003133902047648,-0.3436499834060669,-0.1459443569183349,-0.3551512956619262,1.0547696501016617,0.4258703477680683,2.270649999380112,-0.4329345598816871,-0.2096729800105095,-0.4363972917199135,0.7241114085918868,-0.339701771736145,0.1427605748176574,-0.6233453750610352,11.199157808642212,-0.8460408684610297,0.2117559588685734,-2.049376248405959
1.26,1.0483845472335815,0.4232353270053863,2.263722419738769,0.0253474783063896,0.0431966222951354,0.0003658074060892,-0.3477376699447632,-0.1509493589401245,-0.3578013181686401,1.0547696501016617,0.4258703477680683,2.270649999380112,-0.4329345598816871,-0.2096729800105095,-0.4363972917199135,0.3492200086007615,-0.2043843269348144,-0.2502501010894775,-0.1325011253356933,11.333164154437329,-0.8302254369314169,0.1871572112199823,-2.001642949191188
1.28,1.040421962738037,0.4198933243751526,2.255331516265869,0.0364922317917172,0.0426453358767108,-0.0032274669997569,-0.3537243604660034,-0.152728334069252,-0.3679615259170532,1.0504403045028448,0.4237736179679632,2.2662860264629128,-0.4529345601797104,-0.2224183022975921,-0.4563972920179367,0.5963116580238793,-0.2993345260620117,-0.0889487564563751,-0.5080103874206543,12.328538934114476,-0.8320521731896409,0.2049739330328309,-2.125002064315817
1.3,1.0364623069763184,0.4181137382984161,2.251041889190674,0.031321816559554,0.0360344357787811,0.0006877234925568,-0.3534400463104248,-0.1545636355876922,-0.3743988275527954,1.0417816133052111,0.419580158367753,2.2575580806285145,-0.4929345607757568,-0.2479089468717575,-0.4963972926139831,0.3349926064563981,0.0142157077789306,-0.0917650759220123,-0.3218650817871094,11.771582088377729,-0.7835169632201048,0.2101399545165803,-2.1438706494063715
1.32,1.02833354473114,0.4145354926586151,2.2426013946533203,0.0333535206308697,0.0299340638992551,0.0004512560084679,-0.3637558221817016,-0.1559436321258545,-0.3831696510314941,1.0331229221075773,0.4153866987675428,2.248830134794116,-0.5329345613718033,-0.2733995914459228,-0.5363972932100296,0.6805273079867009,-0.5157887935638428,-0.0689998269081115,-0.4385411739349365,11.364368626233045,-0.7948691291950719,0.2187108596429644,-2.1256718136116945
1.34,1.0200154781341553,0.4109354019165039,2.233840227127075,0.0353553471485527,0.0268488491543472,0.0008732526960774,-0.3700536489486694,-0.1615125685930252,-0.3870373964309692,1.0224642308801413,0.4099187069386244,2.238102188929916,-0.5729345619678498,-0.2988902360200882,-0.5763972938060761,0.4626962552184759,-0.3148913383483886,-0.2784468233585357,-0.1933872699737548,11.153101834668632,-0.7756730687306798,0.2027601737769668,-2.0545967508196963
1.36,1.0114737749099731,0.407255470752716,2.225128412246704,0.0435222660134993,0.029457722829327,-0.0034939277218746,-0.3793448209762573,-0.1638004928827285,-0.3931421041488647,1.011805539652705,0.4044507151097059,2.227374243065715,-0.6129345625638962,-0.3243808805942536,-0.6163972944021225,0.5675119635800185,-0.4645586013793945,-0.1143962144851684,-0.3052353858947754,12.049192425088222,-0.7834119332558115,0.2245621819766519,-2.113573711767588
1.38,1.0070868730545044,0.4052168130874634,2.220872402191162,0.0420388493960772,0.030584252188188,-0.0034528599321948,-0.3848755359649658,-0.1698683202266693,-0.3909534215927124,1.0001468484103675,0.3983454571664333,2.215646297186613,-0.6529345631599426,-0.3498715251684189,-0.6563972949981689,0.4248460553359453,-0.2765357494354248,-0.3033913671970367,0.1094341278076171,11.031729213475046,-0.7652583167775809,0.213370421866465,-1.9920352985368808
1.4,0.9983631372451782,0.4014910459518432,2.2119452953338623,0.0325835539338911,0.022579179977018,0.0002801605521996,-0.3923749923706054,-0.1710712909698486,-0.3934800624847412,0.9874881571531294,0.3916029331088066,2.2029183512926105,-0.692934563755989,-0.3753621697425842,-0.6963972955942154,0.4002277451224087,-0.3749728202819824,-0.060148537158966,-0.1263320446014404,11.360037758647197,-0.751751283431646,0.2215933327145911,-1.95444651384419
1.42,0.989218771457672,0.3974487781524658,2.202812433242798,0.029044702624942,0.0261570487796755,-0.0011688196126022,-0.4020322859287262,-0.174780786037445,-0.4063493013381958,0.978744387626648,0.3929374814033508,2.192271292209625,-0.4923749938607216,-0.2296509854495525,-0.4934800639748573,0.8255921832107963,-0.4828646779060364,-0.1854747533798217,-0.6434619426727295,11.527098370179829,-0.7582899540369012,0.2094517183684501,-2.004196562952834
1.44,0.980015218257904,0.3934932649135589,2.1932578086853027,0.0292046737560737,0.0283878293894423,-0.0001835998464709,-0.4128281772136688,-0.1799500733613968,-0.4204684495925903,0.978744387626648,0.3929374814033508,2.192271292209625,-0.4923749938607216,-0.2296509854495525,-0.4934800639748573,0.9255041160138624,-0.5397945642471313,-0.258464366197586,-0.7059574127197266,11.427814659713931,-0.7737170008223475,0.189776751470127,-2.043338841375124
1.46,0.9705906510353088,0.3894351422786712,2.183980703353882,0.032418892522308,0.037873187438481,-0.0035996901459016,-0.4191327095031738,-0.1803068071603775,-0.4237139225006103,0.978744387626648,0.3929374814033508,2.192271292209625,-0.4923749938607216,-0.2296509854495525,-0.4934800639748573,0.3549911294294491,-0.3152266144752502,-0.0178366899490356,-0.1622736454010009,11.356129878602587,-0.7727143973501635,0.2059149373607452,-2.002650234679256
1.48,0.9658811688423156,0.3873994350433349,2.1791975498199463,0.0312962794761552,0.0401512926884405,-0.0034339068535934,-0.4204228520393371,-0.183594524860382,-0.4229253530502319,0.9738206376880408,0.3906409715488553,2.1873364915698765,-0.5123749941587448,-0.2413669243454933,-0.5134800642728805,0.1809378153994588,-0.0645071268081665,-0.1643858850002288,0.0394284725189209,11.397309603145914,-0.7448471364252,0.2009763500666133,-1.9474222315798853
1.5,0.9561868906021118,0.3832818567752838,2.169377088546753,0.0218811179003051,0.0353747576662872,5.6238503133953085e-05,-0.4290153086185455,-0.1843784004449844,-0.4332786798477173,0.9639731378108264,0.3860479518398643,2.1774668902903795,-0.5523749947547912,-0.2647988021373749,-0.553480064868927,0.6738622759385727,-0.4296228289604187,-0.0391937792301178,-0.5176663398742676,11.837138196869546,-0.7600396294574764,0.199829003897364,-2.020207915775846
1.52,0.9463706016540528,0.3790631592273712,2.1597564220428467,0.0210069866082025,0.0377911836626432,-0.0004584836880901,-0.4389877617359161,-0.1875662058591842,-0.4374253749847412,0.9541256379336118,0.3814549321308732,2.1675972890108826,-0.5923749953508377,-0.2882306799292564,-0.5934800654649734,0.5630430824909722,-0.4986226558685303,-0.1593902707099914,-0.2073347568511963,11.820874776545224,-0.7851001496074725,0.1829679627260959,-2.0444441040579964
1.54,0.9363672733306884,0.3749270141124725,2.149583339691162,0.0202479799392119,0.0418132234366567,0.000262939474713,-0.4459413886070251,-0.1879839599132537,-0.4453593492507934,0.9422781380265952,0.375690318532288,2.155727687701583,-0.6323749959468842,-0.311662557721138,-0.6334800660610199,0.5279095395204563,-0.3476813435554504,-0.0208877027034759,-0.3966987133026123,11.109592618769057,-0.7909243242593461,0.1820223221793971,-2.002296145069828
1.56,0.9262785315513612,0.3708211779594421,2.1393465995788574,0.0195773248504588,0.0466775551053917,-0.0001016169448818,-0.4520715773105621,-0.1854445785284042,-0.4592210054397583,0.9304306381195784,0.3699257049337029,2.143858086392284,-0.6723749965429306,-0.3350944355130196,-0.6734800666570664,0.7683963555024195,-0.3065094351768493,0.1269690692424774,-0.6930828094482422,11.365025236784732,-0.7990878863496285,0.1988597919751361,-2.031911934097858
1.58,0.9161202907562256,0.3665567934513092,2.129168033599853,0.0250986309874972,0.0552623401249852,-0.0031065611468204,-0.455557107925415,-0.1883299648761749,-0.4593443870544433,0.9175831381976604,0.3635752943903207,2.130988485068083,-0.712374997138977,-0.3585263133049011,-0.7134800672531127,0.226327202661438,-0.1742765307426452,-0.1442693173885345,-0.0061690807342529,11.299851269014198,-0.8014853195127234,0.1884158179194167,-1.966098371773932
1.6,0.9110246300697328,0.3644640147686004,2.1239326000213623,0.0256221456535082,0.0557464764402977,-0.003297597531143,-0.4576800763607025,-0.1884097605943679,-0.4652988910675049,0.9037356382608414,0.3566390869021416,2.117118883728981,-0.7523749977350235,-0.3819581910967826,-0.7534800678491592,0.3161071035876712,-0.1061484217643737,-0.0039897859096527,-0.2977252006530761,11.58603711640444,-0.7979381194565978,0.1978651145423312,-1.978130150959992
1.62,0.9007670283317566,0.3604269027709961,2.113485813140869,0.0187562301304711,0.0488249061513444,0.0013654113160838,-0.4582098126411438,-0.1865778118371963,-0.4657012224197387,0.8881406262516975,0.355043526738882,2.100667655467987,-0.5576800778508186,-0.2420280911028385,-0.5439754948019981,0.0974490545452955,-0.0264868140220642,0.0915974378585815,-0.0201165676116943,11.56209061453319,-0.7755050921456283,0.2076701750917901,-1.952868661663176
1.64,0.8903405666351318,0.356093168258667,2.1027016639709477,0.0187955995899537,0.0480374626944148,-0.0004063093563656,-0.4653914272785187,-0.1883440464735031,-0.4776960611343384,0.8881406262516975,0.355043526738882,2.100667655467987,-0.5576800778508186,-0.2420280911028385,-0.5439754948019981,0.7045766980597364,-0.3590807318687439,-0.0883117318153381,-0.5997419357299805,11.655140757753088,-0.7954495391233092,0.1949405087017097,-2.012184940583319
1.66,0.8799440860748291,0.3518758118152618,2.091662168502808,0.0194595366029812,0.0462532885724615,0.0002289769107041,-0.4685162007808685,-0.1923995465040207,-0.4910320043563843,0.8881406262516975,0.355043526738882,2.100667655467987,-0.5576800778508186,-0.2420280911028385,-0.5439754948019981,0.714245531242842,-0.1562386751174926,-0.2027750015258789,-0.6667971611022949,11.929031119972478,-0.787453714877272,0.1714536399415515,-2.105633056356098
1.68,0.8747199773788452,0.3497955799102783,2.0862953662872314,0.0274140937649996,0.050794494127148,-0.0036083842461628,-0.4694294929504394,-0.1877901703119278,-0.4898679256439209,0.8825638254731893,0.3526232458278537,2.095227900519967,-0.5776800781488418,-0.2527517572045326,-0.5597108155488968,0.2420512895857134,-0.0456646084785461,0.2304688096046447,0.0582039356231689,11.496158954209932,-0.7707404656365554,0.2134805731856596,-2.0468702696666363
1.7,0.8640959858894348,0.3455808460712433,2.0751287937164307,0.0208302672993899,0.0453479425420134,0.0002818653356863,-0.473647266626358,-0.1903087645769119,-0.495232343673706,0.871410223916173,0.3477826840057969,2.0843483906239277,-0.6176800787448883,-0.2741990894079208,-0.5911814570426941,0.3636960016661124,-0.2108886837959289,-0.1259297132492065,-0.2682209014892578,11.487565735672431,-0.7686424676752962,0.1978771381167997,-2.0344664188195942
1.72,0.8534237742424011,0.3414399921894073,2.0640769004821777,0.0296005769623258,0.0501038442218595,-0.0034940230548765,-0.479164570569992,-0.1880007237195968,-0.4999154806137085,0.8602566223591566,0.3429421221837401,2.073468880727887,-0.6576800793409348,-0.295646421611309,-0.6226520985364914,0.3798008261059036,-0.2758651971817016,0.1154020428657531,-0.234156847000122,11.897006823712672,-0.7835992004544194,0.2273081078234863,-2.068351004004434
1.74,0.8426661491394043,0.3370099663734436,2.0526351928710938,0.0218381864545939,0.0419759045854582,-0.0008457072860915,-0.4821713268756866,-0.1928447932004928,-0.5061060190200806,0.8471030207723379,0.3370291937515139,2.0610158387571573,-0.6976800799369812,-0.3170937538146973,-0.6541227400302887,0.4207979276872385,-0.150337815284729,-0.2422034740447998,-0.3095269203186035,11.202606028400623,-0.7663907596536573,0.1966318843539561,-2.023924999641584
1.76,0.8317596316337585,0.3328782021999359,2.0413451194763184,0.0289339820287989,0.0491908853974404,-0.0035226127613782,-0.487443208694458,-0.1926402747631073,-0.5114650726318359,0.8339494191855192,0.3311162653192878,2.0485627967864275,-0.7376800805330277,-0.3385410860180855,-0.685593381524086,0.3760120387567098,-0.2635940909385681,0.0102259218692779,-0.2679526805877685,11.14054015221518,-0.7742988584284297,0.2098349110587306,-1.9718216162656823
1.78,0.8207218050956726,0.3284410536289215,2.0299553871154785,0.027993433331884,0.0485023621125337,-0.0035431918279593,-0.493747740983963,-0.1928005367517471,-0.5102956295013428,0.8197958175837994,0.3246671535819769,2.035322988778353,-0.777680081129074,-0.3599884182214737,-0.7170640230178833,0.3207039465374244,-0.3152266144752502,-0.0080130994319915,0.0584721565246582,11.408143448816643,-0.7881860921482539,0.2188831419985007,-1.9190401520820035
1.8,0.815205991268158,0.3263618648052215,2.0240797996521,0.0224802329818687,0.0424641668597743,-0.0004453864243893,-0.4960222542285919,-0.1947270333766937,-0.5145710706710815,0.8046422159671783,0.3176818585395813,2.021296414732933,-0.8176800817251205,-0.3814357504248619,-0.7485346645116806,0.2605964166187831,-0.1137256622314453,-0.0963248312473297,-0.2137720584869384,11.309043163782915,-0.7672503570864365,0.2080415825511907,-1.8941395340324687
1.82,0.8040754199028015,0.322075217962265,2.012655019760132,0.0202606652302397,0.0385878192280175,-8.423304113385788e-05,-0.500352680683136,-0.1928850263357162,-0.5153542757034302,0.7904048785567284,0.3166255131363868,1.9983512461185453,-0.596022255718708,-0.2294497601687908,-0.5498909987509251,0.238531933605974,-0.2165213227272033,0.0921003520488739,-0.0391602516174316,11.270850682680248,-0.7558548468456349,0.2181600920848909,-1.8468159946138236
1.84,0.7928171157836914,0.3177675604820251,2.000776052474976,0.0228676016635152,0.0370142202148104,-0.0001982729677223,-0.5037497282028198,-0.1933718472719192,-0.5243343114852905,0.7904048785567284,0.3166255131363868,1.9983512461185453,-0.596022255718708,-0.2294497601687908,-0.5498909987509251,0.4806713251235399,-0.1698523759841919,-0.0243410468101501,-0.4490017890930176,11.667073663083556,-0.7398325835271558,0.2176577042811305,-1.9028279932164265
1.86,0.7813745141029358,0.3134242296218872,1.988847613334656,0.0306543641168954,0.0405270395356475,-0.0039833010008527,-0.5107703804969788,-0.1946472376585006,-0.5356666445732117,0.7904048785567284,0.3166255131363868,1.9983512461185453,-0.596022255718708,-0.2294497601687908,-0.5498909987509251,0.6695856041038661,-0.3510326147079468,-0.063769519329071,-0.5666166543960571,12.235342731250512,-0.7552607892194446,0.2257943676007129,-2.034573483731516
1.88,0.7698691487312317,0.308961272239685,1.9767413139343264,0.0318130138961291,0.0387295597341949,-0.0039218499939337,-0.516329288482666,-0.1981414854526519,-0.5407816171646118,0.7844446559995413,0.3143310155346989,1.992852336131036,-0.6160222560167312,-0.2363943055272102,-0.5569549843668937,0.4161555305743381,-0.2779453992843628,-0.1747123897075653,-0.2557486295700073,12.261421590083046,-0.7573951877976207,0.2212660607074822,-2.115744659173549
1.9,0.7641394734382629,0.3068695664405823,1.9707512855529783,0.0236897336855008,0.0301435087561853,-0.0005324176032003,-0.5178929567337036,-0.1957382261753082,-0.5405375361442566,0.7725242108851671,0.3097420203313231,1.9818545161560177,-0.6560222566127777,-0.250283396244049,-0.5710829555988312,0.1438774573894346,-0.0781834125518798,0.1201629638671875,0.0122040510177612,11.586116202402993,-0.7200362466202637,0.2387250108888982,-2.073431776759697
1.92,0.7522371411323547,0.3024014234542846,1.9586673974990845,0.02504860287487,0.0326378921808042,-0.0010606019287426,-0.5308279395103455,-0.1979242265224456,-0.5446064472198486,0.7606037657707929,0.3051530251279473,1.9708566961809992,-0.6960222572088242,-0.2641724869608879,-0.5852109268307686,0.6867467041981014,-0.6467491388320923,-0.1093000173568725,-0.203445553779602,12.06223973808028,-0.7615097073453818,0.2297620429814029,-2.1202119172957103
1.94,0.7403981685638428,0.2979257106781006,1.946475863456726,0.0248031814616475,0.0330836950024648,-0.0004703002769232,-0.5341793298721313,-0.201236754655838,-0.5461969971656799,0.7466833206266165,0.2998695753887296,1.959152477644384,-0.7360222578048706,-0.2780615776777267,-0.599338898062706,0.2486690025001658,-0.1675695180892944,-0.1656264066696167,-0.0795274972915649,11.478494995973051,-0.7381509251281829,0.2128503028682765,-2.075310272638184
1.96,0.7284920811653137,0.2934653759002685,1.9345399141311648,0.0228210157543738,0.0325058723477925,-0.000767026424458,-0.5342638492584229,-0.2010610699653625,-0.5428683757781982,0.73276287548244,0.2945861256495118,1.9474482591077684,-0.7760222584009171,-0.2919506683945655,-0.6134668692946434,0.1667162932823834,-0.0042259693145751,0.0087842345237731,0.1664310693740844,11.648982049940969,-0.6977770795099866,0.2168732726832197,-2.026968643997627
1.98,0.716274082660675,0.2889387011528015,1.922343134880066,0.0299223166024876,0.0395684285395468,-0.0027249404464546,-0.5427919626235962,-0.2022077143192291,-0.5429863929748535,0.7178424303233624,0.2889554486423731,1.9353908412903549,-0.8160222589969635,-0.3058397591114044,-0.6275948405265808,0.4302831593910242,-0.426405668258667,-0.0573322176933288,-0.0059008598327636,11.645265335001568,-0.7232690155704309,0.2225216127792798,-2.0043291103613248
2.0,0.7101268768310547,0.28661048412323,1.9162960052490237,0.0316725884816844,0.0389778288192151,-0.0016045299118671,-0.5465671420097351,-0.2028393745422363,-0.5431151390075684,0.7019219851493835,0.2829775443673134,1.9229802241921423,-0.8560222595930099,-0.3197288498282432,-0.6417228117585182,0.1914911850177282,-0.1887589693069458,-0.0315830111503601,-0.0064373016357421,11.743372309625556,-0.716545220126412,0.2333779186015076,-1.996313295706426
2.02,0.6978242993354797,0.2820266485214233,1.9040709733963013,0.0225691614354902,0.0310354785155573,0.0004608379748999,-0.5521715879440308,-0.2070330083370208,-0.5472135543823242,0.6827985197305679,0.2764685153961181,1.889140248298645,-0.6313238739967346,-0.2371752448379993,-0.5365680162794888,0.4055656149725878,-0.2802222967147827,-0.2096816897392273,-0.2049207687377929,12.44332261506861,-0.7131902665257338,0.2102525039161945,-2.098954750611921
2.04,0.6853988766670227,0.2775726318359375,1.89193058013916,0.0263256516038191,0.0300069950055652,0.0016781220665797,-0.556380033493042,-0.2033516764640808,-0.5482220649719238,0.6827985197305679,0.2764685153961181,1.889140248298645,-0.6313238739967346,-0.2371752448379993,-0.5365680162794888,0.2840788266795476,-0.2104222774505615,0.1840665936470031,-0.0504255294799804,12.523839900740768,-0.7005468861332853,0.2434469026838731,-2.1798305643734235
2.06,0.6726397275924683,0.2729017436504364,1.8796112537384035,0.025942368437693,0.0298324314177627,0.0014652147306414,-0.5666528940200806,-0.2053103595972061,-0.5503436923027039,0.6827985197305679,0.2764685153961181,1.889140248298645,-0.6313238739967346,-0.2371752448379993,-0.5365680162794888,0.5335480427166086,-0.5136430263519287,-0.0979341566562652,-0.1060813665390014,11.534990921054488,-0.7222807047673574,0.2347189233722353,-2.137743588185016
2.08,0.6661446690559387,0.270592451095581,1.8735456466674805,0.0340414462528006,0.0379084694768762,-0.0019229663334141,-0.5729185342788696,-0.2063691616058349,-0.5497214198112488,0.6764852809906006,0.2740967629477381,1.8837745681358504,-0.6482752203941345,-0.2440424188971519,-0.5352585917338729,0.3192433734615977,-0.3132820129394531,-0.0529401004314422,0.0311136245727539,11.368580949005263,-0.7274757338888133,0.2433166995417759,-2.0634920024075787
2.1,0.653214156627655,0.2658353447914123,1.8612815141677856,0.0268563390474231,0.0306783963089104,0.0012262636510083,-0.5785994529724121,-0.2110985666513443,-0.5512422323226929,0.663858803510666,0.2693532580509782,1.8730432078102603,-0.6821779131889343,-0.2577767670154571,-0.532639742642641,0.3773359908029396,-0.284045934677124,-0.2364702522754669,-0.0760406255722045,11.708744691430184,-0.7200013991330826,0.2197607588534982,-2.053220144937011
2.12,0.6402296423912048,0.2610920667648315,1.8491398096084597,0.0234427576598347,0.0294838836639442,0.0006178634481366,-0.5830880999565125,-0.213758647441864,-0.5491313338279724,0.6512323260307312,0.2646097531542182,1.8623118474846705,-0.7160806059837341,-0.2715111151337623,-0.5300208935514092,0.2814243860034973,-0.2244323492050171,-0.1330040395259857,0.1055449247360229,11.910856495203006,-0.7052128470127821,0.2073417732342529,-2.0467686040952278
2.14,0.6270526647567749,0.2564205825328827,1.8367429971694944,0.0293662101243803,0.0357880145377302,-0.0024332548996496,-0.5886335372924805,-0.2118321508169174,-0.5521166324615479,0.6369107139110566,0.2591795308515429,1.8517114296136423,-0.749983298778534,-0.2852454632520675,-0.5274020444601775,0.3292995309164062,-0.2772718667984009,0.0963248312473297,-0.1492649316787719,11.798648128647985,-0.7070731290986847,0.2324832640308366,-2.0577768818112188
2.16,0.6137200593948364,0.2515822052955627,1.824725866317749,0.0207223456069597,0.0296219654226795,0.0006889137759764,-0.5964655876159668,-0.2139718830585479,-0.5493137240409851,0.6225891017913818,0.2537493085488677,1.8411110117426144,-0.7838859915733338,-0.2989798113703727,-0.5247831953689456,0.4294640903194269,-0.3916025161743164,-0.1069866120815277,0.1401454210281372,12.171869820566826,-0.715264202974213,0.2184024133076838,-2.078323922597609
2.18,0.606945276260376,0.2490777522325515,1.8186208009719849,0.0249698110576054,0.0393303834128479,-0.00243634724243,-0.6020084023475647,-0.2168737053871154,-0.5488979816436768,0.6074199223518372,0.2479757275432348,1.8305760650988667,-0.8177886843681336,-0.312714159488678,-0.5221643462777138,0.3135131963582687,-0.277140736579895,-0.1450911164283752,0.0207871198654174,11.733185554886404,-0.7206357424480513,0.2064799507322928,-2.0568829713578083
2.2,0.5935461521148682,0.2443341165781021,1.8067827224731443,0.0151375656236831,0.0324378545717127,0.0002569372676586,-0.604948103427887,-0.2176361083984375,-0.5407896637916565,0.5914031755924225,0.2418587878346443,1.8201065896824,-0.8516913771629333,-0.3264485076069832,-0.5195454971864819,0.4329200826443354,-0.1469850540161132,-0.038120150566101,0.4054158926010132,11.701199488902605,-0.6998174932536931,0.1947995715044125,-1.9883308327936144
2.22,0.5800186991691589,0.2395507246255874,1.7946569919586182,0.0148705048864397,0.0340173167061432,0.0011456725403665,-0.605847954750061,-0.2143581211566925,-0.5391857028007507,0.5632987469434738,0.2334523111581802,1.7797432392835617,-0.6163158407434821,-0.2430202309042215,-0.4867097474634647,0.1879336559760437,-0.0449925661087036,0.1638993620872497,0.080198049545288,12.097729558779063,-0.6730761827835668,0.2093203709070048,-2.0155062721725585
2.24,0.5661154389381409,0.2347429990768432,1.7825839519500732,0.0117417690471442,0.0371472885572613,0.0005186110825091,-0.6171910762786865,-0.2158001363277435,-0.544472336769104,0.5632987469434738,0.2334523111581802,1.7797432392835617,-0.6163158407434821,-0.2430202309042215,-0.4867097474634647,0.6298696541389636,-0.5671560764312744,-0.0721007585525512,-0.2643316984176636,11.862623565929423,-0.7163259166595197,0.1885974508809755,-2.052490435970102
2.26,0.5522966384887695,0.2300342917442321,1.7704919576644895,0.0121010881810024,0.0401922999328928,0.0008683478086486,-0.623746395111084,-0.2141197323799133,-0.5437132716178894,0.5632987469434738,0.2334523111581802,1.7797432392835617,-0.6163158407434821,-0.2430202309042215,-0.4867097474634647,0.3404854707842046,-0.327765941619873,0.08402019739151,0.0379532575607299,12.048160354817355,-0.7306110269963193,0.1900736700022561,-2.070673908353777
2.28,0.5383706092834473,0.2253458797931671,1.7584463357925415,0.0192058563498307,0.0495085461141734,-0.0019407491043759,-0.6242586374282837,-0.2114351838827133,-0.5430963635444641,0.557135588536039,0.231022108849138,1.7748761418089272,-0.6185893882066011,-0.2480970554053783,-0.4758937641978263,0.1400871906742928,-0.0256121158599853,0.1342274248600006,0.0308454036712646,12.283588015430269,-0.7214559457082148,0.2085550108579389,-2.115164927756488
2.3000000000000003,0.5313217639923096,0.2229556590318679,1.75248122215271,0.0110049598965098,0.0427439888585986,0.0004882990328558,-0.6280419230461121,-0.2119746506214141,-0.5404114723205566,0.5448092717211693,0.2261617042310535,1.765141946859658,-0.6231364831328392,-0.2582507044076919,-0.4542617976665496,0.2335214942593448,-0.1891642808914184,-0.0269733369350433,0.1342445611953735,12.04044009962763,-0.721980934653397,0.1925466145135974,-2.11287253062564
2.32,0.5174222588539124,0.2183626592159271,1.74064040184021,0.0170909331710154,0.0521919074598785,-0.0020499184476857,-0.6262582540512085,-0.2098741382360458,-0.5311605334281921,0.5324829549062997,0.2213012996129691,1.7554077519103886,-0.6276835780590773,-0.2684043534100055,-0.432629831135273,0.4826321004521152,0.0891834497451782,0.1050256192684173,0.4625469446182251,12.295276066540737,-0.7040523848549421,0.2040668944303394,-2.101173026774142
2.34,0.5031671524047852,0.213711068034172,1.7284154891967771,0.0093984027257064,0.0486050221070577,0.0006732874678802,-0.6334787607192993,-0.2080032974481582,-0.5414789915084839,0.5199292833451181,0.215933212544769,1.746755155287683,-0.6322306729853153,-0.2785580024123192,-0.4109978646039963,0.6366049382315258,-0.361025333404541,0.0935420393943786,-0.5159229040145874,12.054089604305773,-0.7361181609045252,0.2008800696319879,-2.180642396167344
2.36,0.4890958964824676,0.2090995907783508,1.7167024612426758,0.0085276646353676,0.0486722104870098,0.0008210147408863,-0.637343168258667,-0.2084190398454666,-0.538603663444519,0.5073756117839366,0.2105651254765689,1.7381025586649776,-0.6367777679115534,-0.2887116514146328,-0.3893658980727195,0.2417333181765871,-0.1932203769683838,-0.0207871198654174,0.1437664031982422,11.985111498011063,-0.7436640776835741,0.182867249740506,-2.162187858843994
2.38,0.4748680293560028,0.2045836448669433,1.7049672603607178,0.0175299453269614,0.0621538069320338,-0.002288274083838,-0.6367302536964417,-0.2053670287132263,-0.5275851488113403,0.4947082628495991,0.2049431971833109,1.729990761205554,-0.6413248628377914,-0.2988653004169464,-0.3677339315414428,0.5724903949706929,0.030645728111267,0.1526005566120147,0.5509257316589355,12.582552600926192,-0.7471644358615134,0.2026629253867054,-2.167720753994937
2.4,0.46773761510849,0.2024617195129394,1.699154257774353,0.0117671940223018,0.0547105225836569,0.0004237583666901,-0.6371755003929138,-0.2024196088314056,-0.528016984462738,0.4819272365421057,0.1990674276649952,1.7224197629094125,-0.6458719577640295,-0.30901894941926,-0.3461019650101662,0.1505988928436169,-0.0222623348236084,0.1473709940910339,-0.0215917825698852,12.41486903177156,-0.7442385184616865,0.210129943263773,-2.22228982657364
2.42,0.4535457491874695,0.1979865431785583,1.6873319149017334,0.0155250097867426,0.0605340602825201,0.0016516520696387,-0.6410090923309326,-0.2002959698438644,-0.5320858955383301,0.4358788400888443,0.1923407390713691,1.672753408551216,-0.591872651129961,-0.2168075684458017,-0.4384784549474716,0.2990079724594451,-0.1916795969009399,0.1061819493770599,-0.203445553779602,12.687208961107444,-0.7729766729348366,0.2177691382590353,-2.324710661860589
2.44,0.4393826127052307,0.1935658752918243,1.6756672859191897,0.0189222989911884,0.0652392721033578,0.0015826375095616,-0.6379875540733337,-0.20015649497509,-0.5284568667411804,0.4358788400888443,0.1923407390713691,1.672753408551216,-0.591872651129961,-0.2168075684458017,-0.4384784549474716,0.2362149269822654,0.1510769128799438,0.0069737434387207,0.1814514398574829,13.28434303887525,-0.7686439580239565,0.2190359190087556,-2.4397075844704554
2.46,0.4253329932689667,0.1892363876104354,1.664676070213318,0.0190226312762463,0.0671354246179074,0.0024841321001083,-0.6347870230674744,-0.1968784928321838,-0.5097565054893494,0.4358788400888443,0.1923407390713691,1.672753408551216,-0.591872651129961,-0.2168075684458017,-0.4384784549474716,0.9626684368428068,0.1600265502929687,0.1639001071453094,0.9350180625915528,12.433641036902827,-0.7598386459029196,0.2371620368317751,-2.3458798921529533
2.48,0.411206990480423,0.1849208027124405,1.6536117792129517,0.0248380912133502,0.0809609087193728,-0.0020443991170848,-0.6339514851570129,-0.194514125585556,-0.4962489008903503,0.4299601135775447,0.1901726633869111,1.6683686240017417,-0.5828120812773705,-0.2196851603686809,-0.4205707490444183,0.6869201883764302,0.0417768955230712,0.1182183623313903,0.6753802299499512,12.253125925209131,-0.7852782414742777,0.2562934473319065,-2.2716834250064784
2.5,0.4040823876857757,0.1827159225940704,1.648147463798523,0.0172191237325988,0.0756871438659239,0.0022532955853638,-0.6354066133499146,-0.1965935230255127,-0.4945698380470276,0.4181226605549454,0.1858365120179951,1.659599054902792,-0.5646909415721894,-0.2254403442144394,-0.3847553372383118,0.1521557080994871,-0.0727564096450805,-0.1039698719978332,0.0839531421661377,11.988948282047204,-0.8114120440140207,0.2338821610374243,-2.2471852739445284
2.52,0.3902407884597778,0.1783884912729263,1.6375391483306885,0.0153035520697216,0.082034643587239,0.0017349111339995,-0.6272071003913879,-0.1922714710235595,-0.4828646779060364,0.4062852075323462,0.1815003606490791,1.6508294858038426,-0.5465698018670082,-0.2311955280601978,-0.3489399254322052,0.7465301738558232,0.4099756479263305,0.2161026000976562,0.5852580070495605,11.92882988665042,-0.7844917181815281,0.2500717364827025,-2.156978841045585
2.54,0.3765216171741485,0.1741348654031753,1.6274919509887695,0.0095221688530023,0.085490361699621,0.0008283310905656,-0.6201173067092896,-0.1930737793445587,-0.4647490382194519,0.3953538114950061,0.1768764500878751,1.6438506872951986,-0.5284486621618271,-0.2369507119059562,-0.3131245136260986,0.97350561676708,0.3544896841049194,-0.0401154160499572,0.9057819843292236,12.073981167287457,-0.774055344223149,0.2252100448232605,-2.0562629514121125
2.56,0.3631720840930938,0.1698870211839676,1.6176152229309082,0.013598841420449,0.0971129485894743,-0.0024160366726823,-0.6090458631515503,-0.1912830770015716,-0.4482883214950561,0.3844224154576659,0.1722525395266711,1.6368718887865543,-0.5103275224566459,-0.2427058957517147,-0.277309101819992,0.9959149968925404,0.5535721778869629,0.089535117149353,0.8230358362197876,12.027308321802591,-0.7570611247827741,0.2253761605530972,-1.9704874174534168
2.58,0.3498385548591614,0.1657367646694183,1.608029007911682,0.0121329127977075,0.0995930802192642,-0.0020504515975572,-0.6003689169883728,-0.1889572739601135,-0.4379162192344665,0.3739440479129552,0.1674847493693232,1.630788475573063,-0.4922063827514648,-0.2484610795974731,-0.2414936900138855,0.6860744489675744,0.4338473081588745,0.1162901520729065,0.51860511302948,12.126694610127744,-0.7614467960993746,0.2267534182028033,-1.9437488295339664
2.6,0.3433213531970978,0.1637486964464187,1.6033740043640137,0.0058438981298454,0.0920275786025799,0.0025176779950819,-0.5952519178390503,-0.186909407377243,-0.4303872585296631,0.3639187088608742,0.1625730796158314,1.625600447654724,-0.4740852430462837,-0.2542162634432315,-0.2056782782077789,0.4665369415434313,0.2558499574661255,0.1023933291435241,0.3764480352401733,12.367174495588188,-0.7785530343020867,0.216594419797068,-1.9676933074242864
2.62,0.330400288105011,0.15959133207798,1.594428777694702,0.0048262032768584,0.0941562489845047,0.0025536218432689,-0.586047887802124,-0.1890155971050262,-0.4129448533058166,0.3135587573051452,0.1544032260775566,1.5818546414375303,-0.5128760412335396,-0.2016460839658975,-0.3303872570395469,0.9917001866528586,0.4602015018463135,-0.1053094863891601,0.8721202611923218,11.955189281114144,-0.7672701441693706,0.1807222195980622,-1.8785689126051623
2.64,0.3178586959838867,0.1557777971029281,1.585969090461731,0.0092060666623031,0.096606816567034,0.0037686774947873,-0.5729097723960876,-0.1793452352285385,-0.3916105628013611,0.3135587573051452,0.1544032260775566,1.5818546414375303,-0.5128760412335396,-0.2016460839658975,-0.3303872570395469,1.3428308964395523,0.6569057703018188,0.4835180938243866,1.0667145252227783,12.07255341765358,-0.7385166608528998,0.2267587122466359,-1.7905600569092952
