t,x,y,z,roll,pitch,yaw,v_x,v_y,v_z,ref_x,ref_y,ref_z,ref_v_x,ref_v_y,ref_v_z,a_com,a_x,a_y,a_z,thrust,wind_x,wind_y,wind_z
0.0,0.8166244517566074,1.446067973799176,2.3964311346497684,0.0209146202065216,0.0994265548789545,0.0414362356876334,0.0006656027642682,-0.0020368581313847,-0.0009535506114459,0.8166506776180043,1.445915086594309,2.396400247343063,-0.0991797927168422,-0.1043016050775572,-0.1010098870545102,0.1172718727549235,0.0332801382134121,-0.1018429065692391,-0.0476775305722975,10.258484752678669,-0.940596981247889,0.2595797104578884,-0.8782706955981403
0.02,0.8167963356824495,1.4462945095930586,2.3963236556255065,0.0282688974222485,0.0935836422040819,0.0418082987299936,0.016097500362773,0.0206942974453136,-0.0102987465203363,0.8166506776180043,1.445915086594309,2.396400247343063,-0.0991797927168422,-0.1043016050775572,-0.1010098870545102,1.4510182492980124,0.7715948799252402,1.1365577788349206,-0.4672597954445197,10.258484752678669,-0.9532511114047691,0.2578743691125923,-0.8617844637574312
0.04,0.8172343492110327,1.4467571186330177,2.39593109960329,0.0426412076938697,0.0771070823235782,0.0421827526437698,0.0253287197710524,0.0235482044420477,-0.0283905627475145,0.8166506776180043,1.445915086594309,2.396400247343063,-0.0991797927168422,-0.1043016050775572,-0.1010098870545102,1.025516956597731,0.4615609704139682,0.1426953498367059,-0.904590811358908,9.676987686998473,-0.956328196037002,0.2479780193878101,-0.8586706043691487
0.06,0.8177150771198543,1.447171109507376,2.3952047148715523,0.0567603426469042,0.0557323922446715,0.0420089249503207,0.0238961878183212,0.0195450503782159,-0.0471470786371748,0.8156588796908358,1.4448720705435334,2.3953901484725177,-0.1191797930148654,-0.1243016053755804,-0.1210098873525334,0.9616187895593684,-0.0716265976365591,-0.2001577031915889,-0.9378257944830176,9.193702993817167,-0.9665842856098712,0.2335941331226225,-0.8524345171321445
0.08,0.8180907161113988,1.4474837816404258,2.394046206784011,0.0710818359433191,0.0310667003134873,0.0412645043837337,0.0129334597205546,0.0115694158169483,-0.0677953390362149,0.813675283836499,1.4427860384419822,2.393369950731427,-0.1591797936109119,-0.1643016059716269,-0.1610098879485799,1.2350534517856042,-0.5481364048883288,-0.3987817280633809,-1.0324130199520043,9.101962126293074,-0.981143964629096,0.2171768227762813,-0.8443527523835653
0.1,0.8181516561727796,1.4476029340283365,2.3924669868235338,0.084731218307205,0.0071279861520403,0.0401175799529071,-0.0068117796719556,0.0004129666951174,-0.0891794139033999,0.8116916879821622,1.440700006340431,2.391349752990337,-0.1991797942069584,-0.2043016065676734,-0.2010098885446264,1.5585405782341026,-0.9872619696255136,-0.5578224560915453,-1.0692037433592525,9.068001443093635,-0.996629040111056,0.1990541268466291,-0.837645968585449
0.12,0.8177392095429621,1.4474678133856431,2.390453923631393,0.0977300012937359,-0.0138126437485205,0.0388159917550684,-0.0335252605283799,-0.0136699529061624,-0.1111343837611519,0.807708092098023,1.4366139742090775,2.3873295552194445,-0.2391797948030048,-0.2443016071637198,-0.2410098891406728,1.8667882749641544,-1.3356740428212153,-0.7041459800639932,-1.0977484928875978,9.113219093335829,-1.0111925800331796,0.1812774642014674,-0.832457468904184
0.14,0.8168044432503095,1.447052836458037,2.388127286512194,0.1095001780679611,-0.0298405361451347,0.0376406857579282,-0.0634249643822446,-0.0295541398360706,-0.1327274860319042,0.8037244962138839,1.4325279420777242,2.383309357448552,-0.2791797953990513,-0.2843016077597663,-0.2810098897367193,2.007835744432452,-1.4949851926932347,-0.7942093464954112,-1.0796551135376156,9.113219093335829,-1.0248661494492823,0.1621918845124923,-0.8296842596432479
0.16,0.8151740484822708,1.4462642727221664,2.3852269194774336,0.1212969045611238,-0.0421565002334128,0.0366439266192875,-0.0979661965925831,-0.0487430070286436,-0.1562265021724142,0.7987409003148435,1.4274419099314697,2.3782891596627582,-0.3191797959950977,-0.3243016083558127,-0.3210098903327658,2.2986480299921315,-1.7270616105169256,-0.959443359628652,-1.1749508070255,9.147205320919056,-1.0354782077440183,0.1427224297644246,-0.8312630391133043
0.18,0.8128242945854127,1.4450661008717536,2.381852138050448,0.1324966987805356,-0.0494177637138835,0.0360699668791424,-0.1353474407545067,-0.0703753700116096,-0.1801214658632759,0.792757304400902,1.4213558777703137,2.372268961862064,-0.3591797965911442,-0.3643016089518591,-0.3610098909288122,2.467937313379201,-1.8690622080961816,-1.0816181491482952,-1.1947481845430818,9.147205320919056,-1.042163016870126,0.1254578973057936,-0.8349737182894403
0.2,0.8097054170652866,1.44340195023985,2.377997070931196,0.1428239378165497,-0.0508721676624342,0.0361326346528012,-0.1739366504425011,-0.0949847444026014,-0.2041018103466452,0.8060569225476873,1.4415473323711732,2.372846064757284,-0.2353474422446229,-0.1703753715017257,-0.280121467353392,2.583507951314,-1.92946048439972,-1.2304687195495905,-1.1990172241684651,9.19362755973998,-1.046608260140217,0.1099566700422361,-0.8404287820541868
0.22,0.8060039592142544,1.441155976750404,2.374075200834582,0.1466585050011785,-0.0462422752966881,0.0366224825889678,-0.2129317237629555,-0.1370910978304046,-0.2068999936152379,0.8060569225476873,1.4415473323711732,2.372846064757284,-0.2353474422446229,-0.1703753715017257,-0.280121467353392,2.872886428254397,-1.9497536660227188,-2.1053176713901625,-0.1399091634296342,9.222479317606483,-1.052503144467859,0.0966422291875573,-0.8468615487491733
0.24,0.8013643488218573,1.4380230077274545,2.3699097949599994,0.1438726578866312,-0.0358962262190646,0.037451975207869,-0.2482471268979147,-0.1730313570811628,-0.2094491238582759,0.8060569225476873,1.4415473323711732,2.372846064757284,-0.2353474422446229,-0.1703753715017257,-0.280121467353392,2.5225869650977177,-1.7657701567479576,-1.797012962537911,-0.1274565121519022,10.413261085352133,-1.0517500618640614,0.0976689973408284,-0.849837975419702
0.26,0.7960803106796274,1.434244054031199,2.365662538515722,0.1378524846169878,-0.0225453860311457,0.0384259539010717,-0.2778066999715441,-0.2022783133604767,-0.2149448501580781,0.8037034481252411,1.439843578656156,2.37004485008375,-0.2553474425426461,-0.1903753717997489,-0.3001214676514153,2.097233784930566,-1.4779786536814734,-1.4623478139656934,-0.2747863149901108,10.413261085352133,-1.0460463582259685,0.1004311178280282,-0.8587703282426336
0.28,0.7902638904201715,1.4299358388914418,2.3612725398579992,0.1310700297083757,-0.0081457688079237,0.0393940772470128,-0.3019282648642192,-0.226817651176325,-0.2237198978473072,0.7989964992803487,1.4364360712261215,2.3644424207366823,-0.2953474431386925,-0.2303753723957954,-0.3401214682474617,1.7755495313142513,-1.206078244633754,-1.226966890792415,-0.4387523844614563,9.88372696352235,-1.037513847244466,0.1034762654599583,-0.8713528438635738
0.3,0.784337921208216,1.425420910265357,2.356907200110648,0.1248855710709219,0.0051756569022327,0.040189560519494,-0.320413949027588,-0.2471807209165554,-0.2353592789398852,0.7942895504354562,1.433028563796087,2.3588399913896145,-0.335347443734739,-0.2703753729918418,-0.3801214688435081,1.4931931560012333,-0.9242842081684384,-1.018153487011518,-0.5819690546288975,9.88372696352235,-1.027283300314563,0.1061339129348431,-0.8856687269810556
0.32,0.7777604526230738,1.420275172018252,2.352040996206461,0.1190988819583364,0.0178658666328955,0.0408234679159632,-0.3361370044488603,-0.2663291120696545,-0.250836780047355,0.7875826015607614,1.42762105633625,2.351237562012744,-0.3753474443307854,-0.3103753735878882,-0.4201214694395546,1.4606748406680146,-0.786152771063614,-0.9574195576549538,-0.7738750553734908,9.663035437187318,-1.0175752377586762,0.1087101064780036,-0.898524653341484
0.34,0.7709009004215039,1.414762895325203,2.346841108478362,0.1142063094880447,0.0285853788642277,0.0412158292436142,-0.3489178605006258,-0.2840015640846798,-0.2685042509387935,0.7808756526860666,1.4222135488764132,2.343635132635874,-0.4153474449268319,-0.3503753741839348,-0.4601214700356011,1.403393538302025,-0.6390428025882772,-0.8836226007512687,-0.8833735445719221,9.363052001518554,-1.0080571662764009,0.1098623623294016,-0.911645807035708
0.36,0.7638051371261255,1.408900730699215,2.3412666880408977,0.1099365270746646,0.0371765589848495,0.0413588922958026,-0.3600239108299354,-0.301295825662531,-0.2880850129888268,0.7731687037964707,1.415806041401675,2.335032703244103,-0.4553474455228783,-0.3903753747799812,-0.5001214706316475,1.419367887388892,-0.5553025164654779,-0.8647130788925594,-0.979038102501667,9.282175902204472,-0.9995981372218437,0.110019489119829,-0.9237386813102462
0.38,0.7568685668721333,1.4030172784641397,2.3355937523345163,0.106174620067231,0.0435801634285462,0.0412883117223658,-0.3696070961539637,-0.3170916982579016,-0.3081094263499765,0.7644617548919737,1.408398533912036,2.3254302738374304,-0.4953474461189248,-0.4303753753760276,-0.5401214712276939,1.362281324159992,-0.4791592662014149,-0.7897936297685287,-1.0012206680574842,9.282175902204472,-0.99193503630064,0.1099514200408346,-0.9349492937816862
0.4,0.7493763811396502,1.3965087004873256,2.329196740718212,0.1024658302809973,0.0487434710871111,0.041038033940473,-0.3791071815104803,-0.3328732623715914,-0.3306173771792177,0.7383882120644352,1.3871626935512444,2.3201882810170176,-0.4696070976440798,-0.4170916997480177,-0.4081094278400926,1.4542328202416084,-0.475004267825832,-0.7890782056844903,-1.1253975414620614,9.214663759225004,-0.9855378178932032,0.1098720218853013,-0.9444955184045514
0.42,0.7417344412634942,1.3896735160113176,2.3226222919479373,0.0992827327672833,0.0518446392461709,0.0405954948887589,-0.3846462889192171,-0.350086689131057,-0.3242771564170046,0.7383882120644352,1.3871626935512444,2.3201882810170176,-0.4696070976440798,-0.4170916997480177,-0.4081094278400926,0.9580999047628156,-0.2769553704368405,-0.8606713379732789,0.3170110381106539,9.144876444851434,-0.991393117240948,0.1109006792857525,-0.94043455537657
0.44,0.7339879507808779,1.3825071343277833,2.316172247468633,0.0969905552686892,0.0522700898028733,0.0399409874292935,-0.3899200942815037,-0.365954783977482,-0.3212459082784516,0.7383882120644352,1.3871626935512444,2.3201882810170176,-0.4696070976440798,-0.4170916997480177,-0.4081094278400926,0.8497027749923844,-0.2636902681143305,-0.7934047423212492,0.1515624069276522,10.50584316104505,-0.9912099224838004,0.1124993861851129,-0.9403330536601068
0.46,0.7265233274181807,1.37540666118814,2.310041796025583,0.0954483434924155,0.0503124885564718,0.0391325705055115,-0.3957138395912009,-0.3807395764602329,-0.3242081557000615,0.7336921410879944,1.3829917765537645,2.3161071867386167,-0.489607097942103,-0.437091700046041,-0.4281094281381158,0.8076702347779066,-0.2896872654848587,-0.7392396241375443,-0.1481123710804943,10.50584316104505,-0.9927089427615352,0.1127949450740308,-0.9392651422540464
0.48,0.7185342992126472,1.3676357436902622,2.3034815705081053,0.0943555285650239,0.0459687821658523,0.0381016353633455,-0.4031461791472052,-0.3955884797002814,-0.3318606856370812,0.7242999991351128,1.374649942558804,2.3079449981818145,-0.5296070985381495,-0.4770917006420874,-0.4681094287341623,0.9141810722513548,-0.3716169778002154,-0.742445162002428,-0.3826264968509879,9.902311615012875,-0.99562403207259,0.1119594708372557,-0.9374499482654072
0.5,0.710367365559081,1.3595737044023717,2.296724667090212,0.0938992740171664,0.0399433842541655,0.0369565386580537,-0.4134974449514698,-0.409942275150689,-0.3434375202377368,0.7149078571822312,1.3663081085638435,2.299782809625013,-0.5696070991341959,-0.5170917012381339,-0.5081094293302088,1.0573590295562032,-0.5175632902132271,-0.7176897725203801,-0.5788417300327781,9.902311615012875,-0.9996112886008552,0.1100239127396087,-0.9351669724097632
0.52,0.7019611521525805,1.351227399389224,2.289706554322564,0.09414557854565,0.0333276650189221,0.0358011046199086,-0.4268042619179272,-0.4240462602526709,-0.3577949540706724,0.7035157151995473,1.3559662745390808,2.2896206210384085,-0.6096070997302424,-0.5570917018341803,-0.5481094299262552,1.2063681857157575,-0.6653408483228707,-0.7051992550990954,-0.717871691646782,9.710179877879456,-1.0044396424051252,0.1075108771753619,-0.9321292819431533
0.54,0.6937048453451837,1.3430362730617182,2.282763768759327,0.0950744065940584,0.0272416726634706,0.0347618287021663,-0.4417098148303693,-0.4375478083593387,-0.3723050360413118,0.6921235732168634,1.345624440514318,2.279458432451805,-0.6496071003262889,-0.5970917024302268,-0.5881094305223017,1.2399695436753175,-0.7452776456221055,-0.6750774053333908,-0.7255040985319677,9.53410923012143,-1.010111796112146,0.1041849780335231,-0.9284759618213008
0.56,0.6846835114850982,1.3341246013344945,2.275148939789084,0.0964991917921448,0.0217256430760261,0.0337702281882781,-0.4597909758780366,-0.4529170352014958,-0.3884504992208908,0.6797314312192783,1.3342826064746542,2.2682962438503,-0.6896071009223352,-0.6370917030262732,-0.628109431118348,1.4351110582812945,-0.9040580523833636,-0.7684613421078512,-0.8072731589789522,9.53410923012143,-1.0145831952153226,0.1001975783542454,-0.92642389552096
0.58,0.6752742621336557,1.3248918223949715,2.2672022620622005,0.0978157493039512,0.0180170673377352,0.0329329960546259,-0.4803615509180191,-0.4695507098720168,-0.4054394370152481,0.6663392892067921,1.3219407724200891,2.256134055233893,-0.7296071015183817,-0.6770917036223196,-0.6681094317143945,1.5719825841121973,-1.0285287519991249,-0.8316837335260535,-0.8494468897178614,9.503378750050617,-1.017125346347875,0.0960720117356644,-0.9267180556083774
0.6,0.6654311636467222,1.3153135463285723,2.2589049105343784,0.0984318866660356,0.0171368490864804,0.032316937614961,-0.5026153140080919,-0.4872702727273669,-0.4234019257331426,0.6512561845877548,1.3014142869013707,2.2469302902114383,-0.5803615524081351,-0.569550711362133,-0.5054394385053642,1.6821592377018575,-1.112688154503641,-0.8859781427675045,-0.898124435894726,9.48387914983232,-1.0182613018911153,0.0927955742560543,-0.9283308402031322
0.62,0.6556649577033604,1.3058207423959614,2.250940631200643,0.0969147087849706,0.0194336064316571,0.0318906670689363,-0.5239526423877697,-0.510852860154379,-0.4124597491344982,0.6512561845877548,1.3014142869013707,2.2469302902114383,-0.5803615524081351,-0.569550711362133,-0.5054394385053642,1.681629597184524,-1.0668664189838917,-1.179129371350604,0.5471088299322191,11.380109605935104,-1.0234504584142532,0.0918091113573939,-0.925331220034805
0.64,0.64497505068702,1.2953775327355943,2.2427951946286693,0.0927111739369034,0.0247486240547639,0.0315311793487412,-0.5435228638803655,-0.5314738436812132,-0.403054183627543,0.6512561845877548,1.3014142869013707,2.2469302902114383,-0.5803615524081351,-0.569550711362133,-0.5054394385053642,1.497233443211888,-0.9785110746297898,-1.0310491763417085,0.4702782753477602,11.380109605935104,-1.0208059742010305,0.0954259808377633,-0.927402053152927
0.66,0.6339236867376494,1.284568807767957,2.234765020695193,0.0878575199767554,0.0316654129053592,0.031252380962333,-0.560320484938351,-0.5481494283683399,-0.4007137773657426,0.6454525690636734,1.2957187797877494,2.2418758958263845,-0.6003615527061583,-0.5895507116601562,-0.5254394388033874,1.1892357833241956,-0.8398810528992717,-0.8337792343563355,0.1170203130900215,10.926400826505414,-1.0156297542594572,0.0990551678461276,-0.9327530628535068
0.68,0.6225643606853872,1.2734557209272814,2.2267140295517893,0.0831764890177099,0.0392246665348324,0.0310134988616242,-0.5745202351480703,-0.5622477754614001,-0.4047564500642283,0.6338453380155108,1.2843277655605068,2.231767107056277,-0.6403615533022048,-0.6295507122562026,-0.5654394393994339,1.020709923682906,-0.7099875104859654,-0.7049173546530119,-0.2021336349242869,10.473737153569346,-1.0097577879953423,0.1017743257087272,-0.9395579340598328
0.7000000000000001,0.6115323060641578,1.2626565761431303,2.2189341361346977,0.0792479974173672,0.0463241558503034,0.0307906902909101,-0.5858915716658089,-0.5738760844319435,-0.4139624016311233,0.622238106967348,1.272936751333264,2.22165831828617,-0.6803615538982513,-0.6695507128522491,-0.6054394399954803,0.9344442305002608,-0.5685668258869292,-0.5814154485271672,-0.4602975783447482,10.10264171052404,-1.0036429037003058,0.1043183602570339,-0.9464669330981452
0.72,0.5997060921756778,1.251064515167038,2.2105130303968075,0.0758154277821936,0.0532122916470993,0.030537943667883,-0.5960028761617462,-0.5847903472646863,-0.427870602170747,0.608630875889383,1.259545737076219,2.2095495294862606,-0.7203615544942977,-0.7095507134482956,-0.6454394405915268,1.0183290897864774,-0.5055652247968667,-0.5457131416371386,-0.6954100269811858,9.80518293458772,-0.9974970368148772,0.1059502343659291,-0.9537293233688848
0.74,0.587695113753681,1.2392638300679,2.201784109116215,0.073166735488748,0.0591420087091952,0.0302531681825476,-0.6045495292652003,-0.594904524563174,-0.4443380025087275,0.5950236448114179,1.246154722819174,2.1974407406863508,-0.7603615550903442,-0.749550714044342,-0.6854394411875733,1.056547603739826,-0.4273326551727074,-0.5057088649243868,-0.8233700168990249,9.453088641625982,-0.9919000530641832,0.1066388345319485,-0.9607316302268863
0.76,0.5755209647086562,1.2272570500675497,2.192707296430117,0.0709477775250437,0.0641069462758509,0.0299199042840695,-0.6123962634540168,-0.6052396344708387,-0.4625289872340548,0.5804164137185518,1.231763708547228,2.18433195187154,-0.8003615556863906,-0.7895507146403884,-0.7254394417836196,1.1172484722640508,-0.3923367094408214,-0.5167554953832365,-0.909549236266366,9.453088641625982,-0.9870049519467292,0.1067751931319921,-0.9671164376133156
0.78,0.5638153172292653,1.2156610143570397,2.183733117856293,0.0689665236213945,0.06809994114948,0.0295565933156259,-0.61935095568207,-0.6148243339054174,-0.4812166699356654,0.5648091826107844,1.2163726942603807,2.170223163041828,-0.840361556282437,-0.8295507152364349,-0.7654394423796661,1.1061913170810818,-0.3477346114026614,-0.4792349717289312,-0.9343841350805292,9.372816236104882,-0.9824076027665238,0.1067628254587508,-0.9732828439389116
0.8,0.5513553580287563,1.203262968966741,2.173887995674834,0.0669632902652088,0.0716846644642406,0.0291348844924474,-0.6262383297867795,-0.6244269243703269,-0.5023859358347673,0.5328477694451618,1.1849197976617687,2.1596722843595098,-0.6404701758643696,-0.7148243353955335,-0.5812166714257816,1.2122123209259517,-0.344368705235476,-0.4801295232454761,-1.0584632949550947,9.30133809547715,-0.9781377611867396,0.1065671452755163,-0.979222178971747
0.8200000000000001,0.5387070383699929,1.1906469313847956,2.1639183485867184,0.0647996345569381,0.0772699847351359,0.0288309033396283,-0.637702153461703,-0.6365947354960674,-0.4918616615495374,0.5328477694451618,1.1849197976617687,2.1596722843595098,-0.6404701758643696,-0.7148243353955335,-0.5812166714257816,0.987718621460816,-0.5731911837461745,-0.6083905562870251,0.5262137142614948,9.223627790162936,-0.9732418479385294,0.1056737057465839,-0.98687370569872
0.84,0.5258682091715406,1.1778108353708532,2.154150917276153,0.0628306845009498,0.0864478435746861,0.0287630000182916,-0.6450047839253492,-0.6465272607864053,-0.4855888306097562,0.5328477694451618,1.1849197976617687,2.1596722843595098,-0.6404701758643696,-0.7148243353955335,-0.5812166714257816,0.6916138343231231,-0.3651315231823104,-0.4966262645168973,0.3136415469890602,11.28186253095646,-0.9670639861254624,0.1078003473497764,-0.9918156334538574
0.86,0.5135731457046546,1.165443263800937,2.144917567765125,0.0614910745199258,0.0967412637999019,0.0288232818377812,-0.6484525877477861,-0.6549022334246529,-0.4866549231914932,0.526443067686518,1.177771554307813,2.153860117645252,-0.6446940199008295,-0.7348243356935567,-0.6012166717238048,0.4559716857498975,-0.1723901911218461,-0.4187486319123801,-0.0533046290868505,10.740683769155112,-0.957183750698217,0.1088566356183515,-1.0010338789794726
0.88,0.5005921180579028,1.1522641295941622,2.135117284909681,0.0608351709751784,0.1081945204997236,0.0289699718823022,-0.649110443648022,-0.6626088507794937,-0.4935961038367901,0.5136336641692307,1.1634750675999028,2.1422357842167363,-0.6531417079737494,-0.7748243362896031,-0.6412166723198512,0.5196265827256458,-0.0328927950117907,-0.3853308677420397,-0.3470590322648459,10.30725323349543,-0.9452883396193738,0.1086898252530289,-1.0126234334554316
0.9,0.4876248657343879,1.1389405620173427,2.12511990493164,0.0612556664060712,0.1196925136706275,0.0291962839401505,-0.6472464362373415,-0.6695054915742299,-0.505810603530251,0.5008242606519433,1.149178580891992,2.130611450788221,-0.6615893960466692,-0.8148243368856496,-0.6812166729158977,0.7075171033979423,0.0932003705340245,-0.3448320397368087,-0.6107249846730417,9.9760375525766,-0.9329889937096454,0.1072655074278183,-1.0247745104910586
0.92,0.4753622181316226,1.126159546050307,2.1153587795917046,0.0628408306241325,0.1303544560325564,0.0294908397173164,-0.6433931952744313,-0.6756764924276512,-0.5210983531921398,0.4875924727310099,1.1328820941542792,2.116987117329902,-0.6700370841195891,-0.8548243374816961,-0.7212166735119442,0.8465282144969493,0.1926620481455088,-0.308550042671063,-0.7643874830944419,9.720380940639188,-0.9195997529362252,0.1043246192819263,-1.0380579854057377
0.94,0.4625563091335645,1.1125757912730023,2.104751533950917,0.0658359547068305,0.1411283476976819,0.0298911632788978,-0.637132772770727,-0.6827941933961071,-0.5389396191437102,0.4743606848100765,1.116585607416566,2.1033627838715847,-0.6784847721925089,-0.8948243380777425,-0.7612166741079907,1.0101550967003936,0.3130211251852144,-0.3558850484227993,-0.8920632975785214,9.531005233712676,-0.9064543510423886,0.0999115494059019,-1.0510763203072744
0.96,0.449898649690259,1.0988190752141245,2.093774298773057,0.0692167219003379,0.1513527054842625,0.0303162173381976,-0.6287087573777103,-0.692553964492861,-0.5579593842994969,0.4609177046873202,1.099289120663952,2.088738450398365,-0.6869324602654288,-0.9348243386737888,-0.801216674704037,1.1488784028173848,0.4212007696508368,-0.4879885548376927,-0.9509882577893314,9.43084062024991,-0.8936190463162423,0.0950000669921166,-1.0636344154913702
0.98,0.4374303272284763,1.084851161876116,2.082406084160997,0.0721197882489203,0.1609951364518638,0.0306973129582392,-0.6183259011178569,-0.7036051027261561,-0.577946499836787,0.4472635323627408,1.0809926338964366,2.0731141169102454,-0.6953801483383486,-0.9748243392698354,-0.8412166753000835,1.2544083743593606,0.5191428129926678,-0.5525569116647533,-0.9993557768645078,9.43084062024991,-0.8815712579736695,0.0906095089419627,-1.0752580454712477
1.0,0.4257947989812033,1.0713706129484108,2.071227252135193,0.0742239434673682,0.169615799329368,0.0309944787868966,-0.6068101703873595,-0.7146744301914999,-0.5978016112010301,0.4065140321725835,1.049670906739808,2.053508759169158,-0.577562631007965,-0.8036051042162722,-0.6648697563532436,1.2741345220176257,0.5757865365248693,-0.5534663732671918,-0.9927555682121558,9.406815508107684,-0.8690437550934073,0.0865374341956316,-1.0871389963556035
1.02,0.4138537072048456,1.0568867719999335,2.0593190330933355,0.0742828025670233,0.1780089075841129,0.0311146914539717,-0.5874534116995874,-0.7327874634280375,-0.5905482310639381,0.4065140321725835,1.049670906739808,2.053508759169158,-0.577562631007965,-0.8036051042162722,-0.6648697563532436,1.3742066832701303,0.9678379343886044,-0.9056516618268784,0.3626690068546045,9.38122952424692,-0.861092805167935,0.0851822705026082,-1.094493652041974
1.04,0.402317824178449,1.0420610506024872,2.0475648735560674,0.07147313246722,0.1856792688652861,0.0309673479966643,-0.5670101885379232,-0.7485428483309217,-0.5856787309478537,0.4065140321725835,1.049670906739808,2.053508759169158,-0.577562631007965,-0.8036051042162722,-0.6648697563532436,1.31326840179015,1.0221611580832124,-0.7877692451442098,0.2434750058042167,11.21722790008971,-0.849809983938972,0.0870126289471805,-1.1035425250489237
1.06,0.391194082590002,1.026959230437092,2.035846406129702,0.067235658985233,0.1927929422903357,0.0306541286201985,-0.5462124395179234,-0.7605052914668933,-0.5864012829874166,0.4007384058625038,1.0416348556976454,2.0468600616056256,-0.5694099769859866,-0.8236051045142954,-0.682254407656535,1.2001754991772364,1.0398874509999878,-0.5981221567985806,-0.036127601978142,10.852241637478985,-0.8383501957797628,0.0903382679639302,-1.112592721690086
1.08,0.3810166087377067,1.0124203446839868,2.0246582141939005,0.0632050986881263,0.1991185484089013,0.0303018156906392,-0.5259956647208698,-0.7693111658025162,-0.591291554287207,0.3891871532423446,1.0255627536133198,2.0335626664785607,-0.5531046689420299,-0.8636051051103418,-0.7170237102631176,1.129353973954934,1.010838739852682,-0.4402937167811482,-0.2445135649895236,10.548026444260358,-0.8275021545242818,0.0937555907961178,-1.1210116772270304
1.1,0.3707249382982231,0.9969535264454438,2.0127450112628225,0.0595169167627303,0.2053754145907743,0.0299222401322694,-0.5041102865611926,-0.7769627138586569,-0.5999574522582771,0.3776359006221852,1.0094906515289943,2.020265271351496,-0.5367993608980731,-0.9036051057063884,-0.7517930128697002,1.237551769111601,1.0942689079838586,-0.3825774028070328,-0.4332948985535045,10.305644328666858,-0.8169591430276816,0.0965400977744882,-1.1292004050278477
1.12,0.3608775924728524,0.981345212387612,2.000624446251545,0.0566032035175439,0.211256604943206,0.0295576715254864,-0.4815686842978758,-0.7836511454770143,-0.6116979216495179,0.3668999134042238,0.9914185494148664,2.005229411094102,-0.5204940528541163,-0.9436051063024348,-0.7865623154762829,1.314056288404033,1.1270801131658403,-0.3344215809178708,-0.5870234695620369,10.114121743540636,-0.807153405592964,0.0983714429139438,-1.1368645870090202
1.14,0.3514920934897007,0.9656092310575336,1.98825820915104,0.0544557880985333,0.2167791328979174,0.0292150612693273,-0.457970808310868,-0.789796531464695,-0.6243805890060414,0.3561639261862623,0.9733464473007388,1.990193550836708,-0.5041887448101596,-0.9836051068984812,-0.8213316180828656,1.374295793590309,1.179893799350387,-0.3072692993840331,-0.6341333678261785,9.970360505956704,-0.7971597235127508,0.0994601352986328,-1.1447312795782134
1.16,0.3430234603551245,0.9505408450653255,1.976270403197312,0.0528154072572825,0.2217027779343926,0.028893125461137,-0.4345358239217997,-0.7960266313009234,-0.6368902893635259,0.3458355716693997,0.9542743451717098,1.974288458014149,-0.4878834367662028,-1.0236051074945276,-0.8561009206894482,1.3642811663283494,1.1717492194534165,-0.3115049918114232,-0.6254850178742222,9.941139746659246,-0.7872970144490007,0.1000393240388636,-1.1524947793848832
1.18,0.3346002465047726,0.9345527965865702,1.963388931902835,0.0512426924391467,0.2265601298611763,0.0285425152422684,-0.4089029116813106,-0.8024104291677018,-0.6506502517807948,0.3359148498536362,0.9342022430277798,1.957514132626426,-0.4715781287222461,-1.063605108090574,-0.8908702232960308,1.4892411077937922,1.281645612024454,-0.319189893338917,-0.6879981208634478,9.934324350438146,-0.7766945838527438,0.1000882554713469,-1.161130737539085
1.2,0.3266997044316169,0.91843907573502,1.9502265363952225,0.0497506359992295,0.2311011624542211,0.0281770829647767,-0.3823225072470391,-0.8085847985478261,-0.664936207380845,0.3141551009207071,0.8944322751281851,1.9308564193137956,-0.3686661293987198,-0.902410430657818,-0.6570637017797398,1.5400724532779824,1.3290202217135785,-0.3087184690062139,-0.7142977800025097,9.91782843240162,-0.7665945814583753,0.0999796056697348,-1.1693760253276038
1.22,0.3198231772202319,0.9029765572191508,1.9377442980340724,0.0473609332676614,0.2332852002232758,0.0276530472729453,-0.3431984946374436,-0.8180009833093164,-0.6482154747919598,0.3141551009207071,0.8944322751281851,1.9308564193137956,-0.3686661293987198,-0.902410430657818,-0.6570637017797398,2.1788390236817143,1.9562006304797732,-0.4708092380745154,0.8360366294442589,9.908123513673672,-0.7658177896838038,0.1001947048710495,-1.171873124788356
1.24,0.3133949935091084,0.8865435777852643,1.9249644039018947,0.0441146124824465,0.2315204007874892,0.026862517518601,-0.301901887379166,-0.8246959285849911,-0.6308260312091057,0.3141551009207071,0.8944322751281851,1.9308564193137956,-0.3686661293987198,-0.902410430657818,-0.6570637017797398,2.265295130556928,2.0648303629138804,-0.3347472637837356,0.8694721791427051,12.03391555426242,-0.7609929355445034,0.1032670866128367,-1.1751711185129463
1.26,0.3077824990268791,0.869998072586373,1.9125092025230892,0.0411629319037936,0.225504928330857,0.0259254560389864,-0.2620870283765475,-0.8295951823448993,-0.6155653596814296,0.3104684396267199,0.8854081708216069,1.924285782295998,-0.3606187729422016,-0.9224104309558412,-0.6583463917795288,2.145992649263967,1.9907429501309248,-0.2449626879954092,0.7630335763838092,11.726483707053376,-0.7599008454034961,0.1057488501361389,-1.1765214843479763
1.28,0.3029287449910938,0.8533657213855114,1.9003433933841123,0.0389179078164487,0.2159149766872653,0.0249208261420329,-0.2259720148207901,-0.8336118267650482,-0.6016660696776739,0.3030951170387455,0.8673599622084506,1.911144508260403,-0.3445240600291652,-0.9624104315518875,-0.6609117717791069,1.945262128312632,1.8057506777878691,-0.2008322210074464,0.6949645001877836,11.726483707053376,-0.763523687452642,0.1073927586557082,-1.1748585605341717
1.3,0.2989456648736133,0.8374964157998912,1.8890361118561263,0.0375747767698394,0.2044608962804172,0.0239584054670705,-0.1956684156056345,-0.8367928578946636,-0.5891813875911988,0.295721794450771,0.8493117535952942,1.8980032342248083,-0.3284293471161289,-1.002410432147934,-0.6634771517786848,1.646431270385066,1.5151799607577787,-0.1590515564807715,0.6242341043237565,11.517210029251146,-0.7711092125851117,0.1082420028831213,-1.1706663985406789
1.32,0.2953267209688026,0.820732952010446,1.8773859448138168,0.0372896695212562,0.19092115980263,0.0229879828469816,-0.1683771153595775,-0.8395066486633792,-0.5764625115744691,0.2891532075084485,0.8292635449523356,1.8847336911892347,-0.3123346342030926,-1.0424104327439805,-0.6660425317782628,1.511579915672452,1.3645650123028483,-0.1356895384357792,0.6359438008364804,11.517210029251146,-0.7815135771432216,0.1078610961081332,-1.164544790403762
1.34,0.2922063255964722,0.8039176896767121,1.865996910555741,0.0384849846262245,0.1767566712541018,0.022096769603165,-0.1455098318283837,-0.8420478935773447,-0.5629955260515304,0.2825846205661259,0.8092153363093768,1.871464148153661,-0.2962399212900562,-1.082410433340027,-0.6686079117778408,1.3329762571814698,1.1433641765596927,-0.1270622456982728,0.6733492761469395,11.444442840985175,-0.794252595218323,0.1059280854887359,-1.1566172404918218
1.36,0.2894994894066103,0.7870374395104976,1.8548853366180904,0.0410029614032051,0.1626741129042623,0.0212744293046772,-0.1267405723375645,-0.8461048636585821,-0.5487777288217537,0.2764184014466292,0.7881671276515171,1.8581304706180977,-0.2801452083770199,-1.1224104339360734,-0.6711732917774188,1.1946650850142138,0.93846297454096,-0.2028485040618699,0.7108898614888337,11.461705758207245,-0.807142704043182,0.102924086570309,-1.1481710977179878
1.38,0.2872379879551623,0.7709009344992124,1.844597275693726,0.0437387995872522,0.1498750380537826,0.0205029635049858,-0.112546295563665,-0.8523033009970894,-0.5348523666099334,0.2706545501499585,0.7661189189787561,1.8447326585825448,-0.2640504954639835,-1.1624104345321198,-0.6737386717769969,1.0414098992517973,0.7097138386949725,-0.3099218669253667,0.696268110591014,11.478047459138908,-0.8207308568898622,0.0993929843072745,-1.138943345684425
1.4,0.2851118839895732,0.7537726045549229,1.8340553825340895,0.0462642021018701,0.1374270986771958,0.0196744924596911,-0.1011156194878827,-0.8601593080542324,-0.5200422064723139,0.2816106731769791,0.7282857694493579,1.8178546573632293,-0.151607122908321,-0.9321324201429596,-0.5175178178534532,1.0145418248318752,0.5715338037891183,-0.3928003528571477,0.7405080068809744,11.483933765376603,-0.8337661270226016,0.0963096716643172,-1.1297031289263892
1.42,0.2832794364749805,0.7363410196941882,1.8238901679561264,0.0438490791678877,0.123557872535962,0.0184324997076805,-0.083332452213576,-0.881153872457047,-0.4966044192572325,0.2816106731769791,0.7282857694493579,1.8178546573632293,-0.151607122908321,-0.9321324201429596,-0.5175178178534532,1.8071681177392844,0.8891583637153332,-1.0497282201407332,1.171889360754072,11.475228816168965,-0.8564612859925287,0.0991861700960104,-1.1104491564079777
1.44,0.2817403905983434,0.718589730356206,1.814203772093532,0.0357658176967247,0.1065044278951493,0.0167811757951198,-0.0723672963164832,-0.8917843166303971,-0.4731131727016542,0.2816106731769791,0.7282857694493579,1.8178546573632293,-0.151607122908321,-0.9321324201429596,-0.5175178178534532,1.4009636432695458,0.5482577948546424,-0.5315222086675064,1.1745623277789137,12.108512957564017,-0.8752585501850815,0.1082846423733972,-1.092770511369455
1.46,0.2804075381549482,0.7016031154068252,1.805416280053848,0.0273225740476942,0.0892469840977388,0.0153050392283539,-0.0690388739389325,-0.8956159842586516,-0.4530035119981245,0.2800946019478958,0.7189644452479282,1.8126794791846947,-0.1594192883772522,-0.9480982439721336,-0.5140509081021571,1.037013170056051,0.1664211188775313,-0.1915833814127243,1.0054830351764854,11.938500451273285,-0.8969989621381822,0.1190593269333284,-1.070964815368718
1.48,0.2790026914030347,0.6836849285516626,1.7965576482814212,0.0192746296533672,0.0714816511775633,0.0140153937677556,-0.0721602720243713,-0.8960360549631803,-0.4340023750516085,0.2770624594897294,0.7003217968450691,1.8023291228276257,-0.1750436193151146,-0.9800298916304818,-0.5071170885995651,0.9630197176912284,-0.1560699042719368,-0.0210035352264326,0.9500568473257976,11.73333385046044,-0.9184584926002096,0.1286350945660979,-1.0487166415911926
1.5,0.2774691537294432,0.6657851225155679,1.7880522499527884,0.0127100619289438,0.0553668624521557,0.0130273802982714,-0.0812922696168459,-0.8942109799642484,-0.4174551305576343,0.274030317031563,0.6816791484422099,1.7919787664705566,-0.190667950252977,-1.01196153928883,-0.500183269096973,0.9493887232372856,-0.4565998796237334,0.0912537499465959,0.8273622246987106,11.568433163692134,-0.9382498858152676,0.1364077402825422,-1.0274296831730705
1.52,0.2757010098634117,0.6479370255038014,1.7798585493040526,0.0077080167115296,0.0417560353315637,0.0123027819922688,-0.0951559039673279,-0.8910292314612619,-0.4027148513076362,0.2702169580265035,0.6614399176564333,1.7819751010886171,-0.2062922811908394,-1.043893186947178,-0.4932494495943809,1.0242066604304594,-0.6931817175241002,0.1590874251493235,0.737013962499905,11.420033711065116,-0.9549316575579636,0.1421588476984258,-1.008729808546084
1.54,0.2737295873602198,0.631048627146636,1.7723382801995895,0.0043429333599509,0.0316027774785331,0.0118096490278361,-0.1116192501832645,-0.8871903107208159,-0.3895992492815837,0.2664035990214439,0.6412006868706567,1.7719714357066778,-0.2219166121287018,-1.075824834605526,-0.4863156300917888,1.0698108449429438,-0.8231673107968296,0.1919460370223003,0.6557801013026276,11.3125058430669,-0.9701540726678142,0.146740009921701,-0.9907933335897298
1.56,0.2712880287611758,0.613346745700249,1.7646864691533617,0.0019023407102931,0.024165059521181,0.0114328433256579,-0.131829335547156,-0.8833376788561701,-0.376281975495398,0.2621996317429378,0.6201631648934214,1.762141115812303,-0.2375409430665642,-1.107756482263874,-0.4793818105891967,1.225398000443625,-1.0105042681945744,0.1926315932322897,0.6658636893092845,11.25898849292662,-0.981414536763421,0.1499638698573575,-0.9769540998821516
1.58,0.2684082645085484,0.5957236520150752,1.7572939532911291,0.0002928752668452,0.0209426507195459,0.0111556960527901,-0.1548804782338022,-0.8793008211801109,-0.3635912042499792,0.2576050561909851,0.5983273517247274,1.7524841414054932,-0.2531652740044266,-1.1396881299222223,-0.4724479910866046,1.331077640354261,-1.152557134332309,0.2018428838029606,0.6345385622709365,11.243482277763178,-0.988747516412986,0.1522301877346217,-0.9671417082069304
1.6,0.265248162513878,0.5790601430236328,1.750502799448129,-0.0005164217483824,0.0218790331628229,0.0109644310430545,-0.1761351638587397,-0.8750386182799128,-0.3518415196520038,0.2606642405968583,0.5517586109560696,1.73911439307863,-0.157581982855457,-0.8880695948178229,-0.3200256627441656,1.2328656888822944,-1.062734281246877,0.2131101450099037,0.5874842298987742,11.21730060289974,-0.993417912578094,0.1540360843540292,-0.9596895620301962
1.62,0.2614577277993369,0.5613830427166985,1.7436567103492424,-0.0077432679437953,0.0278224507215751,0.0103185693490999,-0.2011520027362459,-0.8891672960509555,-0.3329251705051434,0.2606642405968583,0.5517586109560696,1.73911439307863,-0.157581982855457,-0.8880695948178229,-0.3200256627441656,1.719949147523686,-1.250841943875307,-0.7064338885521326,0.9458174573430178,11.168842616128131,-0.9935089487281096,0.1602235171721422,-0.9579428942514332
1.64,0.2572263018157472,0.5436083918820059,1.7371959238357493,-0.021248320648796,0.0385462046599234,0.0091294166626641,-0.220001859136598,-0.8865455800963737,-0.3140851260921267,0.2606642405968583,0.5517586109560696,1.73911439307863,-0.157581982855457,-0.8880695948178229,-0.3200256627441656,1.3389713909797007,-0.942492820017604,0.1310857977290858,0.9420022206508366,11.673960311341943,-0.9902370336701656,0.1731288835117482,-0.9559813007829416
1.66,0.2529110449952517,0.5268660085372062,1.731384512462259,-0.0343034564403411,0.0507865013037973,0.0078163251088232,-0.2327997743731776,-0.8759142926715894,-0.2985773907112667,0.2590884207683037,0.5428779150078914,1.7359141364511883,-0.1581222837797879,-0.8898233495453652,-0.3113125544430029,1.1372123409392714,-0.6398957618289804,0.5315643712392182,0.7753867690429989,11.308709232898764,-0.9830593704474324,0.1869310361996107,-0.957788884962146
1.68,0.2481531599092752,0.5095131110310875,1.7255651012593218,-0.0464205751744089,0.0644587284378582,0.0063789067891699,-0.2418292378435545,-0.8600553081876819,-0.2842713729227902,0.2559367811111946,0.5251165231115349,1.729513623196305,-0.1592028856284498,-0.8933308590004501,-0.2938863378406775,1.1594187599697243,-0.4514731735188473,0.7929492241953717,0.7153008894238227,11.308709232898764,-0.973441709713854,0.1990744572026505,-0.962679135465999
1.7,0.2432563148881984,0.4925148542370156,1.7200105424018493,-0.0561317002479821,0.0781765885398646,0.0049853253584704,-0.2469768614082471,-0.8410740540154298,-0.2718908519916272,0.2527851414540855,0.5073551312151785,1.723113109941422,-0.1602834874771117,-0.8968383684555349,-0.276460121238352,1.1619631414575766,-0.2573811782346266,0.949062708612608,0.6190260465581521,11.09162518033554,-0.963481705188755,0.2086527923047184,-0.968426386885346
1.72,0.2382935137026103,0.4759165301081503,1.7146919694609113,-0.0633800757981913,0.0915268130736217,0.0036984066175287,-0.2486632781431383,-0.8202746757484908,-0.2605787524478915,0.2495794717045432,0.4894183638460678,1.7175839075166548,-0.1613640893257736,-0.9003458779106197,-0.2590339046360266,1.1868253175829215,-0.0843208367445613,1.0399689133469503,0.5656049771867844,11.09162518033554,-0.9526982708746512,0.2165764862878602,-0.975175080987664
1.74,0.2335781120065047,0.4605443363540753,1.7098465616486225,-0.0681164111079845,0.1036749591407525,0.0026135211040237,-0.2473070605925917,-0.7994304593212718,-0.2500203979814427,0.246373801955001,0.4714815964769571,1.7120547050918875,-0.1624446911744355,-0.9038533873657044,-0.2416076880337011,1.1702558839291697,0.0678108775273286,1.0422108213609504,0.5279177233224408,11.04952820154449,-0.9420076508871246,0.2224442130930247,-0.9821554333224042
1.76,0.2286858470208399,0.4447914731088888,1.704965475338653,-0.0711879191648854,0.1153769130431286,0.0016619780971803,-0.2417288179217213,-0.7773006261020516,-0.2386306447042568,0.2431411171592422,0.4534571413714693,1.7069611580821789,-0.1635252930230974,-0.9073608968207892,-0.2241814714313757,1.275316420854826,0.2789121335435199,1.1064916609610065,0.5694876638592957,11.060389309136552,-0.9328285486374414,0.2266858504646506,-0.987649483897088
1.78,0.2239437868366962,0.4294871122074802,1.7003143682682629,-0.0724635839914548,0.1251891439582724,0.0009782900303378,-0.2326311833719186,-0.7544768401612028,-0.2270451914704467,0.2398814173172669,0.4353449985296044,1.7023032664875282,-0.1646058948717593,-0.910868406275874,-0.2067552548290503,1.3582294409526834,0.4548817274901376,1.1411892970424442,0.5792726616905025,11.09476710043873,-0.9247991535890376,0.2294518870927424,-0.9922386576342797
1.8,0.2194138801136062,0.4146501066781571,1.6958993962532336,-0.0715487749667327,0.1325902057360163,0.0006509687472797,-0.2209074397915604,-0.7307571116334223,-0.2150255814534264,0.2123122276681002,0.39176327019942,1.6889621086947406,-0.1805760442773274,-0.7243732852120384,-0.2089102938956643,1.453050850736862,0.5861871790179065,1.185986426389024,0.6009805008510172,11.127870802455618,-0.9189406799993064,0.230365760641724,-0.9952176624225264
1.82,0.2152677078655654,0.4008478647829985,1.6918202173793124,-0.0728071730953882,0.1391815677174596,0.0002556540533337,-0.2156809724249669,-0.7217514321020534,-0.2150932127420611,0.2123122276681002,0.39176327019942,1.6889621086947406,-0.1805760442773274,-0.7243732852120384,-0.2089102938956643,0.5206313449721072,0.2613233683296773,0.4502839765684441,-0.0033815644317369,11.174682914333973,-0.9077126545020208,0.2333627483438235,-1.0030226142232606
1.84,0.2110383172686804,0.386579406317618,1.6875171350767983,-0.0778034985328628,0.1470277367799165,-0.0004752598247991,-0.207197101151238,-0.7048852351002852,-0.2151845486929553,0.2123122276681002,0.39176327019942,1.6889621086947406,-0.1805760442773274,-0.7243732852120384,-0.2089102938956643,0.9439981665072004,0.4241935636864466,0.8433098500884084,-0.0045667975447083,10.458958232888108,-0.8991313009723756,0.2386766710924678,-1.008916879527583
1.86,0.2070150722559296,0.372708089213059,1.6832226183463976,-0.0831213575503986,0.1548405646514914,-0.001231023463336,-0.1953695898243132,-0.6831670663322739,-0.2143017886466419,0.2105064672253269,0.3845195373472996,1.686873005755784,-0.1701650164584092,-0.7183525742222054,-0.2052833143807079,1.2372834599675666,0.5913755663462389,1.085908438400568,0.044138002315669,10.458958232888108,-0.8905723240108125,0.2443393117103804,-1.01431412827972
1.88,0.2034402442951709,0.3599588240712796,1.6791683081450377,-0.0872543678870339,0.1615571747476983,-0.0018254507248655,-0.1814462160751298,-0.6602402760576238,-0.2125214448910147,0.2068949463397804,0.3700320716430588,1.6826947998778707,-0.1493429608205727,-0.7063111522425397,-0.1980293553507949,1.3441239458709142,0.6961686874591699,1.1463395137325028,0.0890171877813594,10.545899946389907,-0.8817270487001079,0.24969036492275,-1.0196627661983508
1.9,0.1999858921642313,0.3470197656947903,1.6749482022400777,-0.090320575769598,0.1674474547167176,-0.0022454202642486,-0.1646366067421356,-0.6351050798068103,-0.2095230936608909,0.2032834254542339,0.3555446059388181,1.6785165939999571,-0.1285209051827363,-0.694269730262874,-0.190775396320882,1.5193182406872316,0.8404804666497068,1.2567598125406754,0.1499175615061895,10.633622186908724,-0.8736799200157397,0.2540207364379119,-1.024302069857188
1.92,0.196888733181083,0.3345953207824992,1.670802505142505,-0.0919022197078649,0.1718299879072517,-0.0024005915208739,-0.1459842369181947,-0.608954887113608,-0.2051874086743859,0.2007130073505791,0.3416592113335606,1.6747010860735396,-0.1076988495448998,-0.6822283082832082,-0.183521437290969,1.6206030067870396,0.932618491197046,1.3075096346601145,0.2167842493252525,10.727412217105666,-0.8673499511916037,0.2570401621736407,-1.0275938810926657
1.94,0.1943030959568003,0.3232848154442734,1.666952430259899,-0.0917954268373397,0.17449031629424,-0.0022672981361749,-0.1272239239020285,-0.5832185286887458,-0.2002831263014502,0.1981425892469244,0.3277738167283031,1.670885578147122,-0.0868767939070633,-0.6701868863035425,-0.1762674782610561,1.6111808363984146,0.938015650808309,1.2868179212431108,0.2452141186467832,10.823209028185374,-0.8614841312753496,0.2588578235750743,-1.0305747920063966
1.96,0.191973256985434,0.3119128331530188,1.6630096705836588,-0.0895607131595882,0.1757040448187774,-0.0017997480791921,-0.1068395202063118,-0.5555767154386488,-0.1941768096006892,0.1960927225342156,0.3141894576725373,1.6672514191964525,-0.0660547382692269,-0.6581454643238767,-0.1690135192311431,1.744190971075972,1.0192201847858344,1.382090662504848,0.3053158350380502,10.887925516162795,-0.8570289666531588,0.2587460639350535,-1.032741298794695
1.98,0.1900566846170063,0.3010806423179215,1.6592027416559103,-0.085173830641586,0.1752569566113246,-0.0010055135643133,-0.0858888216709866,-0.5297116176047335,-0.1867004184057616,0.1945634072124527,0.3009061341662631,1.6637986092215302,-0.0452326826313905,-0.6461040423442109,-0.1617595602012302,1.705748721511818,1.0475349267662617,1.2932548916957665,0.3738195597463786,11.029714600370426,-0.8553007411034115,0.2568522887389386,-1.032614627494693
2.0,0.1885654455418411,0.2907368592462026,1.655562047984234,-0.0797803227839049,0.1728752178818037,3.736711298362835e-05,-0.0644372208056853,-0.5063522385004338,-0.1776943736690695,0.185762243533457,0.2745950614376848,1.6498677207356225,-0.088007777735792,-0.5017867074170123,-0.1637002097448014,1.6484391205181743,1.0725800432650672,1.1679689552149874,0.4503022368346057,11.029714600370426,-0.8557626866441973,0.2542838956176869,-1.0307860920611078
2.02,0.187631765203377,0.2813010148868146,1.6522027088192168,-0.0749147413805261,0.1653410752225462,0.0014192603993287,-0.0362743292165596,-0.4878796638066693,-0.1762705012093547,0.185762243533457,0.2745950614376848,1.6498677207356225,-0.088007777735792,-0.5017867074170123,-0.1637002097448014,1.68553544256646,1.4081445794562837,0.92362873468822,0.0711936229857379,11.101150601622976,-0.8654517971411722,0.2534805817151916,-1.018173125927354
2.04,0.187153389160477,0.2717462558002519,1.6487149002116988,-0.0703685853244789,0.1505983064864184,0.0033043126703983,-0.0140761112444731,-0.4686189086394319,-0.1723372647392174,0.185762243533457,0.2745950614376848,1.6498677207356225,-0.088007777735792,-0.5017867074170123,-0.1637002097448014,1.4825720217569072,1.1099108986043251,0.9630377583618704,0.1966618235068676,10.64462987432853,-0.872167228957563,0.2507747980005709,-1.013103680298496
2.06,0.1870321328821635,0.2625723085922206,1.64533605665296,-0.0661692193344164,0.1322438957699971,0.0053551965142704,1.838706046347312e-05,-0.4498311830626551,-0.1655753330555945,0.1848821657560991,0.2695771943635147,1.6482307186381742,-0.0884315689487531,-0.496201725379468,-0.1591001680126094,1.222044633912892,0.7047249152468306,0.9393862788388412,0.3380965841811426,10.7484784830458,-0.8843955550005242,0.2484920853860082,-1.0027671553187951
2.08,0.1871022097392172,0.2541987465142941,1.6422723107590478,-0.0624170634855791,0.113936184387224,0.0072781052906098,0.0061594660255666,-0.4326281732139209,-0.1572149183857098,0.1831220102013832,0.2595414602151744,1.6449567144432782,-0.0892791513746752,-0.4850317613043795,-0.1499000845482253,1.0044313467874515,0.307053948255157,0.8601504924367093,0.4180207334942371,10.85469595998802,-0.900791986596783,0.2465108190895639,-0.987666620110122
2.1,0.1872320261232711,0.2457289495167427,1.6392318439987943,-0.0587118579066038,0.09564925782866,0.009157288007723,0.0060387575124521,-0.4153429468074605,-0.1471987633328807,0.1813618546466674,0.2495057260668342,1.6416827102483822,-0.0901267338005974,-0.473861797229291,-0.1407000010838412,0.9988956208108638,-0.0060354256557238,0.8642613203230204,0.500807752641455,10.934609950689264,-0.9183681834529532,0.244883728081858,-0.9703264603627578
2.12,0.1872953816519281,0.2375968250088011,1.6363997416746214,-0.0552451662740315,0.0797931666854989,0.01081955433992,0.0001745871691994,-0.398817403523347,-0.1364825008713742,0.1795593199706555,0.2400284901222483,1.6388687102267054,-0.0909743162265196,-0.4626918331542025,-0.1314999176194571,1.0275217221471376,-0.2932085171626363,0.8262771642056771,0.5358131230753238,10.9913438956346,-0.9343784821823116,0.2435928976549642,-0.9535609624692126
2.14,0.1871946930035852,0.2297870658222119,1.6337823824883342,-0.0519917900918963,0.0671894176479306,0.0122433073706765,-0.0099119691515667,-0.3830591085751827,-0.125756832986692,0.1777567852946435,0.2305512541776625,1.6360547102050285,-0.0918218986524417,-0.451521869079114,-0.122299834155073,1.078311677644538,-0.5043278160383088,0.7879147474082138,0.5362833942341105,11.023758852564242,-0.9491538816242422,0.2425894314082468,-0.9369814728712688
2.16,0.1868808212065791,0.2226543634772546,1.631493469441358,-0.0490332415541464,0.0586491000078745,0.0133800042937408,-0.0225863633404829,-0.3686346940593281,-0.1156891880364056,0.1759330610579835,0.2213532673349539,1.6334707122699612,-0.0926694810783639,-0.4403519050040255,-0.113099750690689,1.0840450602099716,-0.6337197094458072,0.7212207257927317,0.5033822475143196,11.018330255345065,-0.9606749755931836,0.2417398135527172,-0.9232417730254692
2.18,0.1862639116567886,0.2154348179992121,1.6292906314850228,-0.0460276437390101,0.0538048900216704,0.0143495990324503,-0.0385091758274809,-0.3541679680904044,-0.1051084424214959,0.1740881472606754,0.2124345295941225,1.6311167164215037,-0.093517063504286,-0.429181940928937,-0.1038996672263049,1.1987225445484289,-0.7961406243499031,0.7233362984461839,0.5290372807454875,11.015042635066491,-0.968899796819998,0.2411085771765751,-0.9124632833300524
2.2,0.1853205517014852,0.2084980122458558,1.6272990922150268,-0.0431247201391242,0.0535289047485573,0.0150986573562002,-0.0544626304638275,-0.3403178203562703,-0.0945164537730069,0.1843384528654146,0.1977264195946919,1.624035209363948,-0.0631317670398728,-0.3394636288841857,-0.0901344825359582,1.1816614686755942,-0.7976727318173268,0.6925073867067033,0.5295994324244484,11.01990826126621,-0.9742044351429476,0.2406647404668414,-0.9045871580918798
2.22,0.1841645648631993,0.2021742106621748,1.6255565356525488,-0.039917387508454,0.055938195019881,0.0157333408375987,-0.066199011403325,-0.3264919592981251,-0.0894034237522583,0.1843384528654146,0.1977264195946919,1.624035209363948,-0.0631317670398728,-0.3394636288841857,-0.0901344825359582,0.9421254528315424,-0.5868190469748773,0.6912930529072631,0.2556515010374308,10.991692196218535,-0.975849405837677,0.2399379393085929,-0.9006780719503128
2.24,0.1827294777791788,0.1957788115387733,1.623827662188608,-0.0361898916876625,0.0597213031004142,0.0163903726920288,-0.0764792501852996,-0.3139036008495495,-0.0837008677505761,0.1843384528654146,0.1977264195946919,1.624035209363948,-0.0631317670398728,-0.3394636288841857,-0.0901344825359582,0.8612044223013475,-0.514011939098731,0.6294179224287766,0.2851278000841076,10.624691985576646,-0.975516927288639,0.2382224758585345,-0.9002103083272993
2.26,0.1811085401313805,0.1896215952216546,1.6222184156654502,-0.0325840887543464,0.0640808595744551,0.0170354070982163,-0.0849295312398438,-0.3025080665100064,-0.0774865770192321,0.1837071351950158,0.19433178330585,1.6231338645385884,-0.0680562852823512,-0.3365227610429419,-0.0871396905588507,0.7744076156620692,-0.4225140527272096,0.5697767169771578,0.3107145365672026,10.644290220249786,-0.9742722736713568,0.2366765792008907,-0.9006840374923878
2.28,0.1793368193557787,0.1836828389764193,1.6207370856845162,-0.0292670355372511,0.0684949487108549,0.0176756196798466,-0.0917082322919024,-0.2919543153659598,-0.0709572091467722,0.1824444998542184,0.1875425107281663,1.6213311748878694,-0.0779053217673079,-0.3306410253604545,-0.0811501066046357,0.7070450763168398,-0.3389350526029275,0.5276875572023276,0.3264683936229917,10.66244906472366,-0.9727870472012876,0.2355325252800081,-0.9013048841307734
2.3000000000000003,0.1775420776192632,0.1782300410982907,1.6194522405026353,-0.0264197041426583,0.0723925429232299,0.018285155561521,-0.0968188707785697,-0.2825508221334545,-0.06461793167356,0.1811818645134209,0.1807532381504826,1.61952848523715,-0.0877543582522646,-0.3247592896779669,-0.0751605226504206,0.621954077077952,-0.2555319243333673,0.4701746616252666,0.3169638736606104,10.672231324082532,-0.9712073823293446,0.2346483346276114,-0.901873327997411
2.32,0.1755595989851036,0.1726775913850047,1.6182308042202913,-0.0237445723511331,0.0759476337083231,0.0189304210154526,-0.1011071233462599,-0.2731986053644005,-0.0578575203855829,0.1794267773483756,0.1742580523569233,1.6180252747841417,-0.0976033947372214,-0.3188775539954794,-0.0691709386962056,0.615540878744632,-0.2144126283845096,0.4676108384527006,0.3380205643988578,10.676052746881396,-0.9698901642457756,0.2340626765075189,-0.9020958766175904
2.34,0.1735006101631313,0.1673072051198532,1.6171423126221682,-0.0213834720181831,0.0787970436962498,0.0195793153654896,-0.1045855268694533,-0.2643001896873315,-0.0513315261129069,0.1776716901833303,0.1677628665633639,1.616522064331133,-0.1074524312221781,-0.312995818312992,-0.0631813547419905,0.5785103583322253,-0.1739201761596712,0.4449207838534502,0.3262997136338003,10.678755933945467,-0.9689165825376124,0.2337575572170624,-0.9018878791729674
2.36,0.171376002056126,0.1621117981782032,1.6161818612336067,-0.0192553134613548,0.0809650287120426,0.0202324778366777,-0.1076980977405659,-0.2557128466123324,-0.0450498371920406,0.1756703771061611,0.1614147241618668,1.6151685934769804,-0.1173014677071349,-0.3071140826305045,-0.0571917707877755,0.5542792035923018,-0.155628543555629,0.4293671537499516,0.314084446043314,10.662322182849492,-0.9683727830944936,0.2336276346313248,-0.9012907836266848
2.38,0.1693022602118875,0.1573318454504788,1.6153835621257362,-0.0174010844052964,0.0824738542189809,0.0208553163872864,-0.1104520921285066,-0.2478883283872595,-0.0392920594966734,0.173422838116868,0.1552136251524318,1.613964862221683,-0.1271505041920916,-0.301232346948017,-0.0512021868335604,0.5048751690580916,-0.1376997193970344,0.3912259112536467,0.2878888847683569,10.64656107554856,-0.968238684461144,0.2336079938272673,-0.9002205068946199
2.4,0.1670635913851633,0.1524572515841192,1.6146602803112724,-0.0156048092053331,0.083594970737131,0.0215100922393734,-0.1132796378868656,-0.2400070318341515,-0.0333407617759049,0.1637796556054621,0.1449374290311158,1.6134189591509025,-0.1149694359550986,-0.2312772663969984,-0.0307804901457156,0.5136336119620429,-0.1413772879179479,0.3940648276553979,0.2975648860384264,10.633399269641814,-0.968534465916731,0.2336972391348849,-0.8987112539631387
2.42,0.1647415098743759,0.1477175244754108,1.6140373891477546,-0.0145476711699526,0.0851905347201285,0.0221076552224878,-0.1186824501474437,-0.2342317970056115,-0.029336274761865,0.1637796556054621,0.1449374290311158,1.6134189591509025,-0.1149694359550986,-0.2312772663969984,-0.0307804901457156,0.4432257717389893,-0.2701406130289074,0.2887617414270002,0.2002243507019937,10.51279657874511,-0.96652384209128,0.2340477202568317,-0.8999847278826936
2.44,0.1623202681546951,0.1430948337379085,1.6134894012005627,-0.0146447460725479,0.0879249797159165,0.0226097515344417,-0.1229753918478702,-0.2282204343196356,-0.0256487836967369,0.1637796556054621,0.1449374290311158,1.6134189591509025,-0.1149694359550986,-0.2312772663969984,-0.0307804901457156,0.4128057053294056,-0.214647085021323,0.300568134298794,0.1843745532564054,10.51279657874511,-0.9659262971916056,0.2352541960900119,-0.8996533204725137
2.46,0.1599541658642266,0.1388198506646073,1.6130360217340285,-0.0155854187600475,0.0910589446089583,0.0230200135696036,-0.125753361670831,-0.2220254605899314,-0.0222603263360274,0.1626299612459112,0.1426246563671458,1.6131111542494454,-0.115872904720417,-0.2279550539989462,-0.029078176275524,0.3793957667606233,-0.1388984911480394,0.3097486864852103,0.1694228680354757,10.50042289128487,-0.964407453487217,0.2372955584531884,-0.9000157801173994
2.48,0.157419958919459,0.1344543248849174,1.6126270766712938,-0.0172562702269055,0.0945022485419796,0.0234006439397432,-0.1274119779035868,-0.2147995248040258,-0.0188213064867853,0.1603305725268092,0.1379991110392058,1.612495544446531,-0.1176798422510538,-0.2213106292028418,-0.0256735485351408,0.4086319043866807,-0.0829308116377894,0.3612967892952831,0.1719509924621043,10.490000806080388,-0.962407789047484,0.2399633510592468,-0.9006591700018286
2.5,0.1548649559441209,0.1302450364088276,1.6122847487815588,-0.01929842189683,0.0977621526119597,0.0237559255375028,-0.1279485346585993,-0.2064328881968322,-0.0155885350408429,0.1580311838077072,0.1333735657112659,1.6118799346436168,-0.1194867797816905,-0.2146662044067373,-0.0222689207947577,0.4492752844578722,-0.0268278377506245,0.4183318303596764,0.1616385722971193,10.481320010691888,-0.960282581991232,0.2430841706988256,-0.9011243282215444
2.52,0.1523088779297432,0.1262187036407593,1.6120051120547705,-0.0211681119618379,0.1006186815892026,0.0241287106278051,-0.1276040473708167,-0.19670698731241,-0.012540261536516,0.1556414482120734,0.1290802416231311,1.6114345562277217,-0.1212937173123273,-0.2080217796106329,-0.0188642930543746,0.509911244390214,0.0172243643891276,0.4862950442211119,0.1524136752163458,10.470638568925096,-0.958314527734588,0.2459657248130716,-0.9014593639221904
2.54,0.1498934565093716,0.1225828312373743,1.611794029112489,-0.0224160986773641,0.1028458128610729,0.0245290533884984,-0.1266657295708348,-0.186613116709108,-0.0098328249250005,0.1532517126164396,0.1247869175349964,1.6109891778118264,-0.1231006548429641,-0.2013773548145285,-0.0154596653139914,0.5246352948843174,0.0469158899990926,0.5046935301650998,0.1353718305757782,10.453750713497357,-0.9564492569594404,0.2486058183289982,-0.9016133177499136
2.56,0.1473742265059082,0.1189699126387419,1.6116262437577555,-0.022885205419334,0.1046511344507994,0.0250216004109969,-0.1253002093919865,-0.175283249509291,-0.0070916254564499,0.1508168035825399,0.1206597040667642,1.6106289150894408,-0.1249075923736009,-0.194732930018424,-0.0120550375736083,0.5868234629143437,0.0682760089424153,0.5664933599908495,0.1370599734275298,10.453750713497357,-0.9549096044781868,0.2505864384138769,-0.9015257063463884
2.58,0.144885025719422,0.1155896031820754,1.6115125141389384,-0.0221640921840356,0.1059338077425612,0.0256094045753388,-0.1236935763115515,-0.1634321176201256,-0.004417313907207,0.1483367211103742,0.1166986012184347,1.6103537680605648,-0.1267145299042377,-0.1880885052223196,-0.0086504098332251,0.6127449289303728,0.0803316540217514,0.5925565944582697,0.133715577462145,10.449935278390512,-0.9538064221253326,0.2515993137383494,-0.901250535916791
2.6,0.1425513863751761,0.1125990718380241,1.6114540408902434,-0.0201396719935205,0.1067155584933977,0.0262699156502286,-0.1220539664163138,-0.1521400413117974,-0.0018645899435431,0.1387003469038444,0.1074179973010692,1.611291648443578,-0.105550714066111,-0.161176241304368,0.0048323993646492,0.5846274617145801,0.0819804947618865,0.5646038154164118,0.1276361981831938,10.448236526494838,-0.953011228628362,0.251529567300645,-0.9008630072225852
2.62,0.1400981317037335,0.109705461100829,1.6114386267993792,-0.0156065119521861,0.1080981679633954,0.0271197449172142,-0.1232091429509303,-0.1388883025097384,0.0001824122429543,0.1387003469038444,0.1074179973010692,1.611291648443578,-0.105550714066111,-0.161176241304368,0.0048323993646492,0.6729287333285177,-0.0577588267308248,0.6625869401029479,0.1023501093248767,10.448236526494838,-0.9500536366716634,0.24958621394104,-0.902999639151059
2.64,0.1376326236085439,0.1070217349273587,1.61146603071554,-0.0096312257101397,0.1107685076786219,0.0280511103352626,-0.1230729662579711,-0.130427881163965,0.0024701348837163,0.1387003469038444,0.1074179973010692,1.611291648443578,-0.105550714066111,-0.161176241304368,0.0048323993646492,0.4382663240564438,0.0068088346479609,0.423021067288673,0.114386132038095,10.416077274091547,-0.9482121206960332,0.2457718636739944,-0.9053620663613612
