t,x,y,z,roll,pitch,yaw,v_x,v_y,v_z,ref_x,ref_y,ref_z,ref_v_x,ref_v_y,ref_v_z,a_com,a_x,a_y,a_z,thrust,wind_x,wind_y,wind_z
0.0,0.9142867516695028,2.322379179746473,2.308166572552211,0.0302330299550954,0.0996285472314201,0.0421386902826696,0.0002064203184968,0.0050573570857991,-0.0003576749226615,0.9142915123666212,2.3225733659350216,2.308157285276242,-0.0998298943653334,-0.0938926716311965,-0.1003218620880661,0.253709486378969,0.0103210159248407,0.2528678542899572,-0.0178837461330795,10.254812002182009,-0.9405351163961873,0.2532904738668706,-0.8790568003284883
0.02,0.9144531206359492,2.322683884667643,2.308066923398843,0.0386762244878316,0.0938234501842224,0.0425119049460641,0.0160015157999365,0.0222367176675748,-0.0102066465854123,0.9142915123666212,2.3225733659350216,2.308157285276242,-0.0998298943653334,-0.0938926716311965,-0.1003218620880661,1.2665086992201584,0.7897547740719864,0.8589680290887858,-0.49244858313754,10.255275308032653,-0.9526257087985526,0.2498632134864593,-0.8645294930089821
0.04,0.9148889340616564,2.32314408595385,2.3076827913968745,0.0527992556083185,0.0774441017933394,0.042685583606178,0.0253469765264545,0.0221983680109915,-0.0279564727419837,0.9142915123666212,2.3225733659350216,2.308157285276242,-0.0998298943653334,-0.0938926716311965,-0.1003218620880661,1.0029898248182223,0.467273036325902,-0.0019174828291635,-0.8874913078285674,9.198226697440075,-0.9562081145070812,0.2389759864206211,-0.861436660344615
0.06,0.9153959517020882,2.323528612679952,2.306914434595987,0.0671706219513964,0.0549119206822833,0.0422151947936738,0.0238227770582937,0.015866857596997,-0.0479586141883124,0.913293213422968,2.32163443921871,2.3071540666553614,-0.1198298946633567,-0.1138926719292197,-0.1203218623860893,1.0517804792115677,-0.0762099734080425,-0.3165755206997293,-1.0001070723164371,9.096094276271288,-0.9659960131227994,0.2252029736515253,-0.8556596310838025
0.08,0.9157544338986466,2.3237407858601102,2.305807318176037,0.080294982241517,0.03148003906472,0.0412268942913801,0.0133630585892348,0.0064846339498243,-0.0676210648154198,0.9112966155356612,2.319756585786086,2.3051476294136,-0.1598298952594031,-0.1538926725252661,-0.1603218629821358,1.2083499034644047,-0.5229859234529454,-0.4691111823586344,-0.98312253135537,9.096094276271288,-0.9805751230153246,0.208612838887805,-0.8478560498802706
0.1,0.9158276824947454,2.323740332838283,2.3042299500382075,0.0934782504801514,0.007489204575811,0.0398111562320354,-0.0060323150954346,-0.0063611827541013,-0.0891786978705226,0.9093000176483548,2.3178787323534618,2.303141192171839,-0.1998298958554496,-0.1938926731213126,-0.2003218635781822,1.585817667716945,-0.969768684233474,-0.642290835196281,-1.0778816527551405,9.077584101195043,-0.9962443337910628,0.1905026531760258,-0.8409794811260979
0.12,0.915436466843076,2.323453006676039,2.3022134772338894,0.1060390046117761,-0.0137050804114316,0.0382585842667648,-0.0323983104996343,-0.0220286607978088,-0.1114702081124822,0.9053034197312456,2.314000878891036,2.299134754900275,-0.239829896451496,-0.233892673717359,-0.2403218641742287,1.8957498587443733,-1.3182997702099832,-0.7833739021853788,-1.114575512097978,9.077761681652646,-1.0109896092302697,0.1728616223616818,-0.835427978163578
0.14,0.9144597165037052,2.322824325022721,2.299743505907648,0.1180011397953464,-0.0307322898278913,0.0368152556377146,-0.0638402450432042,-0.0403307993910528,-0.1344733435425785,0.9013068218141368,2.3101230254286094,2.2951283176287114,-0.2798298970475426,-0.2738926743134056,-0.2803218647702752,2.152154597457976,-1.5720967271784985,-0.9151069296622,-1.1501567715048142,9.104590236280728,-1.024913359274238,0.1536567778911641,-0.8325276307885379
0.16,0.9129135590092176,2.3218642559792824,2.2969657139870017,0.1288222657480843,-0.0424657221947675,0.0357276895168449,-0.09709264895933,-0.0600395257462793,-0.1568075224255623,0.8963102238821266,2.305245171951282,2.2901218803422467,-0.319829897643589,-0.313892674909452,-0.3203218653663216,2.232135640548917,-1.6626201958062858,-0.9854363177613232,-1.1167089441491889,9.16492101892254,-1.0357108997586977,0.134233332215768,-0.8338309919950936
0.18,0.910581328476315,2.320413223363066,2.293575686171539,0.1392562917294203,-0.0498002769075392,0.0350239160252825,-0.1344466383275716,-0.0840642151093217,-0.1810505555007655,0.8903136259352152,2.299367318459053,2.2841154430408808,-0.3598298982396354,-0.3538926755054984,-0.360321865962368,2.52993620146773,-1.8676994684120816,-1.2012344681521174,-1.21215165376016,9.16492101892254,-1.042818434035376,0.1175544881336144,-0.8367187045202863
0.2,0.9074838558729348,2.318439924516864,2.289695780991767,0.1478361210227066,-0.0514323110051176,0.0349178670421491,-0.1728947464398213,-0.1117415655515844,-0.2055890758786745,0.9038589965599364,2.3162100126076,2.2845231583965004,-0.2344466398176877,-0.1840642165994378,-0.2810505569908816,2.6675980428337183,-1.922405405612483,-1.3838675221131365,-1.2269260188954494,9.193272946405614,-1.0473311668030556,0.1028200232856015,-0.8423108035006516
0.22,0.903585761662345,2.315716414076623,2.2855350779534214,0.1496198137709838,-0.0465271130137256,0.0352913775189711,-0.2140223625077439,-0.1562776897771452,-0.2086030160666256,0.9038589965599364,2.3162100126076,2.2845231583965004,-0.2344466398176877,-0.1840642165994378,-0.2810505569908816,3.0348109495986666,-2.056380803396133,-2.2268062112780416,-0.1506970093975587,9.223800471808772,-1.0532608017215588,0.0912147095739424,-0.8482320018209158
0.24,0.8991722055202008,2.3123901021651743,2.2815429224834194,0.1449302210830156,-0.0366253393914892,0.035960794579124,-0.247856903463133,-0.190192602512067,-0.2111922468752247,0.9038589965599364,2.3162100126076,2.2845231583965004,-0.2344466398176877,-0.1840642165994378,-0.2810505569908816,2.398802609459276,-1.6917270477694522,-1.6957456367460864,-0.1294615404299509,10.675800638352484,-1.0525831209416072,0.0939289529108612,-0.8507881850113166
0.26,0.89389289056655,2.30828030234974,2.277266412210781,0.1376806295093709,-0.0232548735145963,0.0368539123720443,-0.2776878653436612,-0.2184922935071477,-0.2163849328565719,0.9015145301617596,2.314369370441606,2.281712652826592,-0.254446640115711,-0.204064216897461,-0.3010505572889049,2.072270967342025,-1.4915480940264083,-1.4149845497540392,-0.2596342990673628,10.4144827556338,-1.0466220415545735,0.0978852770593695,-0.8599672845376122
0.28,0.8880755068466487,2.3036546197915246,2.272850766460784,0.1301004777640735,-0.0088018197873713,0.0377636688221416,-0.3020865961337984,-0.2424307755253686,-0.2250559313587969,0.8968255973654058,2.310688086109617,2.276091641686774,-0.2944466407117574,-0.2440642174935075,-0.3410505578849513,1.7631897235775993,-1.2199365395068609,-1.1969241009110425,-0.4335499251112484,10.131032539682565,-1.0378241680443778,0.1016443477579008,-0.8726642442677995
0.3,0.8818225338421768,2.29858542770741,2.268220583465732,0.1230454370109388,0.0052731689701199,0.0385497816145294,-0.32170935293565,-0.2632862114677204,-0.2375278863266322,0.892136664569052,2.307006801777628,2.2704706305469564,-0.3344466413078039,-0.2840642180895539,-0.3810505584809978,1.5616909533978427,-0.9811378400925802,-1.042771797117592,-0.6235977483917632,9.873513575560535,-1.028253895508835,0.1049275351306616,-0.8856734609667937
0.32,0.8755566453181991,2.2934060116119537,2.263559499024596,0.1171462880412139,0.0173909911625639,0.0391100387228629,-0.3367500597183205,-0.2809701518135371,-0.252528885978711,0.8854477317428959,2.301325517415837,2.262849619377336,-0.3744466419038503,-0.3240642186856003,-0.4210505590770442,1.382004519925986,-0.7520353391335277,-0.8841970172908303,-0.7500499826039425,9.64902098030234,-1.0183642965283992,0.1078199598763061,-0.8987562356247638
0.34,0.8686829490389355,2.2876078530073847,2.258323661937281,0.1119168010308089,0.0282454539791182,0.0394748501122883,-0.3497011274972357,-0.2980002014169114,-0.2704073153859953,0.8787587989167399,2.295644233054046,2.2552286082077164,-0.4144466424998968,-0.3640642192816469,-0.4610505596730907,1.3940866043566789,-0.6475533889457569,-0.8515024801687199,-0.8939214703642145,9.348545499361537,-1.0086351236506808,0.1092554223976966,-0.9120842224097468
0.36,0.861570032671668,2.281472418404476,2.252708564986849,0.1074299515161002,0.0369803317397964,0.0396029014365549,-0.3609416743495766,-0.3146794802518823,-0.2902410011695275,0.8710698660756826,2.2889629486773537,2.246607597023196,-0.4544466430959432,-0.4040642198776933,-0.5010505602691371,1.412376833350668,-0.5620273426170469,-0.8339639417485417,-0.9916842891766088,9.266280118237772,-0.9996170405424832,0.1097029318472806,-0.9248120889040014
0.38,0.8546149978111386,2.2753404576143423,2.2469922611544533,0.1035310143879459,0.0435253403689993,0.0395274762136554,-0.3706213899550028,-0.3299109405191955,-0.3105075892287903,0.8623809332197242,2.2812816642857605,2.236986585823773,-0.4944466436919896,-0.4440642204737397,-0.5410505608651835,1.3568611458440811,-0.4839857802713093,-0.7615730133656601,-1.0133294029631394,9.199046348308912,-0.992273032005484,0.1098596788074967,-0.93541727874263
0.4,0.8471018338450234,2.2685818198422925,2.240544602672648,0.0997309284588109,0.048836937246379,0.0392802158730755,-0.3801812046104971,-0.3450995834518826,-0.3332727833102391,0.8360839283133884,2.2588449105883828,2.231466881693014,-0.4706213914451189,-0.4299109420093116,-0.4105075907189064,1.4494300534607591,-0.4779907327747162,-0.7594321466343562,-1.1382597040724418,9.199046348308912,-0.9857067912798048,0.1098854775977009,-0.9451304143110464
0.42,0.8394388723099997,2.2615111611108314,2.2339133051263085,0.0965623839159365,0.0520500850530693,0.0388509306745894,-0.3856706945677227,-0.3614753224574101,-0.3273057714339528,0.8360839283133884,2.2588449105883828,2.231466881693014,-0.4706213914451189,-0.4299109420093116,-0.4105075907189064,0.9136527769062162,-0.2744744978612795,-0.8187869502763734,0.2983505938143144,10.883259892942988,-0.9911746559470452,0.1109509218333961,-0.941476090983708
0.44,0.831672508827034,2.2541245270819745,2.227398680494684,0.0943839933568062,0.0525276380108442,0.0382192298436608,-0.3908878120141409,-0.3766577698784183,-0.3246578559733577,0.8360839283133884,2.2588449105883828,2.231466881693014,-0.4706213914451189,-0.4299109420093116,-0.4105075907189064,0.8135362321800123,-0.2608558723209087,-0.7591223710504136,0.1323957730297559,10.883259892942988,-0.9909850391323692,0.1123806475879603,-0.9413854171815836
0.46,0.824189994484446,2.2468268975705343,2.221200180769161,0.0930037297010654,0.0505780769090986,0.0374393126147833,-0.3966339583292768,-0.3908202296997554,-0.3279397220524744,0.8313777143989373,2.2545458011682897,2.227361805785825,-0.4906213917431422,-0.4499109423073348,-0.4305075910169296,0.7816074952097025,-0.2873073157567962,-0.7081229910668535,-0.1640933039558367,10.481977034047304,-0.9924198163664804,0.112539428431587,-0.9404089877923956
0.48,0.8161829499767663,2.238861169145744,2.214562210269647,0.0921710710293646,0.046210475292807,0.0364472857767242,-0.4040405534982124,-0.4050330025846622,-0.3358863501108596,0.8219652865700349,2.245947582328103,2.2191516539714464,-0.5306213923391886,-0.4899109429033813,-0.470507591612976,0.8944404152496076,-0.3703297584467802,-0.71063864424534,-0.397331402919257,9.885102421559168,-0.9952813824621476,0.111488553269629,-0.9386908518197444
0.5,0.8079981115961695,2.2306163355046422,2.207722160887466,0.0920757147231,0.0401533603526756,0.035349889886825,-0.4143938282693735,-0.4188236459909629,-0.3477129613268559,0.8125528587411325,2.237349363487917,2.2109415021570684,-0.5706213929352351,-0.5299109434994278,-0.5105075922090225,1.0455152759539592,-0.5176637385580524,-0.6895321703150326,-0.5913305607998159,9.695788963189443,-0.9990069027286816,0.1093999565609326,-0.9366131939051178
0.52,0.800001629661168,2.2225296175299856,2.200978706704897,0.0927134661832116,0.0338403465094574,0.0343008618476759,-0.4269941588828385,-0.4317991154245845,-0.3615327994259514,0.8011404308824278,2.2267511446179284,2.200731350312888,-0.6106213935312815,-0.5699109440954743,-0.550507592805069,1.138111444100142,-0.6300165306732497,-0.64877347168108,-0.6909919049547769,9.559674361570616,-1.0041197773951045,0.1064168703207792,-0.933429279713723
0.54,0.7913014446842794,2.2137500954884337,2.193585663000981,0.0942171119186376,0.027357162540015,0.0332570472555549,-0.442520967687275,-0.4455608738206358,-0.3770865872720867,0.789728003023723,2.21615292574794,2.190521198468708,-0.650621394127328,-0.6099109446915207,-0.5905075934011155,1.29652236980644,-0.776340440221826,-0.6880879198025658,-0.7776893923067657,9.559674361570616,-1.0097984284985209,0.1026504646331785,-0.9298077932833118
0.56,0.7822634931867445,2.2046788657441607,2.185873778933181,0.0962289499179626,0.0217568034780285,0.0323138553007374,-0.4606466644546421,-0.4608944864395906,-0.3933461051618048,0.7773155751501172,2.20455470686305,2.179311046609626,-0.6906213947233744,-0.6499109452875671,-0.6305075939971618,1.4387776767596645,-0.9062848383683568,-0.7666806309477414,-0.8129758944859011,9.515095914052836,-1.0140173528703036,0.0983254822163789,-0.928026477825524
0.58,0.7728350114328041,2.195283002672165,2.17782806724471,0.0979935083739432,0.0180455451758494,0.0315196675276268,-0.4813428462853313,-0.4777835092959127,-0.4104031269881577,0.7639031472616102,2.19195648796326,2.1671008947356434,-0.7306213953194208,-0.6899109458836136,-0.6705075945932083,1.5847026763678729,-1.034809091534461,-0.844451142816105,-0.852851091317644,9.500431700234913,-1.0166820797916798,0.0937967369257672,-0.9282404873345474
0.6,0.7634757191620405,2.1860325628457176,2.1698599272357444,0.0989101047217013,0.0171534304963405,0.0309629021005868,-0.5025415203143725,-0.494935426484258,-0.4274565474797268,0.7487678691185375,2.1713938272073694,2.157307910895302,-0.5813428477754474,-0.5777835107860289,-0.5104031284782737,1.6080976294115874,-1.0599337014520565,-0.857595859417265,-0.8526710245784552,9.485375452928563,-1.017972886619524,0.0900523296274882,-0.9298609265277
0.62,0.7531858813791622,2.175870192007573,2.161398239122285,0.097424806404843,0.0195475659727646,0.0305328394776636,-0.5249227981701742,-0.520093215903631,-0.4162310479175023,0.7487678691185375,2.1713938272073694,2.157307910895302,-0.5813428477754474,-0.5777835107860289,-0.5104031284782737,1.7747167431379118,-1.1190638927900842,-1.2578894709686483,0.5612749781112231,9.453766462291242,-1.0232332791131773,0.0892400055440011,-0.9265622698892896
0.64,0.7424770376883916,2.165235613104478,2.153171380800305,0.0930110613949689,0.024871996761933,0.0301743686097949,-0.5444640334940257,-0.541265888430045,-0.407391640767366,0.7487678691185375,2.1713938272073694,2.157307910895302,-0.5813428477754474,-0.5777835107860289,-0.5104031284782737,1.506881762663207,-0.9770617661925772,-1.0586336263206986,0.4419703575068157,10.898226022070048,-1.0205157542826842,0.0927329734350986,-0.9288463720282698
0.66,0.731967850137435,2.1547875910747663,2.1454482534914083,0.0880253448446432,0.0314334052397545,0.029896718884858,-0.5604962131319029,-0.5572630045469009,-0.4059472199817223,0.7429544406407831,2.165615992099509,2.15220387961052,-0.6013428480734706,-0.597783511084052,-0.5304031287762969,1.134707957365391,-0.8016089818938588,-0.7998558058427974,0.0722210392821859,10.898226022070048,-1.0153453496466212,0.0966299416965479,-0.9342524187615114
0.68,0.7206043334203527,2.1434933455278533,2.137289651176652,0.0829601546645225,0.0389646994923456,0.0296425713985192,-0.5747582173621096,-0.5712488967382566,-0.4102520781707188,0.7313275836852741,2.154060321883789,2.141995817040954,-0.6413428486695171,-0.6377835116800985,-0.5704031293723434,1.0216919167220002,-0.7131002115103369,-0.6992946095677854,-0.2152429094498253,10.450676813272366,-1.0098860784079895,0.0999071068336585,-0.9403302261782752
0.7000000000000001,0.7095669146237753,2.1325247597212424,2.1294030942373827,0.0787283635448806,0.046032491139492,0.029407790218372,-0.5862156136259388,-0.582723961396147,-0.4196831490434228,0.7197007267297652,2.142504651668068,2.131787754471389,-0.6813428492655635,-0.677783512276145,-0.6104031299683899,0.9379420769097856,-0.5728698131914567,-0.5737532328945194,-0.4715535436352003,10.089613560083308,-1.0037827651173743,0.1027331946130848,-0.9472124522466888
0.72,0.697733051647007,2.120757762894589,2.12086526439715,0.0750255372054079,0.0528959048658139,0.0291458694618612,-0.5964390109499621,-0.5934466567249314,-0.4338095895918348,0.7060738697444539,2.1289489814225453,2.119579691872021,-0.72134284986161,-0.7177835128721914,-0.6504031305644363,1.0235359917054714,-0.5111698662011666,-0.5361347664392169,-0.7063220274206028,9.792637469194233,-0.9976503462550468,0.1046109013156206,-0.9544449093131078
0.74,0.6857115342619018,2.1087855172669574,2.112017322768508,0.0721278847498163,0.0588385415083925,0.0288563105529059,-0.6051252458007117,-0.6033469675670904,-0.4503807192619509,0.6924470127591427,2.1153933111770225,2.1073716292726528,-0.7613428504576565,-0.7577835134682379,-0.6904031311604828,1.0583822197079258,-0.4343117425374798,-0.4950155421079516,-0.8285564835058046,9.557407015038734,-0.992059189808648,0.1055590647358632,-0.9613923558243233
0.76,0.6735247090647715,2.0966129903510624,2.1028172702961303,0.0697246151707081,0.0638250255323061,0.0285241353111046,-0.61308091060983,-0.6133956928845312,-0.4688003445575883,0.6778201557589302,2.1008376409165983,2.094163566658384,-0.8013428510537028,-0.7977835140642843,-0.7304031317565292,1.1219983055826173,-0.3977832404559178,-0.5024362658720416,-0.92098126478187,9.360550063217488,-0.9871509518654517,0.1059040079419127,-0.9677341965935642
0.78,0.6618049888197594,2.0848648025053027,2.0937217935475387,0.0676051803936941,0.0678498792011949,0.0281662118271358,-0.6201393058879845,-0.6227038305575995,-0.4877027162539153,0.6621932987438166,2.085281970641273,2.079955504029214,-0.8413428516497493,-0.8377835146603307,-0.7704031323525756,1.1110378330524668,-0.3529197639077219,-0.4654068836534131,-0.9451185848163484,9.360550063217488,-0.9824669608003812,0.1060159744419819,-0.9740084078770448
0.8,0.6493282019851966,2.072312332186369,2.083744690850955,0.0654849072188398,0.0714810652362267,0.0277541561833632,-0.6271246862738086,-0.6320071982181403,-0.509086140637523,0.6307980235253601,2.0537296109774226,2.069336657734843,-0.7083163312061302,-0.7227038320477156,-0.5877027177440315,1.217167847229092,-0.349269019291204,-0.4651683830270425,-1.0691712191803842,9.289361838658806,-0.9781483486408722,0.1059518756512455,-0.9799838495557008
0.8200000000000001,0.6367240478034807,2.059545680030833,2.0736410940020624,0.0630748094180034,0.0750923310075857,0.0273191030830614,-0.632702168597464,-0.6440199252837683,-0.4985680204812121,0.6307980235253601,2.0537296109774226,2.069336657734843,-0.7083163312061302,-0.7227038320477156,-0.5877027177440315,0.8456429096352547,-0.2788741161827701,-0.6006363532813974,0.5259060078155436,9.212450865755272,-0.978254296523877,0.1065826791327785,-0.9811771697854144
0.84,0.6240242383845108,2.0465655267805145,2.0637474170397936,0.0607516963151666,0.078915763367461,0.026901849816285,-0.6369046647553781,-0.653525985845292,-0.4915197523632351,0.6307980235253601,2.0537296109774226,2.069336657734843,-0.7083163312061302,-0.7227038320477156,-0.5877027177440315,0.6279017535003603,-0.2101248078957063,-0.4753030280761849,0.352413405898852,11.222924300616796,-0.9753462734759712,0.108491096210126,-0.9834679002258204
0.86,0.6118901580763163,2.0340681766715,2.0544101038576805,0.0590501744859443,0.0822572365688387,0.0265227725866896,-0.6401216639838446,-0.6616210844240366,-0.4917044519641659,0.6237148602132988,2.046502572656945,2.0634596305574027,-0.7259517362697594,-0.7427038323457388,-0.6077027180420547,0.4356426832225311,-0.160849961423326,-0.4047549289372287,-0.0092349800465407,10.766908325642362,-0.9719257990780218,0.1096191770962688,-0.9867537734059292
0.88,0.5990575066725791,2.0207566307376394,2.0445203243361383,0.0578970323569947,0.0851785089038604,0.0261349788586178,-0.6429660362114288,-0.6691431729723262,-0.49751895805224,0.6095485335891762,2.032048496015991,2.051705576202522,-0.7612225463970177,-0.7827038329417852,-0.6477027186381011,0.4961873399876635,-0.1422186113792078,-0.3761044274144809,-0.2907253044037078,10.348982292147411,-0.968553257245367,0.1097792564927133,-0.9904880326932786
0.9,0.5861709959887319,2.007303588322132,2.034463372688833,0.0576606501840081,0.0873397617840893,0.0257709971195499,-0.6455648177284445,-0.6758531458477983,-0.5080767225893856,0.5953822069650536,2.017594419375037,2.0399515218476414,-0.796493356524276,-0.8227038335378317,-0.6877027192341476,0.6388344726620571,-0.1299390758507879,-0.3354986437736074,-0.5278882268572788,10.025317681156594,-0.9655721907215004,0.1088266561531801,-0.994245434501978
0.92,0.573233240916992,1.9937230799795904,2.024152618184668,0.0586097201274798,0.0887011827620935,0.0254480944344149,-0.6481354532742262,-0.6820327963193736,-0.5224657783478213,0.5794523398345681,2.00114034270428,2.0261974674629584,-0.8317641666515343,-0.8627038341338782,-0.7277027198301941,0.793475224376046,-0.1285317772890815,-0.3089825235787657,-0.7194527879217816,9.587774975065258,-0.9632481373820524,0.1067142448622094,-0.9976527960510804
0.94,0.560895076592668,1.980707321920986,2.01407734954697,0.0607707191089676,0.0892914427581263,0.0251908334178524,-0.6505508398487955,-0.6879334266635041,-0.5373767562762619,0.5635224727040826,1.984686266033524,2.012443413078276,-0.8670349767787926,-0.9027038347299248,-0.7677027204262405,0.8108464613370509,-0.120769328728465,-0.2950315172065232,-0.7455488964220325,9.587774975065258,-0.9616847385587726,0.1031290810938475,-1.000672987377465
0.96,0.5478534046170958,1.9668616181127736,2.00315581326354,0.0638419512315749,0.0893608893546681,0.0249420776339049,-0.6535316056071071,-0.6965227562355873,-0.5540433024506316,0.5467108353204156,1.9672321893478657,1.9976893586786912,-0.9023057869060508,-0.9427038353259712,-0.8077027210222869,0.9492566939271272,-0.1490382879155816,-0.4294664786041624,-0.8333273087184845,9.527210797689804,-0.9606576324638793,0.0985899960910806,-1.003441224367982
0.98,0.5347475037148457,1.9528230116447047,1.991893317666191,0.0666895646636749,0.0891523889216255,0.0246580770230439,-0.6569374520486434,-0.7068564447311529,-0.5713933086097033,0.5290174276835673,1.9487781126473067,1.9819353042642056,-0.9375765970333092,-0.9827038359220176,-0.8477027216183334,1.0239721939908026,-0.1702923220768148,-0.5166844247782798,-0.8675003079535837,9.484787275136114,-0.9601733208251028,0.0944394784549496,-1.0055856749841394
1.0,0.5215693025545372,1.9385673300799149,1.9802762264109783,0.0688982311270758,0.0888867980079056,0.0243238606621455,-0.6607150399573944,-0.7180228007354549,-0.5894397340094619,0.5019006311124136,1.9174801894081477,1.9633236522357056,-0.6925481949156364,-0.8068564462212691,-0.6694637885391505,1.077765218556674,-0.1888793954375522,-0.5583178002150968,-0.9023212699879324,9.459086820709672,-0.9597919369824478,0.0905881310352713,-1.0077088438359585
1.02,0.5089177822629447,1.9247459037916956,1.9691980258319168,0.0689031733102826,0.091529523327205,0.0240608094774168,-0.6699473817222957,-0.7355493833572985,-0.5757084233519872,0.5019006311124136,1.9174801894081477,1.9633236522357056,-0.6925481949156364,-0.8068564462212691,-0.6694637885391505,1.2051619447571436,-0.4616170882450643,-0.8763291310921795,0.6865655328737341,11.49239920688524,-0.9577034480907474,0.0878361503066258,-1.0124109855221868
1.04,0.4954577019749626,1.9098680729802693,1.9577916925641168,0.0662350460410134,0.0987166984106298,0.0238961845910116,-0.6750067953254065,-0.7510256455653387,-0.5660650619713317,0.5019006311124136,1.9174801894081477,1.9633236522357056,-0.6925481949156364,-0.8068564462212691,-0.6694637885391505,0.9461854689452748,-0.2529706801555398,-0.7738131104020107,0.482168069032779,11.49239920688524,-0.9525827127222112,0.0906061720198438,-1.016262916607199
1.06,0.4819368000720914,1.8947189964788156,1.9464909169957136,0.0621474529146951,0.1081492997450686,0.023758853870886,-0.6763767832197678,-0.7627274202546848,-0.5644501578215563,0.4949751491632572,1.9094116249459347,1.9566290143503144,-0.6996703434890349,-0.8268564465192922,-0.6890778845250398,0.5945929555668287,-0.0684993947180634,-0.5850887344673039,0.0807452074887693,10.501687953274995,-0.9439649075649011,0.0939867429859595,-1.0238552511400736
1.08,0.469094705608549,1.880142074081225,1.9357218742614937,0.058229618986902,0.1180037449393745,0.0236503578805261,-0.6750247674527409,-0.7710987793235073,-0.5692213714311037,0.4811241852649445,1.893274496021509,1.9432397385795317,-0.7139146406358321,-0.8668564471153387,-0.7283060764968188,0.4864978895159218,0.0676007883513463,-0.418567953441129,-0.2385606804773732,10.501687953274995,-0.9329395483619142,0.0973226792482008,-1.033825564128365
1.1,0.4556295169707562,1.864645662990072,1.9242342940759232,0.0546472899688376,0.1286236470647525,0.0235558416888798,-0.6712670096662642,-0.7781537979219836,-0.5795482458541282,0.4672732213666317,1.877137367097084,1.9298504628087485,-0.7281589377826293,-0.9068564477113852,-0.7675342684685976,0.6529516949123978,0.1878878893238345,-0.3527509299238118,-0.5163437211512245,10.12537060962768,-0.9208587310464272,0.0998853980053482,-1.0449027601516545
1.12,0.4422615525371723,1.8490199934840787,1.9124909113940376,0.0518182017766909,0.1391062287908172,0.023479661170465,-0.665456642357646,-0.7841579821270632,-0.5944832244479838,0.4527100426109791,1.8590002381428563,1.9144997774393764,-0.7424032349294265,-0.9468564483074317,-0.8067624604403765,0.8556637508807303,0.2905183654309085,-0.3002092102539822,-0.746748929692781,9.8315635759609,-0.9082472597262858,0.1015596296076747,-1.056491447196136
1.14,0.4290311441299396,1.8332823439573,1.9004198856301917,0.0497944313233862,0.1492325066396235,0.0234230365922073,-0.6576158286056755,-0.7895095345277418,-0.6119035627341765,0.4381468638553266,1.8408631091886287,1.8991490920700045,-0.7566475320762237,-0.986856448903478,-0.8459906524121554,0.9919496703407972,0.3920406875985271,-0.2675776200339264,-0.8710169143096302,9.505348288946152,-0.8963125875439374,0.1023033002038825,-1.0674573180245197
1.16,0.4166272200293173,1.8182276594599287,1.8886142608497305,0.048306747569463,0.1583756878271834,0.0233657639390236,-0.6482637320831317,-0.7949183953936702,-0.6299556816398812,0.423227577671004,1.8217259802195,1.882817701901338,-0.7708918292230208,-1.0268564494995245,-0.8852188443839343,1.0518988570908936,0.4676048261271881,-0.27044304329642,-0.9026059452852396,9.442703692254328,-0.8839695199476303,0.1025688805031004,-1.0787124859022252
1.18,0.4037884417708709,1.8022718712601575,1.875800907785245,0.0469655644769471,0.1671414890274072,0.0232728522051568,-0.6359523871303215,-0.8003447160051642,-0.6505247470182788,0.4079521840580116,1.8015888512354696,1.865505606933377,-0.785136126369818,-1.0668564500955708,-0.9244470363557132,1.228922923200029,0.6155672476405083,-0.2713160305747031,-1.0284532689198769,9.442703692254328,-0.8722993110738705,0.1026503272195525,-1.089176078830063
1.2,0.3912194392027417,1.7862103875379318,1.86256064280596,0.0458147443034614,0.1745181614488294,0.0231239446703465,-0.6215502441951106,-0.8055021993486361,-0.6724997374641293,0.3719908224143548,1.7622546354598996,1.8432746704343317,-0.6484928607330337,-0.9003447174952803,-0.6843334216815841,1.3387695476254082,0.7201071467605458,-0.257874167173594,-1.0987495222925248,9.376662339685026,-0.8621222417931647,0.1024621981826842,-1.0983489562166322
1.22,0.379023399980303,1.7699983625000788,1.8492583377354797,0.0437514060690717,0.1802789990430491,0.0228342650303078,-0.5987911398791157,-0.8147502954272631,-0.6566278104886293,0.3719908224143548,1.7622546354598996,1.8432746704343317,-0.6484928607330337,-0.9003447174952803,-0.6843334216815841,1.4623800602626005,1.1379552157997463,-0.4624048039313488,0.7935963487749997,9.327280702623284,-0.8575802396415801,0.1034788506559943,-1.1024731935152106
1.24,0.3678719782157917,1.7544568837969057,1.8369102953318217,0.0411221059687243,0.1841291653291292,0.0224372827885207,-0.576291660606193,-0.8206661886335562,-0.6440698899628208,0.3719908224143548,1.7622546354598996,1.8432746704343317,-0.6484928607330337,-0.9003447174952803,-0.6843334216815841,1.3218601740667084,1.1249739636461364,-0.2957946603146577,0.6278960262904254,11.664394818193614,-0.8504392030509602,0.1064224194830143,-1.1072616125383556
1.26,0.3565994239937529,1.7379973455940654,1.8241270505103937,0.0386585155603073,0.1862743232079676,0.021963081505896,-0.5522899522364332,-0.8250534664666686,-0.6351036943549436,0.3655058938070245,1.7532511882849469,1.8364313362175155,-0.6510009554535762,-0.9203447177933036,-0.6910951566142451,1.2997335064645283,1.2000854184879894,-0.2193638916556162,0.4483097803938574,11.363496500322071,-0.8454840121634768,0.1090098692718667,-1.110419382553213
1.28,0.3458097166831114,1.7214620609916993,1.8114812762180603,0.0369182547721087,0.1861297737431688,0.0214578746444649,-0.5280503459326453,-0.828441356339932,-0.629898576944122,0.3525360365923638,1.7352442939350412,1.822744667783884,-0.656017144894661,-0.96034471838935,-0.7046186264795672,1.2511290489158495,1.2119803151893926,-0.1693944936631719,0.2602558705410818,10.895175832451969,-0.8433152014474142,0.1107207257291434,-1.111597441314466
1.3,0.336010352822059,1.7056985489978385,1.7995403473177127,0.0361330400557895,0.1834347090185066,0.0209536288587276,-0.5048401378701373,-0.8308575272035302,-0.6272784640127478,0.3395661793777031,1.7172373995851355,1.809057999350252,-0.6610333343357458,-1.0003447189853965,-0.7181420963448893,1.1741131032828245,1.1605104031254032,-0.1208085431799121,0.1310056465687104,10.895175832451969,-0.8438937718621998,0.1113372524024678,-1.1110570586313846
1.32,0.3261621086981553,1.6890624677723542,1.7870100253227803,0.0365622762480565,0.1775596401431438,0.020407797007047,-0.4817482582044446,-0.8327652628916943,-0.6259038680196003,0.3263455126909882,1.6972305052054275,1.7946951574233545,-0.6660495237768307,-1.0403447195814428,-0.7316655662102115,1.1605643843569189,1.1545939832846324,-0.0953867844082023,0.0687297996573743,10.75471948598988,-0.8466279037902739,0.1101862006709317,-1.1095813572188264
1.34,0.3167458823963215,1.6723904080981424,1.7745143338554237,0.0386398860690657,0.1692232035396819,0.0198808930295366,-0.4615373386282211,-0.8346090032456116,-0.6236732087616542,0.3131248460042733,1.6772236108257197,1.7803323154964563,-0.6710657132179155,-1.0803447201774894,-0.7451890360755336,1.020853184025862,1.0105459788111726,-0.0921870176958661,0.1115329628973038,10.698959110888609,-0.8523513830979654,0.1074176409063972,-1.1060117153287234
1.36,0.3081445517315189,1.6564946395969784,1.762696940636207,0.0417064455204244,0.1598862236228404,0.0193773944565465,-0.4452644462740281,-0.8388325890910556,-0.6203410633687084,0.2997787745815313,1.6562167164311106,1.7656313868229256,-0.6760819026590005,-1.1203447207735358,-0.7587125059408557,0.8569552145309545,0.8136446177096496,-0.2111792922722011,0.1666072696472897,10.698959110888609,-0.860961339876344,0.1033277701787288,-1.1002109099717086
1.38,0.2993909297821762,1.6396502959268522,1.7503360128172414,0.0449378749682413,0.1493536258198367,0.0187824203167907,-0.4313283927906897,-0.8454117316743472,-0.6158583171192237,0.2863072984227621,1.6342098220216,1.7505923714027618,-0.6810980921000853,-1.160344721369582,-0.7722359758061778,0.802486320380325,0.6968026741669242,-0.328957129164581,0.2241373124742374,10.755920045256971,-0.8705596095087222,0.0992294088986037,-1.0934964411442465
1.4,0.2908823459660853,1.6226585352240024,1.7380731932144604,0.0476514565469027,0.1387457895598424,0.0181138485069108,-0.4205440362225794,-0.8533120913647803,-0.6106130391152035,0.2778245101426417,1.5973797093431348,1.7195430969612802,-0.4497329473663713,-0.9454117331644634,-0.632251727161152,0.7180372051046848,0.539217828405511,-0.3950179845216506,0.2622639002010096,10.826600251061793,-0.8800877938886985,0.0958771644460733,-1.086549270801329
1.42,0.2829495545718886,1.606293541530329,1.7266547688636371,0.0476129030548925,0.1303357734929917,0.0173612636578901,-0.4149864573644389,-0.8678891780508489,-0.5915394184445245,0.2778245101426417,1.5973797093431348,1.7195430969612802,-0.4497329473663713,-0.9454117331644634,-0.632251727161152,1.2320522964819327,0.2778789429070283,-0.7288543343034304,0.9536810335339484,10.826600251061793,-0.8885539060379775,0.0938606027947122,-1.0815743917174134
1.44,0.2746965790624596,1.5888091737141026,1.7150228243253107,0.0443284146525753,0.124563367615544,0.0165125736381398,-0.4106907841296427,-0.8793068067775772,-0.5727886539754201,0.2778245101426417,1.5973797093431348,1.7195430969612802,-0.4497329473663713,-0.9454117331644634,-0.632251727161152,1.1184880670545672,0.2147836617398091,-0.5708814363364179,0.93753822345522,11.838518265907624,-0.8947001064554547,0.0972985768194844,-1.075604245645375
1.46,0.2665147558315919,1.5711438046042887,1.7037304428494302,0.0398388299367429,0.121717145916672,0.0157445338088053,-0.4075917553722917,-0.8864286173036291,-0.5573608250964187,0.273327180668978,1.58792559201149,1.713220579689669,-0.4534138582815077,-0.9654117334624864,-0.6355304091695376,0.8636290701563103,0.1549514378675481,-0.3560905263025937,0.7713914439500702,11.653477564767854,-0.898111535753533,0.1018950001439346,-1.0715468254286924
1.48,0.2588042731848755,1.5542584054059625,1.693258995490858,0.0358310247360699,0.1211722968678433,0.0151438630083595,-0.4040080070931299,-0.8907080542324569,-0.5456642373029191,0.2643325217216505,1.569017357348201,1.7005755451464457,-0.4607756801117804,-1.0054117340585331,-0.6420877731863089,0.6480104130476111,0.1791874139580929,-0.2139718464413909,0.584829389674979,11.210798179698031,-0.89985036339134,0.1065626185629451,-1.068685377149131
1.5,0.2507732866068273,1.5364127670470842,1.6824512293513312,0.0323979800314811,0.1219121554175326,0.0146305531238872,-0.3991618342368292,-0.8937486610145042,-0.5358449373088015,0.2553378627743231,1.5501091226849115,1.6879305106032223,-0.468137501942053,-1.0454117346545797,-0.6486451372030803,0.568219441172724,0.2423086428150339,-0.1520303391023658,0.490964999705884,11.210798179698031,-0.8996765878333683,0.1102940820496861,-1.067707431665332
1.52,0.2428498278788658,1.5185166546343691,1.671813756353709,0.0299483381178656,0.1232536469103282,0.0142186512140795,-0.3933531998326945,-0.8959593210455532,-0.5283935283964719,0.245975112735482,1.52920088799182,1.6749576078591608,-0.4754993237723257,-1.0854117352506258,-0.6552025012198516,0.485156537090139,0.2904317202067324,-0.1105330015524486,0.3725704456164769,11.045089052207004,-0.8984430298449365,0.1129221581732294,-1.067915806801973
1.54,0.2354391256213951,1.501480163124734,1.6618349366337302,0.0285399728395817,0.1245900300148232,0.0139045153364833,-0.3869950978293658,-0.8974336197477684,-0.5223860765448454,0.236612362696641,1.5082926532987284,1.661984705115099,-0.4828611456025984,-1.1254117358466724,-0.6617598652366229,0.4435326805819864,0.3179051001664351,-0.073714935110758,0.3003725925813272,10.909531316265202,-0.8968827270890077,0.1143685045508196,-1.0687415005566407
1.56,0.2277749054792743,1.4835133214985154,1.651447360720569,0.0279067789809218,0.125748403832755,0.0136377074076444,-0.3797541538301759,-0.8992078500869695,-0.516718305816162,0.2270655671120431,1.4863844185907358,1.6488478682706185,-0.4902229674328711,-1.1654117364427188,-0.6683172292533942,0.4682488342987793,0.3620471999594948,-0.0887115169600549,0.2833885364341704,10.84602316112796,-0.8952759167731328,0.1149422545534676,-1.0698281944226884
1.58,0.2202598293361239,1.465509907893761,1.6411671534683467,0.0279794252081787,0.1264810673613696,0.0134200370191437,-0.3721357589646259,-0.9010741629591388,-0.5116097577410726,0.2173347259816884,1.4634761838678418,1.6355470973257182,-0.4975847892631437,-1.2054117370387651,-0.6748745932701655,0.4680286516330035,0.3809197432775024,-0.0933156436084658,0.2554274037544657,10.779281980459928,-0.8939682433060067,0.1147767377332405,-1.070805832522374
1.6,0.2128995372058045,1.4474672324155315,1.6309839458888762,0.0286719367118641,0.1266786840655336,0.0132415729667502,-0.3643412601380786,-0.9031398823538528,-0.5069662667123929,0.2016530413878926,1.420456199745804,1.6155866655812932,-0.3680586732051352,-1.001074164449255,-0.4859332558262138,0.4652510545613352,0.3897249413273629,-0.1032859697357002,0.232174551433989,10.779281980459928,-0.8931571063839427,0.1140144389001898,-1.071489631458198
1.62,0.206035527210386,1.4302315159525316,1.621546077204189,0.0282567463357585,0.1275130896500572,0.0130256518011039,-0.3582906065996356,-0.9104108295381136,-0.4867101913659773,0.2016530413878926,1.420456199745804,1.6155866655812932,-0.3680586732051352,-1.001074164449255,-0.4859332558262138,1.117794334435282,0.3025326769221542,-0.3635473592130345,1.0128037673207773,10.75551068167897,-0.8921791034945619,0.1129248695339758,-1.0738557226631706
1.64,0.1989518526944762,1.4119683773406682,1.6120328724495614,0.0261448050484177,0.1296962930153707,0.0127292344702492,-0.3502256001767718,-0.9153985583432556,-0.465794608638072,0.2016530413878926,1.420456199745804,1.6155866655812932,-0.3680586732051352,-1.001074164449255,-0.4859332558262138,1.1482414468245867,0.4032503211431865,-0.2493864402570988,1.0457791363952669,11.87201133434155,-0.8910989573975531,0.1158775636023168,-1.0731341602364617
1.66,0.1920461316232004,1.3936327544821163,1.6029170721604915,0.0235773573014624,0.1323199353442203,0.0124222076719949,-0.3406530825201881,-0.9178236232757097,-0.4469260097977287,0.1979724546558413,1.4104454581013115,1.610727333023031,-0.367243256053237,-1.021074164747278,-0.480797955443242,1.0648216475189969,0.4786258828291839,-0.12125324662271,0.9434299420171628,11.760924139334747,-0.8889797299988759,0.1191053549137387,-1.0733865591744922
1.68,0.1853453171483918,1.375269893094185,1.5941566621788743,0.0215699836668187,0.1347193005013955,0.0121586722867142,-0.3298953541642969,-0.9185715342830592,-0.4300615083771689,0.1906112811917386,1.3904239748123264,1.6010086679065068,-0.3656124217494407,-1.0610741653433249,-0.4705273546772985,1.0008739910924416,0.5378864177945641,-0.0373955503674805,0.8432250710279893,11.620506754132292,-0.8864732832142557,0.1218255235447915,-1.0741725081121531
1.7,0.1791872302596523,1.3578215971214875,1.5861327518943484,0.0205664225636638,0.1364115617836409,0.0119690570629856,-0.3189047497000603,-0.9182371220629952,-0.4154077603095733,0.1832501077276359,1.3704024915233413,1.5912900027899826,-0.3639815874456444,-1.101074165939371,-0.460256753911355,0.9160206745084798,0.5495302232118304,0.0167206110032014,0.7326874033797809,11.502081685174744,-0.8842525281261653,0.1235312291001639,-1.0749376762191336
1.72,0.1729350133373133,1.3394706289905212,1.5779789488757217,0.0209086447945678,0.1373689457117431,0.0118617767271389,-0.3069481965414518,-0.9170297509336038,-0.400773877020149,0.175970475978723,1.3483810082045538,1.5820848677117554,-0.3623507531418481,-1.1410741665354174,-0.4499861531454114,0.946793864322126,0.5978276579304248,0.0603685564695699,0.7316941644712138,11.416236907622988,-0.8839440301844717,0.1243648570940571,-1.0735035867326377
1.74,0.1669245820304794,1.3211474815616615,1.570118022686129,0.0230979017856505,0.1373898220625865,0.0118737063516626,-0.2947767704549651,-0.9155554790118644,-0.3860326640586324,0.1686908442298101,1.3263595248857665,1.5728797326335282,-0.3607199188380519,-1.181074167131464,-0.4397155523794679,0.958671542102434,0.6085713043243318,0.0737135960869772,0.7370606480758324,11.37916305525414,-0.8845558104988925,0.123230642367931,-1.0716966749809262
1.76,0.1611588131703507,1.3028291251957569,1.5625575022088116,0.0267091604022579,0.1364154558901771,0.0119659339797973,-0.2825253764472375,-0.9167637381560316,-0.3707527830292501,0.1614519833384921,1.3033380415520777,1.5639313625744498,-0.3590890845342556,-1.2210741677275103,-0.4294449516135244,0.981110734784976,0.6125697003863811,-0.0604129572083667,0.7639940514691163,11.37916305525414,-0.8868535492539169,0.1208988858714109,-1.0685663135994643
1.78,0.1559078200663669,1.285377060086308,1.555664172538136,0.0301974015128015,0.1344947924176544,0.0120292840421854,-0.2709290343235296,-0.920226567264364,-0.3556134533586956,0.1542538933047691,1.279316558203488,1.5552397575345198,-0.3574582502304593,-1.261074168323557,-0.4191743508475809,0.9691047917502604,0.5798171061853957,-0.1731414554166199,0.7569664835277212,11.409533630766418,-0.8901979457372914,0.1182955086991472,-1.0646209546382397
1.8,0.150614610580243,1.2669217844431926,1.5487249593455812,0.0334096247808147,0.1313215635308438,0.0120235382024631,-0.2591201102800768,-0.925085512618125,-0.3390584873367618,0.1423613683501904,1.23936573172309,1.5378834998702011,-0.2606497439454359,-1.02022656875448,-0.3213541228774048,1.04537904250355,0.590446202172637,-0.2429472676880484,0.8277483010966924,11.447998367109903,-0.8954332924712662,0.1165185576442918,-1.0585446106139984
1.82,0.1455218400551758,1.2482789382414616,1.542112871126572,0.0333749235215807,0.1277978092271568,0.0117796322883312,-0.2508809569511361,-0.937628788454362,-0.3229185647663941,0.1423613683501904,1.23936573172309,1.5378834998702011,-0.2606497439454359,-1.02022656875448,-0.3213541228774048,1.101946592239374,0.4119576664470381,-0.6271637918118522,0.8069961285183835,11.481423391106546,-0.8998842009476431,0.1177327750965434,-1.0529636066452697
1.84,0.1408232032845885,1.2303840643928188,1.5361348692838603,0.0300089292808578,0.1251008885392587,0.0113567941789007,-0.2442039388847357,-0.9449034487269906,-0.3071157025048012,0.1423613683501904,1.23936573172309,1.5378834998702011,-0.2606497439454359,-1.02022656875448,-0.3213541228774048,0.9317104002855092,0.3338509033200168,-0.3637330136314287,0.7901431130796444,11.471761096144292,-0.9047602950277608,0.1223966984481343,-1.046563191807054
1.86,0.1360035470334218,1.2114516510419229,1.5301652593009922,0.0256042345167464,0.1231395817845757,0.0109071284718072,-0.238175003868157,-0.9478493303511556,-0.2906855272320818,0.1397548709107361,1.229163466035545,1.534669958641427,-0.2585938858698171,-1.0402265690525032,-0.3145022567811467,0.887379478394114,0.3014467508289348,-0.1472940812082546,0.8215087636359725,11.442013405832768,-0.908950270167358,0.1282313446234341,-1.0402195157177183
1.88,0.1313009525976377,1.1924895457139502,1.524517558078379,0.0218464193049685,0.1220961263504082,0.0105528716664864,-0.2323299325611161,-0.948354040649878,-0.2749351779585952,0.1345418760318274,1.2087589346604557,1.5282428761838789,-0.2544821697185797,-1.0802265696485498,-0.3007985245886303,0.8403765425493034,0.2922535653520478,-0.0252355149361116,0.7875174636743282,11.442013405832768,-0.9127501018106114,0.1335813626692257,-1.0340033878791568
1.9,0.1267174074096756,1.1735324250600043,1.5191775842453172,0.0192577506585133,0.1216487713311988,0.0103144753805327,-0.226284005351968,-0.947673502327413,-0.2598408799734018,0.1293288811529186,1.188354403285366,1.5218157937263308,-0.2503704535673421,-1.1202265702445962,-0.287094792396114,0.8137170882629847,0.3022963604574047,0.0340269161232476,0.754714899259673,11.383523269962096,-0.9156048520636232,0.1375747887825389,-1.028914332349602
1.92,0.122477485209918,1.1555430066832129,1.5143809226644445,0.0179913780297294,0.1215123434909742,0.0101928240277299,-0.2203158445362329,-0.9462395810595882,-0.2458189435462291,0.1243214720815718,1.165949871880474,1.5160738978784083,-0.2462587374161046,-1.1602265708406423,-0.2733910602035977,0.7653263599479427,0.2984080407867545,0.0716960633912411,0.7010968213586322,11.336922472692097,-0.9180286779557348,0.1405121546634427,-1.0243302176201488
1.94,0.1181391667846118,1.136642898876527,1.5096196047798909,0.0181903839351268,0.1214694119599007,0.0101872824158179,-0.2138281887674846,-0.9440130802011866,-0.2310438480596174,0.1193140630102249,1.143545340475582,1.5103320020304862,-0.2421470212648671,-1.200226571436689,-0.2596873280110813,0.8144790207315493,0.3243827884374134,0.1113250429200796,0.7387547743305856,11.310161700335811,-0.9201655700444272,0.141927882812142,-1.020253872385067
1.96,0.113932757965869,1.1177812687717474,1.5051550464468286,0.0200168835385648,0.1213734667329189,0.0103051442550097,-0.2071502155320814,-0.942397403421206,-0.2161378061408063,0.114409446842659,1.120140809055789,1.504932699487377,-0.2380353051136297,-1.2402265720327357,-0.245983595818565,0.8206640964418419,0.3338986617701614,0.0807838389990267,0.7453020959405517,11.306349130773016,-0.9224753509694988,0.1418534280561259,-1.016187988094131
1.98,0.1098616151225526,1.0989382746409826,1.5009923641408285,0.0230829702012968,0.1210979206361,0.0105132443391099,-0.2003408121157612,-0.9423758330937752,-0.2008699577564046,0.1096076235788741,1.0957362776210946,1.4998759902490806,-0.2339235889623922,-1.2802265726287818,-0.2322798636260487,0.8358762385280131,0.3404701708160082,0.0010785163715387,0.7633924192200853,11.309070554735628,-0.9251221564334382,0.1407525784438307,-1.0120058301711907
2.0,0.106120467249786,1.0810129071698118,1.4973248693684154,0.0261935256728142,0.1206095090902266,0.0107239404028959,-0.1938553627569488,-0.9445230109231906,-0.1859370104792636,0.0998445745167645,1.051819482986294,1.4909488662530082,-0.1827517105478968,-1.0423758345838914,-0.1594369922095583,0.8210729876185275,0.32427246794062,-0.1073588914707657,0.7466473638570503,11.35036186350044,-0.9279356199644466,0.1393117708378358,-1.0077382424386383
2.02,0.1024877747614469,1.0629763241660863,1.4939178166202771,0.0270791762642168,0.1202342181387353,0.0107881593594048,-0.1888928267098965,-0.9533194917255832,-0.173603875176201,0.0998445745167645,1.051819482986294,1.4909488662530082,-0.1827517105478968,-1.0423758345838914,-0.1594369922095583,0.7970430743203366,0.2481268023526162,-0.4398240401196296,0.6166567651531326,11.35036186350044,-0.9302896132499152,0.1401366811036155,-1.0035781422142704
2.04,0.0987666700666287,1.0438489271266147,1.4905882797252488,0.0250111310205425,0.1202576254839667,0.0106708415227779,-0.1834340512098819,-0.9587609436712624,-0.1599246708208978,0.0998445745167645,1.051819482986294,1.4909488662530082,-0.1827517105478968,-1.0423758345838914,-0.1594369922095583,0.7850609228442776,0.2729387750007306,-0.2720725972839677,0.6839602177651601,11.175075386588103,-0.9320178470424644,0.1431529824075727,-1.000333390311879
2.06,0.09515791485686,1.0246455367670182,1.4875361053633465,0.0217796257613096,0.120498056184444,0.0104943849351212,-0.1776966537375732,-0.961011900219526,-0.1459656762627973,0.0980170574112856,1.041395724640455,1.4893544963309129,-0.1792338902343239,-1.0623758348819146,-0.151150399100189,0.7629516108681201,0.2868698736154348,-0.1125478274131785,0.6979497279050242,11.22771492996344,-0.9333683662221678,0.1472464562975659,-0.9971006436322528
2.08,0.0916660846496987,1.0054305085239332,1.4847623326920492,0.0189638716674849,0.1208017247870709,0.010365144410889,-0.1717682311716808,-0.9606167829992124,-0.1321061874216598,0.0943620232003276,1.020548207948777,1.4861657564867214,-0.1721982496071782,-1.1023758354779611,-0.1345772128814504,0.7539690687872856,0.2964211282946216,0.0197558610156911,0.6929744420568762,11.22771492996344,-0.9350575033897546,0.1514246873630823,-0.993205884833261
2.1,0.0884601706059134,0.9871965615975696,1.4823831266347052,0.0172749500839852,0.1210515523795415,0.010325019732658,-0.165998592980662,-0.959052937006228,-0.1190257667622699,0.0907069889893697,0.9997006912570994,1.4829770166425302,-0.1651626089800324,-1.1423758360740075,-0.1180040266627119,0.7190823036545048,0.2884819095509403,0.0781922996492157,0.6540210329694908,11.213069451270712,-0.9367663899145032,0.1546832397338302,-0.9893747170493542
2.12,0.0852049988603789,0.9680432223870246,1.480149207765698,0.0168711704112912,0.1212116130201598,0.0103905434752957,-0.1598293702166461,-0.9565178955897586,-0.1050390989117819,0.0874037368097691,0.9768531745356192,1.480616936109276,-0.1581269683528866,-1.182375836670054,-0.1014308404439733,0.7747783909853578,0.3084611382007954,0.1267520708234659,0.6993333925244045,11.202557613829413,-0.938446436815758,0.1566438174434878,-0.9857833413315432
2.14,0.0820739365020744,0.9489472610461304,1.478196994246132,0.0183183920347266,0.1212248542115475,0.0105938737057696,-0.1536007872806583,-0.9534116174363644,-0.0908691152989707,0.0841004846301684,0.954005657814139,1.4782568555760218,-0.1510913277257408,-1.2223758372661004,-0.0848576542252347,0.789355187707139,0.3114291467993871,0.1553139076697074,0.7084991806405594,11.213185029896522,-0.9402908304164392,0.1569978933675196,-0.9822171952350668
2.16,0.0790686213433844,0.9299001506469844,1.4765327501027703,0.0215357595003359,0.1210392079326127,0.0109240122606703,-0.1472794731410872,-0.9519321121137556,-0.0762578669729522,0.0809731234662464,0.9301581410777576,1.476311104698236,-0.1440556870985951,-1.2623758378621468,-0.0682844680064962,0.7994318702918783,0.3160657069785563,0.0739752661304382,0.7305624163009256,11.21908811652338,-0.9427511308987494,0.155949646305545,-0.97827769082936
2.18,0.0763310863481609,0.9118022004054812,1.475228610293963,0.0250848340803258,0.1206473671365295,0.0112706165034457,-0.1412418576056291,-0.9532604655644972,-0.0617433982125388,0.078021653318003,0.9053106243264752,1.4747796834759188,-0.1370200464714493,-1.3023758384581932,-0.0517112817877576,0.7888078467553375,0.3018807767729031,-0.0664176725370779,0.725723438020668,11.23982225267264,-0.945403138568575,0.1542800447180054,-0.9742808327301
2.2,0.0735724327507086,0.8927067639678893,1.4741608777590205,0.0285168994238911,0.1200119775460331,0.0116106323050198,-0.1349823076501008,-0.9562014154602124,-0.0457530055118277,0.0692689934678794,0.8641391771272564,1.472141440383336,-0.1110345682228138,-1.0532604670546135,-0.0321697639456855,0.8710967378222384,0.3129774977764177,-0.1470474947857625,0.7995196350355563,11.278301824646404,-0.948162973517644,0.1528948005110757,-0.9701528133435772
2.22,0.0709083711518372,0.8734698857567577,1.473335377143633,0.0289825861137851,0.1198048736186633,0.0117609756463734,-0.1317416882503081,-0.9665149319244078,-0.0379889979037591,0.0692689934678794,0.8641391771272564,1.472141440383336,-0.1110345682228138,-1.0532604670546135,-0.0321697639456855,0.6654886364350754,0.1620309699896349,-0.5156758232097658,0.3882003804034257,11.320819420188856,-0.9492336579866693,0.1545582620161732,-0.9667222787054766
2.24,0.06830979155283,0.8540747225069308,1.4726581226152815,0.025914140729563,0.1205605191820388,0.0117048014618983,-0.1281449961969708,-0.9720843562964904,-0.0300641150040705,0.0692689934678794,0.8641391771272564,1.472141440383336,-0.1110345682228138,-1.0532604670546135,-0.0321697639456855,0.5166199050962488,0.1798346026668631,-0.2784712186041205,0.3962441449844334,10.784510995419623,-0.9491964828582932,0.1575879379809226,-0.9659401105401664
2.26,0.0659145212929402,0.8355919882530078,1.4721649397277885,0.0221994323072002,0.1218645347182206,0.0116225528277662,-0.1240814664695665,-0.9731810811254036,-0.0222488528797241,0.0681586477856513,0.8536065724567102,1.471819742743879,-0.1049931103462507,-1.0732604673526367,-0.0262550370923148,0.4438282361119445,0.203176486370217,-0.0548362414456604,0.3907631062173171,10.838456130876692,-0.9488608375848916,0.1619653919739631,-0.9647883496120714
2.28,0.0634839709956638,0.8161416377133407,1.4718073934403502,0.0190043835784,0.1235861157839135,0.0116041297112447,-0.1191062006368231,-0.9719940941408788,-0.0139197665766913,0.065937956421195,0.832541363115618,1.4711763474649655,-0.0929101945931245,-1.1132604679486833,-0.0144255833855735,0.4887123050713568,0.2487632916371683,0.0593493492262398,0.4164543151516405,10.838456130876692,-0.9483471266840984,0.165897679600018,-0.963673771717936
2.3000000000000003,0.0611607895542401,0.7967273195652295,1.4716167271729192,0.0170652842262261,0.1254329581477391,0.0116857927620323,-0.1133967682496267,-0.969740482843895,-0.0055676867803299,0.0637172650567387,0.8114761537745258,1.4705329521860515,-0.0808272788399984,-1.1532604685447296,-0.0025961296788321,0.518250950280482,0.2854716193598214,0.1126805648491824,0.4176039898180727,10.841197649502648,-0.9476684980177515,0.1687926390514929,-0.9628102948880656
2.32,0.0589594865708323,0.7773682782396772,1.4715956379762098,0.0167057287491456,0.1271967318334724,0.0118863760891626,-0.1069854762895027,-0.9665781591640136,0.0030374184394528,0.0621007194799388,0.7884109444036311,1.470481029592475,-0.0687443630868722,-1.193260469140776,0.0092333240279091,0.559358542211125,0.3205645980061983,0.158116183994067,0.4302552609891409,10.841539068641396,-0.9469085858737876,0.1702547321832386,-0.9623162093839626
2.34,0.056992664086693,0.7590411185245343,1.4717365761033203,0.0181702894607564,0.128657440427087,0.0122085913782644,-0.1003594895087108,-0.9630464439223252,0.0113664912614475,0.0604841739031388,0.7653457350327365,1.4704291069988984,-0.0566614473337461,-1.2332604697368226,0.0210627777346505,0.5606919105928296,0.3312993390395958,0.1765857620844302,0.4164536410997334,10.857347814995592,-0.9462823476757252,0.1702289300562136,-0.9617978634233084
2.36,0.0550641271593325,0.7398066252543266,1.4720605335999717,0.0214837893123918,0.1298490125019881,0.0126735255806409,-0.0928343561466024,-0.9610657862102634,0.020612238849719,0.059169701220167,0.7412805256469408,1.4706729207479905,-0.04457853158062,-1.273260470332869,0.0328922314413918,0.6042236455897214,0.3762566681054187,0.0990328856030842,0.4622873794135728,10.866564521528744,-0.946609802884626,0.1687968177043447,-0.9604124471516132
2.38,0.0532912519870376,0.7205773014817698,1.4725764023655112,0.0253421439433308,0.1305785852999901,0.0131727546450279,-0.0848473938290426,-0.9620699202256436,0.0305437718681189,0.0581573014310233,0.7162153162462439,1.4712124708397507,-0.0324956158274938,-1.3132604709289153,0.0447216851481331,0.6392088865905482,0.3993481158779885,-0.0502067007690176,0.4965766509199956,10.895421965936292,-0.9472001913013952,0.1667776995948352,-0.959001300776976
2.4,0.0516813947934947,0.701307497847961,1.4732989534551957,0.0288180617092506,0.130780557101758,0.0136354951439038,-0.0766048952018278,-0.964770458369256,0.0412185388045341,0.0490488822955854,0.6724738054704876,1.474103590958917,-0.0515686677877256,-1.0162255642550226,0.0370286352164241,0.6877178546313995,0.4121249313607432,-0.1350269071806076,0.5337383468207592,10.98082712246105,-0.9481806757187468,0.1651666139533994,-0.9572143205439
2.42,0.0502985808182034,0.6827294445191696,1.4741068576159366,0.0245883430874639,0.1304377342584229,0.0135425132656807,-0.069480289999108,-0.9864142937486492,0.043418116596925,0.0490488822955854,0.6724738054704876,1.474103590958917,-0.0515686677877256,-1.0162255642550226,0.0370286352164241,1.1446110165572378,0.3562302601359861,-1.0821917689696647,0.1099788896195469,10.98082712246105,-0.9505252861207834,0.1706341691568612,-0.9522973941343058
2.44,0.0489788963640686,0.662929079878949,1.4750011539078656,0.0128885580946066,0.129669184962764,0.0129604167313679,-0.0629246359324798,-0.9914026007080684,0.0459527543930704,0.0490488822955854,0.6724738054704876,1.474103590958917,-0.0515686677877256,-1.0162255642550226,0.0370286352164241,0.4309413977571011,0.3277827033314105,-0.2494153479709604,0.1267318898072671,10.501479918792938,-0.9497006164824368,0.1808534458079365,-0.9514439761789946
2.46,0.0477797616924871,0.643140538428155,1.4759317324391497,0.0006055847454832,0.1288367839387316,0.0123800257894208,-0.0573277826116483,-0.9872288663346956,0.0469691832192052,0.0485331956177082,0.6623115498279374,1.4744738773110813,-0.0449129225794622,-1.0270566930608984,0.0383256078860852,0.3527674633273833,0.2798426660415787,0.208686718668638,0.0508214413067441,10.385150524768504,-0.9499503605743668,0.1918392517132847,-0.9484786774017951
2.48,0.0467368393312049,0.6244701803035042,1.4768195102914108,-0.0093681662084228,0.1282140067009272,0.0119854016274778,-0.0527111185366539,-0.978739430604984,0.0464267960541417,0.0475018222619537,0.641987038542837,1.47521445001541,-0.0316014321629355,-1.04871895067265,0.0409195532254072,0.4839377285020086,0.2308332037497189,0.4244717864855807,-0.0271193582531765,10.299998865485575,-0.9500977130512488,0.2019117070785984,-0.9456202337850932
2.5,0.0457293890842809,0.6050148131526432,1.4777333342375372,-0.017468054576651,0.1278877835169807,0.0117674121874804,-0.0482548067539487,-0.9676232839989468,0.0449485149161559,0.0464704489061991,0.6216625272577365,1.4759550227197382,-0.0182899417464087,-1.0703812082844015,0.0435134985647293,0.6033505307748482,0.222815589135257,0.5558073303018662,-0.0739140568992904,10.299998865485575,-0.9498526088285976,0.2097462963792025,-0.943650479824284
2.52,0.0448094808192513,0.5857955813461952,1.478612310106929,-0.0231161701466321,0.1279648133313757,0.0117396540778066,-0.0439154237221187,-0.9552807661889744,0.0430160913745125,0.046104650071271,0.6002549030920485,1.4768252926910328,-0.0049784513298819,-1.092043465896153,0.0461074439040514,0.6612530750981729,0.2169691515915034,0.6171258904986154,-0.0966211770821692,10.255288007667332,-0.9492009726873808,0.2154061943389446,-0.9425895668758926
2.54,0.0439771002342532,0.5668301589215325,1.47945006960376,-0.0265156138230528,0.1284337208722806,0.0118796248196823,-0.0394698098632059,-0.9424682063496044,0.0408695438343966,0.0457388512363428,0.5788472789263605,1.4776955626623274,0.0083330390866448,-1.1137057235079046,0.0487013892433735,0.6865363037778338,0.222280692945637,0.640627991968501,-0.107327377005794,10.237947842259928,-0.9481933457041,0.2189632391684285,-0.9423812809500764
2.56,0.0432731098525519,0.5490459331204055,1.4802081754614884,-0.0281664794586989,0.1291251476055604,0.0121309837844452,-0.0348154448304213,-0.930508917231564,0.0390450440293266,0.0457058396618278,0.5568980983203786,1.478630681267105,0.0216445295031716,-1.1353679811196562,0.0512953345826956,0.6481059126523803,0.2327182516392325,0.5979644559020225,-0.0912249902535029,10.246080274621818,-0.9469429594804954,0.2212485652240297,-0.9427273102679492
2.58,0.0426324243907633,0.5305704029848385,1.4809727096969407,-0.0285017586389822,0.129949743199686,0.0125039509904256,-0.0294615697761492,-0.9178038186999482,0.0375259161563302,0.046005615347726,0.534407361274103,1.4796306485053656,0.0349560199196984,-1.1570302387314078,0.0538892799220177,0.6935258760301157,0.2676937527136061,0.6352549265807861,-0.0759563936498182,10.246080274621818,-0.9454532272822324,0.2222918696868416,-0.9435964393846148
2.6,0.0421038786149527,0.5123515799343372,1.4817124285614314,-0.0272773861137559,0.1307333033227839,0.012998472578829,-0.0236375228193473,-0.9048689035777584,0.0365497215992177,0.0463053910336241,0.5119166242278275,1.4806306157436264,0.0482675103362252,-1.178692496343159,0.0564832252613398,0.7109579945162381,0.2912023478400917,0.6467457561094847,-0.0488097278556271,10.30580840408038,-0.9440088279699516,0.2220463284530288,-0.9446542161949092
2.62,0.0417160522076811,0.4941174217641756,1.4824545590475982,-0.033141451911263,0.1308592968740476,0.0130319730643822,-0.0156596025215346,-0.9140751219818292,0.037592165659738,0.0411593459019558,0.4846802120498411,1.4828490055047572,0.0067576210300012,-0.8982922698976916,0.0666015368522788,0.6113271611850274,0.3988960148906364,-0.4603109202035382,0.0521222030260185,10.390322161269978,-0.9456612318225336,0.2274091769741935,-0.9414273384767998
2.64,0.0414865108411125,0.4768116557866071,1.483179496855711,-0.045011209221328,0.1301735989997185,0.0126838144002285,-0.0089925536117903,-0.9062558268118897,0.0386355626268608,0.0411593459019558,0.4846802120498411,1.4828490055047572,0.0067576210300012,-0.8982922698976916,0.0666015368522788,0.5164290739069761,0.3333524454872165,0.3909647584969866,0.0521698483561365,10.390322161269978,-0.944258358968194,0.2387569168531267,-0.9398929331797438
