t,x,y,z,roll,pitch,yaw,v_x,v_y,v_z,ref_x,ref_y,ref_z,ref_v_x,ref_v_y,ref_v_z,a_com,a_x,a_y,a_z,thrust,wind_x,wind_y,wind_z
0.0,1.277334935405735,1.7408618234516244,2.034456282841671,0.0258540868521125,0.0996234053651397,0.0417765201179813,0.0008506609671489,-0.0084085059353129,-0.0004786988745706,1.2773594544712148,1.7405984447419929,2.0344404612843063,-0.0991721157946111,-0.108704779351861,-0.1005153117355323,0.4232485934936424,0.0425330483574496,-0.4204252967656459,-0.0239349437285328,10.260966918610391,-0.9400422207603444,0.2546548301409803,-0.881235423294816
0.02,1.2775101078984736,1.7409708288140493,2.034353086731703,0.0320011765310385,0.0937346022373433,0.0420301376668141,0.0162261805984839,0.0153882222895839,-0.0104032653704641,1.2773594544712148,1.7405984447419929,2.0344404612843063,-0.0991721157946111,-0.108704779351861,-0.1005153117355323,1.500989588800153,0.7687759815667468,1.1898364112448443,-0.4962283247946725,10.260966918610391,-0.9528669792722824,0.2545039624030225,-0.8635656084061922
0.04,1.2779501857188482,1.741327518523098,2.033953268562365,0.0460051314266026,0.0772218452451934,0.0423114863154661,0.0254173435532616,0.0181248269174761,-0.0289839905614174,1.2773594544712148,1.7405984447419929,2.0344404612843063,-0.0991721157946111,-0.108704779351861,-0.1005153117355323,1.0454781561233215,0.4595581477388883,0.1368302313946077,-0.9290362595476672,9.646986943023876,-0.9557481879698324,0.2444243179039388,-0.8610656053332787
0.06,1.2784325033920456,1.7416337547482703,2.0332103190747213,0.0599294101497245,0.0558321229887451,0.0420461576173754,0.0239792909767068,0.0136338337351263,-0.0482755337396087,1.2763677333132686,1.7395113969484743,2.033435308166951,-0.1191721160926343,-0.1287047796498843,-0.1205153120335555,0.99297614922624,-0.0719026288277425,-0.2245496591174896,-0.9645771589095664,9.17068072456459,-0.9658914860392463,0.2298636868852415,-0.855227428108149
0.08,1.2788102803809036,1.7418223325736064,2.032024190897911,0.0740824560563253,0.0311538109333033,0.0412053842794018,0.0130652388767167,0.0050995754175467,-0.0693964702589907,1.2743842909973764,1.737337301361437,2.0314250019322406,-0.1591721166886807,-0.1687047802459307,-0.160515312629602,1.262976699832816,-0.5457026049995054,-0.4267129158789807,-1.0560468259690965,9.076594427135204,-0.9804168560972,0.2132216994207037,-0.8475072882852446
0.1,1.2788744150356774,1.7418063025328283,2.030408858200516,0.0875785914325611,0.0071951685761156,0.039968506155322,-0.006627643211926,-0.0066041189585261,-0.0911622149483264,1.2724008486814842,1.7351632057743998,2.02941469569753,-0.1991721172847272,-0.2087047808419772,-0.2005153132256484,1.579979199931961,-0.9846441044321412,-0.5851847188036453,-1.0882872344667858,9.049032107294352,-0.9951158809333098,0.1959926571517185,-0.8411795768214763
0.12,1.2784662065593797,1.741525281584101,2.028352946581558,0.1004344930205748,-0.0137710485176309,0.0385887961941083,-0.0332899664267138,-0.021212008635642,-0.1134178217607006,1.2684174063357896,1.7309891101575603,2.025404389433017,-0.2391721178807736,-0.2487047814380236,-0.2405153138216949,1.8838670034105325,-1.3331161607393858,-0.7303944838557909,-1.1127803406187096,9.065667919911904,-1.0107267133180609,0.1773355614043202,-0.8353557598718035
0.14,1.2775363215013378,1.7409622588428646,2.025980127770501,0.112076784691288,-0.0298279817807001,0.0373520336530377,-0.063149881684185,-0.0375671578781041,-0.1352916826661475,1.264433963990095,1.7268150145407208,2.021394083168504,-0.2791721184768201,-0.2887047820340701,-0.2805153144177414,2.0233457668163224,-1.492995762873562,-0.8177574621231076,-1.0936930452723452,9.103415187800692,-1.0244220247571456,0.1581403141351346,-0.832697209953856
0.16,1.275911842520579,1.740008373321195,2.023026061291,0.1237459299185859,-0.0421799086038323,0.0363038481845778,-0.0976505658584383,-0.0572344650664028,-0.1590126604998193,1.259450521629499,1.72164091890898,2.0163837768890898,-0.3191721190728666,-0.3287047826301165,-0.3205153150137878,2.312890491309536,-1.7250342087126649,-0.9833653594149324,-1.1860488916835914,9.1419769800209,-1.035140889213424,0.138730296402035,-0.8340660037673615
0.18,1.273564994443135,1.738635409199889,2.019593661984905,0.1348237607426089,-0.0493662419313133,0.035706955549548,-0.1351851616041124,-0.079327515188129,-0.1830844070306966,1.2534670792540024,1.7154668232623382,2.0103734705947742,-0.359172119668913,-0.3687047832261629,-0.3605153156098342,2.4881708756228367,-1.876729787283704,-1.1046525060863104,-1.203587326543866,9.189778530802414,-1.0415936799378116,0.1226652915024634,-0.8370386105223023
0.2,1.2704509220248004,1.7367755450146107,2.015675872376601,0.1446452682296719,-0.0507674182083111,0.0357321271633294,-0.1736324663434431,-0.1053047561402993,-0.2073667207385301,1.2668057363629297,1.7346690334404826,2.01043944163337,-0.2351851630942285,-0.1793275166782451,-0.2830844085208128,2.618512482408533,-1.9223652369665376,-1.298862047608517,-1.2141156853916757,9.189778530802414,-1.0463383403371973,0.1064335653114555,-0.8428731630443393
0.22,1.266762781724974,1.7343473712035156,2.011667817369532,0.1482176103604706,-0.0463231386645343,0.0361788898984539,-0.2122334234538309,-0.1472867970096723,-0.2118244876061328,1.2668057363629297,1.7346690334404826,2.01043944163337,-0.2351851630942285,-0.1793275166782451,-0.2830844085208128,2.860243578282099,-1.9300478555193887,-2.099102043468648,-0.2228883433801301,9.219377631568475,-1.0518506905609732,0.093294417532197,-0.8496490199477388
0.24,1.2621365671121447,1.7310032546281269,2.0074003695721725,0.1447168658139004,-0.0361222752940744,0.0369439872907015,-0.2476145574726005,-0.1836180931743422,-0.2146339003159723,1.2668057363629297,1.7346690334404826,2.01043944163337,-0.2351851630942285,-0.1793275166782451,-0.2830844085208128,2.5395277736388837,-1.7690567009384817,-1.8165648082334964,-0.1404706354919765,10.652384476918089,-1.051426398373623,0.0949935209766287,-0.8520341115106662
0.26,1.2568637507577458,1.7270137676206274,2.0030482011782915,0.1381212301014114,-0.0228799125173017,0.0378649948657319,-0.2773088861125284,-0.2127771305144428,-0.2202463196294192,1.2644538847319875,1.7328757582737002,2.0076085975481623,-0.2551851633922518,-0.1993275169762683,-0.303084408818836,2.099703468663713,-1.4847164319963913,-1.4579518670050309,-0.2806209656723471,10.407495389641554,-1.0457555732146355,0.0981464434292685,-0.8608988209644469
0.28,1.2513571548580609,1.7227342029015995,1.9987801590736416,0.1312336177542873,-0.0092630389424441,0.0387444519353038,-0.3004718194743269,-0.2360312547366408,-0.2286885683851497,1.2597501814701029,1.7292892079401352,2.001946909377746,-0.2951851639882982,-0.2393275175723148,-0.3430844094148824,1.694511241714085,-1.1581466680899235,-1.1627062111098985,-0.4221124377865246,9.880027111127674,-1.037227430579749,0.1015969867452876,-0.8733695787480781
0.3,1.2451346606020115,1.717788060115613,1.994081681377492,0.1243616356291662,0.0047555147320485,0.0395500995982201,-0.3202081119096444,-0.2572750100983815,-0.2408935443820495,1.2550464782082182,1.7257026576065704,1.99628522120733,-0.3351851645843446,-0.2793275181683612,-0.3830844100109289,1.57303831807013,-0.9868146217658774,-1.0621877680870362,-0.6102487998449909,9.880027111127674,-1.027271018511367,0.104867927887237,-0.8869654901899575
0.32,1.2385594156029347,1.7124417046163314,1.989103506234084,0.1182891471093104,0.01745896933057,0.0401544549920559,-0.3361096779258973,-0.2762986112671395,-0.2564893982389708,1.2483427749165312,1.7201161072432032,1.988623533007112,-0.3751851651803911,-0.3193275187644077,-0.4230844106069753,1.464571490849513,-0.7950783008126461,-0.9511800584379004,-0.7797926928460625,9.46542909351956,-1.017469940330454,0.1076321938731359,-0.899935192867518
0.34,1.2316999801598612,1.7067334443516702,1.9837878733865395,0.1131604860756709,0.0281964253323439,0.0405203922741408,-0.348999304290537,-0.2937227772149024,-0.2743464838434348,1.2416390716248444,1.714529556879836,1.980961844806893,-0.4151851657764376,-0.3593275193604542,-0.4630844112030218,1.4041185251612025,-0.6444813182319847,-0.871208297388143,-0.8928542802231987,9.46542909351956,-1.0083076832768594,0.1089266206677577,-0.9125060397688652
0.36,1.2249611185865337,1.700990310896702,1.978389768381124,0.108889196402808,0.0364711736156096,0.0406441027205079,-0.3597067330605824,-0.3099172325852058,-0.2930121198998214,1.2339353683182563,1.7079430065015675,1.9723001565917733,-0.455185166372484,-0.3993275199565006,-0.5030844117990683,1.346583997561814,-0.5353714385022662,-0.8097227685151698,-0.9332818028193302,9.358916903199315,-0.9993404078992568,0.1093782572307631,-0.9251877206103624
0.38,1.2176587388375102,1.6946203712852843,1.9723081459893,0.1047748216189716,0.0433582153856282,0.040565959116917,-0.3699421356538462,-0.3261670481092723,-0.3142595807285876,1.2252316649967672,1.700356456108398,1.9626384683617524,-0.4951851669685304,-0.439327520552547,-0.5430844123951147,1.4320217897105634,-0.5117701296631916,-0.8124907762033229,-1.0623730414383108,9.278670615553892,-0.9916063695641816,0.1095553149235347,-0.9363298362533442
0.4,1.210158897496112,1.6879327294451536,1.9657869676632815,0.1009475293384402,0.0486392122114899,0.0403121903736706,-0.3795274621606803,-0.3417132959607994,-0.3368612162515766,1.199161632054818,1.6783120188798208,1.9565951669528705,-0.4699421371439623,-0.4261670495993884,-0.4142595822187037,1.452926559411872,-0.479266325341704,-0.7773123925763598,-1.1300817761494495,9.201176449674676,-0.9854234116085724,0.1095894109739512,-0.9455057542991502
0.42,1.2028969923943005,1.6812831896643896,1.959443477900579,0.09788387065349,0.0516833602853853,0.0398953488160102,-0.3846468359691278,-0.3576566902306146,-0.3297825554704733,1.199161632054818,1.6783120188798208,1.9565951669528705,-0.4699421371439623,-0.4261670495993884,-0.4142595822187037,0.9089929145589112,-0.2559686904223784,-0.7971697134907557,0.3539330390551626,9.141535397882762,-0.9909275175503856,0.1107623568328084,-0.941778913948926
0.44,1.195149093652503,1.673969417637727,1.9528834420706775,0.0956088360864998,0.0523028949138468,0.0392618935296241,-0.3899894171953263,-0.3730569964499118,-0.3270269059566277,1.199161632054818,1.6783120188798208,1.9565951669528705,-0.4699421371439623,-0.4261670495993884,-0.4142595822187037,0.8265987691283653,-0.2671290613099258,-0.7700153109648611,0.1377824756922829,10.468715012170833,-0.990658706129895,0.1123027280950032,-0.94177795586661
0.46,1.1872872572902924,1.6663503044659598,1.946306467757403,0.0941291245473097,0.0503398897908181,0.0384350350673289,-0.3961001213548835,-0.3881692272476597,-0.3307846068100169,1.1944622106833784,1.674050348383827,1.9524525711306835,-0.4899421374419855,-0.4461670498974115,-0.4342595825167269,0.8364217547290221,-0.3055352079778584,-0.7556115398873936,-0.1878850426694611,10.468715012170833,-0.992035622611863,0.1124044974922731,-0.9409258493671404
0.48,1.1792898194761765,1.6584342146971214,1.9396053034742675,0.0932289280806299,0.0460370526265777,0.0374287448616274,-0.4036019199385798,-0.402739515607132,-0.3391375171920058,1.1850633679404992,1.6655270073918391,1.9441673794863088,-0.5299421380380319,-0.486167050493458,-0.4742595831127734,0.9197029367111704,-0.3750899291848131,-0.7285144179736164,-0.4176455190994466,10.127932893676189,-0.9946861707663384,0.1114364711563164,-0.9393945737583071
0.5,1.1715274809054048,1.6506484473491096,1.9330503522028448,0.0929549847196298,0.0403990159543088,0.0363680859650812,-0.4133906385187157,-0.4161492759309046,-0.3504411158027477,1.17566452519762,1.6570036663998515,1.9358821878419352,-0.5699421386340784,-0.5261670510895045,-0.5142595837088199,1.004255974509101,-0.4894359290067956,-0.6704880161886306,-0.5651799305370936,9.878739469779248,-0.998529562724538,0.1093615309684166,-0.9373160758840836
0.52,1.163126128809989,1.6421812982474,1.9258905838924265,0.0934042961084175,0.0338320498403882,0.0352393026866605,-0.4264640800131125,-0.4299204140403165,-0.3650664644241198,1.1642656824249382,1.6464803253780615,1.9255969961677588,-0.6099421392301249,-0.5661670516855509,-0.5542595843048663,1.198394696701156,-0.6536720747198382,-0.688556905470597,-0.7312674310686024,9.693884111621628,-1.0036062681175926,0.1065448683367775,-0.9341525145760772
0.54,1.154436103860971,1.6334370526045188,1.9184252151842776,0.0946841118699125,0.0274145277599654,0.0341708905467654,-0.4420021880524598,-0.4439120386668005,-0.380732417434008,1.1528668396522568,1.6359569843562711,1.9153118044935824,-0.6499421398261713,-0.6061670522815974,-0.5942595849009128,1.3063503022149985,-0.7769054019673649,-0.6995812313241978,-0.7832976504944106,9.548621388124957,-1.0089235122181377,0.1031034822282563,-0.930841242475498
0.56,1.1458676340480978,1.6248556907871647,1.9110363812205169,0.0962878310659799,0.0221756655032536,0.0332493375435935,-0.4592309684564663,-0.4586349245166904,-0.3962506945504125,1.140467996864674,1.62443364331958,1.904026612804505,-0.6899421404222177,-0.6461670528776438,-0.6342595854969592,1.3733273158827548,-0.8614390202003275,-0.736144292494495,-0.7759138558202261,9.514115125112768,-1.0133172731426463,0.0988099535837394,-0.9290051363714292
0.58,1.136471458085527,1.6155092817863268,1.9029311194484224,0.0978365958413849,0.0184242854373501,0.032425802470175,-0.4796083823975873,-0.4752030699877763,-0.4134992626123031,1.12706915406219,1.6119103022679877,1.8917414211005263,-0.7299421410182642,-0.6861670534736902,-0.6742595860930056,1.571031145032241,-1.0188706970560484,-0.8284072735542936,-0.8624284030945284,9.49951525625329,-1.0159529937030511,0.0945050788748231,-0.929205609984468
0.6,1.1266468476299718,1.6058187695159327,1.8944709582706123,0.0987252716726402,0.0173795314463553,0.0318133176075552,-0.5016499629445985,-0.4929330166515711,-0.4316573586361618,1.1124910389656475,1.591749128286938,1.882256156317807,-0.5796083838877034,-0.5752030714778924,-0.5134992641024192,1.68069831686346,-1.102079027350561,-0.8864973331897424,-0.9079048011929352,9.469964536046064,-1.0171883080397532,0.0908118152375241,-0.9309109008867412
0.62,1.116374772270663,1.5956972588265543,1.885925220479659,0.0972048076794312,0.0197385634406453,0.0313655727902834,-0.5240475790726821,-0.518017001384412,-0.4204059426711453,1.1124910389656475,1.591749128286938,1.882256156317807,-0.5796083838877034,-0.5752030714778924,-0.5134992641024192,1.773029793542827,-1.1198808064041776,-1.2541992366420422,0.5625707982508221,11.356827790045829,-1.0223818860893117,0.0898441408901621,-0.9277575738313284
0.64,1.1062263598422533,1.5856452666913974,1.8780205797456155,0.0930477045940757,0.0247852380571792,0.0310147874155999,-0.5427168977765372,-0.5380709036432937,-0.4122875834595242,1.1124910389656475,1.591749128286938,1.882256156317807,-0.5796083838877034,-0.5752030714778924,-0.5134992641024192,1.4288196290678266,-0.9334659351927566,-1.0026951129440853,0.4059179605810536,11.356827790045829,-1.0197235156107192,0.0934921479936979,-0.9299127512551072
0.66,1.0951909149361554,1.574703670827178,1.869802906518816,0.0879269375977951,0.0316972155416708,0.0307194031149202,-0.5595230749167168,-0.5548065155471531,-0.4101916444948076,1.1066949551267706,1.5859970975721591,1.8771211636767828,-0.5996083841857266,-0.5952030717759156,-0.5334992644004424,1.190505413687307,-0.8403088570089812,-0.8367805951929708,0.1047969482358301,10.902547091435736,-1.0145985716368326,0.0973489935543236,-0.9351909810551816
0.68,1.0838474132899665,1.5634576877619764,1.861560343310405,0.0829905099912609,0.0392609382764341,0.0304642355962059,-0.5737359766678718,-0.5688730023202546,-0.4144209044574826,1.095102787449017,1.5744930361426013,1.8668511783947344,-0.6396083847817731,-0.635203072371962,-0.5734992649964888,1.0219580056901916,-0.7106450875577486,-0.7033243386550758,-0.211462998133749,10.463951688693667,-1.0088689576105536,0.1007195209527082,-0.941512883686904
0.7000000000000001,1.0722443322770645,1.5519524272006038,1.8531709752930507,0.0786328270258019,0.0467437756764714,0.0302142331131819,-0.585687991340207,-0.5810248632829239,-0.4242908238395564,1.0835106197712625,1.5629889747130434,1.856581193112686,-0.6796083853778195,-0.6752030729680085,-0.6134992655925353,0.9848016147839096,-0.5976007336167599,-0.6075930481334646,-0.4934959691036911,10.094278544561348,-1.0029841900773857,0.1032935307531983,-0.9481578598484324
0.72,1.061018467573308,1.5408108864975172,1.844976642513387,0.0751607900901381,0.0533157692707322,0.0299601553596901,-0.5952937915689481,-0.5912851028880732,-0.437789712122082,1.0699184520637062,1.5494849132536832,1.8443112078008357,-0.719608385973866,-0.715203073564055,-0.6534992661885818,0.9743765951284744,-0.4802900114370567,-0.5130119802574662,-0.6749444141262773,9.797770099022271,-0.9967701043927208,0.1051324579008209,-0.9554738259259664
0.74,1.049021229558161,1.5288820565028258,1.8360499432655144,0.0722735701666808,0.0593385251991584,0.0296642573494266,-0.6038431037977838,-0.6011693000316379,-0.4542867844276754,1.0563262843561496,1.535980851794323,1.8320412224889848,-0.7596083865699125,-0.7552030741601015,-0.6934992667846283,1.0523087562770592,-0.4274656114417852,-0.4942098571782349,-0.8248536152796693,9.565445154894404,-0.9911210218998924,0.1061018836826324,-0.9624210886733746
0.76,1.036861571796445,1.516752786260644,1.8267736649018995,0.0698927258502973,0.0643918676032031,0.0293250080897648,-0.6116447105458744,-0.6112395068479631,-0.4725907271844618,1.0417341166336922,1.5214767903200617,1.8187712371622329,-0.7996083871659588,-0.7952030747561478,-0.7334992673806746,1.1150206877219024,-0.3900803374045303,-0.50351034081626,-0.9151971378393214,9.363172334464252,-0.9858951583065662,0.1064300934392247,-0.9691454318169508
0.78,1.024551900701618,1.504424246283291,1.8171139290460647,0.0676879068001821,0.0686548982925149,0.0289380585640523,-0.6188918533751305,-0.6210556196465822,-0.4924708286213226,1.0261419488963337,1.5059727288308993,1.80450125182058,-0.8396083877620053,-0.8352030753521943,-0.7734992679767211,1.1662928264406025,-0.3623571414628046,-0.4908056399309524,-0.9940050718430375,9.291419674796089,-0.9813959953159236,0.1065034012063624,-0.9751454564558106
0.8,1.012727638234747,1.4925340392718538,1.8075558385080728,0.0656664554315983,0.0721213336224997,0.02853375760279,-0.6253697847740184,-0.6299988509206846,-0.5126545974537725,0.9936073080328616,1.473371465300962,1.7924903876149991,-0.7188918548652466,-0.7210556211366983,-0.5924708301114388,1.1503581019758138,-0.323896569944393,-0.4471615637051229,-1.0091884416224963,9.291419674796089,-0.9770401797855838,0.1064292368858978,-0.9811544465395636
0.8200000000000001,1.0001826457766023,1.4798087970959313,1.7973799070432324,0.0632487958782986,0.0750391348599444,0.0280394571061257,-0.6286583960902705,-0.6418975763556164,-0.5022745620391631,0.9936073080328616,1.473371465300962,1.7924903876149991,-0.7188918548652466,-0.7210556211366983,-0.5924708301114388,0.8064424445889166,-0.1644305658126066,-0.5949362717465878,0.5190017707304706,9.22523699634712,-0.9787534114683007,0.1074748652653884,-0.980260817386942
0.84,0.9875818639762513,1.4668720298209443,1.787409099367064,0.060949652221017,0.0768706297738339,0.0274864958988729,-0.6313686819937824,-0.6513319258528785,-0.4955210281026149,0.9936073080328616,1.473371465300962,1.7924903876149991,-0.7188918548652466,-0.7210556211366983,-0.5924708301114388,0.5957407589450544,-0.1355142951755927,-0.4717174748631036,0.3376766968274075,11.199144803185844,-0.9771444408653334,0.1092070998178453,-0.98140442420265
0.86,0.9755570872631972,1.454416409748809,1.7779949195127265,0.0592848540602217,0.0775691535462419,0.0269383987465197,-0.6343601223613016,-0.6594264584058689,-0.4957765594171044,0.986418389484209,1.466160909089595,1.7865656793138849,-0.7388918551632698,-0.7410556214347215,-0.6124708304094619,0.4316696334482241,-0.1495720183759596,-0.4047266276495209,-0.0127765657244732,10.742474933716949,-0.9760245555394697,0.1101238506816632,-0.982590871149213
0.88,0.9628320945774634,1.4411482831623743,1.7680255932102455,0.0581890402320372,0.0773300113562862,0.026355990300294,-0.6380693728570099,-0.6670007991736607,-0.501379412615279,0.972040552386904,1.451739796666861,1.774716262711656,-0.7788918557593163,-0.781055622030768,-0.6524708310055084,0.5062636202287328,-0.185462524785418,-0.3787170383895921,-0.2801426599087275,10.340764415879676,-0.9756975159769836,0.1101267118823953,-0.9834366001721032
0.9,0.9500264544073932,1.4277369040779015,1.7578968051934307,0.0580255317967716,0.0761752606676953,0.0257915769302178,-0.6423811640237113,-0.6738301306934997,-0.5113900682607583,0.9576627152895992,1.437318684244127,1.7628668461094272,-0.8188918563553628,-0.8210556226268144,-0.6924708316015549,0.6431262289113175,-0.2155895583350664,-0.3414665759919499,-0.5005327822739658,10.032739028405558,-0.9762527708732216,0.1090931485115945,-0.9837448614180992
0.92,0.9371282546337972,1.41419477284621,1.7475289082252312,0.0590472817623001,0.0741334569119541,0.0252614768941324,-0.6473066698094261,-0.6802107962875941,-0.5248853224477645,0.9412848781624918,1.4208975717915906,1.749017429477396,-0.8588918569514092,-0.8610556232228609,-0.7324708321976013,0.7859633996578329,-0.2462752892857411,-0.3190332797047168,-0.6747627093503128,9.798008036063038,-0.9775297468923508,0.1069540484047017,-0.983602147621936
0.94,0.924778041164474,1.4012109222096354,1.7374184965278554,0.0612558026927774,0.0713978200445181,0.0247944122044799,-0.65255533680726,-0.6864010906867768,-0.5386941302082474,0.9249070410353846,1.4044764593390544,1.735168012845365,-0.8988918575474557,-0.9010556238189074,-0.7724708327936478,0.8008611330447304,-0.2624333498916942,-0.3095147199591364,-0.6904403880241439,9.62398878501608,-0.9799311796524788,0.1033959670030614,-0.9826844190525732
0.96,0.9116575635654623,1.3873916162529836,1.7264846917761163,0.0643041694701555,0.0678973087137364,0.0243049806524474,-0.6593477541951881,-0.6953720713026432,-0.5539957994708792,0.907529203893376,1.387055346871617,1.7203185961984329,-0.9388918581435022,-0.9410556244149536,-0.8124708333896942,0.9496795635963868,-0.3396208693964064,-0.4485490307933215,-0.7650834631315884,9.573576983175371,-0.9827531444472218,0.0988911582869364,-0.981706720008308
0.98,0.8983838886479332,1.3733716150186026,1.7152388190884555,0.0670647632156256,0.0642876522215828,0.0237759582484694,-0.6677862343153257,-0.7060681217792347,-0.5698164945275184,0.8891513667364666,1.3686342343892783,1.7044691795365994,-0.9788918587395486,-0.9810556250110002,-0.8524708339857406,1.043920297018549,-0.4219240060068796,-0.534802523829575,-0.7910347528319595,9.5402105938947,-0.9855574328341776,0.0946960525730225,-0.9807974318173888
1.0,0.8849229283241582,1.3591279732623924,1.703670745748075,0.0691813291826564,0.0611986057052691,0.0232276899803205,-0.6779723462038681,-0.7175833339844253,-0.5861892359102124,0.8649945769321669,1.338068208929641,1.6867479943620796,-0.7677862358054418,-0.8060681232693508,-0.6698164960176345,1.1229688863911804,-0.509305594427123,-0.5757606102595292,-0.8186370691347034,9.524168584308429,-0.9883104225335088,0.0908392791760764,-0.9799788996395348
1.02,0.8719224915431993,1.345315408526449,1.6926416245862232,0.0691109605478985,0.0601831543035001,0.022692581058561,-0.6898690444844002,-0.7354923962419313,-0.5723440128151236,0.8649945769321669,1.338068208929641,1.6867479943620796,-0.7677862358054418,-0.8060681232693508,-0.6698164960176345,1.2786283113888317,-0.594834914026604,-0.8954531128752996,0.6922611547544422,9.50260338481712,-0.9929349607322135,0.0890846539156315,-0.9770078323443374
1.04,0.8580054161602976,1.3304313270841095,1.681327187229552,0.0660361502385693,0.0619343832508739,0.0221203250489499,-0.7009168815782132,-0.7515289406895665,-0.5602912801370278,0.8649945769321669,1.338068208929641,1.6867479943620796,-0.7677862358054418,-0.8060681232693508,-0.6698164960176345,1.1450915108431827,-0.5523918546906481,-0.8018272223817624,0.6026366339047906,11.08712724570796,-0.9933634411012748,0.091824832396733,-0.9758732930869704
1.06,0.8438844891561558,1.3152706361404527,1.6701678234942463,0.0615424670348018,0.065340543350153,0.0215600747536999,-0.7103878924807902,-0.7633886050157309,-0.5561829507845453,0.8573167145741124,1.3300075276969474,1.6800498294019033,-0.787786236103465,-0.826068123567374,-0.6898164963156577,0.7861775491491992,-0.473550545128848,-0.5929832163082183,0.2054164676241254,11.08712724570796,-0.9913075101156622,0.0954084520738991,-0.9774403261141412
1.08,0.8295904791607907,1.2999075502031918,1.6590202546211408,0.0570552987850467,0.0695247559550056,0.021044328088583,-0.7183670104889449,-0.7723133620022664,-0.5587625882789041,0.8419609898580036,1.3138861652315603,1.6666534994815505,-0.8277862366995115,-0.8660681241634205,-0.7298164969117041,0.6123155662301013,-0.3989559004077381,-0.4462378493267749,-0.1289818747179427,10.608225344035418,-0.9878984878558604,0.0989318462118307,-0.9806684439732068
1.1,0.8158762450194201,1.2851660319017666,1.6483284818071369,0.053318844522875,0.073646662258909,0.0205950962539699,-0.7247382292651114,-0.7790861256185768,-0.5665561194700721,0.8266052651418948,1.2977648027661737,1.653257169561198,-0.8677862372955579,-0.906068124759467,-0.7698164975077506,0.6066339178695487,-0.3185609388083266,-0.3386381808155203,-0.3896765595583995,9.904080508717016,-0.9835318004114454,0.1016550864927925,-0.9852629480499308
1.12,0.8013210564641206,1.2695221596684378,1.6368688562497895,0.050147862471014,0.0777189458388151,0.0201590181009221,-0.7303708075671477,-0.7850503909630935,-0.5792064596207216,0.8092495403959836,1.2796434402709842,1.637860839611043,-0.9077862378916044,-0.9460681253555134,-0.8098164981037971,0.7538725113630055,-0.2816289151018114,-0.2982132672258331,-0.6325170075324738,9.904080508717016,-0.9789332808374186,0.103373684334588,-0.9905130071815772
1.14,0.7866637142284566,1.253767261175896,1.6251256940657706,0.0478319402983451,0.0812152837555969,0.019755288322858,-0.7350635652020492,-0.7903521664745157,-0.5944772126669028,0.7918938156500724,1.2615220777757947,1.622464509660888,-0.9477862384876508,-0.98606812595156,-0.8498164986998435,0.8416155541440741,-0.2346378817450756,-0.2650887755711095,-0.7635376523090598,9.655508389307217,-0.9751856236808474,0.1041837383490751,-0.9950753902311096
1.16,0.7726549182981712,1.2386970452472772,1.6136710459069856,0.0460966832014913,0.0840003850738703,0.0193829093083786,-0.739285475025111,-0.795729741783877,-0.610515523264318,0.7735380908892602,1.2424007152657042,1.6060681796958318,-0.9877862390836972,-1.0260681265476064,-0.8898164992958899,0.8717371243400732,-0.2110954911530904,-0.2688787654680669,-0.8019155298707614,9.537410320461277,-0.971629281106199,0.1044292857582819,-0.9997295572359746
1.18,0.757824494189723,1.2227244549320444,1.6012690300354342,0.0444830823997797,0.0865129773866936,0.018992771480873,-0.7435050727687006,-0.801226679861002,-0.6289148995346676,0.7541823661135467,1.2222793527407123,1.5886718497158745,-1.0277862396797437,-1.0660681271436527,-0.9298164998919364,0.9830543989008916,-0.2109798871794799,-0.2748469038562517,-0.91996881351748,9.46018414187074,-0.9683668303617348,0.1044364558897221,-1.0041600438885545
1.2,0.7429115424127657,1.20664416736594,1.5884845280869395,0.0429991667731488,0.0887081129063853,0.0186049081553439,-0.7475482562424361,-0.8064873412426344,-0.6486712838981169,0.720649240551288,1.1826631209389944,1.5698232850587008,-0.8435050742588167,-0.9012266813511182,-0.7082098344034802,1.042037204099295,-0.2021591736867778,-0.2630330690816196,-0.9878192181724644,9.314660318478673,-0.9653761367252708,0.104319568135057,-1.0083483766960173
1.22,0.7279492885490856,1.1904255380162734,1.5756370796960335,0.0409131246776505,0.090720541181504,0.0181751009181478,-0.7482728116854588,-0.8147702626853998,-0.633296170660637,0.720649240551288,1.1826631209389944,1.5698232850587008,-0.8435050742588167,-0.9012266813511182,-0.7082098344034802,0.8739649238990713,-0.0362277721511317,-0.4141460721382661,0.7687556618739932,11.556391489475573,-0.9678845917704724,0.1050196740821528,-1.006774150241186
1.24,0.7137323640123242,1.174891606751852,1.5637259869865825,0.0386337644215761,0.0923258851764121,0.017741406739246,-0.7482479767287734,-0.8200147176807739,-0.6214748051666568,0.720649240551288,1.1826631209389944,1.5698232850587008,-0.8435050742588167,-0.9012266813511182,-0.7082098344034802,0.6466250983294846,0.0012417478342685,-0.2622227497687091,0.5910682746990137,11.101998821792222,-0.9661580920375864,0.1075449318525165,-1.007400840229891
1.26,0.698768917601755,1.1584477979812415,1.5513639911189288,0.0367083803142865,0.0933650771203967,0.0173025309783271,-0.748157484564939,-0.8241879583313731,-0.6156477354803562,0.7122141898086998,1.173650854125483,1.562741186714666,-0.8635050745568399,-0.9212266816491412,-0.7240688213772427,0.3583952688322341,0.0045246081917194,-0.2086620325299604,0.2913534843150267,11.101998821792222,-0.964872536348242,0.1093570898597862,-1.0079993225900337
1.28,0.6838049767846462,1.141931721997398,1.539051514118526,0.0355620128649694,0.0935549847245749,0.0168980089522563,-0.7483490740950935,-0.827352865100765,-0.6158646236533301,0.6953440883235235,1.155626320498461,1.5485769900265964,-0.9035050751528864,-0.9612266822451878,-0.7557867953247677,0.1589054898877247,-0.0095794765077261,-0.1582453384695925,-0.0108444086486914,10.366000379058278,-0.9640840819796674,0.1101082137799139,-1.0086198082306017
1.3,0.6695818487242452,1.126191172148373,1.5273091077362806,0.0354834891955053,0.0929191956745023,0.0165651355923084,-0.7488906949489607,-0.8295491979583771,-0.6201585248447049,0.6784739868383471,1.1376017868714383,1.5344127933385268,-0.9435050757489328,-1.0012266828412342,-0.7875047692722927,0.2426665336014666,-0.0270810426933554,-0.1098166428806057,-0.2146950595687424,10.366000379058278,-0.9641542293617912,0.1097409411124341,-1.0087574611136594
1.32,0.6545954680826784,1.1095824436477189,1.5148283139442305,0.036802202114322,0.0913076974045568,0.0162861686432629,-0.7497869415075645,-0.831357174486474,-0.6278325574933142,0.6596038853233684,1.1175772532146138,1.5186626979530808,-0.9835050763449792,-1.0412266834372803,-0.8192227432198178,0.3967455548329442,-0.0448123279301937,-0.0903988264048416,-0.3837016324304665,10.12693317319372,-0.9652123342959534,0.1078995166559028,-1.0082723321480789
1.34,0.6395884840257123,1.0929349993106603,1.5021818920937986,0.0397594579223812,0.0885730935406374,0.016079681691422,-0.7509498293555102,-0.8337453364775087,-0.6364485651253601,0.6407337838083897,1.0975527195577892,1.5029126025676351,-1.023505076941026,-1.0812266840333271,-0.8509407171673429,0.4508082002298624,-0.0581443923972857,-0.1194080995517377,-0.430800381602292,9.945342079806323,-0.9679103986216564,0.1044090932706136,-1.006518513776316
1.36,0.6245480940119027,1.0762059839134024,1.489360618755698,0.0433754203426373,0.0847592643342008,0.0158662654661849,-0.7531658483980207,-0.8391396990627781,-0.6452424326178429,0.62086368227851,1.0765281858860634,1.4863695578335012,-1.0635050775370722,-1.1212266846293737,-0.8826586911148678,0.5275935783665978,-0.1108009521255226,-0.2697181292634687,-0.4396933746241394,9.90507219126539,-0.9711863235802076,0.1002596038532333,-1.0045237689424422
1.38,0.6102051062863377,1.0601954633632082,1.477017129375278,0.0465186024822744,0.0804559577986682,0.015600639840959,-0.7566401538934088,-0.845833012142833,-0.6536251192666894,0.599993580733729,1.0545036521994362,1.469033563750679,-1.1035050781331186,-1.1612266852254198,-0.9143766650623928,0.5637833673399489,-0.1737152747694037,-0.334665654002747,-0.419134332442328,9.90231287073584,-0.9752288055599114,0.0960529282712205,-1.001932368278989
1.4,0.595018781007324,1.0431964528128097,1.4638486266095074,0.0492681109798938,0.0756310980968739,0.0152554211764235,-0.7619816778021701,-0.8536550525201391,-0.6627949925701062,0.5723730985916673,1.017903812756067,1.4443358734119436,-0.8566401553835249,-0.9458330136329492,-0.6933791970588571,0.6591713922281341,-0.2670761954380651,-0.3911020188653025,-0.4584936651708393,9.903193903634929,-0.9795478312503616,0.092294427171919,-0.9990952940131672
1.42,0.5796981214221207,1.0259559490346812,1.4507925091501317,0.0493653245751682,0.0719986369504432,0.0147797454251658,-0.7700313044047998,-0.8694346484051122,-0.6407506147302519,0.5723730985916673,1.017903812756067,1.4443358734119436,-0.8566401553835249,-0.9458330136329492,-0.6933791970588571,1.413989682671949,-0.4024813301314878,-0.7889797942486565,1.1022188919927178,9.884273078556362,-0.986178939066466,0.0905712851967185,-0.994179711743118
1.44,0.5641997599992401,1.0084258391953227,1.438198251996933,0.0458591148006609,0.0712589356572978,0.0142093152127362,-0.7790682148800783,-0.8820666659306708,-0.6198975164238302,0.5723730985916673,1.017903812756067,1.4443358734119436,-0.8566401553835249,-0.9458330136329492,-0.6933791970588571,1.3000820422972397,-0.4518455237639218,-0.6316008762779324,1.042654915321084,12.02212383207825,-0.9884838732596852,0.093951547938648,-0.9908741923641372
1.46,0.5493218134265142,0.9915878868508152,1.4265653361525177,0.0412416337298647,0.072516533613627,0.0136819049448851,-0.7863869065865394,-0.8894900825551807,-0.605630948524857,0.563806697037832,1.008445482619737,1.437402081441355,-0.8766401556815481,-0.9658330139309724,-0.7013300126172907,0.8834666409821094,-0.3659345853230578,-0.3711708312254924,0.7133283949486591,11.666664213896183,-0.988790556763956,0.0990120270307485,-0.9889936310491813
1.48,0.5335258150869215,0.9737454192815652,1.4145623572153154,0.0365920600430174,0.0748998891439333,0.0131937688479071,-0.792689077299702,-0.8943651209709992,-0.5956440155351346,0.5466738939301615,0.9895288223470782,1.4235344975001778,-0.9166401562775944,-1.005833014527019,-0.7172316437341577,0.6387921919426447,-0.3151085356581262,-0.2437519207909244,0.4993466494861209,11.26421964828387,-0.9877906746301872,0.1036818929043305,-0.988697885635432
1.5,0.5176161946031177,0.955825343310705,1.4027048018359256,0.0327545996315238,0.0776342737856996,0.0127813746706797,-0.7978705967300959,-0.8975812273985768,-0.590593470761276,0.529541090822491,0.9706121620744192,1.4096669135590008,-0.956640156873641,-1.0458330151230653,-0.7331332748510248,0.3959150372043414,-0.2590759715196955,-0.1608053213788818,0.2525272386929289,10.930585951166904,-0.9859813630108772,0.1071658384157454,-0.9896892176538068
1.52,0.5024152713902511,0.9387518169758328,1.3914981235136892,0.0299887460649303,0.0801128944801836,0.0124535493945001,-0.801937718711385,-0.899687925786169,-0.5893096616605337,0.5104082876850182,0.949695501771958,1.3950042480619802,-0.9966401574696874,-1.0858330157191116,-0.7490349059678918,0.2378435678871578,-0.2033560990644556,-0.1053349193796071,0.0641904550371164,10.65236623088458,-0.983854580336989,0.1097819319036728,-0.9913313242274396
1.54,0.4863396356235797,0.9207423106680954,1.3797116519255683,0.0280273744812434,0.0822715005614515,0.0121700674721862,-0.8053969356973945,-0.9013195581791832,-0.5894712364230499,0.4912754845475454,0.9287788414694966,1.38034158256496,-1.0366401580657338,-1.1258330163151582,-0.764936537084759,0.1914060659051353,-0.1729608493004741,-0.0815816196507168,-0.0080787381258107,10.440370776887905,-0.9821100704434872,0.1113753494387395,-0.9928677024275372
1.56,0.4701963483790742,0.9026959845622065,1.3679106228853457,0.0268011530092883,0.083907329652602,0.011933924143378,-0.8087596096673455,-0.9032494243920884,-0.5906631078827207,0.4711426813951714,0.906862181152134,1.3652813762900176,-1.0766401586617802,-1.1658330169112046,-0.780838168201626,0.2028085143939756,-0.1681336984975523,-0.0964933106452514,-0.0595935729835406,10.357314206657977,-0.9804914851606172,0.1121172832947454,-0.9946030038719664
1.58,0.4539860229523421,0.8846119510065868,1.3560760899918776,0.0261019965411781,0.0851768664263363,0.0117361702382242,-0.8120994966530906,-0.9050772515144332,-0.5927301331341628,0.4500098782278963,0.8839455208198705,1.3498236292371537,-1.1166401592578266,-1.205833017507251,-0.796739799318493,0.2166125022755353,-0.1669943492872527,-0.0913913561172374,-0.1033512625721044,10.262098510916076,-0.97923684099153,0.1123553966020809,-0.996057017308332
1.6,0.4385244741760101,0.8673992225850958,1.3447877753925703,0.0258954097828557,0.0861525892282873,0.0115847744751451,-0.8152564108619493,-0.9067166674439232,-0.5954111868446773,0.4133810481196875,0.8393580884308652,1.3264395833351694,-0.9120994981432068,-1.0050772530045493,-0.5759410823613766,0.2227209066894286,-0.1578457104429387,-0.081970796474512,-0.1340526855257262,10.262098510916076,-0.9781392692925208,0.1121506619541022,-0.9974462065532452
1.62,0.4222036956721783,0.8491998534069697,1.3330779139263298,0.0248354559546263,0.0870532447538211,0.0113747411350109,-0.8165384428356164,-0.9128400970208828,-0.5742121235793244,0.4133810481196875,0.8393580884308652,1.3264395833351694,-0.9120994981432068,-1.0050772530045493,-0.5759410823613766,1.1051473647142291,-0.0641015986833526,-0.3061714788479719,1.0599531632676462,10.221778138395166,-0.9824335529293856,0.1131268442309736,-0.9928546007846116
1.64,0.4066834434452576,0.8318180500030689,1.3223709099948908,0.0225778226202513,0.0876915253699243,0.0110949913836925,-0.817154717684627,-0.9162914976516188,-0.5540288391709827,0.4133810481196875,0.8393580884308652,1.3264395833351694,-0.9120994981432068,-1.0050772530045493,-0.5759410823613766,1.0242764891758684,-0.0308137424505305,-0.172570031536795,1.009164220417086,11.829562281803192,-0.9827276576322788,0.1159912050023533,-0.9910955360767576
1.66,0.3903369232471894,0.8134795718198243,1.311486592521948,0.0202659372811954,0.0878275436385289,0.0108075114780537,-0.8175291226569837,-0.9174506445023648,-0.5355936429606877,0.4042600531382555,0.8293073159008197,1.3206801725115556,-0.93209949844123,-1.0250772533025725,-0.5725832722068194,0.9237698033289938,-0.0187202486178372,-0.0579573425373125,0.9217598105147496,11.44837878022463,-0.9837034364377848,0.1189741188530358,-0.9885523570095188
1.68,0.3739830526014854,0.7951337753195935,1.3009404474478874,0.0187717410337773,0.0871703759772812,0.0105765966844399,-0.8179633416666514,-0.917293875642772,-0.5199276659624411,0.3860180631753914,0.8092057708407288,1.309161350864328,-0.9720994990372764,-1.065077253898619,-0.5658676518977049,0.7836388803736153,-0.0217109504833834,0.0078384429796518,0.7832988499123283,11.28327410199836,-0.98526734861873,0.1210913040595666,-0.9856694155824648
1.7,0.3584368621854002,0.7777174342207664,1.2911937606994497,0.0184802706625162,0.0856945099351009,0.0104331494282084,-0.8185466509190363,-0.9162184524072748,-0.5068124367279088,0.3677760732125272,0.7891042257806378,1.2976425292171003,-1.0120994996333228,-1.1050772544946654,-0.5591520315885905,0.6586084244330932,-0.0291654626192461,0.0537711617748515,0.6557614617266172,11.28327410199836,-0.9876258055452818,0.1220496603042958,-0.9822158785958768
1.72,0.3420581028992184,0.7594125443538775,1.2811924760115838,0.019782820845072,0.0830520608599555,0.0103831244001241,-0.819391309788429,-0.9145109916044918,-0.4940423590844703,0.3475340832198608,0.7670026806907444,1.2864594885853289,-1.0520995002293692,-1.1450772550907118,-0.5524364112794761,0.6455690397202514,-0.0422329434696333,0.0853730401391528,0.638503882171923,11.16665425723022,-0.99123861788246,0.1215701428204825,-0.9776565807547842
1.74,0.3256580334701395,0.7411387178071124,1.271449331401124,0.0229865510865299,0.0790853693357699,0.0104374404394203,-0.8207047490465604,-0.9135025887145704,-0.4808755312060072,0.3272920932271943,0.7449011356008511,1.2752764479535568,-1.0920995008254155,-1.1850772556867584,-0.5457207909703616,0.6635272327762376,-0.0656719629065716,0.0504201444960716,0.6583413939231564,11.096585498001332,-0.9967327800660372,0.1193759303394636,-0.9713834159321466
1.76,0.3092166742381236,0.7228471235405116,1.261979820911597,0.02699820115682,0.0738884436671568,0.0105044993593717,-0.8235701555130615,-0.9158620217314148,-0.4667241200652175,0.3060501032196266,0.7217995904960567,1.264261297829513,-1.132099501421462,-1.2250772562828047,-0.5390051706612471,0.7315051531857234,-0.1432703233250509,-0.1179716508422246,0.707570557039483,11.176858107196496,-1.0025739544629029,0.1163876531394039,-0.965117192476375
1.78,0.293522019903334,0.705405097113441,1.2532554375920435,0.0305569049493013,0.0683531680693565,0.0105153630286182,-0.8285556343918019,-0.9199676921149116,-0.4523307060166901,0.2838081131971579,0.697698045376361,1.2534140382131969,-1.1720995020175085,-1.265077256878851,-0.5322895503521327,0.7887995577468246,-0.2492739439370228,-0.2052835191748314,0.7196707024263699,11.239550008707738,-1.009110480074345,0.1133732278872783,-0.9581554395027128
1.8,0.2768738151572744,0.6869495559390245,1.2443748220855038,0.0337245777434411,0.0626531934162341,0.0104722644284471,-0.8361991487873615,-0.9253195011004308,-0.4364472511425744,0.2520942381837439,0.6594067125076954,1.2306389022912092,-0.928555635881918,-1.0199676936050277,-0.3955546816155022,0.9210718083714752,-0.3821757197779774,-0.2675904492759617,0.7941727437057844,11.239550008707738,-1.015824664464411,0.1109457544802351,-0.9508065737339448
1.82,0.2600150219272789,0.6682975509259061,1.2358674447973552,0.0336963813434943,0.0589586081000906,0.0102683151802164,-0.8496025755365865,-0.9387990076420324,-0.414765018317844,0.2520942381837439,0.6594067125076954,1.2306389022912092,-0.928555635881918,-1.0199676936050277,-0.3955546816155022,1.4417594853968716,-0.6701713374612506,-0.6739753270800897,1.0841116412365182,11.288241619387918,-1.0202752529250625,0.1102461770773196,-0.946797353455785
1.84,0.2437410036132792,0.6503674582907436,1.2282046823838204,0.0298911241958713,0.0589596267859997,0.0099437165162394,-0.8623238449468021,-0.9471354825871514,-0.3928983488643122,0.2520942381837439,0.6594067125076954,1.2306389022912092,-0.928555635881918,-1.0199676936050277,-0.3955546816155022,1.3318021088997314,-0.6360634705107837,-0.4168237472559455,1.0933334726765942,11.780801366779087,-1.0238430656106938,0.1147825546531029,-0.9410764827425682
1.86,0.2263753775981905,0.6313845992916891,1.2205822240448487,0.0249118432710015,0.0613992641844955,0.009618950310031,-0.8732967659642963,-0.950581655725664,-0.3705304950211722,0.2428086818249247,0.6492070355716452,1.2266833554750542,-0.9485556361799412,-1.0399676939030509,-0.3841994767352646,1.2575790139240182,-0.5486460508747071,-0.1723086569256238,1.1183926921569998,11.76738872371334,-1.0247214986343811,0.1202818026212768,-0.9380480118611698
1.88,0.2088145026453584,0.6123665872844404,1.2133906411179771,0.020597104759133,0.0651243258133969,0.009376333412691,-0.8820362355905023,-0.951268635630132,-0.3497383389117309,0.2242375691072863,0.6288076816995446,1.218772261842744,-0.9885556367759876,-1.0799676944990972,-0.3614890669747895,1.1282331612037215,-0.4369734813102988,-0.0343489952234099,1.0396078054720648,11.55892618766029,-1.024012858709907,0.1251565259300195,-0.9368614969804576
1.9,0.1911010788465193,0.593350948342896,1.206599845097216,0.0174493136158607,0.0692198807704299,0.0092247566738736,-0.8887471610322268,-0.9505893713074444,-0.3303826980844446,0.2056664563896479,0.608408327827444,1.210861168210434,-1.028555637372034,-1.1199676950951436,-0.3387786572143143,1.0248643228976373,-0.335546272086229,0.0339632161343916,0.9677820413643125,11.55892618766029,-1.0226496143465025,0.1287914280037987,-0.9366818394642124
1.92,0.174165931173036,0.5753062821450595,1.2004968321735443,0.0156483726303349,0.0728456121702898,0.0091636455128185,-0.8935274339668502,-0.9491900909018226,-0.3130120956016807,0.1850953436422073,0.5860089739255412,1.2040855950661478,-1.0685556379680805,-1.15996769569119,-0.3160682474538391,0.9035303337426648,-0.2390136467311676,0.0699640202810825,0.8685301241381949,11.459608179293356,-1.0211084006376798,0.13150339236867,-0.936817427186342
1.94,0.1562554310744015,0.5563466181098241,1.194426458468131,0.0151367674513709,0.0759439436469085,0.009193232924122,-0.8972466974916943,-0.9470004294788584,-0.2949507651166263,0.1645242308947666,0.5636096200236382,1.1973100219218615,-1.108555638564127,-1.1999676962872363,-0.293357837693364,0.9284923225380084,-0.1859631762422042,0.1094830711482142,0.9030665242527214,11.389522193765515,-1.019960729427583,0.1330503161315007,-0.9366202605935424
1.96,0.1382757456480688,0.537427892940845,1.1887163975561283,0.0161252393154007,0.0781859806620823,0.0093258231811448,-0.9005616465305962,-0.9451442108823012,-0.2769598008992447,0.1429531181324247,0.5402102661068343,1.191102209021587,-1.1485556391601734,-1.239967696883283,-0.2706474279328889,0.9193873341522396,-0.1657474519450974,0.0928109298278523,0.8995482108690778,11.375999342423713,-1.0193326393675253,0.1332015865456404,-0.9361938023400156
1.98,0.1211356748416253,0.5194832577358852,1.1836280887179378,0.0182604956395522,0.0796700337965155,0.0095353113466122,-0.903513945034432,-0.9439772537762718,-0.2595505190989839,0.1203820053551817,0.5158109121751291,1.1854621563653245,-1.1885556397562198,-1.2799676974793293,-0.2479370181724137,0.8848177045922442,-0.1476149251917857,0.0583478553014715,0.87046409001304,11.373938320327396,-1.0194335095417817,0.132320875160634,-0.9352028368969922
2.0,0.1030343799865771,0.5006002156564399,1.1786353872474422,0.0213232146582431,0.0806794183309626,0.0098117626375916,-0.9064747385023753,-0.9446586532429336,-0.2406089536154138,0.0759599775899037,0.4722843950470716,1.1706505627629886,-0.9633420886012788,-1.043977255266388,-0.1595505176088678,0.9591839059343096,-0.14803967339716,-0.0340699733330951,0.9470782741785088,11.39569303161079,-1.0199897316973214,0.1307667163032929,-0.9336955489444576
2.02,0.0847988520074557,0.481617558244465,1.173979572971971,0.02226749735442,0.0835721787240682,0.0099915571745655,-0.91661781053336,-0.9528588615604462,-0.2261057185037438,0.0759599775899037,0.4722843950470716,1.1706505627629886,-0.9633420886012788,-1.043977255266388,-0.1595505176088678,0.9752809279647648,-0.5071536015492484,-0.4100104158756223,0.7251617555834963,11.203167710765229,-1.0156599368591253,0.1296226656692709,-0.9389065274938628
2.04,0.0663969768740211,0.4625056897354061,1.1696381760933634,0.020275176693358,0.0897593440485105,0.0100453867722938,-0.922576460364443,-0.9577178366368404,-0.2087243832501839,0.0759599775899037,0.4722843950470716,1.1706505627629886,-0.9633420886012788,-1.043977255266388,-0.1595505176088678,0.950297271645996,-0.2979324915541426,-0.242948753819705,0.8690667626779988,11.203167710765229,-1.0127442563714768,0.1325632771399532,-0.9403288022871972
2.06,0.0488461167718427,0.4442890773439277,1.1658511426366878,0.017283871953153,0.0968775080792935,0.0100398422633345,-0.924327167163014,-0.9593536879600916,-0.1907953008623022,0.0663265567038909,0.4618446224944078,1.1690550575869,-0.9753077173146482,-1.0639772555644111,-0.1395505173108446,0.9044238208906742,-0.0875353399285461,-0.081792566162564,0.8964541193940841,11.376944823465236,-1.0069990965326423,0.1367301560604302,-0.9443792177470836
2.08,0.0303736779743419,0.4251124746576623,1.1622415555784422,0.0144999348958393,0.1043823108301192,0.0100501132916966,-0.9225949971735165,-0.958368702027352,-0.1710921785798337,0.0470597149318653,0.44096507738908,1.1658640472347226,-0.9992389747413868,-1.1039772561604575,-0.0995505167147981,0.9901813442977432,0.0866084994748772,0.0492492966369717,0.9851561141234212,11.444802378359782,-1.001035558536883,0.1406635581101067,-0.9485590949626193
2.1,0.0119698085382049,0.4059721153890242,1.1590311981135903,0.012852551747521,0.110903062247467,0.0101218369916136,-0.9178491971318086,-0.9560395425509024,-0.1509588064152693,0.0277928731598397,0.4200855322837522,1.1626730368825453,-1.0231702321681255,-1.143977256756504,-0.0595505161187517,1.0407932991466955,0.2372900020853885,0.1164579738224813,1.00666860822822,11.524717692869672,-0.9958110148890016,0.1434861439097695,-0.9521286623187756
2.12,-0.0054038890282093,0.3878409900777598,1.1563602717663075,0.0126836120580404,0.1156201482241656,0.010273136979347,-0.9112688822242928,-0.9528795457540176,-0.1312156975211514,0.0073294685164772,0.3972059871486221,1.1614820265601702,-1.0471014895948645,-1.1839772573525504,-0.0195505155227052,1.0524690884337158,0.3290157453757936,0.1579998398442417,0.9871554447058992,11.524717692869672,-0.991269554184114,0.145252918489912,-0.9549285481523474
2.14,-0.0235428109847019,0.3688254306957666,1.1539640520919543,0.0144048730611497,0.1187371851144862,0.0105521130647243,-0.9030351081804586,-0.9490653641694696,-0.1094006033681139,-0.0131339361268852,0.374326442013492,1.160291016237795,-1.071032747021603,-1.223977257948597,0.0204494850733411,1.1813565815099092,0.4116887021917037,0.1907090792274079,1.090754707651873,11.575460464478056,-0.988348794690043,0.1453208663635121,-0.9562716787907162
2.16,-0.0415124450237563,0.3498685069505963,1.1520179626613702,0.017902786567152,0.119993166076595,0.0109385551080354,-0.8944574744135754,-0.947344403230847,-0.0862444415469684,-0.0341956222059162,0.3504468968634608,1.1601000059303213,-1.0949640044483415,-1.2639772585446434,0.0604494856693876,1.237684670946234,0.4288816883441626,0.0860480469311253,1.1578080910572732,11.741069871763102,-0.9879885841616418,0.1437630781598415,-0.9553691238514584
2.18,-0.0593094876410203,0.3309106119888935,1.1505551585986311,0.0217837440523954,0.1196106735244256,0.0113262891075523,-0.885835313679651,-0.9485940196740352,-0.061187968708175,-0.0558555897206156,0.3255673516985284,1.1609089956377483,-1.1188952618750805,-1.3039772591406895,0.100449486265434,1.3263955180280012,0.4311080366962205,-0.0624808221594053,1.2528236419396723,11.741069871763102,-0.9897420533461406,0.1424908764666425,-0.95179240105304
2.2,-0.0760591152002803,0.3128594115414641,1.1496476827760442,0.0250681342511874,0.1178813054205445,0.0116345165737497,-0.8778441184113603,-0.9513752196122373,-0.0355744709648361,-0.1036012533250029,0.2834809110051918,1.1474957601632223,-0.8802429754044866,-1.0485940211641511,0.0388120327819411,1.3487452887408276,0.3995597634145309,-0.1390599969101014,1.280674887166944,11.8598036456533,-0.9930807712550704,0.1417533402744382,-0.9461489486325776
2.22,-0.0936743376948809,0.2937192872873808,1.1489838255963638,0.0253819639193107,0.1183688424914743,0.0117991575266617,-0.8839938615131231,-0.9616091140022882,-0.033393055641831,-0.1036012533250029,0.2834809110051918,1.1474957601632223,-0.8802429754044866,-1.0485940211641511,0.0388120327819411,0.606857700403972,-0.3074871550881375,-0.5116947195025534,0.1090707661502564,11.978877434638887,-0.9895879466818122,0.1435085040293526,-0.9470759457610372
2.24,-0.1113785959006532,0.2744278036557812,1.148365268535983,0.0220418816078503,0.1237180358359472,0.0118339283479937,-0.8854984123652235,-0.966541820092307,-0.0284290116830919,-0.1036012533250029,0.2834809110051918,1.1474957601632223,-0.8802429754044866,-1.0485940211641511,0.0388120327819411,0.3579001084847505,-0.0752275426050219,-0.2466353045009417,0.2482021979369513,10.360355971353783,-0.9859226817771752,0.1470066373930276,-0.9500403651214012
2.26,-0.1290599006699236,0.2550909673725994,1.1478880248930063,0.0180071940085851,0.1314186891733314,0.0118592432364283,-0.8821503176925095,-0.966920647377796,-0.0195814732005504,-0.1124036830790477,0.2729949707935503,1.1478838804910418,-0.8791245077494537,-1.0685940214621743,0.0588120330799643,0.4733713797055652,0.1674047336357009,-0.0189413642744551,0.4423769241270761,10.863969787892527,-0.979958849196808,0.1511459867464121,-0.954973780294998
2.28,-0.1457581876267558,0.2367399562365416,1.147624651622925,0.0149649714507906,0.1396449634995901,0.0119380769847633,-0.8754395648171156,-0.9650606623538924,-0.0086255369127195,-0.1300085425871375,0.2520230903702672,1.1486601211466807,-0.876887572439388,-1.108594022058221,0.0988120336760107,0.649088376853962,0.3355376437696955,0.0929992511951804,0.5477968143915476,11.027356557332496,-0.9724196843240664,0.1550258936238847,-0.9611811903316596
2.3000000000000003,-0.163164676793012,0.2174719882783884,1.14759494694719,0.0130686046688615,0.1485394256779451,0.0121042128260904,-0.8652498147481023,-0.962084462086724,0.0051515859770695,-0.1476134020952272,0.2310512099469842,1.1494363618023196,-0.8746506371293222,-1.1485940226542677,0.1388120342720572,0.869623323082475,0.5094875034506674,0.1488100133584302,0.6888561444894548,11.027356557332496,-0.9642815536532572,0.1579192383294758,-0.9678086496604036
2.32,-0.180335840960103,0.1982719902491391,1.1478621169814294,0.0127984549126717,0.1572300691393733,0.0123808985606253,-0.8521110613261361,-0.9582462162427384,0.0209291248576766,-0.1651064148378137,0.2080793294938988,1.1522126024877608,-0.8724137018192565,-1.1885940232503138,0.1788120348681036,1.0443774530445962,0.6569376710983066,0.1919122921992755,0.7888769440303544,11.18409344433894,-0.9564010330376446,0.1595850552459917,-0.9740240832288368
2.34,-0.196367544634988,0.1801108118933541,1.148419075591495,0.0144909063343108,0.1645965996493493,0.0127807736036078,-0.8360572742057045,-0.9539680700688722,0.0368764188676165,-0.1825994275804001,0.1851074490408135,1.1549888431732018,-0.8701767665091907,-1.2285940238463604,0.2188120354641501,1.1514586421497792,0.8026893560215798,0.2139073086933118,0.7973647004969926,11.322837508043447,-0.9502273985659726,0.1602645458707899,-0.9779012540630452
2.36,-0.2128847415264162,0.1610632946173149,1.1493455046169008,0.0181025586042345,0.1706325541345795,0.0133276382568831,-0.8164678865616959,-0.9515576187599808,0.0549794814858943,-0.2000365169402349,0.161135568572827,1.1587650838735442,-0.867939831199125,-1.2685940244424068,0.2588120360601966,1.3390997535107891,0.979469382200432,0.1205225654445696,0.9051531309138914,11.39404234292124,-0.946563249825284,0.1592221202143593,-0.9797306371801984
2.38,-0.2289875944865169,0.1420275671389788,1.150652342468305,0.0221674996540863,0.1744757636610866,0.0138884023276091,-0.7948679045625302,-0.9522272558341172,0.0748810351487947,-0.217417682917318,0.1361636880899393,1.1635413245887878,-0.8657028958890592,-1.3085940250384531,0.298812036656243,1.4689107140774784,1.0799990999582842,-0.0334818537068237,0.9950776831450188,11.498198834163304,-0.9447614543497688,0.1579844891568315,-0.9795621977211838
2.4,-0.244643451542251,0.1229574969157427,1.1523811094599417,0.0257840311137238,0.1758976508800818,0.0143754473895881,-0.7720473124089516,-0.9546473639652472,0.0970131258722219,-0.2687309897146434,0.0944162043472729,1.1543963942257447,-0.7268763125725362,-1.01634191585876,0.1748810366389108,1.5941030310148916,1.1410296076789284,-0.1210054065564902,1.1066045361713617,11.629068466567333,-0.945295118883922,0.1573702830073656,-0.9769894307904208
2.42,-0.2592279471461358,0.1046015819452825,1.1541464979987597,0.0224001337619698,0.1777720170221075,0.0143796689431075,-0.7637666992762233,-0.9737809035211906,0.0877686763428927,-0.2687309897146434,0.0944162043472729,1.1543963942257447,-0.7268763125725362,-1.01634191585876,0.1748810366389108,1.140307783991985,0.414030656636416,-0.9566769777971772,-0.4622224764664617,11.77299672695608,-0.9383619824716825,0.1615319958678332,-0.9812269065527236
2.44,-0.2743783477094467,0.085073081027976,1.1558461085574765,0.012474960519106,0.182174504385421,0.0139838992958573,-0.751288206398796,-0.9772438568908128,0.083079320714032,-0.2687309897146434,0.0944162043472729,1.1543963942257447,-0.7268763125725362,-1.01634191585876,0.1748810366389108,0.6886488342147038,0.6239246438713653,-0.173147668481105,-0.2344677814430332,9.794511832697026,-0.9323184802587924,0.1703686306783449,-0.9857160380446244
2.46,-0.2892401590833149,0.0655679801123477,1.1575079899342715,0.0023116099188445,0.1876998643463776,0.0135551078961838,-0.7352375996734087,-0.9730997692022586,0.083491447674539,-0.2759997528403688,0.0842527851886854,1.156145204592134,-0.7132779941745373,-1.0291648478636888,0.194881036936934,0.8291038651083616,0.8025303362693637,0.207204384427706,0.0206063480253496,10.1814364144293,-0.9264753458367246,0.1799488312186147,-0.9894112099661636
2.48,-0.3037495559629189,0.0461938552700555,1.1592238357418778,-0.0060341186885232,0.1936046306294171,0.0132207821384159,-0.7163073058440045,-0.965018748441986,0.0880077321637114,-0.2905372790918195,0.0639259468715102,1.159642825324912,-0.6860813573785397,-1.054810711873546,0.2348810375329805,1.0536315136026908,0.9465146914702128,0.4040510380136364,0.225814224458621,10.46777408217622,-0.9210189898142302,0.1880061754342363,-0.992463030116268
2.5,-0.3171593811360489,0.0279586065276734,1.1609699621907332,-0.0118099369828103,0.1992098244259208,0.0130309729086507,-0.6960476827763419,-0.9554408116735228,0.0955343346641117,-0.3050748053432702,0.0435991085543349,1.1631404460576902,-0.6588847205825421,-1.080456575883403,0.274881038129027,1.1819887317393023,1.01298115338313,0.4788968384231484,0.3763301250200155,10.709714048091882,-0.9156042940932124,0.194866235293549,-0.995176844322078
2.52,-0.3308280084993519,0.0089670457769998,1.1629946681258725,-0.0157312178387919,0.2046338465669269,0.0129766046707543,-0.6717297000457911,-0.94461659355872,0.1066802385468728,-0.3182524997549211,0.0219899770366669,1.1686380668202707,-0.6316880837865445,-1.1061024398932602,0.3148810387250734,1.442878334479331,1.2158991365275371,0.5412109057401471,0.5572951941380501,10.932701984151208,-0.9114081889206448,0.2002200208102295,-0.996498663689892
2.54,-0.3439814282288792,-0.0098004562866679,1.1652665817091536,-0.0175679831325995,0.2088982561641154,0.0130873051083791,-0.6448834706820692,-0.93318222792381,0.1199392267591056,-0.3314301941665719,0.0003808455189988,1.1741356875828513,-0.6044914469905468,-1.131748303903117,0.3548810393211199,1.602549154421249,1.342311468186097,0.5717182817454924,0.6629494106116441,11.160245476286036,-0.9080862336277136,0.2040246372746406,-0.9968960517033616
2.56,-0.3559598950510151,-0.0274191722044174,1.1676904303411093,-0.0176022837249108,0.2114173981163115,0.0133479519509219,-0.6174965067823861,-0.9222441082495212,0.1345529319059988,-0.3439279726583228,-0.0218694325989156,1.1806333083603329,-0.5772948101945492,-1.157394167912975,0.3948810399171663,1.645637134799118,1.3693481949841546,0.5469059837144408,0.7306852573446571,11.293046230695836,-0.9065951940090238,0.2063350535310551,-0.9957586581262236
2.58,-0.367994798705391,-0.0457416901507786,1.1705676927281992,-0.0158498483331465,0.2122016070825354,0.0137914428904506,-0.587526371288216,-0.9107626299043484,0.1525502395007075,-0.3557458352301738,-0.0447608573170765,1.1881309291527158,-0.5500981733985516,-1.1830400319228318,0.4348810405132127,1.839793770499933,1.4985067747085024,0.574073917258644,0.8998653797354345,11.440173160087395,-0.9070726408474156,0.2073732320199196,-0.9927716226655912
2.6,-0.3794194855067746,-0.063844581918704,1.1738352292999268,-0.0123906016578976,0.2108642767338645,0.0143929401136807,-0.5565024522995019,-0.9006306912208702,0.1734547843764726,-0.3973711172698018,-0.091279821645996,1.1781952047032345,-0.4875263697980999,-0.9098240265990906,0.2525502409908236,1.9378723689699848,1.5511959494357077,0.5065969341739085,1.0452272437882548,11.619700326951715,-0.910289488203269,0.2069494166078348,-0.9875877908428532
2.62,-0.3903425606540882,-0.0820243497918539,1.1771954490805876,-0.0161932589668083,0.2087032165227045,0.0145024939472892,-0.5380429894171812,-0.9145384177433727,0.1596957488170686,-0.3973711172698018,-0.091279821645996,1.1781952047032345,-0.4875263697980999,-0.9098240265990906,0.2525502409908236,1.3448863208961546,0.9229731441160348,-0.6953863261251247,-0.6879517779701985,11.799807271447207,-0.9095600242156956,0.2128873160351366,-0.9839634528583978
2.64,-0.4003958328729041,-0.099381432273045,1.180134013729659,-0.0272498301794489,0.2078100326986965,0.014102190755766,-0.5209669358093788,-0.9108482422247622,0.150488614238726,-0.3973711172698018,-0.091279821645996,1.1781952047032345,-0.4875263697980999,-0.9098240265990906,0.2525502409908236,0.9873959810005384,0.85380268039012,0.1845087759305252,-0.4603567289171315,9.464817405244505,-0.9067501985858368,0.2228010803450628,-0.9850391044458316
