t,x,y,z,roll,pitch,yaw,v_x,v_y,v_z,ref_x,ref_y,ref_z,ref_v_x,ref_v_y,ref_v_z,a_com,a_x,a_y,a_z,thrust,wind_x,wind_y,wind_z
0.0,-2.4739833492463568,-0.6742416552358,2.918652603364999,0.0307734710304567,0.0996081658829946,0.042212709303727,0.0011921995857243,0.0062961152633151,-0.0009787449301638,-2.4739484091170056,-0.6739973569366764,2.918623949923259,0.1011428072875316,0.1074840345979009,-0.100937754321368,0.3241155229986425,0.0596099792862187,0.3148057631657598,-0.0489372465081927,10.254775170433277,-0.9402587393269276,0.2529584790457514,-0.8792581526667066
0.02,-2.474041686039207,-0.6744254350708427,2.91852388298068,0.0229508557278665,0.1024489603728045,0.0417439171464434,-0.0068384667796759,-0.0199665758692551,-0.0122109434049827,-2.4739484091170056,-0.6739973569366764,2.918623949923259,0.1011428072875316,0.1074840345979009,-0.100937754321368,1.4835622925705565,-0.4015333182700146,-1.3131345566285153,-0.5616099237409441,10.25531775995205,-0.9274204021398468,0.2543529220245535,-0.8962998335409244
0.04,-2.474242491461905,-0.6748667745967876,2.9180767543145323,0.0063204315090664,0.1096547254744533,0.0407050140093311,-0.0123204489732003,-0.0218502916381369,-0.032334506235295,-2.4739484091170056,-0.6739973569366764,2.918623949923259,0.1011428072875316,0.1074840345979009,-0.100937754321368,1.047089173439374,-0.2740991096762215,-0.094185788444092,-1.006178141515616,9.6789381994804,-0.9193246920132851,0.264989263375789,-0.90396008941121
0.06,-2.474511510708737,-0.6752454995713421,2.917202063954812,-0.0110611228937495,0.1189548614787976,0.0395036228044631,-0.0139021151521196,-0.0155133241516485,-0.0541738991576853,-2.47293698104413,-0.6729225165906974,2.917614572380045,0.1211428075855548,0.1274840348959241,-0.1209377546193912,1.139756452103804,-0.0790833089459631,0.3168483743244192,-1.091969646119516,9.127751022767823,-0.9059486130529372,0.2746671960949561,-0.9196595532041932
0.08,-2.474763620908996,-0.6754471581598495,2.915966281643454,-0.0270350942653081,0.1285503312515314,0.0382531174464346,-0.0122706407258132,-0.0057085449681397,-0.0748787769034291,-2.47091412489838,-0.6707728358987394,2.915595817293618,0.1611428081816013,0.1674840354919706,-0.1609377552154377,1.14835465570012,0.0815737213153166,0.4902389591754393,-1.0352438872871907,9.124172599376834,-0.8907458547457352,0.28509972853156,-0.935666723420263
0.1,-2.47496611108584,-0.6754246092794993,2.9142414514611907,-0.0430967181955497,0.1387715584957699,0.0368388782880548,-0.0077727804975914,0.0078033221889515,-0.096563860718237,-2.468891268752629,-0.6686231552067814,2.9135770622071906,0.2011428087776477,0.207484036088017,-0.2009377558114841,1.2971547332129885,0.2248930114110897,0.6755933578545654,-1.0842541907403926,9.124172599376834,-0.8744089127768354,0.2959209223481821,-0.9514903526137488
0.12,-2.475051657975437,-0.6750969773230158,2.912086861003564,-0.0582992642500952,0.1487451744126931,0.0353544865198538,-0.0007482533818355,0.0245743939983709,-0.1178480624378051,-2.464868412577076,-0.664473474485021,2.9095583070909607,0.2411428093736942,0.2474840366840635,-0.2409377564075306,1.3996696696684885,0.3512263557877974,0.8385535904709697,-1.0642100859784052,9.165062796580967,-0.857631344716949,0.3070648235743834,-0.9663840958861414
0.14,-2.47497386057237,-0.6743804235571526,2.9095071107232378,-0.0718639349934085,0.158284864722024,0.0338874783364575,0.0084260559737739,0.0459786118648573,-0.1391338030354027,-2.460845556401523,-0.6603237937632607,2.905539551974731,0.2811428099697407,0.28748403728011,-0.2809377570035771,1.577491083506224,0.4587154677804751,1.0702108933243228,-1.0642870298798797,9.226426339978389,-0.8415907075720357,0.3174699362633447,-0.9792592994060244
0.16,-2.4747113685415134,-0.6732667171381179,2.906659752157834,-0.0824560544170511,0.166878194595888,0.0325999431262906,0.0189617414644036,0.0696486327510307,-0.1595567141227636,-2.455822700211069,-0.6551741130265992,2.9005207968436,0.3211428105657871,0.3274840378761564,-0.3209377575996235,1.649519517004574,0.5267842745314866,1.18350104430867,-1.021145554368047,9.26930675949734,-0.8245658586517656,0.3271072149264186,-0.99228613288875
0.18,-2.4741997049790925,-0.6715933829230558,2.9032403261412427,-0.0910891068425995,0.1754107809887226,0.0313999237369091,0.0318787212092229,0.0960846255927609,-0.1813341807913988,-2.449799844005714,-0.6490244322750365,2.894502041697568,0.3611428111618335,0.3674840384722028,-0.3609377581956699,1.8302787613910037,0.6458489872409602,1.3217996420865088,-1.0888733334317584,9.304731290914788,-0.8074324187750526,0.334955404709531,-1.005182728202996
0.2,-2.4734105280040963,-0.6693774257717139,2.899386025455104,-0.0973025439499758,0.1834214618245452,0.0303784163688154,0.0466089621801493,0.1237894987126434,-0.2029974790321264,-2.472605768918631,-0.6667891516434178,2.8941736171016728,0.131878722699339,0.196084627082877,-0.2813341822815149,1.906461699272408,0.7365120485463221,1.3852436559941228,-1.083164912036377,9.32970245711931,-0.7928708433643048,0.3408179558887871,-1.015602715936272
0.22,-2.472344817534351,-0.666618871386377,2.8954777153763844,-0.0973890735841683,0.1905073975343336,0.0298596367308537,0.0652436148850557,0.1639050459072342,-0.2062238680439343,-2.472605768918631,-0.6667891516434178,2.8941736171016728,0.131878722699339,0.196084627082877,-0.2813341822815149,2.217496896395479,0.9317326352453206,2.00577735972954,-0.1613194505903969,10.638389533768532,-0.7835410327987169,0.3418640500554694,-1.0219218589958317
0.24,-2.4708179787561737,-0.6629835780167136,2.89132280563384,-0.0907332223343378,0.197398953155295,0.029885162620914,0.0866403065927671,0.196140447094671,-0.2092414656222941,-2.472605768918631,-0.6667891516434178,2.8941736171016728,0.131878722699339,0.196084627082877,-0.2813341822815149,1.9403900386873087,1.0698345853855713,1.611770059371842,-0.1508798789179893,10.638389533768532,-0.7730114123432259,0.3408440359928841,-1.0243173683704672
0.26,-2.4688523337216908,-0.6587870253425736,2.887077876989389,-0.0822672847173881,0.203791870253298,0.0301469009615872,0.1089947790856315,0.2215299758703236,-0.2152355426775754,-2.471286981691638,-0.664828305372589,2.8913602752788576,0.1518787229973622,0.2160846273809002,-0.3013341825795382,1.7177598578006852,1.1177236246432187,1.269476438782631,-0.2997038527640647,10.437324469398844,-0.7634973963891337,0.3377392563642851,-1.026987015393403
0.28,-2.466431640184663,-0.6541273813696541,2.882679896531032,-0.0739023820720444,0.2097548962675853,0.0304993821243109,0.1321058658483815,0.2430956026603626,-0.2242687051255333,-2.468649407237651,-0.6609066128309314,2.8857335916332274,0.1918787235934087,0.2560846279769467,-0.3413341831755846,1.6437735656210366,1.1555543381374982,1.0782813395019464,-0.4516581223978966,10.236188669450712,-0.7557833545126614,0.3340211759837432,-1.029661567448393
0.3,-2.4636966436080603,-0.6493263377147259,2.878310803925473,-0.0667234807840806,0.2150646911333908,0.0308576595914072,0.154747643217272,0.261282849965735,-0.2352099209656731,-2.466011832783664,-0.6569849202892739,2.880106907987597,0.2318787241894551,0.2960846285729932,-0.3813341837716311,1.5517218267377222,1.1320888684445238,0.9093623652686192,-0.5470607920069883,10.06881057339433,-0.747321145112597,0.3300807462376854,-1.0337114780226089
0.32,-2.46034527079434,-0.6439170531738602,2.873466050163189,-0.0602149154284122,0.2203128696502688,0.0312293781445143,0.1792998908266301,0.2787616567679551,-0.2488071001572152,-2.461374258299875,-0.6510632277178141,2.8724802243121643,0.2718787247855015,0.3360846291690396,-0.4213341843676775,1.6531824096779777,1.2276123804679044,0.8739403401110096,-0.6798589595771037,9.821328384006849,-0.7396439447721659,0.3265817032890585,-1.03761192995028
0.34,-2.456487796881384,-0.6381696593025288,2.8683374515346043,-0.0547941971248731,0.2250494514494102,0.0315935626738654,0.2052982656988178,0.295196325378293,-0.2634178963925884,-2.4567366838160862,-0.6451415351463542,2.864853540636732,0.3118787253815481,0.3760846297650861,-0.461334184963724,1.7025636514959024,1.2999187436093893,0.8217334305168911,-0.7305398117686601,9.821328384006849,-0.7328917317231659,0.3236457215511784,-1.0411243399536323
0.36,-2.452088971187677,-0.6320936927731147,2.8629085999157846,-0.050102055966155,0.2287062330823172,0.0319950285149828,0.2332045074931763,0.3115494117568397,-0.2787282893906184,-2.451099109317396,-0.6382198425599932,2.856226856946398,0.3518787259775945,0.4160846303611326,-0.5013341855597704,1.789266538936792,1.3953120897179248,0.8176543189273355,-0.7655196499015027,9.785415389823356,-0.7277620748853441,0.3216141867187985,-1.0431710277017807
0.38,-2.447381499373439,-0.6260223002964218,2.857462729381102,-0.0459743605923346,0.2307149748673286,0.0324459679388383,0.2607765787210607,0.3266538992223007,-0.2937309099971352,-2.4444615348038043,-0.630298149958731,2.846600173241163,0.3918787265736409,0.456084630957179,-0.5413341861558169,1.7417256374447123,1.3786035613942162,0.7552243732730501,-0.7501310303258374,9.76644569005839,-0.7245305326734798,0.3202294889753921,-1.043097673873594
0.4,-2.441857164463669,-0.6193288199761493,2.851416507052124,-0.0418787141507645,0.2311028107504666,0.0329938484478303,0.2901303268014084,0.3418223155197725,-0.3101117634874109,-2.434342670437386,-0.6096896053353068,2.842776183881245,0.3607765802111768,0.4266539007124168,-0.3937309114872513,1.8439466779219795,1.4676874040173842,0.7584208148735894,-0.8190426745137869,9.748439087684346,-0.7232733118093175,0.3188378723748167,-1.0419653254940977
0.42,-2.435666546232397,-0.6123302944209529,2.845291035302357,-0.038095332675014,0.2290273754618836,0.0336239901799527,0.3277060069307366,0.3573092910810176,-0.3002180995848654,-2.434342670437386,-0.6096896053353068,2.842776183881245,0.3607765802111768,0.4266539007124168,-0.3937309114872513,2.0914485020152456,1.8787840064664107,0.774348778062256,0.494683195127274,9.713303549345255,-0.720895964767555,0.3132058958326521,-1.048238693521875
0.44,-2.4287304649341506,-0.6050388563466278,2.839371436361377,-0.0350070925946597,0.2238075941168176,0.0343164147483255,0.3634810154247553,0.3712798599315757,-0.2922616892349942,-2.434342670437386,-0.6096896053353068,2.842776183881245,0.3607765802111768,0.4266539007124168,-0.3937309114872513,1.961079098615628,1.7887504247009356,0.6985284425279042,0.3978205174935634,11.097401908123176,-0.7342242906689289,0.3210931512677662,-1.0245889651069964
0.46,-2.4215195170759207,-0.5978553810575897,2.833849221076243,-0.0327361886196819,0.2166602261815268,0.0349926679557583,0.3933595914938788,0.3842752146817384,-0.2893081654289497,-2.4307349046352744,-0.6054230663281827,2.838838874766373,0.3807765805092,0.44665390101044,-0.4137309117852745,1.635796331969422,1.4939288034561735,0.6497677375081362,0.1476761903022233,11.097401908123176,-0.749113956905531,0.3279836493059481,-1.0018330686564028
0.48,-2.413363681505721,-0.5900317609073334,2.828057184688018,-0.0309011306996501,0.2078966969349562,0.0356945262806957,0.4202356853794539,0.3974466618561594,-0.290175568276757,-2.4235193730310507,-0.5968899883139342,2.830964256536628,0.4207765811052464,0.4866539016064864,-0.4537309123813209,1.4971337873710502,1.3438046942787552,0.658572358721049,-0.0433701423903643,10.444453524263736,-0.7634717078370151,0.3329872343282177,-0.9824180742960704
0.5,-2.404717262930743,-0.5819503396911853,2.8222026094279595,-0.0296427775349264,0.198822402684271,0.036358078923033,0.4428050732070591,0.4100857585168233,-0.2951512335848644,-2.4163038414268274,-0.588356910299686,2.823089638306883,0.4607765817012929,0.5266539022025329,-0.4937309129773674,1.317081315417509,1.1284693913802628,0.6319548330331964,-0.2487832654053723,10.180138480485766,-0.775663729499355,0.3369254170213366,-0.9664958434250692
0.52,-2.396121535444495,-0.5740439740859333,2.816516289259974,-0.0290535309453193,0.190600274638957,0.0369334864077613,0.4607436612418999,0.4215849169106646,-0.3031155399884496,-2.407088309792801,-0.5778238322556353,2.813215020047336,0.5007765822973393,0.5666539027985794,-0.5337309135734138,1.1373805002510964,0.8969294017420415,0.5749579196920651,-0.3982153201792598,10.180138480485766,-0.7864008309720978,0.3403208702686867,-0.952804798434806
0.54,-2.386735515890072,-0.5654901327909794,2.8103479735322114,-0.0292276161728,0.1829205363461569,0.0374625653964149,0.4767691687376253,0.4332506450696627,-0.3133639924926129,-2.397872778158776,-0.5672907542115847,2.8033404017877883,0.5407765828933859,0.6066539033946259,-0.5737309141694604,1.1157249691403366,0.8012753747862672,0.5832864079499067,-0.5124226252081643,9.956030790641307,-0.7945954985380861,0.3431756752247971,-0.9425111142532916
0.56,-2.3770495650199983,-0.5566933140974514,2.803954969526193,-0.0299980314853794,0.1764677650952457,0.0379290439374196,0.4909559516672586,0.4458106162446494,-0.3253926025926535,-2.3876572465098485,-0.5557576761526328,2.7924657835133395,0.5807765834894323,0.6466539039906722,-0.6137309147655068,1.1221688228023354,0.7093391464816662,0.6279985587493347,-0.6014305050020319,9.722005318445554,-0.8013503569798917,0.3458412609291424,-0.9340868153329884
0.58,-2.3670971547734423,-0.5476361678352417,2.797305613049871,-0.030860066091627,0.1712402672497006,0.0383692745752267,0.503489280317642,0.4591887048363026,-0.3389198276124275,-2.3764417148460204,-0.5432245980787799,2.78059116522399,0.6207765840854788,0.6866539045867187,-0.6537309153615533,1.1391261981890308,0.6266664325191657,0.668904429582659,-0.6763612509886968,9.630111465837215,-0.8061265011812703,0.3481165196227522,-0.927841711347372
0.6,-2.357425151268155,-0.5387769511362284,2.7907248011038077,-0.0313776265411709,0.1675572954046655,0.0387825322462126,0.513935330502902,0.4725789599481417,-0.3531071319229252,-2.3419226907575603,-0.5246767325934266,2.7803596216692497,0.6034892818077581,0.5591887063264187,-0.4389198291025436,1.106456619158397,0.5223025092630007,0.6695127555919556,-0.7093652155248875,9.630111465837215,-0.8093145741020635,0.3498210689799502,-0.923518451299534
0.62,-2.347001790345177,-0.5291106035487133,2.783821398389512,-0.029643824794829,0.1656885810466266,0.0393216887449237,0.5281088756548079,0.4929226413758056,-0.3347464355914897,-2.3419226907575603,-0.5246767325934266,2.7803596216692497,0.6034892818077581,0.5591887063264187,-0.4389198291025436,1.542619465372605,0.7086772575952971,1.0171840713831952,0.9180348165717778,9.547058607426152,-0.8072328868255086,0.347796726232714,-0.927051707477138
0.64,-2.336298218548211,-0.5190764863343041,2.7772847528139315,-0.0251544154430958,0.1664135441743124,0.0399777216162973,0.5418848992330282,0.5088083074131389,-0.3199987392172846,-2.3419226907575603,-0.5246767325934266,2.7803596216692497,0.6034892818077581,0.5591887063264187,-0.4389198291025436,1.2841609706566235,0.6888011789110138,0.7942833018666606,0.7373848187102544,11.7624226626358,-0.8146975854798517,0.3518094699615783,-0.9112781636299796
0.66,-2.325310685933659,-0.5087686294083362,2.7709657004903687,-0.0202558685762223,0.1689173745284677,0.0406251252918178,0.5564095257031583,0.5211245549408893,-0.3126258976591691,-2.3358877979394825,-0.5190848455301624,2.775970423378224,0.6234892821057813,0.5791887066244419,-0.4589198294005668,1.0210454445110362,0.7262313235065043,0.6158123763875201,0.3686420779057731,11.221105921212256,-0.8189702264634912,0.3531309492447741,-0.9021955406243416
0.68,-2.3145950629894645,-0.4987679703346154,2.7650414181823155,-0.0160403952365501,0.1721256093434175,0.0412057183951202,0.5709595414489879,0.5310557855939695,-0.3113417023118118,-2.3238180123033274,-0.507901071403634,2.7671920267961734,0.6634892827018277,0.6191887072204884,-0.4989198299966133,0.8831498431448983,0.7275007872914796,0.4965615326540107,0.0642097673678676,10.751891148007417,-0.8204522615998827,0.3534723709170775,-0.8973100641707973
0.7000000000000001,-2.303009467760439,-0.4880489187524132,2.7587844742561773,-0.0123570956780362,0.1757953987480484,0.0417746658539157,0.5869192005671755,0.5404272956835516,-0.3146309418665911,-2.3117482266671723,-0.4967172972771057,2.7584136302141227,0.7034892832978742,0.6591887078165348,-0.5389198305926597,0.93988698439841,0.7979829559093821,0.4685755044791073,-0.1644619777389666,10.395484167725044,-0.8198535759254991,0.3534009244357929,-0.895531803947004
0.72,-2.2910976073393123,-0.4771487349326717,2.752418996808855,-0.0094861117331611,0.1793617520686201,0.0423018805659798,0.6035222361651356,0.5492331366653785,-0.3219127001097772,-2.297678441001215,-0.4835335231207749,2.7476352336022694,0.7434892838939207,0.6991887084125813,-0.5789198311887062,1.00775447105999,0.8301517798980029,0.4402920490913453,-0.3640879121593054,10.12177014027202,-0.818111738829826,0.3531448374239651,-0.8957319831673715
0.74,-2.278845620765148,-0.4660768870376667,2.7458847526999595,-0.0073783097946643,0.1825164910365776,0.0427903903165084,0.6208661593545406,0.5576863418348009,-0.3311382213631936,-2.2836086553352573,-0.4703497489644442,2.736856836990416,0.7834892844899671,0.7391887090086278,-0.6189198317847526,1.0693205689052838,0.8671961594702515,0.4226602584711192,-0.4612760626708179,9.90817071647416,-0.8154726595221264,0.3526408277256132,-0.8974950559685495
0.76,-2.2668744080819008,-0.4553955219675695,2.739493382724812,-0.0057312451568335,0.1848101216860694,0.0432419743337861,0.6383368457828751,0.5662129458385302,-0.3411702416816226,-2.2685388696543987,-0.4561659747932124,2.725078440363662,0.8234892850860135,0.7791887096046741,-0.658919832380799,1.0938113317466778,0.8735343214167246,0.4263302001864644,-0.5016010159214518,9.823948068005848,-0.8137735304422122,0.3523266007548611,-0.8984894608140308
0.78,-2.25391073256717,-0.4439774868956165,2.732545920875552,-0.0040968461193683,0.1862067639749351,0.0437212696286644,0.6570447495076195,0.5750906756966345,-0.3531032124845238,-2.2524690839586388,-0.4409822006070794,2.7123000437220064,0.86348928568206,0.8191887102007206,-0.6989198329768455,1.1949848758359602,0.93539518623722,0.4438864929052155,-0.5966485401450589,9.758524000411851,-0.8127638808191726,0.3521058233522416,-0.8987996935969935
0.8,-2.2405710269224386,-0.4323830214263776,2.725343482526557,-0.0024593921561281,0.1864189902684052,0.0442082325246391,0.6758656325526253,0.583825872393494,-0.3665246647260594,-2.221058495091789,-0.4152229531107848,2.714890760251325,0.7570447509977356,0.6566424137799971,-0.4531032139746399,1.2355815232092493,0.941044152250292,0.4367598348429757,-0.6710726120767813,9.682456077241111,-0.8125563558795822,0.3517115648420593,-0.8986398129010161
0.8200000000000001,-2.2274747150146954,-0.4211281475401382,2.7185528665322294,0.0016703587299743,0.1848316403853156,0.0448501776029348,0.7021479374768111,0.5990674628897573,-0.3457810564217004,-2.221058495091789,-0.4152229531107848,2.714890760251325,0.7570447509977356,0.6566424137799971,-0.4531032139746399,1.839404060061532,1.3141152462092909,0.762079524813164,1.0371804152179531,9.60655884096559,-0.805849539939944,0.3440965545303646,-0.9110159830741058
0.84,-2.213151036488598,-0.4090467961388586,2.7118426876619623,0.0085607124130671,0.1804463025229934,0.0456684840098273,0.7284970437387859,0.6078262166309232,-0.3268456608199241,-2.221058495091789,-0.4152229531107848,2.714890760251325,0.7570447509977356,0.6566424137799971,-0.4531032139746399,1.6804317707801997,1.3174553130987363,0.4379376870582929,0.9467697800888132,11.991935999854832,-0.8189870776495488,0.3468634380892942,-0.891497229942988
0.86,-2.1983405959628017,-0.3968372840680084,2.7054227459887628,0.0154032185262256,0.1737896736333574,0.0464099072780431,0.7507121574378143,0.6126303849580113,-0.3163877158465085,-2.213488047581812,-0.4086565289729849,2.710359728111579,0.7770447512957588,0.6729527613966696,-0.4731032142726631,1.2509595547446215,1.11075568495142,0.2402084163544038,0.5228972486707811,11.438034503556082,-0.8322747002069317,0.3484036886356108,-0.8733469577873822
0.88,-2.1831387605664374,-0.3845582333744557,2.6991246925551664,0.0212615467258752,0.1659414737013578,0.0470028375780726,0.7680418746540575,0.6152200690821886,-0.3138391193684444,-2.198347152561857,-0.3955236806973849,2.7012976638320865,0.8170447518918053,0.7055734566300147,-0.5131032148687096,0.8853260792865716,0.8664858608121606,0.1294842062088685,0.1274298239032023,10.871202644858386,-0.8441870019919033,0.3492329231964683,-0.8579701378955904
0.9,-2.1684182603466104,-0.3728579152447759,2.6931284779475475,0.0256995024083834,0.15832772191024,0.0474333491410421,0.7804429880714051,0.6164957564208686,-0.3174192917305375,-2.1832062575419022,-0.3823908324217849,2.692235599552593,0.8570447524878517,0.7381941518633597,-0.553103215464756,0.6485226023784427,0.620055670867381,0.0637843669339999,-0.1790086181046563,10.400665063357335,-0.8543298317410833,0.3490857265918066,-0.8457206119366081
0.92,-2.1527058950757585,-0.3605222261622018,2.6866920870250937,0.0292096219071776,0.1509374232040281,0.0477813152389919,0.7899535372637284,0.6171848710194047,-0.3262443933743468,-2.1660653624921453,-0.3676269493845178,2.6811735352432984,0.8970447530838982,0.7708148470967047,-0.5931032160608025,0.6496303639245211,0.4755274596161651,0.0344557299268022,-0.4412550821904643,10.01963885690293,-0.8619285284911926,0.348348911324368,-0.837114941871499
0.94,-2.1368335199427566,-0.348177220298032,2.680044694401998,0.0316330462067013,0.144810010977971,0.0480635853777251,0.7966576855503718,0.617462930904299,-0.338149803187614,-2.1489244674423884,-0.3528630663472505,2.6701114709340037,0.9370447536799448,0.8034355423300498,-0.633103216656849,0.6833039301268656,0.335207414332167,0.0139029942447188,-0.5952704906633577,9.712715545759238,-0.8662766129311911,0.347082039074379,-0.832846636654933
0.96,-2.1208486151860613,-0.3358236166184332,2.6731331886167484,0.0332748724857476,0.1404196898746401,0.0483314896294446,0.8014448591751079,0.6179643842503783,-0.3523916219791422,-2.13078357237773,-0.3372836659291497,2.6580494066098077,0.977044754275991,0.8360562375633948,-0.6731032172528953,0.7516613088060154,0.2393586812368064,0.0250726673039602,-0.7120909395764097,9.551902967452406,-0.8685085405375642,0.3453846240336001,-0.8315504214116818
0.98,-2.10558835215206,-0.3240795797809586,2.666285761107973,0.0343197995444484,0.1381363392752251,0.0486059151103193,0.8046469696111554,0.6182548312241388,-0.3676818234758757,-2.1116426772981707,-0.3208887481302153,2.644987342270709,1.0170447548720374,0.8686769327967397,-0.7131032178489418,0.7812300117441765,0.1601055218023783,0.0145223486880285,-0.7645100748366745,9.432878502789208,-0.8681977284959054,0.3433562876723811,-0.8335273202616659
1.0,-2.08946206296325,-0.31171409530056,2.6587471828703237,0.0348473823652126,0.137811206005377,0.0489232114242598,0.8080522368778985,0.6183083941669403,-0.3854662320307618,-2.065356003671502,-0.2931668382197516,2.6479016699341797,0.9046469711012716,0.6835105551177812,-0.4676818249659918,0.9053782383538655,0.170263363337153,0.0026781471400727,-0.8892204277443055,9.336321121159926,-0.8656934370473665,0.3407839137606811,-0.838793668205643
1.02,-2.0732017183914886,-0.2992672559523943,2.651207076905719,0.0377265976761968,0.1388534576458746,0.0494495645901266,0.8182797043879853,0.625063647937037,-0.3657866355872508,-2.065356003671502,-0.2931668382197516,2.6479016699341797,0.9046469711012716,0.6835105551177812,-0.4676818249659918,1.1592250227498295,0.511373375504337,0.3377626885048335,0.9839798221755514,11.679230792734415,-0.8518346863870979,0.3300277825545979,-0.8627493372308802
1.04,-2.056728048917107,-0.2867552010038006,2.6440603979658057,0.0432171523542362,0.1407272808964473,0.050186358563474,0.8287204031660105,0.6254103400070795,-0.3500864463231806,-2.065356003671502,-0.2931668382197516,2.6479016699341797,0.9046469711012716,0.6835105551177812,-0.4676818249659918,0.942900219127815,0.5220349389012613,0.0173346035021282,0.7850094632035093,11.679230792734415,-0.8570273233856887,0.3318912352467114,-0.8528276378859033
1.06,-2.040883693785665,-0.2749010310403673,2.637483323019168,0.0483321043533779,0.1430185912362359,0.0509017483408806,0.8386808148862583,0.6225116299322039,-0.3430049438183345,-2.0563095339604893,-0.2863317326685738,2.64322485168452,0.9246469713992947,0.6965616998965097,-0.487681825264015,0.6280127376518283,0.4980205860123932,-0.1449355037437816,0.3540751252423035,10.640108100297766,-0.8596076103004641,0.3318734629966945,-0.8477520955324735
1.08,-2.0240001772274034,-0.2624986710207398,2.630640865366765,0.0527325147397527,0.1456437989288264,0.0515983422496143,0.8491922260263661,0.6180649200215997,-0.3418869814498272,-2.038216594538464,-0.2726615215662182,2.6338712151851995,0.9646469719953412,0.7226639894539667,-0.5276818258600614,0.5733952237393628,0.5255705570053892,-0.222335495530207,0.0558981184253654,10.640108100297766,-0.8599379843445959,0.3310787357262882,-0.8462877038677117
1.1,-2.006905717242729,-0.2501929410769881,2.6237577536074106,0.0558644018085296,0.1482607003514499,0.0522066468786238,0.8597836658846066,0.6130619385466037,-0.3464485916244453,-2.0201236551164388,-0.2589913104638626,2.62451757868588,1.0046469725913876,0.7487662790114237,-0.5676818264561079,0.6285234866237266,0.5295719929120257,-0.2501490737498002,-0.2280805087309045,9.973129570454148,-0.8588741789453699,0.3301022353390957,-0.8470755308466785
1.12,-1.9895980756624787,-0.2379888235050916,2.616738917703106,0.057797211130752,0.1507039265627985,0.0527200242584548,0.8704864868136238,0.6078851573181596,-0.3551954749868315,-2.000030715664611,-0.2440159848836341,2.6131639421567576,1.044646973187434,0.7748685685688806,-0.6076818270521543,0.7379996752725737,0.5351410464508599,-0.2588390614222058,-0.4373441681193135,9.973129570454148,-0.8563477612991004,0.3287591611627422,-0.8501179493332833
1.14,-1.9729540266387868,-0.2264942598739214,2.6098911444710904,0.0584803420700589,0.1527844210371537,0.0531099553622842,0.8810039400689561,0.6025164517410184,-0.3651792573617282,-1.9799377762127832,-0.2290406593034056,2.601810305627636,1.0846469737834803,0.8009708581263376,-0.6476818276482008,0.7731683727711295,0.5258726627666133,-0.2684352788570598,-0.4991891187448305,9.752747177039057,-0.8523084648478667,0.3271196756121546,-0.855428148324113
1.16,-1.9552106599950048,-0.2145023682449272,2.602464593076731,0.0579143856383249,0.1545409484346858,0.0534003017139692,0.8927762457571368,0.5970564134879079,-0.377009197309427,-1.9588448367460545,-0.2134127764842407,2.5894566690836123,1.1246469743795269,0.8270731476837946,-0.6876818282442472,0.8779901453142315,0.5886152844090331,-0.2730019126555238,-0.5914969973849438,9.60737399223308,-0.8485481437497028,0.3262865201834155,-0.860284435324583
1.18,-1.937225598865454,-0.2026171542408447,2.594787488752113,0.0560185297975704,0.155565852950007,0.0535503022415428,0.9050546167151104,0.5918873298367259,-0.390100908390356,-1.936751897264424,-0.1971323364261394,2.576103032524688,1.1646469749755732,0.8531754372412516,-0.7276818288402936,0.933904061187558,0.6139185478986786,-0.2584541825591036,-0.6545855540464496,9.549561228578568,-0.8454253380169144,0.3264939360706133,-0.8641116369809548
1.2,-1.9189940727152444,-0.1908227908905667,2.586836850959694,0.0530221416562797,0.1557247924189413,0.0535723273353489,0.917356205352678,0.5881868215517613,-0.4042862997526036,-1.8919728680296983,-0.1730227877490084,2.575282443332596,1.0050546182052265,0.636474461426377,-0.4901009098804721,0.9568805733673814,0.6150794318783848,-0.1850254142482299,-0.7092695681123806,9.549561228578568,-0.843420304589454,0.3275387487061481,-0.8665184897358198
1.22,-1.9013838939299128,-0.1795683818160777,2.579332400669175,0.0535820669148896,0.1544717939197909,0.0537538282897794,0.9360643321979594,0.5955634320859986,-0.3831704644183472,-1.8919728680296983,-0.1730227877490084,2.575282443332596,1.0050546182052265,0.636474461426377,-0.4901009098804721,1.4579839633003422,0.9354063422640668,0.3688305267118663,1.0557917667128214,9.490755603013897,-0.8345110558160498,0.3201652790105345,-0.8822832565320523
1.24,-1.8824649759251448,-0.1676341029674286,2.5718734243668946,0.0595434870390616,0.1509808098333151,0.054177281315766,0.9546125789478538,0.5962344917043368,-0.3644493982203911,-1.8919728680296983,-0.1730227877490084,2.575282443332596,1.0050546182052265,0.636474461426377,-0.4901009098804721,1.3181104829400585,0.9274123374947209,0.0335529809169121,0.936053309897808,11.894741924893424,-0.8444275547224707,0.3229265163974387,-0.8666871589834431
1.26,-1.8632023044543704,-0.1557628554730526,2.564683212063342,0.0666018507855081,0.1455530405459521,0.05450891358439,0.970412026148593,0.5907453909127188,-0.3554285912624513,-1.8819223218476464,-0.1666580431347446,2.570381434233791,1.0250546185032496,0.6453918877443072,-0.5101009101784953,0.9501680345100844,0.7899723600369613,-0.2744550395809009,0.4510403478969887,11.320857144529327,-0.8548703915094014,0.3232827914861366,-0.8526135473043223
1.28,-1.8446480869840485,-0.1446186672467123,2.5579439778005053,0.0725427101091235,0.1392436775325168,0.0546351953574236,0.9816119832307292,0.5828176164327038,-0.3543529550143496,-1.8618212294835417,-0.1539285539062171,2.560579416036181,1.0650546190992962,0.6632267403801676,-0.5501009107745418,0.6881962659479807,0.5599978541068029,-0.3963887240007513,0.0537818124050848,10.748189297136378,-0.8629853138491309,0.3218362500238457,-0.8430826359035744
1.3,-1.8249269872684808,-0.1330638268159465,2.550808812609881,0.077467271261335,0.1323827381862032,0.0546026124291799,0.9896539284066956,0.5733021015667086,-0.3594669461975423,-1.8417201371194367,-0.1411990646776895,2.550777397838572,1.1050546196953426,0.6810615930160281,-0.5901009113705883,0.6733699042873853,0.4020972587983284,-0.4757757432997611,-0.2556995591596361,10.28378417174372,-0.869351236910811,0.3192592247273427,-0.8367599056974128
1.32,-1.8050793525268296,-0.1217058124928455,2.543512101538516,0.0809588446346142,0.12607898042942,0.0544685825341219,0.994544216635583,0.5632376775154422,-0.370140634528484,-1.8196190447255305,-0.127577832817369,2.53897537961116,1.145054620291389,0.6988964456518886,-0.6301009119666348,0.7731998012017748,0.2445144114443687,-0.5032212025633198,-0.5336844165470866,9.912829138774214,-0.8740397252392,0.3165417096177357,-0.8328788073021494
1.34,-1.7851628859361737,-0.110553090329885,2.5359654860166243,0.0830751003599248,0.1210032341420333,0.054309115117074,0.9967667807632624,0.5528873428798483,-0.3839351006406854,-1.7975179523316234,-0.1139566009570484,2.5271733613837486,1.1850546208874355,0.716731298287749,-0.6701009125626812,0.8694200850151392,0.1111282063839647,-0.5175167317796936,-0.6897233056100682,9.467276495426631,-0.8761536931151743,0.3138159038675958,-0.8322365606556383
1.36,-1.7662172309343354,-0.1001495630164057,2.5285220288472305,0.0839851887703511,0.1178140910634202,0.0542014506911923,0.9973568136475448,0.5428982461310471,-0.3988866984382052,-1.7744168599228154,-0.0998894977808313,2.5143713431414354,1.225054621483482,0.7345661509236094,-0.7101009131587276,0.899556097973113,0.0295016442141304,-0.4994548374400609,-0.7475798898759906,9.467276495426631,-0.8760307257536007,0.3107191942596977,-0.8347903126757839
1.38,-1.746273517692599,-0.0894058065276771,2.52036336589143,0.0836980929751749,0.1164906739231387,0.0541644011502504,0.997075289770214,0.5321197246130884,-0.4162691546942541,-1.750315767499106,-0.0853765232887177,2.5005693248842213,1.2650546220795282,0.7524010035594698,-0.7501009137547741,1.0227482184047776,-0.0140761938665467,-0.5389260758979331,-0.8691228128024447,9.369901464454417,-0.8736418460898706,0.3077781886028347,-0.8402333815478835
1.4,-1.7263273375877326,-0.0788790983069432,2.511843689589727,0.0819152975984059,0.116989455788126,0.0541713435002773,0.9977343599610168,0.5212461272947391,-0.4348763764136077,-1.6964197532040883,-0.0627998202970226,2.4995499081567174,1.09707529126033,0.5552261413004578,-0.5162691561843702,1.0780748956719135,0.0329535095401456,-0.543679865917468,-0.9303610859676792,9.284176930749709,-0.8692066202435067,0.3052297227087953,-0.8482033599632707
1.42,-1.706306600120559,-0.0684763728455631,2.5033084876504708,0.0822876449723466,0.118314294656281,0.0543910453197985,1.004672957039796,0.518652549696704,-0.4159107704922897,-1.6964197532040883,-0.0627998202970226,2.4995499081567174,1.09707529126033,0.5552261413004578,-0.5162691561843702,1.0180434447279292,0.3469298539389598,-0.1296788799017512,0.948280296065898,11.6217039012472,-0.85712671007613,0.2948826470022527,-0.8705362249000643
1.44,-1.6871527245752154,-0.0586775729671982,2.495554619935364,0.0865993084922327,0.1198167934272506,0.0548887265047508,1.011273401317572,0.5120232487858769,-0.4015090493637075,-1.6964197532040883,-0.0627998202970226,2.4995499081567174,1.09707529126033,0.5552261413004578,-0.5162691561843702,0.8586662138103603,0.330022213888792,-0.331465045541357,0.720086056429109,11.6217039012472,-0.86069063517393,0.2968960896923762,-0.8625931196000132
1.46,-1.6668561254285894,-0.0485594231895679,2.487609192837094,0.0919845114551346,0.1216373389290763,0.0554857386174843,1.018076880785315,0.5001126721977777,-0.3941308499523452,-1.685449000291485,-0.0572475588840181,2.4943872165948737,1.1170752915583533,0.5598474246379317,-0.5362691564823934,0.7787602231797807,0.3401739733871589,-0.5955288294049621,0.3689099705681181,11.101018187879165,-0.8619809947374437,0.2958549455612195,-0.8596342800268584
1.48,-1.6464243180194005,-0.0387045397740642,2.4797388297524146,0.0965474055762705,0.1235691174213509,0.0560293064108284,1.024789589373616,0.4861815355979306,-0.3935194072746812,-1.6635074944662784,-0.0461430360580089,2.4840618334711864,1.1570752921544,0.5690899913128794,-0.5762691570784398,0.7738069618824794,0.3356354294150487,-0.6965568299923536,0.0305721338831999,10.63555372236806,-0.8612312354113024,0.2934337290211362,-0.8605014573229284
1.5,-1.6258592188265832,-0.0291375054925667,2.471818833529845,0.0997344341514987,0.1254924108260686,0.0564689903300986,1.0314262119027495,0.471608586229904,-0.3984611111878737,-1.6415659886410718,-0.0350385132319997,2.473736450347499,1.1970752927504462,0.5783325579878271,-0.6162691576744863,0.8379081832798473,0.3318311264566831,-0.7286474684013305,-0.2470851956596242,10.267203621946464,-0.8590184973900835,0.2906051954168723,-0.8639136732972228
1.52,-1.6061993368926102,-0.020320334981915,2.464164565573612,0.1014612642409063,0.1272481250005627,0.0567811173897746,1.0377325517219305,0.4575524297061072,-0.4069801576961241,-1.6176244827860629,-0.0234718620722432,2.461411067194009,1.2370752933464926,0.5875751246627748,-0.6562691582705328,0.8802266917479152,0.3153169909590358,-0.7028078261898357,-0.4259523254125236,9.987914170507793,-0.8554760852559937,0.2874786587705978,-0.869427628097691
1.54,-1.585373426583219,-0.0113291839152138,2.4559142123658577,0.1018404885329455,0.1290106149796189,0.0569914297127639,1.0445611137851418,0.4424514842002065,-0.4176698233395555,-1.593682976931054,-0.0119052109124866,2.4490856840405195,1.2770752939425392,0.5968176913377226,-0.6962691588665793,0.9860739913815664,0.3414281031605681,-0.7550472752950371,-0.5344832821715662,9.77894038953218,-0.850710936509584,0.2843377629473068,-0.8767961789226005
1.56,-1.5644020507468028,-0.0026435162980334,2.4474368642408084,0.1004601997154967,0.1305110051100783,0.0570421568091655,1.052241270199478,0.4270517491512695,-0.4295657579538182,-1.5687414710611438,-0.0001074955858564,2.4357603008721287,1.3170752945385855,0.6060602580126704,-0.7362691594626256,1.0460041855472453,0.384007820716814,-0.7699867524468496,-0.5947967307131347,9.69990061908902,-0.8456429797405919,0.2818387159687784,-0.8847453873310085
1.58,-1.5432704131210886,0.0057376989544639,2.438709523821282,0.0971186847597945,0.1314256809173958,0.056888076687579,1.0604444146668663,0.4124878054254746,-0.442516701567162,-1.5427999651763329,0.0119212839076474,2.421434917688837,1.357075295134632,0.6153028246876181,-0.7762691600586721,1.0572688594640614,0.4101572233694117,-0.7281971862897446,-0.6475471806671934,9.650478669628685,-0.841628351196084,0.2810710136931434,-0.8909933435600612
1.6,-1.523042601016672,0.0134566582018364,2.4301707615339803,0.0929619408535472,0.1316153481280322,0.0566022256361288,1.06829210949203,0.4010499850751552,-0.4556314574486195,-1.4902481923877453,0.0263620892257376,2.416583688742924,1.1604444161569825,0.4162962230158096,-0.5425167030572782,0.9544721974281164,0.3923847412581782,-0.5718910175159686,-0.6557377940728748,9.600430001638417,-0.8384782800559689,0.2816150725776835,-0.8958369103686918
1.62,-1.5015289398262084,0.0214509031790203,2.421259980429966,0.0920030534088696,0.1304412165063318,0.0564087192587818,1.0829236678750922,0.3976263642310035,-0.4330666261367107,-1.4902481923877453,0.0263620892257376,2.416583688742924,1.1604444161569825,0.4162962230158096,-0.5425167030572782,1.355521387267988,0.7315779191531147,-0.1711810422075882,1.128241565595442,9.54813985313831,-0.8344497905337931,0.2750863705500654,-0.9070217931235046
1.64,-1.4797264416292033,0.0293270851741546,2.412800096242352,0.0959812962210751,0.1272559141344009,0.056354065013885,1.0963867727372982,0.3892523755183159,-0.4146954261268292,-1.4902481923877453,0.0263620892257376,2.416583688742924,1.1604444161569825,0.4162962230158096,-0.5425167030572782,1.21334235615308,0.6731552431103016,-0.4186994356343787,0.918560000494073,11.900174198378409,-0.8423442958962644,0.2785305650008999,-0.8937927555869164
1.66,-1.458786056250449,0.0365957335662608,2.405007977488016,0.1009818854128502,0.122629014786459,0.0561957309546102,1.107026425557393,0.3762346584731035,-0.4063827986328449,-1.4786437482261754,0.0305250514558957,2.4111585217123515,1.1804444164550056,0.4170579065338766,-0.5625167033553014,0.9377672219894292,0.5319826410047357,-0.6508858522606215,0.4156313746992185,10.77509770144752,-0.8501234014859808,0.2786398294190986,-0.8831625964548567
1.68,-1.436557896362241,0.0439532931421328,2.396903703242965,0.1055918336205519,0.1165891738771568,0.0558177175371972,1.1148690076966297,0.3603630206749898,-0.4047536991762757,-1.4554348599030358,0.0388509759162119,2.4003081876512056,1.2204444170510522,0.4185812735700107,-0.6025167039513478,0.8889163993939188,0.392129106961836,-0.793581889905684,0.0814549728284569,10.77509770144752,-0.856964431409859,0.277238929979484,-0.8752092096347334
1.7,-1.4142107549281189,0.050982955209275,2.388763575856749,0.1089471485895272,0.1103040538088125,0.0552828622134585,1.1192253736358273,0.3436617228349948,-0.4095596423217312,-1.4322259715798962,0.0471769003765281,2.38945785359006,1.2604444176470986,0.4201046406061446,-0.6425167045473943,0.8958353130650915,0.2178182969598818,-0.8350648919997483,-0.240297157272773,10.347406157021396,-0.8620268858505541,0.2744148051862985,-0.8710175909922044
1.72,-1.3918097058142709,0.0576751342413615,2.3804658696687264,0.1108850560340927,0.1045729316117347,0.0546787695570186,1.1205628546299835,0.3267541355906851,-0.4199076827002805,-1.4070170832269542,0.055578993188651,2.376607519499112,1.300444418243145,0.4216280076422786,-0.6825167051434408,0.9933998458699298,0.0668740497078212,-0.8453793622154843,-0.5174020189274653,9.990346131334263,-0.865031033273563,0.2711946146374343,-0.8700100375076295
1.74,-1.3705276760610452,0.0637159895644898,2.372364936627993,0.1113703762673989,0.1002885245416762,0.0541229521410756,1.1195085702803609,0.310202374422121,-0.4322805472281059,-1.3818081948740122,0.0639810860007739,2.3637571854081645,1.3404444188391915,0.4231513746784127,-0.7225167057394872,1.034601481120832,-0.0527142174811423,-0.827588058428208,-0.6186432263912689,9.709061426865446,-0.8654773469143673,0.2672385870439759,-0.8729317545759812
1.76,-1.3481628337260343,0.0697317962835103,2.363564364431011,0.1101680854568791,0.0975779096716654,0.0536130278966855,1.1169511323921824,0.2924278919998286,-0.4471998759403343,-1.355599306506169,0.0724212629888001,2.349906851302316,1.380444419435238,0.4246747417145466,-0.7625167063355336,1.1673250223864355,-0.1278718944089263,-0.8887241211146202,-0.7459664356114226,9.582231763178244,-0.8635030451918595,0.263454904050884,-0.8791587939482122
1.78,-1.3258562321317449,0.0753927162561578,2.35444983525688,0.1069327224314305,0.0969640707222765,0.0531926706894645,1.1140454439694478,0.2751068120811077,-0.4635182748363246,-1.3283904181234247,0.0808995241527297,2.3350565171815654,1.4204444200312842,0.4261981087506807,-0.8025167069315801,1.1987003141834318,-0.1452844211367265,-0.8660539959360419,-0.8159199447995119,9.489852418359078,-0.8594399242954102,0.2599449757488397,-0.8885859026669448
1.8,-1.3035963834171669,0.0807343334540126,2.345000284839078,0.1023748160344327,0.0979287836668591,0.0528485672231209,1.11224791664788,0.2603466308656397,-0.4805987129192282,-1.2701539599332723,0.0891480568602132,2.331273921515064,1.214045445459564,0.2690881981503161,-0.5635182763264407,1.1322934901000086,-0.0898763660783896,-0.7380090607734008,-0.854021904145183,9.42094966363129,-0.854198995938768,0.2577444753762999,-0.8985646290372414
1.82,-1.2824254418333532,0.0855896593794782,2.336063417043927,0.0998928108526496,0.0993098593691565,0.0526939341198376,1.1164117819009691,0.2502827612609786,-0.4593837427676442,-1.2701539599332723,0.0891480568602132,2.331273921515064,1.214045445459564,0.2690881981503161,-0.5635182763264407,1.1923655100241974,0.2081932626544658,-0.5031934802330579,1.0607485075791985,11.780583087866944,-0.8471680053469994,0.2502440211971466,-0.9151732107088922
1.84,-1.2600557156600671,0.090459654179447,2.3270592253492755,0.0996857213586801,0.1007461997270988,0.0526902147796843,1.1203363629068,0.2371565879402706,-0.4426437979551315,-1.2701539599332723,0.0891480568602132,2.331273921515064,1.214045445459564,0.2690881981503161,-0.5635182763264407,1.0815781460932044,0.1962290502915298,-0.6563086660353975,0.8369972406256393,11.780583087866944,-0.8501408804274558,0.255000899759295,-0.9073487734962674
1.86,-1.2376121628704158,0.095051422889992,2.318306633876737,0.1003686558126,0.1022793918540473,0.052751527470952,1.123844644360242,0.2227310879346962,-0.4337534056054288,-1.258013505478677,0.0918389388417163,2.3256387387517994,1.2340454457575871,0.2678844753641578,-0.5835182766244639,0.8652198641083154,0.1754140726721087,-0.721275000278719,0.444519617485134,11.249095299268449,-0.8511828002728311,0.2568369910848521,-0.9038946197177464
1.88,-1.2151021309418897,0.0993458570948245,2.3096568783249376,0.100931244186879,0.1038899674846997,0.0528058287395691,1.1270422307535184,0.2075979638426852,-0.4316229606907089,-1.2337325965694856,0.0972207028047227,2.3143683732252702,1.2740454463536337,0.2654770297918412,-0.6235182772205103,0.7806644590688844,0.1598793196638137,-0.7566562046005504,0.106522245735996,10.785493137120284,-0.8503068122873603,0.2567003053226062,-0.904430852148544
1.9,-1.1936596992368806,0.1031405825221527,2.3014304129444327,0.1007867456809656,0.1054836851868624,0.0528106342607981,1.1299459426293552,0.1927922479494144,-0.4344078546310823,-1.2094516876602943,0.102602466767729,2.303098007698741,1.31404544694968,0.2630695842195245,-0.6635182778165568,0.7671316706231985,0.1451855937918411,-0.7402857946635394,-0.1392446970186728,10.150629941606894,-0.8477280191848071,0.2552881467120998,-0.9083323707224182
1.92,-1.1710300064950248,0.1068313742363433,2.292673750227692,0.0995237697633891,0.1072465315002598,0.0527404676604085,1.1329099795118345,0.1772273691758694,-0.4412809428961031,-1.1831707787213006,0.1078638584521195,2.28982764214241,1.3540454475457264,0.2606621386472079,-0.7035182784126033,0.8635541502630526,0.1482018441239629,-0.7782439386772533,-0.3436544132510377,10.150629941606894,-0.8439447862133388,0.2536033502920425,-0.9143714535001564
1.94,-1.1483384921227455,0.1102131931986869,2.283757808872091,0.0968774340730195,0.1091001142523288,0.052575938338883,1.1361353940702583,0.1621433206791837,-0.4499941677552355,-1.1568898697823071,0.11312525013651,2.2765572765860798,1.394045448141773,0.2582546930748912,-0.7435182790086498,0.8857935786201275,0.1612707279211922,-0.754202424834284,-0.4356612429566198,9.932551838210202,-0.8395928297265708,0.2521157122366855,-0.9216925768267038
1.96,-1.1255739876441662,0.1133122465584783,2.274654630447837,0.0932800024738488,0.1108217962267948,0.0523254326570118,1.140148251345415,0.1488568344124205,-0.4598656899699199,-1.1296089608284123,0.1183264556815925,2.262286911014847,1.4340454487378194,0.2558472475025746,-0.7835182796046961,0.8515877694968853,0.2006428637578383,-0.6643243133381577,-0.4935761107342201,9.851948840787372,-0.8355902711357517,0.2516497449320503,-0.9281339390554864
1.98,-1.1038681679119038,0.1160249104399743,2.265812527905952,0.0894872840212235,0.1120621911155747,0.0520192082696082,1.1444376302769987,0.1375572644154354,-0.470382088324866,-1.1013280518596162,0.1234674750873672,2.2470165454287137,1.4740454493338655,0.2534398019302579,-0.8235182802007426,0.8010519460300196,0.2144689465791827,-0.5649784998492543,-0.5258199177473055,9.793044347665273,-0.8316040160687903,0.2516826880138904,-0.9344341510914628
2.0,-1.0809306756308936,0.118661847930395,2.25627491694263,0.0853634593814979,0.1128338943660726,0.0516368875294226,1.1490481391880196,0.1268862305835339,-0.482893530998219,-1.046646286398054,0.1229027736607461,2.242293423489708,1.2444376317671149,0.1269143214429542,-0.5703820898149821,0.8539085917543937,0.2305254455510441,-0.5335516915950758,-0.6255721336676512,9.72907631983344,-0.8279699996700767,0.2519283774203287,-0.9403237224165488
2.02,-1.057837125038739,0.1211254311528069,2.2468363883743656,0.0831117146363586,0.1122760913307237,0.0512709405226073,1.1602720213000772,0.1191739419639917,-0.4585209880733435,-1.046646286398054,0.1229027736607461,2.242293423489708,1.2444376317671149,0.1269143214429542,-0.5703820898149821,1.3959546679973025,0.5611941056028802,-0.385614430977111,1.2186271462437726,9.649041667313211,-0.826580424777044,0.2457702027331866,-0.9504148508061572
2.04,-1.0345251729314178,0.123411153340731,2.2378792989087173,0.0832464809886361,0.1096944572419102,0.0508989097995803,1.170159522582331,0.1095926392651944,-0.4385931876500139,-1.046646286398054,0.1229027736607461,2.242293423489708,1.2444376317671149,0.1269143214429542,-0.5703820898149821,1.2110752172394232,0.4943750641126843,-0.4790651349398662,0.9963900211664822,12.09157725489422,-0.8349747793441028,0.2527912914822616,-0.9347321055269074
2.06,-1.0122182088403495,0.1253920647059528,2.229656119580536,0.0843264555694775,0.1057518060412692,0.050479320676306,1.177296285749284,0.0994244909423357,-0.4279527129442598,-1.0342019100803828,0.1241719168751756,2.236589602591558,1.264437632065138,0.1247857328484579,-0.5903820901130052,0.8178391204580311,0.3568381583476609,-0.5084074161429343,0.5320237352877039,10.950773616783408,-0.8429840911760516,0.2569103846008843,-0.9217985553150364
2.08,-0.9886185192835242,0.1272616759166657,2.221146958744069,0.0857457348517329,0.1005024930774648,0.0499518371931766,1.1820218412924417,0.088102585642108,-0.423817704094637,-1.0093131574450405,0.1267102033040347,2.2251819607952585,1.3044376326611846,0.1205285556594654,-0.6303820907090517,0.6473305048529091,0.2362777771578672,-0.5660952650113855,0.2067504424811433,10.950773616783408,-0.8496366783252064,0.2582865158716322,-0.9128706660557868
2.1,-0.9649587815901274,0.128897256788276,2.2126505743396754,0.086926662812701,0.094906544625092,0.0493646041922156,1.183501261106357,0.0760865231357672,-0.4262747763545637,-0.9844244048096982,0.1292484897328938,2.2137743189989587,1.344437633257231,0.1162713784704729,-0.6703820913050982,0.6176804295762384,0.0739709906957708,-0.6008031253170371,-0.1228536129963348,10.14072081435279,-0.8545747756743478,0.257568548964821,-0.907986939611129
2.12,-0.9413027444953862,0.130285498678713,2.2040402689390053,0.0873495796820946,0.0898596863246449,0.0487634240631604,1.1819155094764662,0.0634917756267353,-0.4345936776402025,-0.9575356521445536,0.1315739173023032,2.2003666771728567,1.3844376338532771,0.1120142012814804,-0.7103820919011447,0.7588583392968856,-0.0792875814945359,-0.6297373754515972,-0.4159450642819418,10.14072081435279,-0.8572783399656241,0.2557915035612226,-0.906915690407064
2.14,-0.9188840659020394,0.1313664863379866,2.195677721509649,0.0867076573143934,0.0863965779132786,0.0482343519951964,1.1779619617750117,0.0510917791443698,-0.4452436173461254,-0.9306468994794088,0.1338993448717127,2.1869590353467547,1.424437634449324,0.1077570240924879,-0.7503820924971911,0.8408502659958913,-0.1976773850727253,-0.6199998241182728,-0.5324969852961436,9.843919006083524,-0.8575478164817117,0.2531435917587032,-0.9099207421336526
2.16,-0.8953817736945819,0.1322485230579657,2.186635672719653,0.084644508962793,0.0848491050392044,0.0477665030818187,1.172508757341858,0.0379275395849894,-0.4584862958907588,-0.9027581467993632,0.1361183430113973,2.172551393505752,1.4644376350453705,0.1034998469034954,-0.7903820930932375,0.9726293960227328,-0.2726602216576834,-0.6582119779690233,-0.6621339272316701,9.60190842969314,-0.8553520807551473,0.2503145197219759,-0.916622293732057
2.18,-0.8719846427607738,0.1328787385746706,2.177311378673291,0.0811973716711505,0.0853886953593097,0.0473835611833968,1.167711080688268,0.0262700459655172,-0.4732461072411105,-0.8738693941044162,0.1382309117213572,2.1571437516498477,1.5044376356414166,0.0992426697145029,-0.830382093689284,0.9705242009584408,-0.2398838326794994,-0.5828746809736057,-0.737990567517588,9.60190842969314,-0.8516578364290012,0.248226672493457,-0.925048621512755
2.2,-0.8498340289042456,0.1332814755537565,2.16817063632384,0.0774048363234767,0.0871525678582789,0.0470858857812916,1.1643226268488758,0.0169162535177942,-0.4882027998409431,-0.8135990887263604,0.1341922408729465,2.1536490733112355,1.267711082178384,-0.0014552873823993,-0.5732461087312266,0.8981616030852385,-0.1694226919696118,-0.4676896223861505,-0.7478346299916283,9.524056284755716,-0.8461977396305597,0.2462991415055456,-0.9352626898889996
2.22,-0.8265261507664408,0.1335910257003755,2.1586069595663493,0.0762040573457844,0.0891576681409521,0.0469758213753917,1.1669121561791915,0.0134426534877832,-0.4655392512929422,-0.8135990887263604,0.1341922408729465,2.1536490733112355,1.267711082178384,-0.0014552873823993,-0.5732461087312266,1.1536983922462676,0.1294764665157877,-0.17368000150055,1.133177427400042,9.472348041095756,-0.8429980801614415,0.2388043226995225,-0.9481486765931924
2.24,-0.803163416159446,0.1337985220346451,2.14950409857876,0.0791425658121764,0.090661898085646,0.0471130983252818,1.1691935606594446,0.0069759826832483,-0.4465048133717925,-0.8135990887263604,0.1341922408729465,2.1536490733112355,1.267711082178384,-0.0014552873823993,-0.5732461087312266,1.0115983203214176,0.1140702240126523,-0.3233335402267445,0.9517218960574864,11.40154678795625,-0.8460459465714154,0.2422742258129667,-0.938607799002536
2.26,-0.7797626788131408,0.1338287938664685,2.140685504165785,0.0837568702306772,0.0919935804166978,0.0473505666457706,1.170820734507093,-0.0038838844371126,-0.4362872726625214,-0.8009219779045766,0.1341776879991225,2.147916612223923,1.2877110824764073,-0.0070003540519826,-0.5932461090292498,0.7499709106825109,0.081358692382405,-0.5429933560180512,0.5108770354635583,10.906458492674574,-0.8469141909954262,0.2415282485613102,-0.935003624467162
2.28,-0.7575062792772411,0.1336298264971282,2.132432414653635,0.0878818353416874,0.0932574850854251,0.0475547018723118,1.171922088186534,-0.0163863380102504,-0.4329472118629439,-0.7755677562610089,0.1341485822514745,2.1364516900492987,1.327711083072454,-0.0180904873911492,-0.6332461096252963,0.6493849617533477,0.0550676839720654,-0.6251226786568889,0.1670030399788746,10.906458492674574,-0.8465079475225807,0.2384543445681028,-0.93534589525525
2.3000000000000003,-0.7340593147994607,0.1331548391768387,2.1237616266642614,0.0913982882546635,0.0947134703165264,0.0477195297224516,1.1727488713034162,-0.0303108652001455,-0.4345224495020671,-0.7502135346174412,0.1341194765038265,2.1249867678746743,1.3677110836685002,-0.0291806207303159,-0.6732461102213427,0.7018856769520957,0.0413391558441111,-0.6962263594947561,-0.078761881956163,10.530272940890429,-0.8446923144341458,0.2344630885208209,-0.9386632373991988
2.32,-0.7105971619467727,0.1323966951321781,2.1150126022683047,0.093939100784938,0.0963757420152384,0.0478317251133248,1.173473933770141,-0.0446194299031926,-0.4404623987438291,-0.7228593129440712,0.1335358640892202,2.111521845670248,1.4077110842645466,-0.0402707540694825,-0.7132461108173892,0.7754736237239909,0.0362531233362384,-0.7154282351523545,-0.2969974620880999,10.23909844239006,-0.841566666744069,0.2298091305513643,-0.9446266280508956
2.34,-0.6871185303066321,0.1313481002033875,2.106119584207003,0.0954486781772441,0.0982603893156375,0.0478893041901165,1.174438340313551,-0.0593163811735067,-0.4485244866609739,-0.6955050912707011,0.1329522516746139,2.0980569234658204,1.4477110848605932,-0.0513608874086492,-0.7532461114134357,0.8395351663371989,0.0482203271705006,-0.7348475635157062,-0.4031043958572372,9.923772702130918,-0.8374866814447253,0.2250526378191781,-0.9523530980001416
2.36,-0.6647869065180785,0.1300719917396937,2.0975081013483305,0.0956999367886352,0.1000689497822421,0.0478592501647944,1.1762311575773872,-0.0740678302970281,-0.4575404266281094,-0.66715086958243,0.1320913859265284,2.083592001246493,1.4877110854566395,-0.0624510207478158,-0.793246112009482,0.8690607264114828,0.0896408631918088,-0.7375724561760715,-0.4507969983567755,9.923772702130918,-0.8328907531530576,0.2206159003196121,-0.961026982347372
2.38,-0.6412368174855592,0.1284228442635774,2.088243212718098,0.0943384708213124,0.1017255767374163,0.0476856178931616,1.1786961449105484,-0.0898998839904319,-0.4685386465058904,-0.6377966478792577,0.1309532668449638,2.0681270790122634,1.527711086052686,-0.0735411540869824,-0.8332461126055285,0.9717135987309768,0.1232493666580625,-0.7916026846701868,-0.5499109938890523,9.860682186608756,-0.8283544928953362,0.2174575190584283,-0.9695247393865036
2.4,-0.6176328046459004,0.1264594830898001,2.0787430219668512,0.0910641016150671,0.1029702158029722,0.0473351259457456,1.181551288018934,-0.1050831462851562,-0.480945285563411,-0.5823020102400317,0.1239278500640558,2.064816280392804,1.273447651954387,-0.1122448401649247,-0.5685386479960066,0.9907168979877063,0.1427571554192819,-0.7591631147362159,-0.620331952876027,9.78645229290214,-0.8252330095634395,0.2165269182742392,-0.9757129280346516
2.42,-0.5938928348025371,0.12418829419932,2.069347868944853,0.0866380413278699,0.1025216620464629,0.0467509002083569,1.1924672690492872,-0.1210903710550076,-0.4560021993836436,-0.5823020102400317,0.1239278500640558,2.064816280392804,1.273447651954387,-0.1122448401649247,-0.5685386479960066,1.5791987168014,0.5457990515176592,-0.8003612384925681,1.2471543089883683,9.714937965100944,-0.8228578490373989,0.2097690751576094,-0.9893452127541548
2.44,-0.5711417980647052,0.1217528167170835,2.0608857954642392,0.0820180363403753,0.0993420110042249,0.045940377977126,1.201578408132316,-0.1342115898768997,-0.436145325347955,-0.5823020102400317,0.1239278500640558,2.064816280392804,1.273447651954387,-0.1122448401649247,-0.5685386479960066,1.274239660769781,0.455556954151437,-0.6560609410946084,0.9928437017844294,12.223374006896847,-0.832677453626063,0.2206714505207593,-0.9720909959079324
2.46,-0.5470394874651989,0.1189415059475903,2.052302673851249,0.0770070275098711,0.0936627154286057,0.0449158568284324,1.207666591169108,-0.1459984806903328,-0.4235527978230121,-0.5695675337204879,0.1228054016624066,2.0591308939128434,1.2923979533631549,-0.1167138313998233,-0.5885386482940298,0.9145607104010628,0.3044091518396019,-0.5893445406716519,0.6296263762471443,11.6205866739856,-0.8420764410303206,0.2296152407576886,-0.9572889929623568
2.48,-0.5228654213886726,0.1159145351838727,2.0438773549191667,0.0719770251317123,0.0868576418230988,0.0438462915839684,1.209176241052678,-0.1559272069282852,-0.4195338213769136,-0.5440985806814,0.1205605048591081,2.0477601209529235,1.33029855618069,-0.1256518138696204,-0.6285386488900763,0.5408576965188315,0.0754824941785026,-0.4964363118976203,0.2009488223049277,10.55518420531098,-0.8501772337169703,0.2360390761867078,-0.9461621690151882
2.5,-0.498703383785492,0.1127072309463033,2.035458956917948,0.0670819171992368,0.0801218656595702,0.0428383073083957,1.20683229521561,-0.1641841711111516,-0.4224743664846072,-0.5186296276423124,0.1183156080558096,2.036389347993003,1.3681991589982254,-0.1345897963394176,-0.6685386494861227,0.4536472890215159,-0.1171972918533992,-0.4128482091433211,-0.1470272553846824,10.55518420531098,-0.8569636467432724,0.2407997598299885,-0.938140110781956
2.52,-0.4758245014697251,0.1095215724966423,2.027351520619585,0.0626766593642378,0.0746311326016209,0.0419995459364466,1.2015260917064083,-0.1706776876224011,-0.4307777946368554,-0.4912656444623478,0.1156238121290212,2.0230185750032805,1.406099761815761,-0.1435277788092147,-0.7085386500821692,0.5900603177694674,-0.2653101754600873,-0.3246758255624746,-0.415171407612408,10.153593976389857,-0.8616699312887017,0.244221502016441,-0.93336345892371
2.54,-0.45187825159391,0.106047056811304,2.0186152258549965,0.0584105649609753,0.0706812323106194,0.0412912864364907,1.1932385228108808,-0.1763954694247665,-0.4425499106776667,-0.4639016612823833,0.1129320162022329,2.009647802013558,1.4440003646332962,-0.1524657612790118,-0.7485386506782157,0.7745313793125238,-0.4143784447763754,-0.2858890901182714,-0.5886058020405677,9.834486854356328,-0.8629506487724092,0.2453483179753862,-0.934367239541149
2.56,-0.4281167662096439,0.1024652138655525,2.0096170132389592,0.0545064834141823,0.069410481639558,0.0407875659492045,1.1835636011175128,-0.1814471885599785,-0.4566777290518981,-0.4355901630319804,0.1100167707136996,1.9952770290089343,1.4819009674508317,-0.161403743748809,-0.788538651274262,0.8926354631219009,-0.4837460846684016,-0.2525859567605995,-0.7063909187115691,9.679521776765796,-0.8615896285246848,0.2452553016047648,-0.9391633458177572
2.58,-0.4045388828013767,0.0987900980128061,2.000320537116582,0.0508887078391996,0.0705541089011138,0.0404465428929929,1.1750027481489622,-0.1857568912985771,-0.4722693377849934,-0.4063311497111391,0.1068780756634214,1.9799062559894096,1.519801570268367,-0.1703417262186061,-0.8285386518703085,0.9150956290603738,-0.428042648427529,-0.2154851369299298,-0.7795804366547671,9.49113238472819,-0.8580508210993718,0.2446541347205109,-0.9462986934600068
2.6,-0.3822834697545996,0.0952258461868145,1.9911904466243655,0.0477020556488099,0.073127093481437,0.0402183774342335,1.1683054786424756,-0.1891781865806782,-0.488025118047971,-0.3457887453939286,0.0895022534478772,1.9767070702273328,1.2624691296391928,-0.1986491394075601,-0.5722693392751096,0.8729308276505574,-0.3348634753243318,-0.1710647641050527,-0.7877890131488763,9.49113238472819,-0.8525245323906065,0.2437314533834571,-0.955651039193028
2.62,-0.3589175935754538,0.0914001847851862,1.9816154766772205,0.0448168826803506,0.0757507528540712,0.0400066192998671,1.1688208107753308,-0.19334704921187,-0.4667303282736526,-0.3457887453939286,0.0895022534478772,1.9767070702273328,1.2624691296391928,-0.1986491394075601,-0.5722693392751096,1.085256944664851,0.025766606642763,-0.2084431315595922,1.0647394887159185,9.441988278696954,-0.8453464399913936,0.2360028808510872,-0.9751012120451744
2.64,-0.3355398460028857,0.0874926385116915,1.972479240393077,0.0423795922364607,0.0772567087353709,0.0397770313722813,1.1688131643047357,-0.1971512433418969,-0.448532423016224,-0.3457887453939286,0.0895022534478772,1.9767070702273328,1.2624691296391928,-0.1986491394075601,-0.5722693392751096,0.92956402039584,-0.0003823235297684,-0.1902097065013458,0.9098952628714296,11.911999282278884,-0.8486741351926235,0.2432725695773302,-0.9643883552038732
2.66,-0.3121758294457951,0.0835157656067925,1.963614072343549,0.040155863290663,0.0781992581004486,0.039543183053617,1.1675844388551184,-0.2002930189953913,-0.4388485254472774,-0.3331640540975367,0.0875157620538016,1.9709843768345816,1.279962405937239,-0.2012275890293567,-0.5922693395731328,0.5127338310792376,-0.0614362724808525,-0.1570887826747205,0.4841948784473304,11.385307885478142,-0.8512624688113928,0.2491183764073043,-0.9561529486340882
