t,x,y,z,roll,pitch,yaw,v_x,v_y,v_z,ref_x,ref_y,ref_z,ref_v_x,ref_v_y,ref_v_z,a_com,a_x,a_y,a_z,thrust,wind_x,wind_y,wind_z
0.0,0.2765866507486223,0.1787765373451669,2.407863908897665,0.025255227655755,0.0995864458031219,0.0417396258912156,0.0010128369125383,-0.0068317795972494,-0.0011978092221582,0.2766168510916929,0.1785488989838856,2.4078262154897683,-0.0889994994572146,-0.010272788418832,-0.1012414576838978,0.3504775242775266,0.0506418456269171,-0.3415889798624733,-0.0598904611079142,10.261012992689755,-0.9399105564043118,0.2551411558752273,-0.8811243429058163
0.02,0.2767351461522642,0.1787035539478237,2.4077572344136944,0.0246106879458759,0.0950039495006019,0.0415841676605292,0.0143646303481353,-0.0012352967981227,-0.0105233821379587,0.2766168510916929,0.1785488989838856,2.4078262154897683,-0.0889994994572146,-0.010272788418832,-0.1012414576838978,0.8610419819551262,0.6675896717798518,0.2798241399563367,-0.4662786457900233,10.261012992689755,-0.9491929804836414,0.2564401432337551,-0.8707447903692697
0.04,0.2771332171475862,0.1787397557776872,2.4073945700745614,0.0267072827797449,0.0808362382670154,0.0413685930958041,0.0233940785696236,0.0042173983919962,-0.0253396970428947,0.2766168510916929,0.1785488989838856,2.4078262154897683,-0.0889994994572146,-0.010272788418832,-0.1012414576838978,0.9093761699416708,0.4514724110744142,0.2726347595059479,-0.7408157452468002,9.668705585173484,-0.9538009084245576,0.2564205737587053,-0.8628252979537903
0.06,0.2776038096974948,0.1788547361812437,2.406705395389628,0.0308818085391695,0.0608421673068244,0.041071961213708,0.022249386793867,0.0063413647056025,-0.0428043302396175,0.2757268560971208,0.1784461710996973,2.4068138009129294,-0.1070013702682001,-0.0108463396545525,-0.121241457981921,0.881525616273982,-0.0572345887878317,0.1061983156803137,-0.8732316598361376,9.391050267967785,-0.9624203269320436,0.2522477068027013,-0.8545215269672001
0.08,0.2779369911191767,0.1789655302201988,2.4057093672753527,0.0351783365947755,0.0400503148955568,0.0406548827488367,0.0123556220505476,0.0051440542621936,-0.0611765279824515,0.2739468661079765,0.1782407153313206,2.404788971759251,-0.1430051118901713,-0.0119934421259935,-0.1612414585779675,1.0450571551305727,-0.4946882371659689,-0.0598655221704426,-0.9186098871417028,9.148372335507702,-0.974893550346617,0.2453957734552453,-0.8451176296674819
0.1,0.2780046724642177,0.1790363739753233,2.404266613335489,0.0392955871547217,0.0189704337101958,0.0401064770462768,-0.0055337875957103,0.0020026819353977,-0.0822336872835987,0.2721668761188322,0.178035259562944,2.402764142605573,-0.1790088535121424,-0.0131405445974345,-0.2012414591740139,1.3904164442902305,-0.8944704823128996,-0.1570686163397953,-1.0528579650573566,9.148372335507702,-0.988130664555971,0.2367696812608625,-0.8376410944275585
0.12,0.2776475453673917,0.1790298493117601,2.4023873698626628,0.042729190947836,0.0005478594194291,0.0395230895783031,-0.0295143226169766,-0.0024322304816056,-0.1047076614750915,0.2685866990485894,0.1777724486709953,2.398739313422093,-0.2150125951341135,-0.0142876470688756,-0.2412414597700604,1.6581722045768916,-1.199026751063314,-0.2217456208501716,-1.1236987095746414,9.08522581463285,-1.0008323816910194,0.2276163456751331,-0.8321551414630283
0.14,0.2767607909335806,0.1789245628516886,2.4000429466633464,0.0453931964593063,-0.0140469463842924,0.038985720040255,-0.0578394092860363,-0.0077151980802817,-0.128616983025803,0.2650065219783465,0.1775096377790466,2.3947144842386128,-0.2510163367560847,-0.0154347495403166,-0.2812414603661069,1.8720816879036848,-1.4162543334529851,-0.2641483799338046,-1.1954660775355757,9.02194496604352,-1.0111593046014589,0.21884532069242,-0.8297899616466615
0.16,0.2753623931021173,0.1787203476469371,2.397361999070189,0.0472331420302929,-0.0238486367772151,0.0385754845522033,-0.0877786455045216,-0.0133549365340612,-0.1523934815346596,0.2605262513675543,0.1772181493253119,2.389689655040231,-0.2870200783780559,-0.0165818520117576,-0.3212414609621533,1.932282585774505,-1.496961810924265,-0.2819869226889746,-1.1888249254428316,9.02194496604352,-1.0186576184789218,0.2092724061676506,-0.8325429787736969
0.18,0.27325393971758,0.1783846968875944,2.3940402765280413,0.048442471057919,-0.0294006555407972,0.0382990935109349,-0.1215378126347409,-0.01987676252027,-0.1785901167703125,0.255145887216213,0.1768979833097911,2.3836648258269486,-0.3230238200000269,-0.0177289544831987,-0.3612414615581997,2.161295489509888,-1.6879583565109628,-0.3260912993104397,-1.309831761782644,9.00361659614964,-1.0222158279118372,0.2004631046850201,-0.839744659859785
0.2,0.2704625823607346,0.1779108048836701,2.3901872756236333,0.0486940257290943,-0.0297046471934295,0.03820271139947,-0.1553585248420975,-0.0271012549505508,-0.2053433837378072,0.267177049085843,0.1773908587615809,2.3851107706895256,-0.1769844858193741,-0.0447849009593293,-0.2785901182604287,2.1861902699228093,-1.6910356103678303,-0.3612246215140406,-1.337663348374733,8.959289746186187,-1.0243244330123529,0.1936151775411049,-0.8469018066424098
0.22,0.2669384764134371,0.17731306859519,2.3860402822948465,0.0490093790375143,-0.0234635488913042,0.0384270350033567,-0.1945867303759482,-0.0325727787688787,-0.2065831172107344,0.267177049085843,0.1773908587615809,2.3851107706895256,-0.1769844858193741,-0.0447849009593293,-0.2785901182604287,1.9813673444016295,-1.9614102766925392,-0.2735761909163937,-0.0619866736463595,8.959289746186187,-1.0257913192018366,0.1861399560347882,-0.8559007593008455
0.24,0.2629292052138647,0.1766366924816988,2.3820899911500035,0.0500540295729929,-0.0116084874259098,0.0389858029056776,-0.2246810934410811,-0.0384063625575082,-0.2092216392728123,0.267177049085843,0.1773908587615809,2.3851107706895256,-0.1769844858193741,-0.0447849009593293,-0.2785901182604287,1.5383946070393164,-1.50471815325664,-0.2916791894314721,-0.1319261031038937,10.199587278028956,-1.022739997391915,0.1841447243811662,-0.8616300786585253
0.26,0.2581634715130812,0.1757988305108095,2.3778314759506625,0.0514077819044328,0.0038635949075681,0.0397531670797799,-0.2496300323289237,-0.0450589611053845,-0.2166757017755664,0.2654072042276492,0.1769430097519876,2.382324869506921,-0.1880738204563008,-0.0497665286471411,-0.2985901185584519,1.3437537598677434,-1.247446944392132,-0.3326299273938172,-0.3727031251377077,10.199587278028956,-1.0140235482333146,0.1823861764196512,-0.8732360108160128
0.28,0.2529579743732348,0.1748232315341447,2.373372739283279,0.0526309827203371,0.0205517897535523,0.0405883621746474,-0.2691197951113545,-0.0521066908658856,-0.2287814482654994,0.2618675145112618,0.176047311732801,2.376753067141713,-0.2102524897301541,-0.0597297840227648,-0.3385901191544983,1.2000733791845837,-0.9744881391215404,-0.3523864880250554,-0.6052873244966478,9.869161546112082,-1.0021452386936986,0.1801545855588017,-0.8888329814410633
0.3,0.2476952330864845,0.1737633019685813,2.368877333993812,0.0534196942317283,0.0365798460076888,0.0413743572066301,-0.2834662341945931,-0.0590425989831516,-0.2438120896142867,0.2583278247948743,0.1751516137136144,2.3711812647765043,-0.2324311590040074,-0.0696930393983885,-0.3785901197505448,1.0952708741860504,-0.7173219541619313,-0.346795405863301,-0.7515320674393685,9.61485908148552,-0.9874477011975306,0.177351542291693,-0.9080151734641764
0.32,0.2419005819906547,0.1725053011626963,2.3638047126160986,0.0536958955670298,0.0530966464410148,0.0421453576806409,-0.2948245197798803,-0.0663382869746451,-0.2628200269764375,0.2536792016147942,0.1737577529256467,2.3636094623814934,-0.2546098282778607,-0.0796562947740122,-0.4185901203465912,1.165696570156241,-0.567914279264356,-0.3647843995746725,-0.9503968681075378,9.418013257605708,-0.9711829053491116,0.1744662710087131,-0.9287487932776998
0.34,0.2359155385436037,0.1711017447866213,2.3583313842272005,0.0532977875622861,0.0689603555060991,0.0428246302214842,-0.3027370327036633,-0.073587795126485,-0.2836465439346979,0.249030578434714,0.1723638921376789,2.3560376599864825,-0.276788497551714,-0.0896195501496359,-0.4585901209426377,1.171438258963457,-0.3956256461891516,-0.3624754075919979,-1.0413258479130187,9.25392989537795,-0.9543189316760824,0.1717559206308695,-0.9497558009808182
0.36,0.2298176428668022,0.1695535231293075,2.3524252055567776,0.0520784949712443,0.0836282356774888,0.0433615811344271,-0.3064373972767086,-0.0807512593918374,-0.3059789976579332,0.2438274885227875,0.1707209499653205,2.3474658575765703,-0.2989671668255673,-0.0995828055252597,-0.4985901215386841,1.187167224483218,-0.1850182286522672,-0.3581732132676193,-1.116622686161764,9.184442462084007,-0.9386142020119392,0.1697901611533779,-0.9687134530202852
0.38,0.2239909819125964,0.1679543629189102,2.346386505372383,0.0500922596043556,0.095805208702275,0.0436928975490903,-0.3066400343925446,-0.0870851062263294,-0.3286030903674433,0.2380699318790147,0.1688289264085716,2.337894055151757,-0.3211458360994206,-0.1095460609008834,-0.5385901221347306,1.1747427893501083,-0.0101318557917978,-0.3166923417245996,-1.131204635475508,9.128319399635076,-0.9231692058445188,0.1689522930878655,-0.986356697375174
0.4,0.2178789495006697,0.1661569937203474,2.339550317700508,0.0474621841692858,0.106404254257713,0.0438567625592015,-0.304472676486922,-0.092157123183111,-0.3539275052302034,0.2086589801929691,0.1636001076075937,2.329956350854011,-0.2632036710531205,-0.0851885085484876,-0.4286030918575594,1.2959058457717223,0.1083678952811306,-0.2536008478390791,-1.266220743138005,9.072294805157073,-0.9085775396777452,0.1685686378411454,-1.0027461515601226
0.42,0.2118126991677485,0.1641953631220483,2.3324506729084264,0.042808985118304,0.116171354851777,0.0437969540382449,-0.3018921681510505,-0.1026422746935707,-0.3533867601838102,0.2086589801929691,0.1636001076075937,2.329956350854011,-0.2632036710531205,-0.0851885085484876,-0.4286030918575594,0.5405780024057498,0.1290254167935739,-0.524257575522985,0.0270372523196615,9.010831091850378,-0.8994538594192734,0.1683427231607608,-1.0159017323915955
0.44,0.2058193035485346,0.1620800620789629,2.3253532051196952,0.0362506262337668,0.126462453674877,0.0435617595459179,-0.2972396275520227,-0.1078756650541756,-0.3565512556196348,0.2086589801929691,0.1636001076075937,2.329956350854011,-0.2632036710531205,-0.0851885085484876,-0.4286030918575594,0.384215239336718,0.2326270299513877,-0.2616695180302456,-0.1582247717912294,10.627847143579856,-0.887634384108106,0.1741320833631872,-1.0252623463963737
0.46,0.2002313822158229,0.1600110715091169,2.3185031029076426,0.0299056154288526,0.1362609043597803,0.043262489082747,-0.2909334254889721,-0.1095613018833653,-0.3643753117244565,0.2060269434824379,0.1627482225221089,2.325670319935435,-0.2545163983852356,-0.0848091890129193,-0.4486030921555826,0.5094737724145948,0.3153101031525329,-0.084281841459486,-0.3912028052410865,10.222533693136938,-0.873912122881215,0.1798844667910589,-1.0366125230256644
0.48,0.1944981952980604,0.1578219995126436,2.3110908459358863,0.0237653558888394,0.1463258165330982,0.0429096173405472,-0.2824678935705043,-0.1092241046139984,-0.3766515339295164,0.2007628700613755,0.1610444523511391,2.317098258098284,-0.237141853049466,-0.0840505499417826,-0.4886030927516291,0.7457958237498239,0.4232765959233886,0.0168598634683471,-0.6138111102529958,9.95624510512971,-0.8590974791485864,0.1848020423561739,-1.0491680970786248
0.5,0.1889526854291847,0.1556566282713729,2.3033958827870125,0.0184217367562899,0.155989476542908,0.0425426402398836,-0.2722772979898299,-0.1073643093446413,-0.3924018850318007,0.1954987966403131,0.1593406821801694,2.3085261962611328,-0.2197673077136963,-0.0832919108706459,-0.5286030933476755,0.9425771010612476,0.5095297790337211,0.092989763467853,-0.7875175551142116,9.586222555391942,-0.8437725116519759,0.188799200430534,-1.0622523479655257
0.52,0.1836283209475145,0.1535403233595375,2.295356674284422,0.0139350141127579,0.1651791577527477,0.0421776256445811,-0.2604561855847255,-0.1044243317753339,-0.4108706042285491,0.1911034504860392,0.1576748439627564,2.297954134394179,-0.2023927623779267,-0.0825332717995091,-0.568603093943722,1.1062049486538297,0.5910556202552181,0.1469988784653722,-0.9234359598374235,9.586222555391942,-0.8295580128498377,0.1918823813341144,-1.074237342801705
0.54,0.1788054941747323,0.1515928761172386,2.2873652702270104,0.0104704728862451,0.1734389254184829,0.0418441726795119,-0.2476127295888125,-0.100856191492293,-0.4294444332513568,0.1867081043317652,0.1560090057453435,2.2873820725272256,-0.185018217042157,-0.0817746327283724,-0.6086030945397685,1.1431022609186186,0.6421727997956483,0.1784070141520453,-0.9286914511403817,9.46836413013716,-0.8147095706418096,0.1941846255202619,-1.0868499553105782
0.56,0.174009497135666,0.1496205843549445,2.278563970442716,0.0075550918493478,0.1816269897840107,0.0415101492778139,-0.2324668504961475,-0.0966382440867929,-0.4497775047222749,0.1827471218108856,0.154362133504709,2.275810010645371,-0.1676436717063874,-0.0810159936572357,-0.6486030951358148,1.285128913034269,0.7572939546332508,0.2108973702750059,-1.016653573545906,9.444430031097,-0.7997454192536841,0.1957283665917581,-1.0994908761989357
0.58,0.1695330869375568,0.1477379700940922,2.269348934813165,0.0053287916024048,0.189303524405878,0.0411982874800055,-0.2157448144649367,-0.0919746155760029,-0.4707620852265533,0.1792205029234001,0.1527342272408529,2.2632379487486154,-0.1502691263706177,-0.080257354586099,-0.6886030957318613,1.361734683093871,0.8361018015605417,0.233181425539497,-1.0492290252139185,9.425886575463664,-0.7854884983361493,0.1965399945437311,-1.1114711698058
0.6,0.1656044574583813,0.1460393571699666,2.260201274468048,0.0037956222419667,0.1961385802432521,0.040925395960112,-0.1984827270733269,-0.0871596978933859,-0.4911410274272291,0.1587458462143099,0.143139239315292,2.245810830551837,-0.1853082632665734,-0.0784577722570637,-0.5707620867166694,1.35689385972562,0.8631043695804876,0.2407458841308503,-1.018947110033791,9.416875225915646,-0.7721724562389352,0.1972865393041614,-1.1220063214482143
0.62,0.1619173079683918,0.1443340281315452,2.250374263119661,0.002121700047371,0.2017796340192174,0.04061724134666,-0.1708936056952154,-0.0834212793567984,-0.4893309411538996,0.1587458462143099,0.143139239315292,2.245810830551837,-0.1853082632665734,-0.0784577722570637,-0.5707620867166694,1.3950016163859538,1.379456068905578,0.1869209268293765,0.0905043136664729,9.414611844847968,-0.7648432585003118,0.1969773354117321,-1.1292610075183418
0.64,0.1587972926174283,0.1427169843877897,2.24059061354371,0.0001799385724579,0.2048035044285879,0.0402765165021276,-0.1427016780253832,-0.0784128715843476,-0.4894847545806511,0.1587458462143099,0.143139239315292,2.245810830551837,-0.1853082632665734,-0.0784577722570637,-0.5707620867166694,1.431688332639513,1.4095963834916083,0.2504203886225402,-0.0076906713375762,10.91731316516325,-0.7538500473757306,0.1990688603931951,-1.136781205330384
0.66,0.1562394230044279,0.1412113555317219,2.230749492222478,-0.0015477884640228,0.2052194552126189,0.0399480298273597,-0.114664292135954,-0.0724727278804734,-0.4945936495643517,0.1568927635816442,0.1423546615927214,2.2401032096846705,-0.1792209530269007,-0.0757544035932759,-0.5907620870146926,1.455576451693558,1.4018692944714626,0.2970071851937081,-0.2554447491850298,10.636466178160845,-0.74636400466262,0.2011500226119779,-1.1417424081647078
0.68,0.1543267818082035,0.1398975979719998,2.221270938751778,-0.0027674178754499,0.2029269088942955,0.0396723628020402,-0.0882214595646,-0.0661784157743582,-0.5028687663604752,0.1531865983163127,0.1407855061475801,2.228687967950337,-0.1670463325475554,-0.0703476662657002,-0.630762087610739,1.4206682558529722,1.322141628567698,0.3147156053057612,-0.4137558398061708,10.379018474018268,-0.7435953347048964,0.2029183365910314,-1.1433344585600411
0.7000000000000001,0.1528434596382677,0.1386484122873447,2.2110965311278634,-0.0033941155126504,0.1974914010296907,0.0394413895912108,-0.0620118592621744,-0.0591331923216062,-0.5142020198194212,0.1494804330509813,0.1392163507024388,2.217272726216004,-0.1548717120682101,-0.0649409289381245,-0.6707620882067855,1.4705619295670842,1.31048001512128,0.3522611726376016,-0.566662672947299,10.182868734864314,-0.7427862674448663,0.2034682216164063,-1.144702840433391
0.72,0.1518491331134659,0.1375427771544348,2.2006746047572245,-0.0031416310642119,0.1897376084365048,0.0392807786889943,-0.0391467784932237,-0.0518722468556259,-0.5274607510113604,0.146382998809617,0.1379175321236763,2.203857484451868,-0.1426970915888648,-0.0595341916105488,-0.710762088802832,1.37051742094973,1.1432540384475345,0.3630472732990136,-0.6629365595969605,10.021384150459198,-0.7451477268536035,0.2028823135306615,-1.144423756245195
0.74,0.1512777167625938,0.1365818567535281,2.1899787331635823,-0.0018453990978256,0.1806321516650232,0.0391880347291607,-0.0195048461518799,-0.044730821614024,-0.541407653889867,0.1432855645682529,0.1366187135449139,2.190442242687733,-0.1305224711095194,-0.0541274542829731,-0.7507620893988785,1.256305655966944,0.9820966170671912,0.3570712620800928,-0.697345143925332,9.89843368225047,-0.7494675695017061,0.2010760694109246,-1.143202624072506
0.76,0.1510707831438039,0.1357974565948519,2.179555297535521,0.0004049589975501,0.1714169199336446,0.0391505849389213,-0.003531060002274,-0.0384136533649642,-0.5550642277002068,0.1404924958388723,0.1354550633993407,2.176027000908696,-0.1183478506301741,-0.0487207169553974,-0.7907620899949248,1.0972356935471166,0.7986893074802928,0.3158584124529927,-0.68282869051699,9.8507532858348,-0.7553201057704102,0.1978840036097641,-1.1413479354843334
0.78,0.151152074263281,0.135082099533971,2.16829552436227,0.003418234966224,0.1616474330020001,0.0391209246176689,0.0105465000856328,-0.0336588676133413,-0.5702151641536741,0.1380037926214753,0.134426581686957,2.1606117591147576,-0.1061732301508288,-0.0433139796278218,-0.8307620905909713,1.0610567385741805,0.7038780043953463,0.2377392875811422,-0.7575468226733661,9.809962886018184,-0.7618215723237067,0.1939217293155931,-1.1391237675503358
0.8,0.1514877747030519,0.134445798828418,2.156724325885647,0.0064575134062647,0.1522189587389939,0.0390544332769346,0.022091090246597,-0.0302848989586109,-0.5861659451765157,0.1516793992675627,0.1333991561533039,2.1397847661545866,-0.0367040576052259,-0.0338967516132851,-0.6560059920240431,0.9988601525068176,0.5772295080482124,0.1686984327365196,-0.7975390511420766,9.69390025854591,-0.768735778344661,0.1898888024026137,-1.1364927413064767
0.8200000000000001,0.1521750369121793,0.1338956398253752,2.1451176509069683,0.0101198858837377,0.1400996194907833,0.0389650142243689,0.0455770162362077,-0.025435946659661,-0.5720920289174142,0.1516793992675627,0.1333991561533039,2.1397847661545866,-0.0367040576052259,-0.0338967516132851,-0.6560059920240431,1.3903022844467685,1.1742962994805324,0.2424476149474946,0.7036958129550741,9.69390025854591,-0.7862700547869063,0.1836951415483081,-1.127249267891146
0.84,0.1532190369981494,0.133435896716475,2.1343575207931926,0.0141090341535432,0.1238608324294199,0.0387983131028685,0.0621514212550692,-0.0233885069606419,-0.5613325359670834,0.1516793992675627,0.1333991561533039,2.1397847661545866,-0.0367040576052259,-0.0338967516132851,-0.6560059920240431,0.9933146525630692,0.8287202509430727,0.1023719849509573,0.537974647516537,11.652144783507538,-0.8003104265582439,0.1808971325447549,-1.1164743241339368
0.86,0.1545727240449424,0.1329730371250903,2.1231974982721047,0.0181237794300983,0.1039900231546757,0.0384783377899276,0.0714746483023087,-0.0230839741228153,-0.5554352786687216,0.1513123586915104,0.133060188637171,2.1332247062343463,-0.0461541691433977,-0.0339443284132738,-0.6731641575981169,0.5517992081970958,0.4661613523619788,0.015226641891331,0.294862864918094,10.805715153858728,-0.8188497244862107,0.1778126811140175,-1.1024535271520346
0.88,0.1560292971785787,0.1325013781667388,2.1121017256949,0.0216726115592101,0.0831897048056063,0.0380144396434146,0.0730137569428791,-0.0241048352623891,-0.554611750594979,0.1505782775394059,0.1323822536049053,2.120104586393865,-0.0650543922197413,-0.0340394820132513,-0.7074804887462645,0.1011089927010991,0.0769554320285172,-0.0510430569786918,0.0411764036871264,10.805715153858728,-0.8394982317270576,0.1748734970113181,-1.0864684630984227
0.9,0.1574405789756224,0.1319980993843711,2.10097207642891,0.0246352986102434,0.0630325256493787,0.0374416014996511,0.0675799577874806,-0.026092986171835,-0.5583474371621103,0.1498441963873014,0.1317043185726396,2.106984466553385,-0.0839546152960848,-0.0341346356132288,-0.741796819894412,0.3443627136747859,-0.2716899577699237,-0.0994075454722954,-0.1867843283565651,10.49225274447599,-0.8594120579242506,0.1722490470221793,-1.0707007018420551
0.92,0.1586234219725623,0.1314761573320026,2.0902955459201222,0.0268992552846186,0.045522961913699,0.0368398880214913,0.0569594303351615,-0.0286485622490743,-0.5652916132606757,0.1481651040813797,0.1310216258603751,2.0921485301554963,-0.1028548383724283,-0.0342297892132063,-0.7761131510425596,0.6472019664291565,-0.5310263726159528,-0.1277788038619656,-0.3472088049282673,10.244746737025707,-0.8793516920137253,0.1692643115783701,-1.0551409007652155
0.94,0.1596038138990307,0.1308694863416384,2.07889637641908,0.0287372121448539,0.0295052946812081,0.0361887641127403,0.0413868537986018,-0.0318150011178025,-0.574321012152663,0.146486011775458,0.1303389331481105,2.077312593757608,-0.1217550614487719,-0.0343249428131838,-0.8104294821907072,0.9138674951094198,-0.7786288268279897,-0.1583219434364067,-0.4514699445993642,10.051598020329038,-0.8975367590192027,0.1659978086237718,-1.0413865061601686
0.96,0.1602313743860219,0.1301930997288022,2.06730223327847,0.0299872912437312,0.0164339887526691,0.0355518547348833,0.0220347573202983,-0.0356339159367989,-0.5846809390882008,0.1443344138926277,0.1296538615958465,2.0616187490810165,-0.1406552845251154,-0.0344200964131613,-0.8447458133388548,1.114019562900491,-0.967604823915174,-0.1909457409498237,-0.5179963467768944,9.96623448633636,-0.9129567494265672,0.1628119112750015,-1.0301208226130305
0.98,0.1604398857277208,0.1294321937178967,2.055486435901633,0.0304109194920963,0.0066770907716695,0.0349430589694787,-0.0001232246101329,-0.0401510689718797,-0.5963538240938947,0.1417103104328888,0.128966411203583,2.045066996125721,-0.1595555076014589,-0.0345152500131388,-0.8790621444870024,1.2724357342591115,-1.1078990965215632,-0.2258576517540356,-0.5836442502846928,9.852512350271354,-0.9246910740498366,0.1602331452405285,-1.021971477962316
1.0,0.1602050163136808,0.1286211169737498,2.0440336309519247,0.0298309808497956,0.0007161923905762,0.034396716662231,-0.0234865173015632,-0.0448695017739297,-0.6086060485469822,0.1604337244972141,0.1274246402693027,2.0256687446969384,-0.0457578258753249,-0.053751272180505,-0.6110650280788109,1.3399851282213329,-1.1681646345715149,-0.2359216401025002,-0.6126112226543745,9.852512350271354,-0.933251943085822,0.1589308663250966,-1.0159336868418245
1.02,0.1594184648774201,0.1277072191042035,2.032072163270707,0.0295929828840887,-0.0002931198995902,0.0340093890062007,-0.0534515064221992,-0.046587266911357,-0.5849704916481442,0.1604337244972141,0.1274246402693027,2.0256687446969384,-0.0457578258753249,-0.053751272180505,-0.6110650280788109,1.9101641552399395,-1.4982494560318014,-0.0858882568713647,1.1817778449419003,12.318960450920711,-0.9471157173773782,0.1562367121250929,-1.0042019068650831
1.04,0.1580600682140022,0.1267427266128226,2.020627273499134,0.0304858281642739,0.0044469620155882,0.0338737060911099,-0.0802306254724566,-0.0498142557216387,-0.5610278327747404,0.1604337244972141,0.1274246402693027,2.0256687446969384,-0.0457578258753249,-0.053751272180505,-0.6110650280788109,1.8033202626112483,-1.3389559525128691,-0.1613494405140886,1.1971329436701872,12.318960450920711,-0.9493521735655064,0.1574157471525776,-0.9975646604172737
1.06,0.1562096132499603,0.1257055291957486,2.009609985201027,0.0317364644446666,0.0130278785849184,0.0338879354875025,-0.1028327084408692,-0.0537145559213852,-0.54180015032699,0.1599761462384609,0.1268871275474977,2.0195580944161504,-0.0548847461283633,-0.05647131282223,-0.6140072688757942,1.4964710726160724,-1.1301041484206304,-0.1950150099873246,0.9613841223875208,11.960426293886483,-0.9464333449067523,0.1577687220022174,-0.997161252822258
1.08,0.1540760034787944,0.1246428380349516,1.9994637006061649,0.0329236791169008,0.0232619448655353,0.0339793721058644,-0.1201666655500335,-0.0579013814942719,-0.5271426136092875,0.1590609897209544,0.1258121021038876,2.007336793854574,-0.0731385866344402,-0.0619113941056802,-0.6198917504697606,1.1541652395464452,-0.8666978554582122,-0.2093412786443326,0.7328768358851268,11.61184563982806,-0.9402304659832202,0.1577115840951699,-1.0005390828570773
1.1,0.1515194495269635,0.1234346776086395,1.989054142707909,0.0339130019300893,0.0349519165532978,0.0341009685900587,-0.1341492945330775,-0.0626578132411344,-0.5147120316129514,0.1581458332034479,0.1247370766602775,1.9951154932929975,-0.091392427140517,-0.0673514753891303,-0.6257762320637271,0.9652161998843304,-0.6991314491522023,-0.2378215873431247,0.6215290998168033,11.337224157457058,-0.932172704529952,0.1576459068250949,-1.0061062068914284
1.12,0.14872605707832,0.1221274091567443,1.9788596731904888,0.0343738653081954,0.0465500708630433,0.0341924578549163,-0.1441940644550292,-0.0677377726759023,-0.5053463777060213,0.1563179846606375,0.1233900471524949,1.9825999686517235,-0.1096462676465938,-0.0727915566725804,-0.6316607136576936,0.7321524153962571,-0.5022384960975859,-0.2539979717383983,0.4682826953465058,10.944282799601751,-0.9230655547351324,0.1577329788983352,-1.0131181470516046
1.14,0.1457702387929337,0.1207169149857139,1.9688414427816,0.0341075765901204,0.057274142165449,0.0342061280492408,-0.1507022413968788,-0.0729503163114503,-0.4969564925421873,0.1544901361178272,0.1220430176447123,1.9700844440104488,-0.1279001081526706,-0.0782316379560306,-0.6375451952516601,0.5914329026213266,-0.3254088470924773,-0.2606271817773967,0.4194942581916994,10.944282799601751,-0.9149817169522412,0.1582149728538112,-1.0194222999400722
1.16,0.1428682130180758,0.1192801887473616,1.9594719524080653,0.0330263474538237,0.0662053774736594,0.0341143652748684,-0.1543606102867652,-0.0779000805111271,-0.489741446413114,0.1522059415623649,0.1205599861048434,1.9574218073293248,-0.1461539486587474,-0.0836717192394807,-0.6434296768456266,0.4741854046982755,-0.1829184444943191,-0.2474882099838427,0.3607523064536655,10.892831458606452,-0.9070642472963308,0.1593880035274425,-1.0256084209272485
1.18,0.1397596341229165,0.1176706815234993,1.949748953624664,0.030940047576535,0.0740804228582978,0.0338912188055686,-0.1562103219978061,-0.0826570848580496,-0.4829883023823327,0.1494654009942508,0.1189409525328883,1.944612058608352,-0.1644077891648242,-0.0891118005229308,-0.6493141584395931,0.4232477940612258,-0.092485585552049,-0.2378502173461215,0.3376572015390627,10.852413710351357,-0.9000631873163397,0.1614117912348888,-1.030947490837327
1.2,0.1366307143567364,0.1159813902226302,1.9401511009295531,0.0281650728555061,0.0803072164900347,0.0335565149154129,-0.1565587142128384,-0.0858101706065369,-0.4771833048196463,0.1319491180230262,0.1135378272805968,1.925599538505547,-0.1330244411430803,-0.0865841215122537,-0.487139523281408,0.3307617102069264,-0.017419610751615,-0.1576542874243656,0.2902498781343215,10.756616859116548,-0.8944949881684584,0.1639586985428907,-1.0349776763312686
1.22,0.1334350807095643,0.1142251279997917,1.930790162000088,0.0248733926698186,0.087545296666194,0.0331982628964461,-0.1622062797022552,-0.0892388149243623,-0.4591535069836127,0.1319491180230262,0.1135378272805968,1.925599538505547,-0.1330244411430803,-0.0865841215122537,-0.487139523281408,0.9601096393428842,-0.2823782744708389,-0.1714322158912699,0.9014898918016796,10.756616859116548,-0.8894918799916415,0.1662884497653317,-1.039294907165012
1.24,0.1303324931801365,0.1125147701608401,1.922218510847833,0.0215669912953542,0.0967021258648691,0.0328811900815889,-0.1636550120886181,-0.0905324264603982,-0.4440648687706539,0.1319491180230262,0.1135378272805968,1.925599538505547,-0.1330244411430803,-0.0865841215122537,-0.487139523281408,0.7606563932798807,-0.0724366193181447,-0.0646805768017955,0.7544319106479402,11.594733417106909,-0.8817636275736092,0.1707840373494296,-1.0432544695351365
1.26,0.1270761281712042,0.1107030092958503,1.9134824115562337,0.0183122255222066,0.1073524550050043,0.0325575350213991,-0.1614990110931283,-0.0905269619132112,-0.4304565869474165,0.1306188736115954,0.1126719860654742,1.920728143272733,-0.1283872649721351,-0.0873695288430945,-0.487969767461223,0.6889007626909728,0.107800049774491,0.0002732273593465,0.6804140911618684,11.236612144529316,-0.8715110771328426,0.1748177470926056,-1.0497628774401615
1.28,0.1238969157076713,0.1089029252182732,1.904995619822588,0.015457506132787,0.1182559985791043,0.0322398037455754,-0.1561827844637496,-0.0894805893547219,-0.4190119970144199,0.1279583847887338,0.1109403036352292,1.9109853528071048,-0.1191129126302448,-0.0889403435047762,-0.4896302558208532,0.6331188668814934,0.2658113314689347,0.052318627924467,0.5722294966498315,11.236612144529316,-0.8599926324677784,0.1782908747105495,-1.0575668395211903
1.3,0.1208596432607918,0.1071331186449941,1.8967169874432857,0.013086605389375,0.1287777726558833,0.0319286523627479,-0.1475543989749471,-0.0876223242539754,-0.4094570761005148,0.1252978959658722,0.1092086212049841,1.9012425623414768,-0.1098385602883545,-0.0905111581664578,-0.4912907441804833,0.6503820012096931,0.4314192744401229,0.092913255037326,0.4777460456952542,11.1171328468281,-0.8488315954616625,0.181069685700059,-1.065232939783329
1.32,0.1181671239321901,0.1054923359534102,1.8890151184609572,0.0112883289374525,0.1377373051526409,0.0316379612146129,-0.1362062251142492,-0.0852714960707234,-0.4017801042054933,0.1231011247601051,0.1073983980416549,1.891416747457867,-0.1005642079464641,-0.0920819728281395,-0.4929512325401134,0.6950599625153734,0.5674086930348959,0.1175414091625977,0.3838485947510739,11.02548056940941,-0.8375265364123069,0.1834998972235967,-1.072967406071185
1.34,0.1155925978201758,0.1038185189098308,1.8810586837395773,0.0098848524766094,0.1455079940503795,0.0313407014918137,-0.1217551489602603,-0.0822539166151235,-0.3943150575785321,0.120904353554338,0.1055881748783258,1.8815909325742568,-0.0912898556045738,-0.0936527874898211,-0.4946117208997435,0.8271431389456604,0.7225538076994463,0.1508789727799941,0.3732523313480645,10.957429376688196,-0.827228410675598,0.1854134669693452,-1.0799586037684756
1.36,0.1133308763185093,0.1022120741209306,1.8732461692041789,0.0091416796078086,0.1511698176421057,0.0310686297166035,-0.1052418464923326,-0.0786218196473666,-0.3873381968465153,0.1189394411571182,0.1037386813484546,1.8717236054816568,-0.0820155032626835,-0.0952236021515028,-0.4962722092593736,0.914546161293148,0.8256651233963838,0.1816048483878486,0.3488430366008377,10.943872752877724,-0.8184240142704531,0.1866233333728337,-1.0859456789027324
1.38,0.1114124738922895,0.1006826951243249,1.865569313815531,0.0092305736288448,0.1545654218152905,0.0308390180839132,-0.0884561128696217,-0.0747893077767874,-0.3810399601911743,0.1172063875684456,0.1018499174520413,1.8618147661800657,-0.0727411509207931,-0.0967944168131844,-0.4979326976190037,0.9166744043789756,0.8392866811355482,0.1916255935289573,0.314911832767048,10.930200161326866,-0.8118280725071125,0.1869581825980689,-1.0904705565931143
1.4,0.1099211394094028,0.099304810798366,1.858397067620183,0.0101984565447857,0.1557424066284572,0.0306698416699619,-0.0704369418008849,-0.0707471436722755,-0.3745950949669797,0.1069896682488084,0.0969432297354855,1.846517315805972,-0.0854938204647763,-0.0670241650640453,-0.3914897412737449,0.977964601110692,0.900958553436837,0.2021082052255977,0.3222432612097342,10.930200161326866,-0.8071929434317267,0.1864509853583505,-1.0935350479333437
1.42,0.1087643597996618,0.0978870048905211,1.8510186751882047,0.0107382104978288,0.1532199952693485,0.0304243746466379,-0.0460952311658048,-0.0709712198481832,-0.3632979633693136,0.1069896682488084,0.0969432297354855,1.846517315805972,-0.0854938204647763,-0.0670241650640453,-0.3914897412737449,1.3418217738484923,1.217085531754004,-0.0112038087953889,0.564856579883305,10.928476417568165,-0.8129255117744139,0.1869830355997571,-1.0873165942163396
1.44,0.1080770605190745,0.0964722766100966,1.8438656508554117,0.0098518292579685,0.1452854035479397,0.0300321158692758,-0.0246947684979391,-0.0703859599112925,-0.3526002145355451,0.1069896682488084,0.0969432297354855,1.846517315805972,-0.0854938204647763,-0.0670241650640453,-0.3914897412737449,1.196624587854142,1.070023133393286,0.0292629968445395,0.5348874416884225,11.173206284410298,-0.814925873383094,0.1882531453882726,-1.0856001352256084
1.46,0.1077684889849298,0.0951459084242551,1.8372573376890176,0.0081328009781115,0.1345027549311634,0.0295897800568111,-0.0094429524853442,-0.0691949673624942,-0.3434784766732414,0.1061347300441606,0.0962729880848451,1.8426024183932348,-0.0849013619838072,-0.0654711365214969,-0.393579697490259,0.8905650685967946,0.7625908006297476,0.0595496274399122,0.4560868931151846,11.078396675544354,-0.8230062581700535,0.1910423801495684,-1.0781708310173492
1.48,0.1076993046473705,0.0937837904376787,1.8304808192031288,0.0057388242862268,0.1214973681869301,0.0291101563472882,0.0011728891741277,-0.0668832737626033,-0.3346541291680427,0.1044248536348651,0.0949325047835642,1.83477262356776,-0.0837164450218691,-0.0623650794364001,-0.3977596099232872,0.6998377139224179,0.530792082973597,0.1155846799945438,0.4412173752599335,11.078396675544354,-0.8347607589205653,0.1945848099003407,-1.0672045476919174
1.5,0.107786540813296,0.0924838870515943,1.82387131526693,0.0033664377903385,0.1082307881052257,0.0286790152036448,0.0066013240470458,-0.063222276486311,-0.3267532963220114,0.1027149772255696,0.0935920214822833,1.826942828742285,-0.0825315280599309,-0.0592590223513032,-0.4019395223563154,0.5130642403429178,0.2714217436459074,0.1830498638146167,0.395041642301569,11.000391628829677,-0.8479198144032887,0.1980235964866716,-1.0547737531041526
1.52,0.1079319728214844,0.0912657191226239,1.8174087441831568,0.0013728592105518,0.095841131135581,0.0283216663085567,0.0074498009916566,-0.0588620788139598,-0.3198629822037355,0.101064346664371,0.0924068410352572,1.818904038295159,-0.0813466110979928,-0.0561529652662064,-0.4061194347893437,0.4099014074019015,0.0424238472305405,0.2180098836175575,0.3445157059137921,10.925301921493883,-0.8605649789549413,0.201165611187358,-1.0421082964760904
1.54,0.1080493649041173,0.0901936945309731,1.811390508449172,-7.756742400498757e-05,0.0855834039348633,0.0280482633031372,0.0047847397968981,-0.0542721962400927,-0.3139560150028286,0.0994137161031724,0.0912216605882311,1.8108652478480325,-0.0801616941360547,-0.0530469081811096,-0.4102993472223719,0.397057409974575,-0.1332530597379259,0.2294941286933593,0.2953483600453443,10.857253580868928,-0.8735505058281409,0.2040734764927986,-1.0284767908442696
1.56,0.1080901060019717,0.0891639001961507,1.8051713177373616,-0.0010262963670765,0.0767850682312992,0.0278258348156092,-0.0006664881973983,-0.0489794732847851,-0.3082850150945094,0.0977927084660222,0.0901141315683325,1.8027219595900803,-0.0789767771741165,-0.0499408510960127,-0.4144792596554001,0.4740491611837295,-0.2725613997148268,0.2646361477653784,0.2835499954159631,10.8094568104234,-0.8848174369537422,0.2062223840287728,-1.0162938212670625
1.58,0.1079957475990856,0.0882446585062559,1.7990587780473226,-0.001187449079866,0.0703486144864385,0.0276721349498004,-0.0086476978549185,-0.0432707498141478,-0.3032721596038868,0.0962013237529205,0.0890842539755613,1.7944741735213028,-0.0777918602121784,-0.0468347940109159,-0.4186591720884283,0.5509490707664453,-0.3990604828760105,0.2854361735318667,0.2506427745311262,10.767847172792244,-0.893191006464669,0.2075032741465182,-1.0068183247685905
1.6,0.1077332721208631,0.0874790846068283,1.7933376854737126,-0.0004363712256262,0.0670583994397444,0.0275936154832537,-0.0185783423640449,-0.037712632757562,-0.299185590645917,0.1075633627063396,0.0860811210155485,1.7838951700671282,-0.0351650648453656,-0.0317401875101874,-0.3051496443306064,0.6045874862862973,-0.496532225456317,0.2779058528292889,0.2043284478984913,10.73084613573701,-0.898314377915836,0.2076011975390143,-1.000799634576914
1.62,0.1072841626216156,0.0867706529881345,1.7874872953809695,0.0008948958185082,0.0659412555169819,0.0275524239239183,-0.0255686194345235,-0.0333982885590094,-0.2855812454221673,0.1075633627063396,0.0860811210155485,1.7838951700671282,-0.0351650648453656,-0.0317401875101874,-0.3051496443306064,0.7946001326966401,-0.3495138535239328,0.2157172099276311,0.6802172611874879,11.274526989607692,-0.907785626043816,0.2057297775191071,-0.9920272434694146
1.64,0.1067034745479715,0.0861459519356156,1.7819098537317204,0.0024065172781438,0.065752756674663,0.0275305520389086,-0.0320863767437967,-0.0293019797018138,-0.272874105391493,0.1075633627063396,0.0860811210155485,1.7838951700671282,-0.0351650648453656,-0.0317401875101874,-0.3051496443306064,0.7428531388425411,-0.3258878654636593,0.2048154428597752,0.6353570015337123,11.274526989607692,-0.9112055507399996,0.2062641848831298,-0.9859307137442818
1.66,0.1060334581345405,0.0856247436470922,1.7768286733139322,0.0040113465157897,0.0661814271810417,0.0275292384028879,-0.0380510092099101,-0.0257930558160534,-0.2626036302018925,0.107211712057886,0.0857637191404466,1.780843673623822,-0.040468538243455,-0.0294340750493954,-0.3055251412759503,0.6192173445408198,-0.2982316233056711,0.1754461942880206,0.5135237594800252,11.01457798616866,-0.9140231546225532,0.2064668891903772,-0.9806089309435906
1.68,0.1052096927124275,0.0851421165734131,1.7716761987344412,0.0057600560747175,0.0670370490122545,0.0275408658986116,-0.0439597823967782,-0.0227080074404972,-0.2532404376318565,0.1065084107609787,0.0851289153902429,1.77474068073721,-0.0510754850396338,-0.0248218501278112,-0.3062761351666381,0.5746749062664706,-0.2954386593434058,0.1542524187778107,0.4681596285017991,10.91681872384379,-0.9160352623336278,0.206279737588468,-0.9766155207853088
1.7,0.104271529333215,0.0847138625847517,1.7666963760263263,0.0073600031972038,0.068114674964525,0.0275513041587592,-0.0495198642279705,-0.0202726866139312,-0.2452585338978814,0.1058051094640714,0.0844941116400391,1.7686376878505978,-0.0616824318358126,-0.0202096252062271,-0.307027129057326,0.5013882844570314,-0.2780040915596107,0.1217660413283026,0.3990951866987557,10.91681872384379,-0.9174676860954926,0.2060092459024807,-0.9735276911667476
1.72,0.1032257168112625,0.0843283618976934,1.761862496865097,0.0086398350156941,0.0692722495107224,0.0275481771202703,-0.0547495430884197,-0.0183778682784734,-0.2385144172033962,0.1045714608273551,0.0840899191359146,1.7624971452694511,-0.0722893786319914,-0.015597400284643,-0.3077781229480138,0.4371012110960408,-0.2614839430224638,0.0947409167728861,0.3372058347242579,10.8300771928225,-0.9184405067625674,0.2058038548634538,-0.9712714077166846
1.74,0.1021385457791871,0.0839928422113709,1.7573894335352782,0.0094198050711869,0.0703477979856142,0.0275222718786287,-0.0594100094478375,-0.0169995823245441,-0.2326632618857549,0.1033378121906389,0.08368572663179,1.7563566026883048,-0.0828963254281703,-0.0109851753630588,-0.3085291168387016,0.380314466623432,-0.233023317970888,0.0689142976964665,0.2925577658820677,10.757854551050514,-0.919488037592876,0.2057735437034284,-0.9691312518547824
1.76,0.1009002552725639,0.0836663560114294,1.7527966955783296,0.0096965057656785,0.0714156629616235,0.027464643401891,-0.0641529876372104,-0.0157002802989523,-0.2269332864322833,0.1018389898840181,0.0833968397507051,1.750197285259891,-0.0935032722243491,-0.0063729504414747,-0.3092801107293894,0.3775468399945933,-0.237148909468645,0.0649651012795887,0.286498772673581,10.693343461112818,-0.9204504655841486,0.2061925707704386,-0.9670760054351206
1.78,0.099568378591406,0.0833657831392397,1.7483128445136984,0.0093906712628732,0.0724326512902724,0.0273745806691052,-0.0687736536499404,-0.0143797706558025,-0.2217301654510087,0.1000749939074929,0.0832232584926598,1.7440191929842102,-0.1041102190205279,-0.0017607255198906,-0.3100311046200772,0.3541425139143478,-0.2310333006364989,0.0660254821574927,0.2601560490637297,10.693343461112818,-0.9212868985512412,0.2070340874420288,-0.9651793350716936
1.8,0.0982185855241632,0.0831070714679867,1.7441449115326904,0.0086003346393955,0.0733671462017055,0.0272622658052082,-0.0730570100441597,-0.012884770901562,-0.217253805727924,0.096129695908909,0.0826467946064496,1.737226336241148,-0.0646137025330507,-0.0157452729043207,-0.2353264049507564,0.3186689608180146,-0.2141678197109635,0.074749987712025,0.2238179861542358,10.661414884108126,-0.9221069229468828,0.2083497329562605,-0.9632193145127388
1.82,0.0967435208213443,0.0829257686875735,1.740097660717891,0.0088963895309177,0.0757819293222516,0.0272462476575887,-0.0817482806730213,-0.0066026761707495,-0.2087788346013236,0.096129695908909,0.0826467946064496,1.737226336241148,-0.0646137025330507,-0.0157452729043207,-0.2353264049507564,0.6834252609973611,-0.4345635314430836,0.3141047365406223,0.4237485563300169,10.63032041259612,-0.9213826014047104,0.2094712765996442,-0.9618580574890024
1.84,0.0950313562775244,0.0828524465052417,1.7360054242235072,0.0115300186753077,0.0810728582733002,0.0274288911257891,-0.0885799080311968,-0.0014301320910069,-0.2009942830430562,0.096129695908909,0.0826467946064496,1.737226336241148,-0.0646137025330507,-0.0157452729043207,-0.2353264049507564,0.5788471032603842,-0.3415813679087734,0.2586272039871296,0.3892275779133702,10.807655337764118,-0.919427649251869,0.2080359530740454,-0.962727768922272
1.86,0.093215660284141,0.082851357419844,1.7320485786554771,0.0152956286220355,0.0879139277898294,0.0277326915616973,-0.092312374073769,0.0008067059457997,-0.1950769776631964,0.0954835588835785,0.0824893418774063,1.7348730721916403,-0.0637817123096727,-0.0160183733540243,-0.238045652850706,0.3672507662360217,-0.1866233021286106,0.1118419018403361,0.2958652689929911,10.807655337764118,-0.9152620040396396,0.2053863048607204,-0.9664801337369522
1.88,0.0914505049043093,0.0828710014658407,1.7283848441543206,0.0188566927025989,0.0948811854405466,0.0280552862092415,-0.0931100062517484,0.0011486802364294,-0.1908842097040517,0.0941912848329175,0.0821744364193199,1.7301665440926253,-0.0621177318629168,-0.0165645742534316,-0.2434841486506051,0.214082149337761,-0.0398816088989686,0.0170987145314844,0.2096383979572347,10.694552713888696,-0.909674935969959,0.2024069950299376,-0.9718131893330502
1.9,0.0896024113019695,0.0828874810052724,1.724602213179704,0.0221946095985525,0.1019544663446876,0.0283891456135756,-0.0914801913644787,0.0005036073534621,-0.1876645659215725,0.0928990107822565,0.0818595309612335,1.7254600159936102,-0.0604537514161609,-0.0171107751528388,-0.2489226444505042,0.1832929463806692,0.081490744363482,-0.032253644148366,0.1609821891239621,10.60768319161889,-0.9034110890917018,0.1997067389596897,-0.9777786153315552
1.92,0.0878099420862995,0.0828835064047572,1.7208723668755097,0.0249897882677642,0.1082210058206261,0.0286903555664148,-0.0877450847670005,-0.0008153755552349,-0.1855359588569731,0.0916899357539333,0.0815173154581768,1.7204815631046002,-0.0587897709694051,-0.0176569760522461,-0.2543611402504033,0.2248427519591354,0.1867553298739138,-0.0659491454348535,0.1064303532299665,10.542816637074791,-0.8971694960881266,0.1974229078224032,-0.9836478104382866
1.94,0.0861107227450886,0.0828478774805848,1.71717679848728,0.0272182226743288,0.1133072198200888,0.0289390752976099,-0.082373729092426,-0.0025782284076369,-0.1841391115920638,0.0904808607256101,0.08117509995512,1.7155031102155902,-0.0571257905226492,-0.0182031769516534,-0.2597996360503024,0.2911627304596602,0.2685677837287237,-0.0881426426200985,0.0698423632454675,10.490624914225918,-0.8917921302522438,0.1956736875917838,-0.9886356456977426
1.96,0.0846069876664088,0.0827783329935282,1.7136868741356095,0.0288526410426348,0.1169013381715779,0.0291180502105983,-0.0762364006136135,-0.0045714841248955,-0.1833000551284558,0.0893133852084557,0.080819229429578,1.7103886949315823,-0.0554618100758933,-0.0187493778510606,-0.2652381318502015,0.3253608956234189,0.3068664239406257,-0.099662785862928,0.0419528231803967,10.442950032541376,-0.8869927839415224,0.194283914885583,-0.992977289965462
1.98,0.0831557175626701,0.0826611626024995,1.710025966886659,0.0300620674427611,0.119387823936576,0.0292397724854973,-0.0692564149428145,-0.0070240910346483,-0.1828583577874739,0.0881875092024703,0.0804497038815509,1.7051383172525776,-0.0537978296291374,-0.0192955787504679,-0.2706766276501006,0.3705758261117313,0.3489992835399476,-0.1226303454876444,0.0220848670490991,10.442950032541376,-0.8831875964823531,0.193347353515693,-0.9963411123227582
2.0,0.0818466859704821,0.0824904065309361,1.7063696511020068,0.0306199230832513,0.1206460818949696,0.0292831914129122,-0.0620671810920697,-0.0098942132064389,-0.1828113337321692,0.0796928968155294,0.082309958050767,1.7008830489972857,-0.0599655409384505,-0.0154789307336187,-0.1776117208640713,0.3870558612896713,0.3594616925372395,-0.143506108589527,0.0023512027652314,10.424561303620976,-0.8804945329527553,0.1929644622017272,-0.9986463790606483
2.02,0.080704538274712,0.0822704321111914,1.7028114185798218,0.0308196681792708,0.1204253325929853,0.029259314228239,-0.0526711860248416,-0.0120580798000052,-0.1730017448011034,0.0796928968155294,0.082309958050767,1.7008830489972857,-0.0599655409384505,-0.0154789307336187,-0.1776117208640713,0.6877410067289476,0.4697997533614082,-0.1081933296783179,0.4904794465532935,10.408165117918545,-0.8832239882852397,0.1926497389495617,-0.9963615430339448
2.04,0.0797890808407942,0.0820178074493974,1.6996124450696053,0.0308333450064529,0.1186728488147863,0.029179513401545,-0.044290965898798,-0.0144151395965216,-0.164233438114046,0.0796928968155294,0.082309958050767,1.7008830489972857,-0.0599655409384505,-0.0154789307336187,-0.1776117208640713,0.6177924862030825,0.4190110063021772,-0.1178529898258183,0.4384153343528693,10.934604816429784,-0.8856583131926307,0.1946105396057047,-0.9916081353091618
2.06,0.0789873381126837,0.0817030629428139,1.696415830148351,0.0305427796140309,0.1153951987679888,0.0290342199138803,-0.0364722730049498,-0.0169147504320283,-0.1559144712629202,0.0790932414061449,0.0821551687434309,1.6991069317886447,-0.0581073661375777,-0.0171698986734127,-0.1765623934793908,0.5843484028544604,0.3909346446924086,-0.1249805417753329,0.4159483425562882,10.934604816429784,-0.8895575051890318,0.1966059875175235,-0.9857825859071389
2.08,0.0783273051352346,0.0813395549686932,1.6933766172145108,0.0299229481291284,0.1108804431199359,0.0288349467109353,-0.0301024897069807,-0.0192833075735538,-0.1484390698114566,0.0778939305873759,0.0818455901287585,1.695554697371363,-0.0543910165358321,-0.0205518345530008,-0.1744637387100298,0.5051381718309892,0.3184891648984548,-0.1184278570762777,0.373770072573179,10.869429819920695,-0.8943087426713074,0.1986648045306086,-0.9793461753921406
2.1,0.0777741004388352,0.080931498193805,1.6904786161446124,0.029016543912053,0.1055227429952394,0.0286003926241978,-0.0257636442476197,-0.0213786763445654,-0.141705380458205,0.0766946197686069,0.0815360115140861,1.692002462954082,-0.0506746669340865,-0.023933770432589,-0.1723650839406688,0.4140009737695125,0.21694227296805,-0.1047684385505785,0.3366844676625791,10.75949800633498,-0.89998088812761,0.2009741056041851,-0.971978073440642
2.12,0.0773050188240108,0.0805086568596805,1.6878446620093612,0.0279784622664893,0.100259281941329,0.0283718214766464,-0.0239651505944262,-0.023011943220589,-0.135869360754481,0.0756811264299251,0.0810573361054343,1.6885551612752685,-0.0469583173323409,-0.0273157063121771,-0.1702664291713077,0.3160746197148237,0.0899246826596788,-0.0816633438011802,0.2918009851861997,10.75949800633498,-0.9061172205440776,0.2032785844317736,-0.9642849687376388
2.14,0.076824482993975,0.0800345135863581,1.685190646895932,0.0268265779872761,0.0952146663259329,0.0281543021862265,-0.024378436394866,-0.024299060023191,-0.1298320880235128,0.0746676330912434,0.0805786606967826,1.6851078595964553,-0.0432419677305953,-0.0306976421917652,-0.1681677744019467,0.3093385558109389,-0.0206642900219933,-0.0643558401300991,0.3018636365484148,10.71689204723316,-0.9120158015558748,0.2054575831018581,-0.95694728112441
2.16,0.0763100377393264,0.0795389200828137,1.6826551337882585,0.0257459536521549,0.0914630818998061,0.0279892457350404,-0.0271447459737338,-0.0251949425360163,-0.1240080066824926,0.0737470484926053,0.0800154368911411,1.681713024286876,-0.0395256181288497,-0.0340795780713534,-0.1660691196325857,0.3254804050543619,-0.1383154789433877,-0.0447941256412655,0.2912040670510069,10.707198516880451,-0.9166031434079488,0.2073675233944835,-0.9510249399035112
2.18,0.0757517083310281,0.0790552798567254,1.68035176425598,0.0248893297110429,0.0897967671527363,0.0279028650470871,-0.0314246432584386,-0.0256770394803528,-0.1187338743987403,0.0729193726340109,0.0793676646885099,1.6783706553465303,-0.0358092685271041,-0.0374615139509415,-0.1639704648632247,0.3404644239046137,-0.2139948642352418,-0.024104847216823,0.2637066141876129,10.695086323033138,-0.92022707934368,0.2089745234464312,-0.9462798338211604
2.2,0.0750788874197137,0.0785399399588765,1.6780331931726722,0.0242734087372756,0.0901353526125299,0.0278915245494192,-0.0354146232145351,-0.025829534893218,-0.1134051859348138,0.0741804761681062,0.0777714278827078,1.674415070536043,-0.0303776407575842,-0.034608775942171,-0.141309476334127,0.3329343615736438,-0.1994989978048214,-0.0076247706432606,0.2664344231963267,10.676291623725774,-0.9224218906076171,0.2101032107204731,-0.943274675742844
2.22,0.0743441162434266,0.0780276927469616,1.6758074089558743,0.0241267672789648,0.0917710888792573,0.0279505277899815,-0.0377216682159178,-0.0254209190729899,-0.1095109252984492,0.0741804761681062,0.0777714278827078,1.674415070536043,-0.0303776407575842,-0.034608775942171,-0.141309476334127,0.2272371527220218,-0.1153522500691367,0.0204307910114012,0.1947130318182305,10.65092674960124,-0.9227815862630836,0.2109207755544768,-0.9420309150592958
2.24,0.0735733474812026,0.0775268336595161,1.6736418464410372,0.0246375268569536,0.0939760852154385,0.0280748225363949,-0.0391262528413303,-0.0247698185955173,-0.1072361316155509,0.0741804761681062,0.0777714278827078,1.674415070536043,-0.0303776407575842,-0.034608775942171,-0.141309476334127,0.1375815767232664,-0.0702292312706232,0.0325550238736319,0.1137396841449131,10.54903606883454,-0.9216571326295306,0.2110432685733695,-0.9425681936391324
2.26,0.0728235302690039,0.0770616731129343,1.6716145279992547,0.0257580443575015,0.0962848918822178,0.028248043127254,-0.0396571202168509,-0.0242958926615669,-0.1062819543119822,0.0738766997605303,0.077425340123286,1.6730019757727017,-0.0301682402574133,-0.0363951232345346,-0.1458245967212043,0.0595163903456139,-0.0265433687760326,0.0236962966975182,0.0477088651784363,10.386052285301956,-0.9197576987898968,0.210383536747193,-0.9442333612914802
2.28,0.0720314988738206,0.0765775503201178,1.6694898432278846,0.0275430237761336,0.0986916326243059,0.0284781288743023,-0.0394524553879241,-0.0242086041956357,-0.1062866613620408,0.0732691469453786,0.0767331646044426,1.6701757862460191,-0.0297494392570715,-0.0399678178192619,-0.154854837495359,0.0111275699059265,0.0102332414463397,0.0043644232965605,-0.0002353525029294,10.386052285301956,-0.9174210149580884,0.2090194748909154,-0.9466396585197782
2.3000000000000003,0.0712510275903899,0.0760866693087551,1.6673554213634387,0.0297612096944256,0.1008930634904856,0.0287388147100229,-0.0385581451614507,-0.0250496416147879,-0.107200210402598,0.072661594130227,0.0760409890855992,1.6673495967193366,-0.0293306382567298,-0.0435405124039892,-0.1638850782695137,0.0765131781311569,0.0447155113236716,-0.042051870957608,-0.0456774520278598,10.32863063363402,-0.9149220957919312,0.2070396079414676,-0.9496743956887628
2.32,0.070494752357509,0.075565315166241,1.665193905849392,0.0319282393051066,0.1027625092925767,0.028991107156524,-0.0371028473471919,-0.0270342517484777,-0.108910463369743,0.0720749813650924,0.0751701788375194,1.6640718951539464,-0.028911837256388,-0.0471132069887165,-0.1729153190436683,0.149846040342737,0.0727648907129393,-0.0992305066844887,-0.0855126483572506,10.2459123554936,-0.9123121007865316,0.2048074268911114,-0.9530412736132468
2.34,0.0698071433789456,0.075026570589984,1.6631025981949417,0.0337034218245089,0.1041789867145604,0.0292029233221779,-0.0353549584944205,-0.0295212720081345,-0.1111453530338,0.0714883685999578,0.0742993685894396,1.6607941935885562,-0.0284930362560462,-0.0506859015734438,-0.181945559817823,0.1886472702167639,0.0873944426385706,-0.1243510129828409,-0.1117444832028483,10.2459123554936,-0.9098792392921234,0.2027563794264918,-0.9562540800614884
2.36,0.0691217167526118,0.074403444185374,1.6608498555674178,0.0351745604329713,0.1052842975491085,0.0293874884225374,-0.0332824188231162,-0.0326431948708478,-0.1140385693335379,0.0709122258598317,0.0733392409767417,1.657290736003812,-0.0280742352557044,-0.0542585961581711,-0.1909758005919777,0.2367093344533058,0.1036269835652119,-0.156096143135664,-0.1446608149868945,10.215174787012074,-0.9076155985353176,0.2009035969519002,-0.9594100203203104
2.38,0.0684794072593066,0.0737120883798709,1.6585340725424973,0.0360797349366791,0.1060137706975825,0.0295209889453269,-0.0310642269958324,-0.0363092820002355,-0.1174166612677335,0.0703465531447142,0.0722897959994255,1.653561522399714,-0.0276554342553627,-0.0578312907428983,-0.2000060413661323,0.272818964419488,0.1109095913641928,-0.1833043564693843,-0.1689045967097832,10.188844336349575,-0.905678352895232,0.1994687240020527,-0.9622688774027636
2.4,0.0678820144177078,0.0729431475951444,1.6561462873413513,0.0362378053168333,0.1064064795037804,0.0295918195733096,-0.0288044471782753,-0.0403529590479856,-0.1212107660536634,0.066926195909515,0.0718966242798592,1.6526632394791103,-0.0307690182578798,-0.042418508495263,-0.1257876744844079,0.299387541561752,0.112988990877855,-0.2021838523875087,-0.1897052392964934,10.167354305451228,-0.9038933740213247,0.198550285189735,-0.9649620847979556
2.42,0.0673784452870263,0.0721133175954253,1.6539033807184886,0.0349425916859219,0.1061491565823859,0.0295383089858316,-0.0244533577895733,-0.0464405033696143,-0.1146689908292808,0.066926195909515,0.0718966242798592,1.6526632394791103,-0.0307690182578798,-0.042418508495263,-0.1257876744844079,0.4969532116372073,0.2175544694350982,-0.3043772160814317,0.3270887612191304,10.149017478011956,-0.9065520592393682,0.197974060916365,-0.9645651306838756
2.44,0.066931655415413,0.0711306736560238,1.6516757435369582,0.0318435892544659,0.1050179165352545,0.0293391392068498,-0.0205634951125872,-0.0510527059464543,-0.1085152688846573,0.066926195909515,0.0718966242798592,1.6526632394791103,-0.0307690182578798,-0.042418508495263,-0.1257876744844079,0.4309052622890571,0.1944931338493037,-0.2306101288420022,0.3076860972311766,10.803454393771062,-0.9085344038663448,0.2021582325402614,-0.96035390413648
2.46,0.0665531397121739,0.0700883842682453,1.6495545666954547,0.0281764254322629,0.1032247632390106,0.0290938909045629,-0.0175740794590798,-0.0528340386999664,-0.1038896656693879,0.0666185057269362,0.0714724391949065,1.6514053627342664,-0.0307099765102892,-0.0436403537942685,-0.1274618771277428,0.2894216536183863,0.1494707826753743,-0.0890666376756048,0.2312801607634661,10.705962452422682,-0.9107142774047092,0.2064433435499909,-0.9561407975137028
2.48,0.0662393143487969,0.0690828625904214,1.6476131897529929,0.024954313610175,0.1011063259639875,0.0288836075867433,-0.0156833862165906,-0.0529777580529563,-0.100687840163629,0.0660031253617786,0.0706240690250013,1.6488896092445784,-0.0305918930151082,-0.0460840443922795,-0.1308102824144125,0.1860582083579392,0.0945346621244572,-0.007185967649494,0.1600912752879477,10.611260143679829,-0.9132064818000618,0.2105974938596735,-0.951673637524176
2.5,0.0659366386841921,0.0680310810766014,1.6456253911360643,0.0221017789704271,0.09869677682844,0.0287122103179846,-0.0147815033144471,-0.052250162777068,-0.098301566563789,0.065387744996621,0.069775698855096,1.64637385575489,-0.0304738095199271,-0.0485277349902905,-0.1341586877010822,0.1326375639474664,0.0450941451071771,0.0363797637944134,0.1193136799920016,10.532800510520246,-0.9157060003052238,0.2141016673469452,-0.9474737596096072
2.52,0.0656394732613365,0.0670003451251795,1.6436757291004256,0.0198630888723352,0.096426191640548,0.0286018788975626,-0.0150695770768593,-0.0509422464574207,-0.0968171112615892,0.0647782688062224,0.0688051441552902,1.6436906820008683,-0.0303557260247461,-0.0509714255883015,-0.137507092987752,0.0999654832432078,-0.0144036881206128,0.0653958159823664,0.0742227651099894,10.416560450153156,-0.9180401460921104,0.2170229379621212,-0.9435787030690772
2.54,0.065324226967154,0.0660005381180106,1.6417511805308938,0.0182463819802092,0.0946811485085838,0.0285574575554575,-0.0164822140159904,-0.0492210328623006,-0.0957049302089267,0.0641687926158239,0.0678345894554844,1.641007508246847,-0.030237642529565,-0.0534151161863126,-0.1408554982744217,0.1244494481277962,-0.0706318469565544,0.0860606797560038,0.055609052633123,10.416560450153156,-0.9198811947596592,0.2191005477802435,-0.940598767652696
2.56,0.0649927311021436,0.0650859047386459,1.6399411055343047,0.0172944938134791,0.0937514320143608,0.0285775379930687,-0.0182644867914259,-0.0472066291746448,-0.0948815937649016,0.0635622685128049,0.0668029424907283,1.6382406243606586,-0.030119559034384,-0.0558588067843236,-0.1442039035610914,0.1406431776070179,-0.0891136387717745,0.1007201843827888,0.0411668222012565,10.398479434885305,-0.9215724150792608,0.2204568197420272,-0.938228520607335
2.58,0.0646079579795259,0.0641675989368837,1.638050129863433,0.0170064712545304,0.0934468925798549,0.028666117403244,-0.0200692851235079,-0.0447723643666633,-0.0942704899114997,0.0629586964971654,0.0657102032610219,1.6353900303423037,-0.0300014755392029,-0.0583024973823346,-0.1475523088477611,0.1545670574096082,-0.0902399166040989,0.1217132403990784,0.0305551926700932,10.380949420286017,-0.9224627324348552,0.2211527997902079,-0.9368257521887704
2.6,0.064189002122004,0.0632996750822771,1.636168387958365,0.0175555280191116,0.0936821509409428,0.0288263637384849,-0.0216825514922183,-0.0422047785866683,-0.0939464334807638,0.0636044937233505,0.0619289807185505,1.633336605367858,-0.025490600443344,-0.0429688601799809,-0.0998390240473182,0.1524806355274817,-0.0806633184355221,0.1283792889997491,0.0162028215367933,10.362618838752496,-0.9226759898437968,0.2210811780555665,-0.9363208367405342
2.62,0.0637771786697136,0.0624954886861692,1.6344274033980344,0.0180893325157541,0.0939947811681846,0.028983732447859,-0.0215610180060127,-0.0424518683045298,-0.0890773120355392,0.0636044937233505,0.0619289807185505,1.633336605367858,-0.025490600443344,-0.0429688601799809,-0.0998390240473182,0.2438450705124497,0.0060766743102798,-0.0123544858930745,0.2434560722612319,10.344251377031467,-0.924108926575145,0.219483266121683,-0.936711969188526
2.64,0.0633470314606764,0.0616478439015929,1.632696826280941,0.0180313281689032,0.0940518164782577,0.029104724928331,-0.0214995946856901,-0.0422339799743217,-0.0843073917867904,0.0636044937233505,0.0619289807185505,1.633336605367858,-0.025490600443344,-0.0429688601799809,-0.0998390240473182,0.2387644620130082,0.0030711660161329,0.0108944165104037,0.2384960124374419,10.654866567457248,-0.92527605635315,0.2210538665755309,-0.933657050508288
