t,x,y,z,roll,pitch,yaw,v_x,v_y,v_z,ref_x,ref_y,ref_z,ref_v_x,ref_v_y,ref_v_z,a_com,a_x,a_y,a_z,thrust,wind_x,wind_y,wind_z
0.0,-0.7382670102497112,1.5958369976605236,2.940114671191961,0.0280807423147673,0.0996400746488651,0.0419249351283584,0.0015513562377797,-0.0082136344048873,-0.0014030184042742,-0.7382246818329022,1.5956354989950945,2.940072886596198,-0.0419997057589604,-0.1071720130732852,-0.1013979696749239,0.423789325480182,0.0775678118889871,-0.4106817202443662,-0.070150920213711,10.261374156762033,-0.9395435388064112,0.2525840491929675,-0.8824673540328565
0.02,-0.7381771055597951,1.595942895513286,2.940003268887764,0.0340639842958093,0.0970080773176077,0.0422519187530236,0.0077074329067619,0.0149384718562304,-0.0103033099988603,-0.7382246818329022,1.5956354989950945,2.940072886596198,-0.0419997057589604,-0.1071720130732852,-0.1013979696749239,1.277822850348529,0.3078038334491109,1.1576053130558868,-0.4450145797293087,10.261625889586869,-0.9463484039729106,0.2537778801268722,-0.8698867512456168
0.04,-0.7379805338191949,1.5962669544027517,2.9396520540724778,0.0472587043846432,0.0895050457148477,0.0428280507877526,0.0119075298269753,0.0172014172401333,-0.0261930916734051,-0.7382246818329022,1.5956354989950945,2.940072886596198,-0.0419997057589604,-0.1071720130732852,-0.1013979696749239,0.8295283262409018,0.2100048460106682,0.1131472691951451,-0.7944890837272397,9.674175361347352,-0.9440034388841088,0.2410980256082397,-0.8761966772111587
0.06,-0.7377454993872721,1.5965657564969788,2.938931258496575,0.0618734433710174,0.0784386414333885,0.0431593719243921,0.0108355774991669,0.0121568516985581,-0.045145828018379,-0.7386446788904918,1.5945637788643616,2.9390589068994486,-0.0506898565861299,-0.1271720133713084,-0.1213979699729471,0.9820933487434296,-0.0535976163904178,-0.252228277078759,-0.9476368172486914,9.197255122497154,-0.94581654085221,0.2251590119953234,-0.8813741526749391
0.08,-0.7375886640129476,1.5967216281138623,2.9378168890696656,0.0759805708064919,0.0663358270642748,0.0431768100092697,0.0045894569739817,0.0033434791575269,-0.0653817983321097,-0.739484673005671,1.592420338602896,2.93703094750595,-0.0680701582404687,-0.1671720139673549,-0.1613979705689936,1.1469351024582153,-0.3123060262592632,-0.4406686270515599,-1.0117985156865363,9.197255122497154,-0.9494034485821627,0.208509939163055,-0.8863156186726906
0.1,-0.7375975094126156,1.5966777174784674,2.9363753384305395,0.0887526693522809,0.0553676271550754,0.0429931178184398,-0.0053237275610545,-0.0077979885861678,-0.0853955610448952,-0.7403246671208502,1.5902768983414302,2.935002988112452,-0.0854504598948075,-0.2071720145634014,-0.20139797116504,1.2479525522161832,-0.4956592267518137,-0.557073387184738,-1.0006881356392725,9.15878769358551,-0.9539484216119214,0.1900342710862553,-0.8921349400619604
0.12,-0.7378423123270729,1.596375268542078,2.93443835181424,0.1015437687630314,0.0453455121650923,0.0427051873203272,-0.0187433277312253,-0.0221592243778185,-0.1073235409562686,-0.7420336763187464,1.5861334580501625,2.930975028689151,-0.1028307615491464,-0.2471720151594478,-0.2413979717610865,1.4723850253790898,-0.6709800085085402,-0.7180617895825341,-1.096398995568671,9.14552697527688,-0.9587812898494488,0.1716601851898466,-0.8978205867315291
0.14,-0.738381083060998,1.595758871578585,2.932052643752024,0.1136986883240436,0.0374486098645594,0.0424319331462074,-0.034506013587623,-0.0390419510318644,-0.1302313498831359,-0.7437426855166425,1.581990017758894,2.92694706926585,-0.1202110632034852,-0.2871720157554943,-0.281397972357133,1.6265426788994604,-0.7881342928198822,-0.844136332702299,-1.145390446343364,9.130723594927986,-0.9621001337800544,0.1527361292842542,-0.905877362072251
0.16,-0.7392603675299919,1.5947791303507466,2.929200284432018,0.1252525676080922,0.0322897825643847,0.0423099844220997,-0.0526193041340651,-0.0583551682675699,-0.1539280011789136,-0.7458862022558971,1.576846577452725,2.921919109827648,-0.1375913648578241,-0.3271720163515407,-0.3213979729531794,1.7766702965428494,-0.9056645273221062,-0.965660861785271,-1.184832564788886,9.113668175519706,-0.9626174348273489,0.1341819055563741,-0.9169485259844692
0.18,-0.7404484514568297,1.5934685502842925,2.9260457802796087,0.1357030489716311,0.0306260343107193,0.0424927584655953,-0.0712587064621962,-0.078843845397123,-0.1769711328978513,-0.7484642265365102,1.5707031371316549,2.915891150374545,-0.1549716665121629,-0.3671720169475871,-0.3613979735492258,1.801526525675743,-0.9319701164065568,-1.0244338564776545,-1.1521565859468854,9.117155104589983,-0.9624348998332548,0.1164741844420653,-0.9274581533683544
0.2,-0.742067723842339,1.5916383457332195,2.9222463141269017,0.1458881356349032,0.0320748166374646,0.0430297635444563,-0.0893418172293467,-0.1031707866623852,-0.2017823568929018,-0.7440113867799395,1.5895263580144363,2.9171972236347163,-0.1025941571710624,-0.1788438468872391,-0.2769711343879674,1.9585682286259007,-0.9041555383575234,-1.216347063263111,-1.240561199752524,9.123947988532564,-0.9602603369044018,0.099734684217169,-0.9392395648876112
0.22,-0.7440526697757611,1.5891147072355587,2.9181479029027764,0.1502014363177193,0.0371733158093622,0.0436836278524891,-0.1077984940574879,-0.1460077400571799,-0.2052721667705838,-0.7440113867799395,1.5895263580144363,2.9171972236347163,-0.1025941571710624,-0.1788438468872391,-0.2769711343879674,2.338713465063979,-0.9228338414070608,-2.1418476697397355,-0.174490493884101,10.627377886014074,-0.9601029420312333,0.0848653132456195,-0.952232409416502
0.24,-0.7463695747018441,1.5858023817112592,2.9140078929967834,0.1474598712146836,0.0459037926548634,0.0443680360044479,-0.1224210083247919,-0.18188402034424,-0.2084683889913659,-0.7440113867799395,1.5895263580144363,2.9171972236347163,-0.1025941571710624,-0.1788438468872391,-0.2769711343879674,1.9436700126422115,-0.7311257133651994,-1.7938140143530068,-0.159811111039107,10.373164928447297,-0.956120300984201,0.0854130490547252,-0.9579389862129032
0.26,-0.7488003412334527,1.5820600862186989,2.9099851628497406,0.1419091920520886,0.0558229517681717,0.0449977860658123,-0.1323849038261587,-0.2095867814410886,-0.2147126519136005,-0.7450373283516502,1.587737919545564,2.9144275122908367,-0.1088612473128356,-0.1988438471852623,-0.2969711346859907,1.5047533065200562,-0.498194775068337,-1.3851380548424288,-0.3122131461117297,10.373164928447297,-0.9482449856671876,0.0886618365904565,-0.967224549303825
0.28,-0.7515245534337903,1.5776071085515706,2.9055895740078674,0.1353934406432703,0.0665671962559111,0.0455786108032804,-0.1392082001080867,-0.2340211554787736,-0.2246945610169133,-0.7470892114950713,1.5841610426078192,2.908888089603077,-0.121395427596382,-0.2388438477813087,-0.3369711352820371,1.363116389116559,-0.3411648140964035,-1.22171870188425,-0.4990954551656379,10.103879235753991,-0.9382507035211314,0.0918036588934342,-0.9790608360861576
0.3,-0.7543510490066507,1.5726979720531264,2.900957641706183,0.1291959287190626,0.0766119141973657,0.0460075306923549,-0.1429055309239457,-0.2555901555558126,-0.2381703487972566,-0.7491410946384927,1.5805841656700743,2.903348666915318,-0.1339296078799285,-0.2788438483773552,-0.3769711358780835,1.2849989064062048,-0.1848665407929467,-1.0784500038519482,-0.6737893890171653,9.674592193886385,-0.9279328558673142,0.0948196662130416,-0.9908117270421172
0.32,-0.7572252122501238,1.567379917164274,2.8960236486459303,0.1236833716869508,0.0853092969423114,0.0462427011089813,-0.1442184595451373,-0.2751415820178733,-0.2547176711862096,-0.7518196867960912,1.5750072887025273,2.895809244197756,-0.1464637881634749,-0.3188438489734016,-0.41697113647413,1.2823766378385677,-0.0656464310595822,-0.977571323103038,-0.8273661194476506,9.674592193886385,-0.9181580501199708,0.0968221008451898,-1.002079965033197
0.34,-0.7599611836284254,1.561980499794405,2.891011570943944,0.1192330040598374,0.0919692079009661,0.0462743356478249,-0.1437355596749693,-0.2923765206536282,-0.2720851012092629,-0.7544982789536898,1.56943041173498,2.8882698214801947,-0.1589979684470214,-0.3588438495694481,-0.4569711370701765,1.223625685890599,0.0241449935084014,-0.8617469317877408,-0.8683715011526649,9.51655699171988,-0.9083848131146744,0.0975225230122957,-1.014053621633958
0.36,-0.7628210748461303,1.5559446570919615,2.885364892317043,0.1151256802231573,0.0972590084837759,0.0461055241889308,-0.142287483316902,-0.3102583103549657,-0.291749294995881,-0.757490225618377,1.562853534752532,2.879730398747732,-0.1715321487305678,-0.3988438501654945,-0.4969711376662229,1.3309168318675306,0.0724038179033631,-0.8940894850668762,-0.9832096893309022,9.445049993280918,-0.8994730168682182,0.0973331926267056,-1.0255241434486295
0.38,-0.7656457763553637,1.549555704089162,2.879312928779511,0.1113007269217255,0.1009321595957204,0.0457418040006253,-0.1402963822647434,-0.3276602332485698,-0.312518284603366,-0.7607955267901529,1.5552766577551824,2.870190976000368,-0.1840663290141143,-0.438843850761541,-0.5369711382622694,1.3584387482609168,0.099555052607933,-0.8700961446802075,-1.038449480374254,9.341717602887002,-0.891817739243126,0.0968334543876864,-1.0358975185251822
0.4,-0.7684282160467573,1.542825406436805,2.8728345748231416,0.1076228720187546,0.1031884899287786,0.0452096948811537,-0.1381398768778518,-0.344408732889144,-0.3342922978767602,-0.7726605954686009,1.5331726924267337,2.8636870145493427,-0.1560380453183751,-0.427660234738686,-0.4125182860934822,1.377743090822768,0.1078252693445774,-0.8374249820287061,-1.0887006636697087,9.341717602887002,-0.8855854142406636,0.0961468288410487,-1.044942009225528
0.42,-0.7710208156368606,1.5361145517541137,2.8665119599146145,0.1046406665553334,0.1046774594881201,0.0446544431900043,-0.1347266820685486,-0.3614196030452952,-0.328787553244402,-0.7726605954686009,1.5331726924267337,2.8636870145493427,-0.1560380453183751,-0.427660234738686,-0.4125182860934822,0.910112377323768,0.1706597404651594,-0.8505435078075635,0.2752372316179086,9.300942166552886,-0.8884754068750365,0.0951516684632098,-1.0463757967695777
0.44,-0.773675808616304,1.5287111086487284,2.85997825569206,0.1024888894989012,0.1060704306320026,0.0441075676422885,-0.1309608729481025,-0.3781910088864908,-0.3253463719539323,-0.7726605954686009,1.5331726924267337,2.8636870145493427,-0.1560380453183751,-0.427660234738686,-0.4125182860934822,0.876503138750232,0.1882904560223053,-0.8385702920597787,0.1720590645234887,11.034813917735846,-0.8858242511950245,0.0966812680230171,-1.0484614559753809
0.46,-0.7762565223376419,1.520973888612879,2.853444737393419,0.1011000288580733,0.1070979291396826,0.0435642899407569,-0.1273229304183785,-0.3947407849464899,-0.3281574782856059,-0.7742209759217846,1.528896090079347,2.859561831688408,-0.1591863779291015,-0.4476602350367092,-0.4325182863915054,0.8588248254063062,0.1818971264862023,-0.8274888029999539,-0.1405553165836792,10.325514534568356,-0.8840294661364647,0.0974610795327097,-1.0499766238911383
0.48,-0.7786431657149463,1.513322029300739,2.8471408689860582,0.1002511148341146,0.1076482785429893,0.0430276125164461,-0.1241214620386028,-0.4099138125942283,-0.3352629955315734,-0.7773417368281521,1.520342885384573,2.851311465966538,-0.1654830431505542,-0.4876602356327556,-0.4725182869875518,0.8528753471617059,0.1600734189887841,-0.7586513823869212,-0.3552758622983765,10.325514534568356,-0.8820751329816714,0.097137992776461,-1.0523399701009328
0.5,-0.7810936858537482,1.5049627745472882,2.8403223991957383,0.0999062711749321,0.1077855949903489,0.04244626158423,-0.1211485019276504,-0.4252298152407389,-0.3463793643562799,-0.7804624977345196,1.5117896806897997,2.8430611002446686,-0.1717797083720069,-0.5276602362288021,-0.5125182875835983,0.9578518736424502,0.1486480055476177,-0.7658001323255309,-0.5558184412353256,10.067689089501982,-0.8797742933822412,0.0956175239493583,-1.0557656111050029
0.52,-0.7834893138792675,1.4963004926503924,2.833248632562558,0.1001990532708133,0.107530915304043,0.0418592083589885,-0.1186114320851125,-0.4402645978841468,-0.3605690076628495,-0.7838980919019597,1.5012364759652237,2.832810734492997,-0.1780763735934596,-0.5676602368248486,-0.5525182881796448,1.041426173197251,0.1268534921268958,-0.7517391321703926,-0.7094821653284789,9.861701497833565,-0.8773132186950545,0.0929311658598411,-1.059981895276736
0.54,-0.7858375958001683,1.4873374792408849,2.8258741953660524,0.1011365571986171,0.1069617100273997,0.0412735304005971,-0.1163871446038411,-0.4553536812758395,-0.3761682121031929,-0.7873336860693998,1.4906832712406477,2.8225603687413248,-0.1843730388149123,-0.607660237420895,-0.5925182887756912,1.0908288953502607,0.1112143740635722,-0.7544541695846341,-0.7799602220171731,9.70338420774806,-0.8751544754203237,0.0893650009826061,-1.0643547041024128
0.56,-0.7880303600137791,1.4785296418236409,2.818570217472307,0.1022507591361903,0.1062295052194814,0.0407010383239768,-0.1145754431114356,-0.4709540250154453,-0.3918905894987878,-0.7909266968673763,1.4791300665011702,2.811310002974752,-0.1906697040363651,-0.6476602380169414,-0.6325182893717376,1.1111324606690218,0.0905850746202703,-0.7800171869802947,-0.786118869779745,9.645973187731215,-0.873014798165411,0.085108200026543,-1.0691320167031744
0.58,-0.7903049509248489,1.4689292434858323,2.810548617612693,0.10312991875203,0.1053661877901942,0.0400556112081554,-0.1130126027359395,-0.4882127230870172,-0.4094879201972974,-0.7946771242958891,1.4665768617467918,2.799059637193277,-0.1969663692578178,-0.6876602386129879,-0.6725182899677841,1.2348797278254129,0.0781420187748051,-0.862934903578591,-0.8798665349254803,9.60819802254082,-0.8709185986538266,0.0810238196373083,-1.0739717828754825
0.6,-0.7925516163867236,1.4589736513638971,2.8021649665997845,0.1032320782372465,0.1044945108908046,0.0393436115133965,-0.1117599645906689,-0.5063809476188316,-0.4280240746828229,-0.7959555810616459,1.4445186073314815,2.790074221602828,-0.1230961915074616,-0.5882127245771334,-0.5094879216874135,1.2992714382228538,0.0626319072635328,-0.908411226590719,-0.9268077242762712,9.5592713929409,-0.8694070932401043,0.0780265565577815,-1.0779188897305865
0.62,-0.7946531128334015,1.4491124951991097,2.794138252491707,0.1011869258779938,0.1043191400133537,0.0385777326830974,-0.1093662675289945,-0.530091429401679,-0.4158832033454184,-0.7959555810616459,1.4445186073314815,2.790074221602828,-0.1230961915074616,-0.5882127245771334,-0.5094879216874135,1.3372709979929434,0.1196848530837194,-1.1855240891423702,0.6070435668702245,9.52068120392778,-0.8792158069031526,0.0779787287636777,-1.0712579421952306
0.64,-0.7968127737646064,1.4382911757125831,2.785916645520276,0.096919070146181,0.1051525522059561,0.0377235574459914,-0.1066693408318603,-0.5502513707241775,-0.4072755096028653,-0.7959555810616459,1.4445186073314815,2.790074221602828,-0.1230961915074616,-0.5882127245771334,-0.5094879216874135,1.1042973323587797,0.134846334856712,-1.0079970661249271,0.4303846871276523,11.459979818492684,-0.8778648807356854,0.0819813746932164,-1.0717201719108216
0.66,-0.7989163825399413,1.4271053367818145,2.7777975776000914,0.0922629755555292,0.1065110156795035,0.0368897362131867,-0.1037820430489336,-0.5671461623362716,-0.4053252046209932,-0.7971865429767205,1.4386364800857103,2.7849793423859537,-0.125112909261766,-0.6082127248751565,-0.5294879219854367,0.8625169007412153,0.1443648891463346,-0.8447395806047031,0.0975152490936076,10.605153561010413,-0.8753854358458966,0.0861104369480851,-1.0733920656199782
0.68,-0.8009610951040066,1.4156068839731637,2.7696519574330343,0.0878277936677861,0.1079888299026471,0.0360787472279302,-0.1007946412620071,-0.5818299830695948,-0.4093065663152943,-0.7996484668068697,1.4268722255941677,2.774789583952205,-0.1291463447703748,-0.648212725471203,-0.5694879225814832,0.7752264212888895,0.1493700893463234,-0.7341910366661597,-0.1990680847150538,10.605153561010413,-0.8733425627891708,0.0897855609374989,-1.074773368909761
0.7000000000000001,-0.8028475750073036,1.4044272676671583,2.761796375067324,0.08407117221407,0.1092823970255262,0.0353281203692173,-0.0979165553576522,-0.5942912156467078,-0.4173995145392546,-0.8021103906370189,1.415107971102625,2.764599825518457,-0.1331797802789837,-0.6882127260672495,-0.6094879231775296,0.7567389027423083,0.1439042952177442,-0.6230616288556534,-0.4046474111980169,10.279968459200973,-0.8704613462306781,0.0925029042036753,-1.077683029780376
0.72,-0.8047745624944092,1.392416281114054,2.7533243294077336,0.0807360829659448,0.1104132896719225,0.0345607730244985,-0.0949352805675143,-0.6062081763188274,-0.4295563459347145,-0.8047739862425987,1.40134371658128,2.7524100670549063,-0.1372132157875925,-0.728212726663296,-0.6494879237735761,0.864133237141118,0.149063739506898,-0.5958480336059779,-0.6078415697729933,10.02585284748693,-0.8669140977806256,0.0940402779741648,-1.081876339695473
0.74,-0.8066411601347115,1.3801751922911674,2.744585580326413,0.0780854121528606,0.1112480759354761,0.0338175609394368,-0.0918796746267886,-0.617439628784092,-0.4437169823171066,-0.8074375818481784,1.387579462059935,2.740220308591356,-0.1412466512962013,-0.7682127272593424,-0.6894879243696226,0.9165231515063096,0.1527802970362812,-0.561572623263229,-0.7080318191196061,9.819358307174298,-0.8633900062330625,0.0944319980661659,-1.0866819581665703
0.76,-0.8084462791375151,1.3677050346350723,2.7355492154152112,0.07575698328201,0.1117821531022257,0.0330747195362193,-0.0888027182469187,-0.6289429662202387,-0.4592150669932508,-0.8102020133414732,1.372815207523689,2.727030550112904,-0.1452800868048101,-0.8082127278553888,-0.7294879249656689,0.9772219059180132,0.1538478189934987,-0.5751668718073366,-0.774904233807211,9.730298958464118,-0.860136944670136,0.0943246408941077,-1.0914379211908292
0.78,-0.8101047733819297,1.3556471471321434,2.726665637942032,0.0735721629986853,0.112039158445681,0.0323543075682451,-0.0859481125864453,-0.6396380901099061,-0.475125092463637,-0.8130672807224834,1.3570509529725416,2.712840791619551,-0.1493135223134189,-0.8482127284514352,-0.7694879255617154,0.96910185089143,0.1427302830236697,-0.5347561944833712,-0.7955012735193084,9.666988083123217,-0.8567427222976818,0.0940560364617383,-1.096617785427782
0.8,-0.8117937611126422,1.3427408568676007,2.7169745032132475,0.0712665145590065,0.1120928603631357,0.0315832848790544,-0.0831238457007725,-0.6503481798847696,-0.4932128983906706,-0.8144021790112519,1.3236652426266482,2.7029093833188504,-0.0699284106287426,-0.7396380916000223,-0.5751250939537531,1.0604848297844425,0.1412133442836395,-0.5355044887431715,-0.9043902963516814,9.604898748505548,-0.8543150141885923,0.0940988115269822,-1.1006516998624791
0.8200000000000001,-0.8134423884024485,1.3295941119351036,2.707226646698288,0.0687135899609578,0.1135724923162115,0.030898634270208,-0.0814837896966129,-0.6636583701776346,-0.4790129625505471,-0.8144021790112519,1.3236652426266482,2.7029093833188504,-0.0699284106287426,-0.7396380916000223,-0.5751250939537531,0.9765873324909092,0.0820028002079788,-0.6655095146432533,0.7099967920061762,9.532467238470415,-0.8580970239538963,0.0931733980292775,-1.1006063859271296
0.84,-0.8150445427397494,1.316204960927926,2.697760753332544,0.0662823835223669,0.1176807511714103,0.0304012518006531,-0.078418508521634,-0.6746745563106309,-0.4684830913980126,-0.8144021790112519,1.3236652426266482,2.7029093833188504,-0.0699284106287426,-0.7396380916000223,-0.5751250939537531,0.7772234107505347,0.1532640587489461,-0.5508093066498132,0.5264935576267255,11.153784511131562,-0.8536526436956665,0.0959900231774639,-1.1027909889237442
0.86,-0.8164891810495323,1.303291584500251,2.688894883573785,0.0644128493398076,0.1229311040036003,0.0300438228925564,-0.0735619804385027,-0.6841497899275565,-0.4652933587923838,-0.8151014631175393,1.316268861710648,2.697158132379313,-0.0667244702372021,-0.7596380918980454,-0.5951250942517763,0.5557434462343455,0.2428264041565646,-0.4737616808462797,0.1594866302814357,11.153784511131562,-0.8471542808569753,0.0983205657744268,-1.1067332308270517
0.88,-0.8178901541536409,1.2895142467456475,2.679571411148295,0.0629633650095866,0.1289131767252907,0.0297281278703751,-0.0666078757621075,-0.6931084067603408,-0.4674841227449584,-0.8165000313301142,1.3014760998786477,2.685655630500238,-0.060316589454121,-0.7996380924940919,-0.6351250948478228,0.5775288609732164,0.3477052338197603,-0.4479308416392158,-0.1095381976287279,10.72076005884628,-0.8396271335144592,0.0996731130919769,-1.112018844275108
0.9,-0.8191343249092565,1.2755678158883683,2.670148849093927,0.062237553857966,0.1346485949532361,0.0294452495050802,-0.0580461997769803,-0.7011796316364686,-0.4746698255263626,-0.8178985995426891,1.2866833380466471,2.6741531286211626,-0.05390870867104,-0.8396380930901384,-0.6751250954438692,0.6893498588126472,0.4280837992563582,-0.4035612438063884,-0.359285139070209,10.391504201868884,-0.8314880021837343,0.0996610873381121,-1.118610748371758
0.92,-0.820145012003321,1.262175754995028,2.661028875762056,0.0623983167053563,0.1394391737928264,0.0291964667017079,-0.0487327574255996,-0.708218342052092,-0.4849866930613857,-0.8189767737161099,1.2698905761848445,2.660650626712285,-0.0475008278879589,-0.8796380936861848,-0.7151250960399157,0.7789759439204644,0.4656721175690367,-0.3519355207811714,-0.5158433767511544,10.137414092101608,-0.8232091166133203,0.0984452862573395,-1.125693810086854
0.94,-0.8210070956482223,1.2479379972993578,2.65120006759071,0.0636864273952217,0.1435503124029866,0.0289594377404884,-0.0379340880013797,-0.7153018172524807,-0.4974315928143038,-0.8200549478895307,1.2530978143230416,2.647148124803408,-0.0410929471048779,-0.9196380942822312,-0.7551250966359622,0.896747472965889,0.5399334712109918,-0.3541737600194328,-0.6222449876459063,9.873450167072406,-0.8161477573001001,0.0958094448941393,-1.1321238088901973
0.96,-0.8216429828036396,1.2335460140295866,2.6411105739087475,0.06592795007201,0.1465559954516626,0.0287247844035628,-0.0262078101749351,-0.7236348872749112,-0.5109451503697002,-0.8209729250433744,1.2353050524463376,2.6326456228796293,-0.0346850663217968,-0.9596380948782776,-0.7951250972320085,0.9868661072616552,0.5863138913222318,-0.4166535011215277,-0.6756778777698202,9.873450167072406,-0.8099529120070134,0.0918060608883778,-1.1383728428760658
0.98,-0.8220382221737503,1.218967856202059,2.6307407281188104,0.0683611315966841,0.1483735972790269,0.028429302310743,-0.0139573314462732,-0.7338000610656462,-0.5254061566271542,-0.8217307051776411,1.2165122905547323,2.6171431209409497,-0.0282771855387158,-0.999638095474324,-0.835125097828055,1.075320521118431,0.6125239364330941,-0.5082586895367502,-0.7230503128726973,9.83300152485026,-0.804992934733287,0.0875354632777633,-1.1439281480660195
1.0,-0.8221845568503633,1.204917833243881,2.620612403477835,0.0702119989863392,0.1490049811266994,0.028042318365219,-0.0021725728404905,-0.744492127304098,-0.5400034917314068,-0.822736088746064,1.1822778531487763,2.604470420287453,0.0073442025805879,-0.8338000625557623,-0.6254061581172703,1.0796793597983816,0.5892379302891375,-0.5346033119225879,-0.7298667552126326,9.797600504384718,-0.8009428624470901,0.0834041975638873,-1.1490276759245233
1.02,-0.8220562317228165,1.189840022592623,2.609955112078458,0.0701479307638738,0.1488065501028383,0.0274334406915295,0.014540467177395,-0.7624342574382045,-0.5232985228332724,-0.822736088746064,1.1822778531487763,2.604470420287453,0.0073442025805879,-0.8338000625557623,-0.6254061581172703,1.4834939553940676,0.8356520008942755,-0.8971065067053252,0.8352484449067221,9.761568835093383,-0.8016437736880474,0.0776087817621169,-1.154571469207606
1.04,-0.8215956203849597,1.1744215062754255,2.599633359561361,0.0673197795973438,0.147962330238856,0.0265916585147872,0.0305463949027129,-0.7781954415017345,-0.5098546699523864,-0.822736088746064,1.1822778531487763,2.604470420287453,0.0073442025805879,-0.8338000625557623,-0.6254061581172703,1.308951704337752,0.8002963862658995,-0.7880592031764999,0.6721926440443005,11.92123908668782,-0.8016473193612966,0.0816167437187587,-1.1526518069525753
1.06,-0.8208720828754014,1.1595159978408085,2.590009577496964,0.0632687341330065,0.1464710362516407,0.0256638483671927,0.0447367923086368,-0.7896762443936935,-0.5037978108704064,-0.8226626467202581,1.173939852523219,2.59821635870628,0.0116045093859601,-0.8538000628537855,-0.6454061584152935,0.9615895115913916,0.7095198702961913,-0.5740401445979537,0.3028429540989974,11.442469929120309,-0.8029098949030152,0.0872022166019882,-1.149746744366956
1.08,-0.8198307535846262,1.1436244446186452,2.5799457347025805,0.0589700935008984,0.1439701642072087,0.0246476457258857,0.0585353011015235,-0.7988236975831723,-0.5031552102797754,-0.8225157626686463,1.1572638512721036,2.585708235543935,0.0201251229967046,-0.893800063449832,-0.6854061590113399,0.8283834864966756,0.6899254396443341,-0.4573726594739369,0.0321300295315518,10.985289757535613,-0.8055832869086597,0.0927324995110846,-1.1458950397260297
1.1,-0.8185267987460255,1.1275697656236208,2.5698347977592304,0.0552270122393754,0.140358763050014,0.0236315325578377,0.0710524136577939,-0.8062933174165694,-0.5079361861051889,-0.8223688786170346,1.1405878500209885,2.5732001123815893,0.0286457366074491,-0.9338000640458785,-0.7254061596073864,0.7670251903376603,0.6258556278135198,-0.3734809916698556,-0.239048791270674,10.615177876648886,-0.8084554813307964,0.0968233656410482,-1.1428326628682148
1.12,-0.8170703431823367,1.112190243746719,2.560101628327745,0.0523379838407301,0.1358657658592176,0.0226806954508093,0.0815059045934703,-0.8123786140001323,-0.5163536920586158,-0.8217959638848856,1.121911848740071,2.558691989189441,0.0371663502181935,-0.9738000646419248,-0.7654061602034329,0.7368186916198746,0.5226745467838203,-0.3042648291781469,-0.420875297671347,10.313088405130657,-0.8122959352267284,0.0997789978264472,-1.1398513647272477
1.14,-0.8153428858486051,1.095883197797797,2.5496628768663334,0.0500593136423471,0.1302557634898236,0.0217140969049902,0.0904109757747218,-0.8181431054156477,-0.5271535484942504,-0.8212230491527366,1.1032358474591537,2.5441838659972937,0.045686963828938,-1.0138000652379715,-0.8054061607994794,0.7569124008975987,0.4452535590625792,-0.2882245707757691,-0.5399928217817318,10.076762855671404,-0.8161465711238537,0.101202460128013,-1.1379151605054365
1.16,-0.8134617638151441,1.0794553625711658,2.538990052996967,0.048263951534132,0.1243329221706784,0.0207904538894166,0.0970791252462622,-0.8243480489161285,-0.5395677538899638,-0.820437119080319,1.083559846163335,2.528675742790245,0.0542075774396825,-1.053800065834018,-0.8454061613955257,0.7698669314010056,0.3334074735770159,-0.3102471750240365,-0.6207102697856681,9.962923326250348,-0.8203304197066179,0.1017327469630207,-1.1361343772234471
1.18,-0.811570582828177,1.0637337033119534,2.5286072436837745,0.0466836393480295,0.1188361299125031,0.0199497680560259,0.1015502391966248,-0.8302061959709246,-0.5527265927704474,-0.8194381736676328,1.0628838448526148,2.5121676195682947,0.062728191050427,-1.0938000664300642,-0.8854061619915722,0.7540951325185564,0.2235556975181296,-0.2929073527398074,-0.6579419440241818,9.877173420694817,-0.8248324467313892,0.1018669270868578,-1.134522580864631
1.2,-0.8095067378582725,1.0470676754332808,2.517392611867713,0.0450825845203659,0.1135260804757626,0.0191135565122581,0.104448024595342,-0.8360445968028625,-0.5681104082205698,-0.8064930708683458,1.022223393513407,2.500970914045252,0.1291096294881964,-0.9302061974610408,-0.6527265942605636,0.835382939577435,0.1448892699358599,-0.2919200415968936,-0.7691907725061176,9.794676419259304,-0.8287811071757689,0.1018320804940369,-1.133471043666901
1.22,-0.8073987127338266,1.0302521443261603,2.506196141190091,0.0429185082385952,0.1101831125128917,0.0183475237435773,0.10608461331862,-0.844901865036229,-0.5489859566526122,-0.8064930708683458,1.022223393513407,2.500970914045252,0.1291096294881964,-0.9302061974610408,-0.6527265942605636,1.056970045675516,0.0818294361639014,-0.4428634116683261,0.9562225783978806,9.704024134521203,-0.8295930630950049,0.0969456492974874,-1.1417039835536895
1.24,-0.8052763703861322,1.0132896440033574,2.4953779359047736,0.0405350950173874,0.1105954900341308,0.017745392890399,0.106607276084162,-0.8509547824162449,-0.533982049946636,-0.8064930708683458,1.022223393513407,2.500970914045252,0.1291096294881964,-0.9302061974610408,-0.6527265942605636,0.8093642591834339,0.0261331382771012,-0.3026458690007949,0.7501953352988089,12.05867763713104,-0.8329756263703442,0.1019335103739209,-1.1346417295030982
1.26,-0.8032346294236377,0.9970771489451952,2.4853040020006456,0.0387200795333729,0.1135270977853474,0.0173181293215418,0.1085928544997276,-0.8554466752739673,-0.5271712244095922,-0.8052019745734638,1.0129213315387966,2.494443648102646,0.1346215075465107,-0.950206197759064,-0.6727265945585867,0.4198421357655346,0.0992789207782812,-0.2245946428861223,0.3405412768521909,10.971514748934167,-0.8320937102258397,0.105917541270487,-1.131745130643255
1.28,-0.8010258770255932,0.9799299297027886,2.474778346615326,0.0375009153783773,0.1181371141756653,0.0169834468929834,0.1124151502925394,-0.8590865853007312,-0.526028381803884,-0.8026197819836999,0.994317207589576,2.4813891162174357,0.1456452636631394,-0.9902061983551104,-0.7127265951546332,0.2700230515720135,0.1911147896405896,-0.1819955013381946,0.0571421302854091,10.971514748934167,-0.8280316173670303,0.1082728111833628,-1.132627965825347
1.3,-0.7987226701025366,0.9627209725043424,2.464215724999859,0.0373476097097915,0.1234222534768593,0.0167580000799909,0.1179161066240072,-0.8617898214425115,-0.5302870630946374,-0.800037589393936,0.975713083640355,2.468334584332224,0.156669019779768,-1.0302061989511568,-0.7527265957506797,0.3731768097536188,0.2750478165733906,-0.1351618070890126,-0.2129340645376676,10.595713637190784,-0.8223587918982829,0.1088843422212896,-1.1358049744810643
1.32,-0.796417473291985,0.9463280331331648,2.4540645184846355,0.0384598527684983,0.1284607410108396,0.0166450830062064,0.1245757398645216,-0.8638306633453033,-0.5380629883556847,-0.7969042089983407,0.955108959661332,2.4532800524172105,0.1676927758963967,-1.0702061995472032,-0.7927265963467262,0.52196926211164,0.3329816620257157,-0.1020420951395928,-0.3887962630523656,10.096888261497044,-0.8153921824558229,0.1074189377736098,-1.1410120143490063
1.34,-0.7938391385455823,0.9290302274881044,2.443201752992548,0.0411827199936403,0.133357304861372,0.0166371623241494,0.1330110794723493,-0.8661895640253031,-0.5478936195452611,-0.7937708286027453,0.9345048356823088,2.4382255205021965,0.1787165320130253,-1.1102062001432498,-0.8327265969427726,0.6583325077477239,0.4217669803913866,-0.1179450339999887,-0.4915315594788194,10.096888261497044,-0.807887317292219,0.1035351457931576,-1.1477272308311883
1.36,-0.7910753788294116,0.9116537578267332,2.432129676479786,0.0446795937906046,0.1374677448592347,0.0166718386591749,0.142947237323749,-0.8714658080314,-0.558843480634068,-0.7903618543042342,0.9129007116883844,2.4221709885722817,0.189740288129654,-1.150206200739296,-0.872726597538819,0.7849608931723475,0.4968078925699837,-0.2638122003048415,-0.5474930544403456,10.01815338578399,-0.8012503799247177,0.0987333476904484,-1.1541635266411
1.38,-0.7882554380596307,0.8950300378581822,2.421399451116785,0.0477327169431572,0.1404052582719829,0.0166590064315935,0.1533447670606117,-0.878054731765588,-0.5701170162082555,-0.7866772861028075,0.890296587679559,2.405116456627466,0.2007640442462826,-1.1902062013353425,-0.9127265981348656,0.8345884389122024,0.5198764868431349,-0.3294461867094034,-0.5636767787093766,9.979511368649582,-0.795186053293166,0.0938190055724855,-1.1603829123939744
1.4,-0.7850689918283221,0.8773883739918793,2.409861810689106,0.0503837586301107,0.1424024957857416,0.0165656815636542,0.1647070817357805,-0.8856982415160698,-0.5831083249401731,-0.7805881997066001,0.8511273012699029,2.392893600306372,0.204268349227045,-0.9719117668064434,-0.6701170176983716,0.9437949176744714,0.5681157337584425,-0.382175487524089,-0.6495654365958781,9.943940850273066,-0.7901932099140953,0.0894451920067837,-1.1658751182989484
1.42,-0.781631814695235,0.8594939358593119,2.3983896797715705,0.0499578832958934,0.1442450736196871,0.0162583973338447,0.1787587911653484,-0.902703010165616,-0.5616540486741192,-0.7805881997066001,0.8511273012699029,2.392893600306372,0.204268349227045,-0.9719117668064434,-0.6701170176983716,1.5385859293664408,0.7025854714783938,-0.8502384324773071,1.0727138133026948,12.284685139691646,-0.7844283904721613,0.0833860908407137,-1.1778144965710426
1.44,-0.7779069031365826,0.841296998969496,2.387346722350776,0.0453924165573763,0.1467359307484625,0.0157000943404425,0.1931323758625563,-0.915077808417558,-0.5438541006290415,-0.7805881997066001,0.8511273012699029,2.392893600306372,0.204268349227045,-0.9719117668064434,-0.6701170176983716,1.3005515361102975,0.7186792348603934,-0.6187399125971049,0.8899974022538837,12.284685139691646,-0.7846208786734538,0.0911535623960277,-1.172843713399371
1.46,-0.7740995919867492,0.8238407000419282,2.37710944308242,0.0399087550818874,0.1491968067737723,0.0150975348578879,0.2069626224811711,-0.921617570418408,-0.534624697876138,-0.7785455162143297,0.8414081836018384,2.3861924301293884,0.2144530656603317,-0.9906831738146143,-0.6901170179963948,0.8933449553990495,0.6915123309307436,-0.3269881000424968,0.4614701376451757,11.723466889836343,-0.7829764417850158,0.0998787958506496,-1.1699924492561709
1.48,-0.7698081473650054,0.8053670490724504,2.366455892825006,0.0344491479748146,0.151473663510452,0.0144778315295583,0.2214484777389271,-0.9253971727847125,-0.5315181313189971,-0.7744601492297887,0.8219699482657096,2.372790089775421,0.234822498526905,-1.0282259878309568,-0.7301170185924413,0.7644870050726454,0.7242927628878001,-0.1889801183152184,0.1553283278570461,11.193145887626088,-0.7802793431635489,0.1070856923842605,-1.169520581280494
1.5,-0.7652289760742861,0.7868395537851259,2.3557964198081724,0.0298992064832067,0.1531967645297801,0.0139118988041779,0.2357246542807416,-0.927353867685934,-0.5345689929244857,-0.7703747822452478,0.8025317129295807,2.3593877494214537,0.2551919313934784,-1.0657688018472988,-0.7701170191884877,0.7364537122680656,0.7138088270907241,-0.0978347450610872,-0.1525430802744309,10.775734102192471,-0.7772918150672914,0.1124372753995614,-1.1703004670409205
1.52,-0.7606170902939088,0.769213374680956,2.3455695268417345,0.0265413889065415,0.154235876285874,0.0134358962255169,0.2489857353485935,-0.9281599932184444,-0.541795470041575,-0.7652709436173782,0.7812163368926347,2.343985409037684,0.2755613642600517,-1.103311615863641,-0.8101170197845342,0.756187941232402,0.6630540533925922,-0.0403062766255124,-0.3613238558544673,10.442178770247663,-0.7740181106391478,0.1164031739441424,-1.1721696445375438
1.54,-0.7554930929313809,0.7506492848155137,2.334633276048615,0.0240279869922025,0.1547354187553447,0.0130055329699748,0.2626723114389353,-0.928393510801049,-0.5515435469931504,-0.7601671049895087,0.7599009608556888,2.328583068653914,0.295930797126625,-1.1408544298799832,-0.8501170203805807,0.8402408877695997,0.6843288045170911,-0.0116758791302351,-0.4874038475787712,10.18953892688114,-0.7708370797390112,0.1186825428297344,-1.1748835548630463
1.56,-0.750094570489811,0.7320761053006859,2.323483305594311,0.0222555897534437,0.1545916717473699,0.0126279451650458,0.2764050186252874,-0.9289915616148438,-0.5629619026157258,-0.7545540305399747,0.7376470144683343,2.312180728255244,0.3163002299931984,-1.1783972438963253,-0.890117020976627,0.8934816122416331,0.6866353593176028,-0.0299025406897357,-0.5709177811287658,10.075355177021263,-0.768364769714934,0.1198928069634469,-1.1774646685841232
1.58,-0.7444223408332954,0.7134914808263753,2.312089834393711,0.0209025095728946,0.1537015636229144,0.0122800297389786,0.2900592324616278,-0.9294545195594892,-0.5758133556786688,-0.7484317202687765,0.7144544977305712,2.294778387841671,0.3366696628597717,-1.2159400579126671,-0.9301170215726736,0.9378322496268308,0.6827106918170234,-0.0231478972322785,-0.6425726531471498,9.918489334718288,-0.7667218655966923,0.1206605742851554,-1.1796692663349708
1.6,-0.7387819588478164,0.6958304552563825,2.3010145473116137,0.0199960691073996,0.1520153758655204,0.0119742430180729,0.3029122573499503,-0.9295935801423568,-0.5893604108820983,-0.729919379210214,0.6670187548484008,2.283299166609777,0.3352036078752841,-0.9557673010573254,-0.6758133571687849,0.9337321501778684,0.6426512444161259,-0.0069530291433805,-0.677352760171479,9.918489334718288,-0.7659861473230919,0.120890504369025,-1.1815029655759317
1.62,-0.7325223870530101,0.6770093814880936,2.289412581180587,0.0123033342943936,0.149023201891289,0.0111878891615554,0.3224705408047412,-0.9487108542354392,-0.5681526194059545,-0.729919379210214,0.6670187548484008,2.283299166609777,0.3352036078752841,-0.9557673010573254,-0.6758133571687849,1.7304385569441465,0.977914172739544,-0.9558637046541084,1.0603895738071911,9.84205717676923,-0.767188168518526,0.1246507377834703,-1.1863225082205473
1.64,-0.7258838806209651,0.6579734004879925,2.278232144871491,-0.0025107923571785,0.1445340276513057,0.0099764300293777,0.3401646490578784,-0.9523522272005358,-0.5510882315822758,-0.729919379210214,0.6670187548484008,2.283299166609777,0.3352036078752841,-0.9557673010573254,-0.6758133571687849,1.2425119674892366,0.884705412656861,-0.182068648254835,0.8532193911839347,12.283734639919205,-0.7749477043621794,0.1431565026978968,-1.1749231326447265
1.66,-0.7192778484741551,0.639928088942806,2.267834070450613,-0.0175794219082141,0.1389694147569769,0.0088857478416886,0.3540126076698859,-0.9466787810281092,-0.5442610697633496,-0.7265673431314611,0.6574610818378275,2.276541033038089,0.3442324829580153,-0.9610298573568926,-0.6958133574668081,0.8224416205620603,0.6923979306003747,0.2836723086213355,0.3413580909463087,11.640001962220596,-0.7822859089853447,0.1632609682606773,-1.1640696386585865
1.68,-0.7120795467051494,0.6211109921503917,2.256947059942343,-0.0322358039993136,0.1323233616509453,0.0079864919181505,0.3647784157429182,-0.935289182876469,-0.5451498814872952,-0.7198632709739554,0.638345735816681,2.263024765894714,0.3622902331234778,-0.9715549699560272,-0.7358133580628545,0.7848814493314159,0.5382904036516145,0.5694799075820045,-0.0444405861972752,10.99923192793176,-0.7891619031947842,0.181346144093838,-1.154436353363582
1.7,-0.7047028937341606,0.6025615412671694,2.245965676319337,-0.044812737868766,0.1255911028437156,0.007383565039257,0.3721272576986207,-0.920392511874077,-0.5532140392732416,-0.7131591988164497,0.6192303897955345,2.249508498751338,0.3803479832889403,-0.9820800825551615,-0.775813358658901,0.9232374096623815,0.3674420977851256,0.7448335501196002,-0.4032078892973245,10.103947181904005,-0.7949316671152266,0.195727162722598,-1.1469713022891752
1.72,-0.6972109854307793,0.5843369035878594,2.2347577405416046,-0.0550130015894219,0.119346966745783,0.0070514500048647,0.3766215600792002,-0.9032509320391098,-0.5671296998536454,-0.7055522391506709,0.5995887881444313,2.23399223157816,0.3984057334544028,-0.992605195154296,-0.8158133592549475,1.1265856852850111,0.2247151190289731,0.8570789917483612,-0.6957830290201861,10.103947181904005,-0.7996593702879766,0.207586072670459,-1.1416338992015025
1.74,-0.6900314389460995,0.5673560350480021,2.2238269969586963,-0.0625946681652494,0.1142772330920007,0.0069285787068151,0.3788206785149706,-0.8855049040022892,-0.5827520089062113,-0.6979452794848922,0.579947186493328,2.218475964404982,0.4164634836198653,-1.0031303077534306,-0.8558133598509939,1.1872385744997185,0.1099559217885209,0.8873014018410286,-0.7811154526282948,9.81064770987996,-0.8022579074052577,0.2162047935047883,-1.1397387226648323
1.76,-0.6824461265390513,0.5498499827004871,2.211983574582556,-0.0686728114766587,0.1102781798829922,0.0069207459374844,0.379487943457275,-0.8662906108583457,-0.6008277477471625,-0.6898868760649768,0.5600424570272464,2.201959697216903,0.4345212337853278,-1.013655420352565,-0.8958133604470403,1.3194379846841016,0.0333632471152173,0.960714657197176,-0.903786942047563,9.69044653831952,-0.8031177413035253,0.2224686691640867,-1.1399498987791894
1.78,-0.674862383434308,0.5327346530045985,2.1997641001682746,-0.073081833069359,0.1080462537527841,0.0069611361771345,0.3787980923500957,-0.8464748709249691,-0.6202565586074298,-0.6813770288909248,0.5398745997461865,2.1844434300139226,0.4525789839507902,-1.0241805329516995,-0.9358133610430868,1.3880004818995304,-0.0344925553589614,0.99078699666883,-0.9714405430133632,9.608257958298964,-0.8019658663268984,0.2266296879036819,-1.1421609857849728
1.8,-0.667296862969315,0.5160207342993768,2.187143844592472,-0.0759732077057822,0.1077856244562127,0.0070002479414174,0.3780620681078457,-0.8262985723209499,-0.6407774498269299,-0.6559224788168032,0.4904109094583501,2.168751272237903,0.4279069962051811,-0.8413747384931342,-0.7202565600975459,1.4393850540128932,-0.0368012121125027,1.0088149302009577,-1.0260445609750035,9.495604632403229,-0.7993829702014636,0.2293529669744709,-1.1455853851448483
1.82,-0.6600893509752253,0.5004690261521185,2.175094141895014,-0.0798519460368017,0.1092776562452145,0.0068507741383477,0.3809176697680991,-0.8103958065622175,-0.6266622820062125,-0.6559224788168032,0.4904109094583501,2.168751272237903,0.4279069962051811,-0.8413747384931342,-0.7202565600975459,1.0727189546034033,0.1427800830126724,0.7951382879366198,0.7057583910358656,9.495604632403229,-0.7950727197520584,0.2306110870346475,-1.1540201079171568
1.84,-0.6524336124095855,0.4844816568015538,2.1626684647539345,-0.0852210239427753,0.1124977166970085,0.006490132975507,0.3847049584111094,-0.7889786523752826,-0.6171164893946972,-0.6559224788168032,0.4904109094583501,2.168751272237903,0.4279069962051811,-0.8413747384931342,-0.7202565600975459,1.1876028432460897,0.1893644321505128,1.0708577093467453,0.4772896305757668,11.661091675917303,-0.7925430978155102,0.2388848375599843,-1.150460191625042
1.86,-0.6446902223084646,0.4689592257189909,2.150350090873412,-0.0899818176025342,0.116751806164901,0.0060959729840819,0.3896716028451647,-0.7646247129948814,-0.6151544804473211,-0.6516434088547514,0.4819971620734187,2.161548706636928,0.4377287769761982,-0.8403547120067671,-0.7402565603955691,1.2466268481267488,0.2483322217027656,1.21769696902006,0.098100447368804,11.17056726417104,-0.7873059425312926,0.2460493830995909,-1.1502025551033808
1.88,-0.637229417149013,0.4546767444799635,2.1386309129293712,-0.0931961914176389,0.1211361317518495,0.0057930870210557,0.3955721138304836,-0.7404185926394928,-0.6185093858662403,-0.6430852689306478,0.465169667303556,2.147143575434977,0.4573723385182323,-0.8383146590340332,-0.7802565609916156,1.2569881492254815,0.2950255492659454,1.2103060177694305,-0.167745270945957,10.755477111923028,-0.780603934057793,0.2510942447174057,-1.1525242286643902
1.9,-0.6292430635993707,0.4401404191710045,2.126185118247094,-0.0950945392080957,0.1256766234242091,0.0056008497311728,0.4028652938418504,-0.7147607919292563,-0.6260539105548324,-0.6345271290065442,0.4483421725336933,2.1327384442330257,0.4770159000602665,-0.8362746060612992,-0.820256561587662,1.3860312629421347,0.3646590005683375,1.2828900355118245,-0.3772262344296062,10.45229300241408,-0.773266074321483,0.2545599040024248,-1.1560064620022774
1.92,-0.621099868341484,0.4261231963265207,2.113553956179941,-0.0952474912827307,0.1298377242215981,0.0055883627535094,0.4111660769469001,-0.6884596344452462,-0.6367926659533254,-0.6249868110053388,0.4316166804124673,2.1163333130012725,0.4966594616023007,-0.8342345530885652,-0.8602565621837085,1.4798435328307915,0.415039155252489,1.3150578742005092,-0.5369377699246503,10.227618791775058,-0.7661570753503484,0.2560965771019609,-1.159849030625138
1.94,-0.6127793682733917,0.41264091550589,2.10069427998321,-0.0930513357041052,0.133382712160294,0.0058255675214506,0.4204988848019912,-0.6614905258136922,-0.6485997785981011,-0.6154464930041335,0.4148911882912414,2.0999281817695192,0.5163030231443348,-0.8321945001158313,-0.900256562779755,1.544216655659944,0.4666403927545526,1.3484554315776998,-0.5903556322387871,10.06793649356041,-0.7595642316150528,0.2549096361683776,-1.1645207347394737
1.96,-0.6046906879806131,0.4003196965061982,2.088257191144024,-0.0887856271456011,0.1359697432482834,0.0063027409883147,0.4304506726707867,-0.6376095446281782,-0.6599148795100556,-0.6054150859643773,0.3982166974943337,2.0825230505228647,0.5359465846863689,-0.8301544471430973,-0.9402565633758012,1.4118877901732216,0.4975893934397762,1.194049059275698,-0.5657550455977212,10.03511872945728,-0.7529478063178202,0.2511006168243557,-1.1700243718682974
1.98,-0.5959653644147357,0.387807389592015,2.0749311622432347,-0.0832081645677237,0.1377015925012919,0.0069936358378692,0.4415238276032688,-0.6152445363115224,-0.6720899284901102,-0.5948925898860703,0.3815932080217444,2.0641179192613093,0.5555901462284031,-0.8281143941703634,-0.9802565639718478,1.388380508748919,0.5536577466241033,1.1182504158327888,-0.6087524490027307,10.025786919267375,-0.7479114220475844,0.2458426643243982,-1.1748199898041312
2.0,-0.5870146397005385,0.3757221861398155,2.061358004067848,-0.0771275930301409,0.1383557995060044,0.0078267050555412,0.4529228505273139,-0.5947018111499811,-0.684614593733564,-0.5738891730345722,0.3570451627764389,2.041326665818729,0.4707436337975742,-0.5913529774408492,-0.7153527044774969,1.3311729040080695,0.5699511462022577,1.027136258077066,-0.6262332621726929,9.977496052097194,-0.7441317452897286,0.239908829359177,-1.17903942003657
2.02,-0.5776995526656532,0.3639568541868508,2.047938630135869,-0.0741840036773667,0.1354041172514996,0.0087234469616746,0.4775701825487771,-0.5810414162365612,-0.6567815202238226,-0.5738891730345722,0.3570451627764389,2.041326665818729,0.4707436337975742,-0.5913529774408492,-0.7153527044774969,1.9803897002645068,1.2323666010731564,0.683019745670993,1.39165367548707,9.977496052097194,-0.7491155880720785,0.2343323912567774,-1.1799565541578738
2.04,-0.5684186635315708,0.3530839010055784,2.0356892917204323,-0.0745617083302804,0.1274090625498389,0.0097518069869502,0.497265480986545,-0.5639557186971595,-0.6340598213520886,-0.5738891730345722,0.3570451627764389,2.041326665818729,0.4707436337975742,-0.5913529774408492,-0.7153527044774969,1.7292349757757184,0.9847649218883952,0.854284876970085,1.1360849435867015,12.601164780629006,-0.7584446821067948,0.2394133884082454,-1.167411628338814
2.06,-0.5583123301770926,0.3420146918410761,2.0232034316343444,-0.0763165521943124,0.1154860502228414,0.0110340845077791,0.5116084198592701,-0.5438404650437204,-0.6159305239143932,-0.5691817366965964,0.3511316330020304,2.034173138773954,0.4765875950364353,-0.5865746656667146,-0.7240052596749742,1.5321673787753696,0.7171469436362543,1.0057626826719568,0.9064648718847712,11.705512102682404,-0.7713033706204722,0.2452909954480907,-1.1529634309944854
2.08,-0.5479868043532182,0.3313658710376246,2.011019516921109,-0.0783497870422131,0.1017198677310853,0.0124858085672957,0.5196210004520139,-0.522045907231995,-0.6035597846290431,-0.559766864020645,0.3393045734532134,2.0198660846844043,0.4882755175141575,-0.5770180421184453,-0.741310370069929,1.3155221286906964,0.4006290296371895,1.0897278905862728,0.618536964267502,11.705512102682404,-0.7868587416890689,0.2513493673105156,-1.1365998370409165
2.1,-0.5375651691324348,0.3211702316847701,1.999024277631732,-0.0796376450856377,0.0875673198714571,0.0140649410130657,0.5217285096307357,-0.4988757676122501,-0.5964951573476694,-0.5503519913446935,0.3274775139043964,2.0055590305948545,0.4999634399918796,-0.5674614185701761,-0.7586154804648836,1.2157363237577397,0.1053754589360911,1.1585069809872397,0.3532313640686846,11.321542159794262,-0.8027217623364235,0.2563414879337795,-1.1201622756558725
2.12,-0.5276755393500113,0.3119215647166999,1.9877208608602777,-0.0795757127121853,0.0748075610393189,0.0156241033400338,0.5189572334071196,-0.4760905047775046,-0.5936390215076499,-0.5403527225448559,0.3161282855329929,1.9903867209855568,0.5116513624696019,-0.5579047950219068,-0.7759205908598382,1.156509496602451,-0.1385638111808029,1.139263141737279,0.1428067920009768,11.007533225088082,-0.8174931763246439,0.2592800689966812,-1.1054061805544877
2.14,-0.5173638249018093,0.3026558401416688,1.9758646154218789,-0.0776937859335671,0.0628727212541329,0.017271043414394,0.5121390686225888,-0.4519010413885473,-0.5921640739234122,-0.5303534537450183,0.3047790571615894,1.975214411376259,0.523339284947324,-0.5483481714736376,-0.793225701254793,1.258762269504223,-0.3409082392265394,1.2094731694478638,0.0737473792118859,10.763784843520623,-0.8300115845716478,0.2592530083911761,-1.0943191533568588
2.16,-0.5072215051239053,0.2938668604648067,1.964026529655078,-0.0737590707754347,0.0529426485865279,0.0188756496822063,0.5023348271354051,-0.4289349933747335,-0.5916951096955305,-0.5200619868832377,0.2936687443788925,1.959609474007088,0.5350272074250462,-0.5387915479253682,-0.8105308116497476,1.2487818463995703,-0.4902120743591864,1.14830240069069,0.0234482113940837,10.67633174153434,-0.8394761163332765,0.2567705312503356,-1.0868422414322496
2.18,-0.4973018874562741,0.2855067457618332,1.95218957324596,-0.0686838715832725,0.0453138242919777,0.0203452915994054,0.4901108592592246,-0.4086670646460432,-0.5919776151919877,-0.5094783219595139,0.2827973471849025,1.9435719088780423,0.5467151299027683,-0.529234924377099,-0.8278359220447022,1.1835266525776793,-0.6111983938090232,1.013396436434516,-0.014125274822857,10.611865651506378,-0.8471458316997542,0.2526334910334995,-1.0814216004051875
2.2,-0.4881257190792746,0.2779197084929921,1.94093276657515,-0.063450865884994,0.0405423074770704,0.0215617332484616,0.4763922471879983,-0.3912635795717493,-0.5929135567686632,-0.4727963444933128,0.2650733925295311,1.9225906924863605,0.4861693833798237,-0.4087746763647472,-0.6093326623583352,1.1090058572060368,-0.6859306035613189,0.870174253714695,-0.0467970788337768,10.56377520885144,-0.8516594380290412,0.2477930776109025,-1.0790187168824188
2.22,-0.4787089225220821,0.2703260679022302,1.9292761319003635,-0.0565517385296733,0.0371042656271224,0.022802665408009,0.4661619579888337,-0.3698796067501514,-0.5714913597866293,-0.4727963444933128,0.2650733925295311,1.9225906924863605,0.4861693833798237,-0.4087746763647472,-0.6093326623583352,1.5975321861158522,-0.5115144599582289,1.0691986410798908,1.0711098491016924,10.527666938533912,-0.8581683189803033,0.2386797183398705,-1.0784276977151646
2.24,-0.4695030431032789,0.2631136039125037,1.9180678874277215,-0.0484152343745865,0.0338754843369071,0.0240768664547582,0.4547799720460793,-0.3528891435299515,-0.5506701653262167,-0.4727963444933128,0.2650733925295311,1.9225906924863605,0.4861693833798237,-0.4087746763647472,-0.6093326623583352,1.459235744487798,-0.5690992971377207,0.8495231610099963,1.041059723020632,12.02047799869706,-0.8625117264806291,0.2339626577544812,-1.0716540389279976
2.26,-0.4609860407418828,0.2565456336125946,1.9077685078943132,-0.0405139983986331,0.0315642244688777,0.0252242671007041,0.4422749318762587,-0.3396113625413431,-0.5344782515892643,-0.4679346506595146,0.2609856457658836,1.916497365862777,0.4853810882039435,-0.408796198708488,-0.6128036717916047,1.2194810044596658,-0.6252520084910257,0.6638890494304189,0.8095956868476195,11.774767806115053,-0.86614210684503,0.2281653367915231,-1.0664848431399945
2.28,-0.4522880035907351,0.2498771603859062,1.897231906739944,-0.0324447836887561,0.0303846649843779,0.0263315132187016,0.428305098852107,-0.3281463030842132,-0.5201321954789989,-0.4582112629919181,0.2528101522385887,1.9043107126156105,0.4838044978521831,-0.4088392433959695,-0.6197456906581437,1.153703979577396,-0.6984916512075862,0.5732529728564972,0.7173028055132702,11.356619780517576,-0.868949623782012,0.2220310580444457,-1.062714329058407
2.3000000000000003,-0.4438690458533242,0.2434145536728956,1.8869568370635663,-0.0248628785740726,0.0304438366648411,0.0273416642120296,0.4143996740533611,-0.3188304089922232,-0.5081735602683622,-0.4484878753243216,0.2446346587112937,1.892124059368444,0.4822279075004227,-0.4088822880834512,-0.6266877095246827,1.0285374053332137,-0.6952712399372979,0.4657947045994981,0.5979317605318335,11.356619780517576,-0.8701983712556348,0.2163399148201845,-1.060802796251661
2.32,-0.4361259505180858,0.2374290575562953,1.8773964369331275,-0.0182467981166774,0.0315114881594336,0.0282224439612795,0.4015055144561644,-0.3117271545222496,-0.4987588453459421,-0.4388433171743132,0.2364570129496247,1.87959030517795,0.4806513171486623,-0.4089253327709328,-0.6336297283912217,0.8737168203337087,-0.6447079798598321,0.3551627234986837,0.4707357461210038,11.203350024487918,-0.870290962601199,0.2106134336623196,-1.060259724037104
2.34,-0.4282321982225734,0.2312581036529338,1.8675195993245648,-0.0119676583575829,0.033477470784037,0.0290796260929364,0.3886833861294335,-0.3057876411598464,-0.4894352931645311,-0.4291987590243047,0.2282793671879557,1.867056550987456,0.4790747267969019,-0.4089683774584143,-0.6405717472577607,0.8464830463287744,-0.6411064163365482,0.2969756681201557,0.4661776090705533,11.080482800025491,-0.8693859323856054,0.2052206068455497,-1.0609842500783089
2.36,-0.4205857881152494,0.2251909190302435,1.85782410752924,-0.0064442906814959,0.036073686958727,0.0298732754886563,0.3767307770034534,-0.3012289765173184,-0.4805958050721107,-0.4195936156330903,0.2201006453090996,1.854349246325299,0.4774981364451415,-0.409011422145896,-0.6475137661242997,0.7774683883887809,-0.5976304562990031,0.227933232126401,0.4419744046210205,11.041807068188971,-0.8679227302061369,0.2007010281681624,-1.06215254181656
2.38,-0.4131687820631919,0.2192021524039602,1.8482985079341896,-0.0017088280549183,0.0390976345403903,0.0306073835972963,0.3657049696120525,-0.297796144697354,-0.4723998820894607,-0.4100278870006698,0.2119208473130565,1.8414683911914784,0.4759215460933811,-0.4090544668333775,-0.6544557849908387,0.7080358685722807,-0.5512903695700455,0.1716415909982227,0.4097961491324992,11.009296913051005,-0.8660119298134404,0.1966677983970787,-1.0635574014401747
2.4,-0.4063175397720464,0.2135676551122445,1.839394585075946,0.0020924967408329,0.0421900670357028,0.0312538702184054,0.3561345848148975,-0.2953872558927792,-0.4652620407363935,-0.3948835335825893,0.2043123451690925,1.8246785138297168,0.3703087611283267,-0.2927481318707622,-0.4755440231432416,0.6089823265497445,-0.478519239857747,0.1204444402287396,0.3568920676533582,10.969046688603155,-0.8637584840267825,0.1933330778588489,-1.0651841556670636
2.42,-0.3992782171201752,0.2076235238648349,1.830302487062903,0.0036378212948487,0.0453248628979483,0.0317585337188258,0.3483909692771996,-0.298450431606495,-0.4436065099434778,-0.3948835335825893,0.2043123451690925,1.8246785138297168,0.3703087611283267,-0.2927481318707622,-0.4755440231432416,1.160073964206266,-0.3871807768848989,-0.1531587856857891,1.0827765396457856,10.9262464073272,-0.8615116490249108,0.190443852277499,-1.0693706822349722
2.44,-0.3923873717437533,0.2016381998051606,1.8216452142327115,0.0019773528810628,0.0481018931748083,0.032028580437015,0.3411143260896839,-0.2995399620332614,-0.4232720631644139,-0.3948835335825893,0.2043123451690925,1.8246785138297168,0.3703087611283267,-0.2927481318707622,-0.4755440231432416,1.081233483619347,-0.363832159375782,-0.054476521338323,1.0167223389531963,11.909452721203706,-0.861297052399408,0.1942037561765262,-1.0656777658446153
2.46,-0.3859736582656394,0.1959549817056644,1.8137687594696092,-0.0015218492961103,0.0504811445935677,0.0321390867579512,0.3344041686940128,-0.2980612729844938,-0.4068293744348151,-0.3911804459713061,0.2013848638503849,1.819923073598284,0.3712295194315815,-0.2917385293054439,-0.4761728513539978,0.8910313493869048,-0.3355078697835578,0.0739344524383789,0.8221344364799377,11.507230592470478,-0.8613266772210698,0.2000415394482466,-1.061439649455692
2.48,-0.3793582722065406,0.1900401076889329,1.8057909028720007,-0.0057217804993593,0.0527741502039616,0.0322076789367885,0.3275292522593196,-0.2933663063059321,-0.3919245066040407,-0.3837742707487395,0.1955299012129696,1.8104121931354196,0.3730710360380913,-0.2897193241748072,-0.4774305077755101,0.8536133099209389,-0.3437458217346589,0.2347483339280864,0.7452433915387191,11.507230592470478,-0.861091727249821,0.2062839012120607,-1.0576169542379552
2.5,-0.3728782097470135,0.1842402304668716,1.7980869851898904,-0.0096225690044051,0.0549027934654373,0.0322872471416355,0.3208663946428129,-0.2868506532205754,-0.3792999575520678,-0.376368095526173,0.1896749385755544,1.8009013126725546,0.3749125526446009,-0.2877001190441705,-0.4786881641970225,0.7845805336487638,-0.333142880825335,0.3257826542678366,0.6312274525986483,11.348079649229476,-0.8607235385364858,0.2118251759405164,-1.054355772462702
2.52,-0.366529068884285,0.1785842253407462,1.7906135755075918,-0.0128898655102453,0.0569118963078729,0.03240299351086,0.3144385581014278,-0.2791883957483846,-0.3686571472074145,-0.368869844473281,0.1839209361946709,1.791327549388614,0.3767540692511106,-0.2856809139135338,-0.4799458206185349,0.7302340107889521,-0.3213918270692562,0.3831128736095396,0.5321405172326626,11.207698857294416,-0.8602762118127368,0.2168291487128402,-1.0514283082703182
2.54,-0.3606134721564694,0.1733604817750879,1.7837020069917406,-0.0153378048767427,0.0587310583740104,0.0325526283763037,0.3086264317437121,-0.2711979148162125,-0.3593995102579143,-0.361371593420389,0.1781669338137875,1.7817537861046735,0.3785955858576203,-0.2836617087828971,-0.4812034770400473,0.6770015513538548,-0.2906063178857831,0.3995240466086042,0.4628818474750107,11.094374943442745,-0.8597618318609421,0.2208900016008572,-1.0490820928831175
2.56,-0.354501970593115,0.168029862380748,1.7766106544585814,-0.0172567102465833,0.0605459480854206,0.0327509745467032,0.3028761572686466,-0.2623790951686647,-0.3502440616601372,-0.3538273044523342,0.17246341156117,1.7721485814101954,0.38043710246413,-0.2816425036522604,-0.4824611334615596,0.6976020992319031,-0.2875137237532743,0.4409409823773885,0.4577724298888558,11.042033338734656,-0.859462958746595,0.2242267535055971,-1.046731911482157
2.58,-0.348502071469558,0.1628821994580903,1.7696945786926073,-0.0184502960482511,0.0622415483000154,0.0329959475023679,0.2974436877740001,-0.2529410760204846,-0.34181320767572,-0.3462369775691167,0.1668103694368184,1.7625119353051797,0.3822786190706397,-0.2796232985216237,-0.483718789883072,0.6885986297514746,-0.271623474732327,0.4719009574090049,0.4215426992208615,11.003768932219828,-0.8591703166773333,0.2267202800459548,-1.0446919599315538
2.6,-0.3429000927003314,0.1581726536463144,1.7632741964320378,-0.0187237786479532,0.0637362693547746,0.0332856221548962,0.2925437145837973,-0.2433927273308553,-0.3344309028017513,-0.333629887080858,0.150235145657066,1.7526039183088211,0.3008314376675909,-0.2325903403859193,-0.3443050657650627,0.6513047006119186,-0.2449986595101372,0.4774174344814655,0.3691152436984313,10.960619668742764,-0.8588881399408148,0.2285451643203013,-1.0426166809493376
2.62,-0.3370796487640781,0.1533786869113414,1.7567526162042266,-0.0190834416109273,0.0647180557995772,0.0335914651895871,0.2897381284404068,-0.2362923567960066,-0.3176639328673137,-0.333629887080858,0.150235145657066,1.7526039183088211,0.3008314376675909,-0.2325903403859193,-0.3443050657650627,0.9211648279793192,-0.1402793071695274,0.3550185267424358,0.8383484967218802,10.92000735527654,-0.8605874924868041,0.2286610639836703,-1.0412076300613606
2.64,-0.3313191589249853,0.1487366812764731,1.7505647692331223,-0.0201588362498922,0.0648160067142358,0.0338602383960419,0.286355421933185,-0.2281819766951538,-0.3021139302548044,-0.333629887080858,0.150235145657066,1.7526039183088211,0.3008314376675909,-0.2325903403859193,-0.3443050657650627,0.8930615179585297,-0.1691353253610916,0.4055190050426413,0.7775001306254664,11.519923677611589,-0.8627031957169714,0.232593238536909,-1.0347006492153492
