t,x,y,z,roll,pitch,yaw,v_x,v_y,v_z,ref_x,ref_y,ref_z,ref_v_x,ref_v_y,ref_v_z,a_com,a_x,a_y,a_z,thrust,wind_x,wind_y,wind_z
0.0,2.4430932946866144,-1.0610908148984255,2.430444849594686,0.0249777656960296,0.0996271438391074,0.0417461032682452,0.0001730553498262,-0.0066686833142188,-0.0001757171587045,2.443098642508048,-1.0613191963753927,2.430437754811812,-0.0998220059085536,0.0926296818244557,-0.0294655570212991,0.3336621113465949,0.0086527674913108,-0.3334341657109402,-0.0087858579352291,10.260616855112858,-0.9403041800862658,0.25557693151148,-0.8804437786758857
0.02,2.44328025147231,-1.0614498698968904,2.430396661267314,0.0151157894430951,0.0938299336045444,0.0409577874682536,0.017807565397542,-0.0255505740442935,-0.0046307449363803,2.443098642508048,-1.0613191963753927,2.430437754811812,-0.0998220059085536,0.0926296818244557,-0.0294655570212991,1.3108670934398108,0.8817255023857897,-0.9440945365037376,-0.2227513888837897,10.260180140593548,-0.949942503066928,0.2577895046037806,-0.8762127438122692
0.04,2.4437562806973285,-1.0619630588669724,2.4302247008285542,-0.0015172769947842,0.0777349848230424,0.039759487974244,0.0274241865255472,-0.0240503092209581,-0.0124376721696736,2.443098642508048,-1.0613191963753927,2.430437754811812,-0.0998220059085536,0.0926296818244557,-0.0294655570212991,0.6238555707967797,0.4808310564002622,0.0750132411667705,-0.3903463616646625,10.058525228750568,-0.958566770303348,0.2752782178728342,-0.8560391952663444
0.06,2.4443037214167034,-1.0623639839983818,2.429891043945453,-0.018455188648738,0.0557507781054914,0.0389388495223595,0.0257472682893586,-0.0157391903851723,-0.0204773825382792,2.442100422448962,-1.060392899557148,2.4301430992415987,-0.1198220062065768,0.1126296821224789,-0.0353145406965406,0.5842167703097905,-0.0838459118094303,0.4155559417892919,-0.4019855184302817,9.745601567955418,-0.9724556370617274,0.2898550842210003,-0.8326211633538185
0.08,2.4446895650759046,-1.0625554397364367,2.429426969829774,-0.0339008407906106,0.0331406017462229,0.0386576134557475,0.0143471403416197,-0.0045257236530289,-0.0279780760782439,2.440103982330791,-1.058540305920659,2.4295537881011726,-0.1598220068026233,0.1526296827185253,-0.0470125080470235,0.8831267702857991,-0.5700063973869441,0.5606733366071676,-0.3750346769982338,9.70849678212562,-0.9904314836783956,0.3032861439594416,-0.8048396101648976
0.1,2.444770973828003,-1.0624965601244116,2.4287854169736067,-0.0493800751974485,0.0103650020085775,0.0388152351530712,-0.0061541168890828,0.0101614426820819,-0.03580430608327,2.43810754221262,-1.05668771228417,2.4289644769607466,-0.1998220073986698,0.1926296833145718,-0.0587104753975064,1.3202881116315317,-1.0250628615351325,0.7343583167555435,-0.3913115002513042,9.71744399034742,-1.0092392677979525,0.3147450676697222,-0.7766012148385135
0.12,2.4443637351828507,-1.062110140369624,2.42798769337646,-0.0639504948698532,-0.0093753941232273,0.0392773802189993,-0.0338215822107664,0.0279907138025328,-0.0435932487719002,2.434111102064646,-1.0528351186178786,2.427790267452796,-0.2398220079947162,0.2326296839106182,-0.0704084427479894,1.691182407533168,-1.3833732660841789,0.8914635560225447,-0.3894471344315087,9.752735317850238,-1.026714965087269,0.3244551632053742,-0.7503263128655232
0.14,2.443341677229242,-1.0613160519141462,2.4270330489763685,-0.076809400499396,-0.0247397126940251,0.0398835100399184,-0.0668339277874556,0.0502178681300722,-0.0514698488168002,2.430114661916673,-1.0489825249515872,2.4266160579448464,-0.2798220085907627,0.2726296845066647,-0.0821064100984723,2.0284859983755905,-1.6506172788344593,1.1113577163769734,-0.393830002245003,9.851353590197505,-1.0408564708504044,0.331950801274109,-0.7288539174320594
0.16,2.4417186121394185,-1.0601155881654702,2.425978899142077,-0.0866769931040734,-0.0345943463723457,0.0404433283149258,-0.1021862289290339,0.074451976522964,-0.0590620326165692,2.4251182217537988,-1.0441299312703949,2.425149399253134,-0.3198220091868091,0.3126296851027111,-0.0938043774489553,2.176418193071326,-1.7676150570789166,1.2117054196445889,-0.3796091899884474,9.851353590197505,-1.0515085241490534,0.3376264430176767,-0.7131403036723839
0.18,2.4392553594618627,-1.0583423659548734,2.424713221335589,-0.0945046058148872,-0.0391847321089263,0.0408050730817205,-0.1420482215880795,0.1012055952458525,-0.0670324919156292,2.419121781576023,-1.0382773375743009,2.42339029137766,-0.3598220097828555,0.3526296856987576,-0.1055023447994382,2.43324001845146,-1.9930996329522777,1.337680936144426,-0.3985229649530002,9.907729487978033,-1.0583516035541072,0.3404887872966696,-0.7056294172205367
0.2,2.435996849861631,-1.05602005001778,2.423293296058323,-0.09981445415546,-0.0378423599378077,0.0408102330723742,-0.1810492834460433,0.1290700133501416,-0.0744099678195964,2.4131253413982474,-1.032424743878207,2.421631183502185,-0.399822010378902,0.392629686294804,-0.1172003121499211,2.42483802193722,-1.950053092898188,1.3932209052144526,-0.3688737951983614,9.947205046138151,-1.0616282838761413,0.3411000981508671,-0.7052602578418095
0.22,2.432161130845409,-1.05316785432945,2.421857785542168,-0.0989599690165472,-0.0310926064509377,0.0406822106905138,-0.2197233782106619,0.1675033955762234,-0.0759597210637055,2.4321529483824587,-1.053282086192581,2.421361596739808,-0.2420482230781956,0.2012055967359687,-0.106276584916518,2.727275293363521,-1.933704738230932,1.921669111304092,-0.0774876622054533,9.967647561889862,-1.062267297767469,0.3400867436015296,-0.7065336907937996
0.24,2.4273988268609594,-1.049490657723836,2.4203361533968097,-0.0921893460230888,-0.0192078077124042,0.0405289076012058,-0.2536767193173277,0.1971347637370152,-0.0759814766599272,2.4321529483824587,-1.053282086192581,2.421361596739808,-0.2420482230781956,0.2012055967359687,-0.106276584916518,2.2532464493991533,-1.697667055333292,1.4815684080395894,-0.0010877798110854,10.407847659322217,-1.058139565970182,0.3335676701294545,-0.7200412596138887
0.26,2.4220263005670195,-1.0452969748330252,2.418809445330302,-0.0841959770166556,-0.0049563637322859,0.040338854521961,-0.2812810173385091,0.220531053519641,-0.0767175983866502,2.4321529483824587,-1.053282086192581,2.421361596739808,-0.2420482230781956,0.2012055967359687,-0.106276584916518,1.809644661274244,-1.380214901059068,1.1698144891312878,-0.036806086336151,10.30869541879747,-1.0513643948100049,0.3274160414636378,-0.734993885491916
0.28,2.4161649218545467,-1.0406752867253468,2.4172505688168235,-0.0767572331434016,0.0097677965412488,0.0401801823390365,-0.3030909969974514,0.2405725808479107,-0.0791361983818825,2.429732466151677,-1.051270030225221,2.420298830890643,-0.2620482233762188,0.2212055970339919,-0.1141254035166958,1.4859236658642665,-1.090498982947116,1.0020763664134889,-0.1209299997616167,10.175855434639743,-1.0434508222178518,0.3222713587786113,-0.7498841832225118
0.3,2.410240935169216,-1.0359334006583758,2.4157074013063653,-0.070752490683571,0.0229088594184138,0.0401090165584245,-0.3192186225523472,0.2577764390943811,-0.0832219404533553,2.4248915016901127,-1.0472459182905016,2.418173299192312,-0.3020482239722653,0.2612055976300383,-0.1298230407170513,1.196626855872555,-0.8063812777447887,0.8601929123235152,-0.2042871035736408,9.927326529753373,-1.0341933254801725,0.3176757704407233,-0.765697461988406
0.32,2.4037138910118823,-1.030600879446532,2.413981172927128,-0.0656662536155003,0.0349581001523375,0.0401422083058967,-0.3324712984449016,0.2747285826452514,-0.089306290820098,2.420050537228549,-1.0432218063557823,2.416047767493982,-0.3420482245683117,0.3012055982260848,-0.1455206779174068,1.118065191153551,-0.6626337946277205,0.847607177543519,-0.3042175183371333,9.927326529753373,-1.0260693169158546,0.3144101677368656,-0.7782994483082034
0.34,2.396954032238406,-1.0249370944884169,2.4121164674201387,-0.0617866198634465,0.044612183009018,0.0402923660264244,-0.3429015893794667,0.2910382197757212,-0.0969072757361984,2.4132095727371827,-1.0371976943912606,2.413137353935634,-0.3820482251643581,0.3412055988221312,-0.1612183151177623,1.0399161071957357,-0.521514546728255,0.8154818565234867,-0.3800492458050176,9.826548507910047,-1.019129311532936,0.3120793237502782,-0.7885715106089931
0.36,2.389999892542608,-1.0189420995307192,2.410087422809949,-0.058605647748501,0.0518747558490787,0.0405654491674768,-0.3520518806575948,0.3076447846050629,-0.1056444742098332,2.4063686082458164,-1.031173582426739,2.410226940377286,-0.4220482257604047,0.3812055994181778,-0.1769159523181179,1.0438444125843231,-0.4575145639064026,0.8303282414670876,-0.4368599236817434,9.757658230213565,-1.0128476976684095,0.3102892779347823,-0.7972757554455446
0.38,2.3832307389272227,-1.01294039246961,2.4079899930752053,-0.0558559841387073,0.0568552618231953,0.0409299510251155,-0.3600982619646943,0.3232275244234187,-0.114715303875088,2.398527643739549,-1.0241494704473162,2.406924085888929,-0.4620482263564511,0.4212056000142242,-0.1926135895184734,0.9872258900599648,-0.4023190653549779,0.7791369909177864,-0.4535414832627371,9.709697898536431,-1.0079206136167098,0.308656638133414,-0.8040946647731797
0.4,2.3759427864200933,-1.0063083763474672,2.405589118090167,-0.0531384499117735,0.0604453893797402,0.0413985404931428,-0.3683145546069971,0.3390973749139842,-0.124932092043986,2.365225825828988,-0.9967790162484388,2.402254227881451,-0.4600982634548105,0.4232275259135348,-0.1778904680382006,1.0292501880798908,-0.410814632115139,0.7934925245282748,-0.5108394084449033,9.675199814058033,-1.0041937592757342,0.3070524776546155,-0.8094141029576405
0.42,2.368502364702356,-0.999360969943813,2.4030706659152994,-0.0506310667733883,0.0624993697128618,0.0419334879531359,-0.3753709984594333,0.3548473419621387,-0.1259322354206457,2.365225825828988,-0.9967790162484388,2.402254227881451,-0.4600982634548105,0.4232275259135348,-0.1778904680382006,0.8643713736502583,-0.35282219262181,0.7874983524077256,-0.0500071688329814,9.643896619279076,-1.0058867884109228,0.305092438357812,-0.8092099623723148
0.44,2.360925730620586,-0.9921195504441558,2.400522926425689,-0.0488597419411916,0.0629411867826842,0.0424936254392237,-0.3820484155619372,0.3686812532128141,-0.1290152907939548,2.365225825828988,-0.9967790162484388,2.402254227881451,-0.4600982634548105,0.4232275259135348,-0.1778904680382006,0.7833744795550608,-0.3338708551251929,0.6916955625337701,-0.1541527686654581,10.206873852476749,-1.0057277942133864,0.3053817057728945,-0.8079766788943424
0.46,2.3535997275799745,-0.9849871733438412,2.3980131082368485,-0.0481746023368858,0.0618853444790983,0.0430220243923362,-0.3888885959536852,0.3815240527437545,-0.1350091070972639,2.36062484319444,-0.9925467409893036,2.400475323201069,-0.4800982637528337,0.443227526211558,-0.1905255008708231,0.7868471920604917,-0.3420090195873998,0.6421399765470237,-0.2996908151654529,10.007348477600315,-1.006213652140705,0.3060648566867816,-0.8061355078915172
0.48,2.3457401492269776,-0.9772189205084986,2.395225683936427,-0.0485149769086574,0.059404674396994,0.0435653056681009,-0.396826330063545,0.3947050295441102,-0.1435139166476203,2.351422877925344,-0.9840821904710328,2.396917513840305,-0.5200982643488802,0.4832275268076044,-0.2157955665360682,0.8790300872242373,-0.3968867054929936,0.6590488400177813,-0.4252404775178214,9.840793694292188,-1.0077012162000634,0.307021535513392,-0.8035683680816994
0.5,2.3377101919461643,-0.9691869816706836,2.392248457765969,-0.050018664437649,0.0557230136052655,0.0440862502787891,-0.4059168801817529,0.407953751984567,-0.153773528978887,2.342220912656248,-0.9756176399527622,2.393359704479541,-0.5600982649449266,0.5232275274036509,-0.2410656322013133,0.9531872755967116,-0.4545275059103931,0.6624361220228414,-0.512980616563334,9.629690211170782,-1.0100457975030646,0.3085112806905709,-0.8000824180308046
0.52,2.3298988433612164,-0.9613058617687048,2.3892190508251563,-0.0524176175275772,0.0514310060306116,0.0445609470044736,-0.4160176240663017,0.4212217142611588,-0.1646025406400307,2.3310189473573493,-0.9651530894046892,2.3885383918355148,-0.6000982655409731,0.5632275279996973,-0.2663356978665583,0.994147050932983,-0.5050371942274395,0.6633981138295886,-0.5414505830571861,9.5715378084451,-1.0130391379246066,0.3105309478340985,-0.7956760133799905
0.54,2.3214510868645,-0.952719806609024,2.3858022305747983,-0.0553648225743893,0.0465055969880379,0.0450671319991375,-0.4284060811289837,0.4368010801180125,-0.1765312155032382,2.3198169820584504,-0.954688538856616,2.3837170791914883,-0.6400982661370196,0.6032275285957438,-0.2916057635318034,1.1602626781118743,-0.6194228531341023,0.7789682928426883,-0.5964337431603739,9.549289029188913,-1.0168164041831855,0.3128359000124703,-0.7903065272282405
0.56,2.3127282529194737,-0.9438007267380356,2.3821437430649075,-0.0579074283638466,0.0418874624345926,0.0455994571619852,-0.4434425859896165,0.4541786892093077,-0.1887185234112153,2.3076150167446507,-0.943223988293642,2.378264014905831,-0.680098266733066,0.6432275291917902,-0.3168758291970484,1.3005847244581363,-0.7518252430316397,0.8688804545647577,-0.6093653953988545,9.549289029188913,-1.0202634166620097,0.3150049919647248,-0.7851354369234023
0.58,2.303675001601067,-0.9345238675977404,2.378238530862523,-0.0594898108698833,0.0387142389524183,0.0461227957220709,-0.461187078916688,0.4723689583685532,-0.2011798470065145,2.29441305141595,-0.9307594377157666,2.3721791989785426,-0.7200982673291124,0.6832275297878366,-0.3421458948622934,1.415130300600836,-0.887224646353571,0.9095134579622745,-0.6230661797649584,9.550682879950728,-1.0227241326513483,0.3163173085044339,-0.7817066131049621
0.6,2.2947259850979664,-0.9253685727741878,2.374293426724213,-0.0598618669933921,0.0379919835933784,0.0465616005799144,-0.4796704032784142,0.4902425166729445,-0.2134426799566909,2.2806156476552326,-0.9109054196793128,2.368179538512197,-0.5611870804068041,0.5723689598586693,-0.2667821719095258,1.4243195198806269,-0.9241662180863142,0.8936779152195651,-0.6131416475088205,9.551799446197949,-1.0246429481840922,0.3161812542980446,-0.780606455873583
0.62,2.2849133482737862,-0.9153153312562312,2.3700528870539537,-0.0575749617299304,0.0404578161468373,0.0470123975937984,-0.5001861035183616,0.5137306013757188,-0.2089991903059102,2.2806156476552326,-0.9109054196793128,2.368179538512197,-0.5611870804068041,0.5723689598586693,-0.2667821719095258,1.575062442902399,-1.0257850119973655,1.1744042351387152,0.2221744825390323,9.535084453686068,-1.030285382152411,0.314075772132375,-0.7762691792840382
0.64,2.2747234395323885,-0.904840204658514,2.365907463280727,-0.0527620447711741,0.0459051352025263,0.0474715927743831,-0.5173541210409978,0.5320929236502361,-0.206007839557455,2.2806156476552326,-0.9109054196793128,2.368179538512197,-0.5611870804068041,0.5723689598586693,-0.2667821719095258,1.2657644767798044,-0.8584008761318096,0.9181161137258642,0.1495675374227636,10.634602022750189,-1.029713692496379,0.3123268557650828,-0.7769491229587518
0.66,2.264756002328682,-0.8945857492337392,2.361977341955845,-0.0480114633960441,0.0524822703988995,0.0478620626200829,-0.530721449925335,0.5464054811205328,-0.2078109170675465,2.2750037768511646,-0.905181730080726,2.365511716793102,-0.5811870807048273,0.5923689601566925,-0.279902636890128,0.9833436217187508,-0.6683664442168613,0.7156278735148347,-0.0901538755045755,10.35622873691591,-1.0259927446694606,0.3099783924567372,-0.7821473566619227
0.68,2.2540200888178537,-0.8835183430230001,2.357763466214147,-0.0435978174576733,0.0598160835924989,0.0482325048457385,-0.5419434454559536,0.559651928348536,-0.2136742652006895,2.2637800352430286,-0.8937343508835528,2.360176073354911,-0.6211870813008737,0.632368960752739,-0.3061435668513326,0.91621558487063,-0.5610997765309322,0.6623223614001639,-0.2931674066571507,10.065447611262243,-1.020579156914775,0.3073589907762842,-0.7901811136699413
0.7000000000000001,2.2430861295262927,-0.8721976563016548,2.353390290266525,-0.0400415498887576,0.0667459520232122,0.0485765858535315,-0.5507914419334944,0.5719286462450422,-0.2233594096972289,2.2525562936348926,-0.8822869716863794,2.3548404299167207,-0.6611870818969202,0.6723689613487854,-0.3323844968125371,0.8983413436659489,-0.4423998238770377,0.6138358948253098,-0.4842572248269713,9.828933999170658,-1.014481733670679,0.3048644836380252,-0.7993474562816038
0.72,2.232553195612802,-0.8612211572168973,2.349028640339269,-0.0374185376102306,0.072477294026328,0.0488926184691966,-0.5574768565250631,0.5830360093589348,-0.2352994507538608,2.239332551996954,-0.8688395924594037,2.34819273998047,-0.7011870824929667,0.7123689619448319,-0.3586254267737416,0.8812389914760319,-0.3342707295784342,0.5553681556946299,-0.5970020528315967,9.637016456911624,-1.0077943456590883,0.30221317280758,-0.8096766673444433
0.74,2.221343042483661,-0.8494427554339267,2.344175982051358,-0.035395526587494,0.0773205342321307,0.0492193231757584,-0.5631688606420642,0.5943409271224397,-0.2494238959645735,2.226108810359016,-0.8553922132324279,2.341545050044219,-0.7411870830890132,0.7523689625408784,-0.3848663567349462,0.9482879692081784,-0.2846002058500552,0.565245888175242,-0.7062222605356328,9.491646489610504,-1.0017122711765687,0.2997941267821153,-0.8192922876446693
0.76,2.2100244420469264,-0.8374312278703343,2.339028682251517,-0.0337607287080364,0.0809468939704358,0.0495577212560602,-0.5684098903530848,0.6062046218693532,-0.264648776675807,2.2118850687061764,-0.8409448339905511,2.334241336858938,-0.7811870836850595,0.7923689631369247,-0.4111072866961507,1.000015797564009,-0.2620514855510292,0.5931847373456756,-0.7612440355616729,9.418264983659355,-0.9964294540965254,0.2979072609037554,-0.8272606819858073
0.78,2.198603685454617,-0.8251813970599429,2.333567355986056,-0.0321200992168984,0.0835878773352197,0.0499225730965654,-0.5734215503893056,0.6180720974230547,-0.2807320591928868,2.196661327038436,-0.825497454733773,2.326281600424627,-0.821187084281106,0.8323689637329712,-0.4373482166573552,1.0303223874843284,-0.2505830018110444,0.5933737776850745,-0.8041641258539928,9.374302943004295,-0.9920672521221638,0.2960283041347148,-0.8340520309233116
0.8,2.187661967220222,-0.8133267186662043,2.3280742984934504,-0.0304557600699528,0.0854009234549048,0.0502905523389893,-0.5780965619905826,0.6290829845497484,-0.2966884595329996,2.169932607935152,-0.7942777921887901,2.3195307530264118,-0.6734215518794218,0.7180720989131708,-0.33803063006424,0.9971234635224644,-0.2337505800638462,0.5505443563346868,-0.7978200170056376,9.309914528390436,-0.9879909201235402,0.2938487360289692,-0.8406978375566881
0.8200000000000001,2.176057047670425,-0.8006088719820349,2.322161477212077,-0.0282252544626435,0.0870082937687286,0.0507102833358667,-0.5820226012141819,0.6418607819572312,-0.292688022531579,2.169932607935152,-0.7942777921887901,2.3195307530264118,-0.6734215518794218,0.7180720989131708,-0.33803063006424,0.6976556936882408,-0.1963019611799676,0.6388898703741375,0.2000218500710276,9.309914528390436,-0.9922948355787164,0.2917599821273797,-0.8380900921092008
0.84,2.1643855706017803,-0.7876619951548994,2.3163376820009054,-0.025983926414336,0.0883809461870917,0.0511260574473162,-0.584944150819592,0.6522657882432532,-0.290207965560131,2.169932607935152,-0.7942777921887901,2.3195307530264118,-0.6734215518794218,0.7180720989131708,-0.33803063006424,0.5544147601089313,-0.1460774802705011,0.5202503143011017,0.124002848572402,10.58320071372691,-0.991544404942531,0.2917251178684334,-0.8374695129460874
0.86,2.15265865104538,-0.7745149348751023,2.310518841731753,-0.0243113250804714,0.0891558980490979,0.0515057917310684,-0.5876564756739421,0.6619816154453447,-0.2919743011272765,2.1631983924163576,-0.7870970711996584,2.3161504467257688,-0.6934215521774449,0.738072099211194,-0.3494903442385106,0.5120399048711688,-0.1356162427175067,0.485791360104576,-0.0883167783572752,10.091480304101424,-0.9902849988032691,0.2916012678633495,-0.8379562779228482
0.88,2.14146773305358,-0.7618518413011207,2.3049223344400405,-0.0233828330263209,0.0892196209930322,0.0518253494625832,-0.5902887972675275,0.6705765346806232,-0.2970281964065819,2.149729961378769,-0.7727356292213949,2.309389834124484,-0.7334215527734914,0.7780720998072405,-0.3724097725870519,0.5156151935484474,-0.1316160796792698,0.4297459617639221,-0.2526947639652721,10.091480304101424,-0.9891716109392849,0.2914671178281838,-0.8387525260861736
0.9,2.1296316105196005,-0.7483516538982827,2.298902517269012,-0.0233140710109136,0.088559523796497,0.0521040227378917,-0.5932499939453331,0.6790598561897566,-0.3047970788783615,2.1362615303411805,-0.7583741872431315,2.3026292215232,-0.7734215533695379,0.8180721004032869,-0.3953292009355931,0.5939085881941286,-0.1480598338902794,0.4241660754566723,-0.3884441235889796,9.909591531373737,-0.988537170037545,0.2916038047470992,-0.8393608188150935
0.92,2.1177336642442115,-0.7346837875819312,2.2927069200114234,-0.0243638569499374,0.0871020310837195,0.0523144743098812,-0.596462444266258,0.6873958878918012,-0.3144447248065487,2.1207930992737896,-0.7420127452350658,2.294722637504488,-0.8134215539655844,0.8580721009993334,-0.4182486292841344,0.657431238909381,-0.1606225160462493,0.4168015851022277,-0.4823822964093588,9.674799995361354,-0.9887143749771468,0.2923454777822484,-0.8391090268476671
0.94,2.1057689575974234,-0.7208469993477102,2.286312119029183,-0.0265980727763301,0.0847586055256817,0.0524603738841809,-0.5999519706736484,0.6960420946924639,-0.32454481250614,2.105324668206399,-0.7256513032270001,2.286816053485776,-0.8534215545616308,0.8980721015953799,-0.4411680576326757,0.6872871636498379,-0.1744763203695154,0.4323103400331374,-0.5050043849795627,9.674799995361354,-0.9899011013336304,0.2937350567570055,-0.8376598348879086
0.96,2.094327063411793,-0.707518214962105,2.280050163417412,-0.0291732077416877,0.0818269494512484,0.0525883343404897,-0.6043770367099016,0.7065660995691262,-0.3340994190794463,2.0888562371241077,-0.7082898612040331,2.27833648375835,-0.8934215551576772,0.9380721021914262,-0.4640874859812169,0.7443560889115549,-0.2212533018126627,0.5262002438331137,-0.4777303286653184,9.658286124817096,-0.9918266282862416,0.295800279297435,-0.8348576680364339
0.98,2.082178384293961,-0.6932570760828353,2.2732620693916186,-0.0314564753304936,0.0783654021878223,0.0527674701647585,-0.6103816512932961,0.7188852301589975,-0.3441986566788796,2.071387806026914,-0.6899284191661651,2.2692839283222117,-0.9334215557537237,0.9780721027874728,-0.4870069143297581,0.8511917746242973,-0.3002307291697259,0.6159565294935665,-0.5049618799716632,9.664391029744364,-0.994780426182197,0.2979288148416935,-0.8304190475645647
1.0,2.06989270770606,-0.6787406315320682,2.26627188779842,-0.0329481861575384,0.0749945164001994,0.0529998931455859,-0.6180080558933301,0.7320123583099646,-0.3543039459605506,2.051659301729296,-0.6573128145748854,2.2560521365576744,-0.7103816527834123,0.8188852316491136,-0.3910803323990944,0.9118667831454126,-0.3813202300016971,0.656356407548353,-0.5052644640835491,9.663038326581043,-0.9976361311653774,0.2994388338055296,-0.8262466361925667
1.02,2.057403133520468,-0.6639063140104023,2.259273235083864,-0.031921458668961,0.0737615477287367,0.0533309303944537,-0.6302558850115841,0.750007135187788,-0.3449982993351517,2.051659301729296,-0.6573128145748854,2.2560521365576744,-0.7103816527834123,0.8188852316491136,-0.3910803323990944,1.1836557482112358,-0.612391455912703,0.8997388438911735,0.465282331269945,9.664697750779853,-1.0026046282715275,0.2986254532109289,-0.8216497066003066
1.04,2.045326360676705,-0.6495104790873658,2.252784351779619,-0.0283487291800856,0.0754873495220663,0.0537226508021375,-0.640030427484785,0.7639331095571918,-0.3385184926821167,2.051659301729296,-0.6573128145748854,2.2560521365576744,-0.7103816527834123,0.8188852316491136,-0.3910803323990944,0.9103053566776584,-0.4887271236600432,0.6962987184701896,0.3239903326517496,10.860539977169536,-1.0047813834356012,0.2983145210821672,-0.8170919623409005
1.06,2.0324390202278537,-0.6341146056420678,2.246047409057476,-0.0238453417641389,0.0789621778809816,0.0541347435601659,-0.6479619361517401,0.7748002756275666,-0.3357009128951791,2.044555485201462,-0.6491239622583943,2.252141333233684,-0.7303816530814354,0.8388852319471368,-0.4004566675431374,0.6872824819367356,-0.3965754333477567,0.5433583035187373,0.1408789893468792,10.599723002350402,-1.0040475520977925,0.2967730711613118,-0.8170989259912659
1.08,2.0194149803727,-0.6185242186400081,2.2393245149745264,-0.0197260954948341,0.0831004670856448,0.0545043962644451,-0.6538973710797624,0.7837386521633948,-0.3368967273604186,2.030347852145794,-0.632746257625412,2.244319726585702,-0.7703816536774819,0.8788852325431833,-0.4192093378312234,0.5398007389683409,-0.2967717464011143,0.4469188267914092,-0.0597907232619737,10.332253759656853,-1.0015777252067397,0.2948510473347238,-0.8199145094101264
1.1,2.00629058371681,-0.6027677757925436,2.232538501207602,-0.016368524666912,0.08713492746514,0.0548228759813653,-0.6581925670452472,0.7916278659370479,-0.3416407386839045,2.0161402190901256,-0.6163685529924298,2.23649811993772,-0.8103816542735284,0.9188852331392298,-0.4379620081193093,0.5079223508216542,-0.2147597982742388,0.3944606886826574,-0.2372005661742976,10.10084356774314,-0.9985183282432124,0.2930602498227949,-0.8238038581092699
1.12,1.9937552703028345,-0.5876587345783928,2.2259788360688906,-0.0139251662677531,0.0904104554604533,0.05507941001262,-0.661113796226076,0.7985718405841934,-0.3486202713446609,1.999932586004655,-0.5979908483296451,2.227738879775333,-0.8503816548695748,0.958885233735276,-0.4567146784073952,0.5134837874502228,-0.146061459041441,0.3471987323572734,-0.3489766330378202,9.917408663923196,-0.9952389413406504,0.2913560311762462,-0.8281834338863735
1.14,1.9805097769294877,-0.5716158233747587,2.218917757368104,-0.012126693970731,0.0929766804361457,0.0553008790418075,-0.6633017258195969,0.8054655672910549,-0.3571771261481362,1.9837249529191845,-0.5796131436668606,2.2189796396129475,-0.8903816554656213,0.9988852343313226,-0.4754673486954812,0.5602014547081637,-0.1093964796760438,0.3446863353430751,-0.4278427401737616,9.78003712447844,-0.992504264399237,0.2899301959192104,-0.8320702718108284
1.16,1.967221738853164,-0.5554286700132564,2.211677173463481,-0.010833287364852,0.0946245670506397,0.0554885320526403,-0.6654269733826984,0.8128794212502858,-0.3664819085380813,1.9665173198188128,-0.5602354389891748,2.209751582693359,-0.9303816560616676,1.038885234927369,-0.4942200189835671,0.6042782534923494,-0.1062623781550753,0.3706926979615443,-0.4652391194972571,9.719535909022852,-0.9903614578408888,0.288870570360779,-0.8350910651214064
1.18,1.9545581659342823,-0.5399118904537495,2.204620848006825,-0.0097390497770671,0.0955202442498125,0.0556543359386763,-0.6675131233785491,0.8200306339075104,-0.3758241768640163,1.94830968670354,-0.5398577342965879,2.2000547090165687,-0.970381656657714,1.0788852355234153,-0.5129726892716531,0.5974316733899505,-0.104307499792533,0.3575606328612313,-0.4671134162967522,9.6638951890136,-0.9887366300004088,0.2878164722681244,-0.8375340817268168
1.2,1.9411836115126944,-0.5234332746092997,2.196995993068043,-0.0086112790482106,0.0959351763025885,0.0558206369237883,-0.6698646564136006,0.8274008956260284,-0.3861954279180334,1.921182509765355,-0.498910358758374,2.1858296391636243,-0.7675131248686652,0.8846687344719902,-0.427014832542527,0.6469414846797209,-0.1175766517525767,0.3685130859258978,-0.5185625527008547,9.6638951890136,-0.9875752967791817,0.2867281201710057,-0.839476348305039
1.22,1.927744980607349,-0.5066838274542617,2.1893052644770106,-0.0034380865998635,0.0966647859232708,0.0562521711254462,-0.6736136566362498,0.8449535723291842,-0.3815385144563492,1.921182509765355,-0.498910358758374,2.1858296391636243,-0.7675131248686652,0.8846687344719902,-0.427014832542527,0.9271438738196875,-0.1874500111324617,0.8776338351577928,0.2328456730842143,9.635702682865483,-0.9889379741527402,0.2823340386721397,-0.8403836849077067
1.24,1.9142506517172304,-0.4896910525437944,2.181706327913132,0.005540467865005,0.0980437777224008,0.0569295936860152,-0.6755425150922449,0.8527781011978358,-0.3786643231393546,1.921182509765355,-0.498910358758374,2.1858296391636243,-0.7675131248686652,0.8846687344719902,-0.427014832542527,0.4277987923262309,-0.0964429227997554,0.3912264434325796,0.1437095658497256,10.586094495720316,-0.989398088472326,0.2778060941138993,-0.8396243977915272
1.26,1.9014051865770576,-0.4734597597313767,2.1744965523654933,0.014242467465341,0.0992872960402983,0.0575704718172969,-0.6765225813240149,0.8553510481586132,-0.3804040687401707,1.9135073785166683,-0.4900636714136541,2.181559490838199,-0.7875131251666884,0.8975963545848862,-0.4372529636782292,0.1628442556339347,-0.0490033115884969,0.1286473480388683,-0.0869872800408039,10.07932702654216,-0.9881941056222878,0.2717868792723191,-0.8419676436444368
1.28,1.8878693970197944,-0.4563530385966256,2.166832777000536,0.0224072006417278,0.1001478177240547,0.0581515838231283,-0.6770440612424995,0.855252245489121,-0.3860568342302842,1.8981571160192952,-0.4723702967242143,2.1730191941873485,-0.8275131257627348,0.9234515948106782,-0.4577292259496334,0.2838814055160142,-0.0260739959242306,-0.0049401334746068,-0.2826382745056727,10.07932702654216,-0.9865183927119716,0.265549602973997,-0.8456660418787776
1.3,1.8743253630671013,-0.4392677933703679,2.1590217169806394,0.0291717200616452,0.1003263747109227,0.0585972835786212,-0.6774107832150029,0.8534252393604171,-0.3948912338167524,1.8828068535219216,-0.4546769220347745,2.164478897536498,-0.8675131263587813,0.94930683503647,-0.4782054882210377,0.4514395099369042,-0.0183360986251712,-0.091350306435195,-0.4417199793234128,9.866245135453028,-0.9848973201118728,0.2596444397525015,-0.8497105476670549
1.32,1.860774603939164,-0.4222325137262978,2.15100711543773,0.0344610813667408,0.0996934720026006,0.0588901131093405,-0.6777478616373412,0.8504824658040363,-0.4061167155703942,1.8654565909947465,-0.4356907853340451,2.154914787772077,-0.9075131269548278,0.975162075262262,-0.4986817504924419,0.580484665319174,-0.016853921116916,-0.147138677819042,-0.5612740876820899,9.705321555418776,-0.983804597075958,0.2545273849800653,-0.8533130958760393
1.34,1.8478957898439128,-0.4061104195123214,2.143176839965391,0.0382430506875265,0.0982085159808857,0.0590248188259816,-0.6779880104189014,0.8469898015678635,-0.4175547919921265,1.8481063284675705,-0.4167046486333157,2.1453506780076563,-0.9475131275508742,1.001017315488054,-0.5191580127638462,0.5980927334730651,-0.01200743907801,-0.1746332118086391,-0.571903821086614,9.593402752973816,-0.9835413967166003,0.2497017278533216,-0.8563100037675507
1.36,1.8343283358513456,-0.3892095899494186,2.13469619123384,0.0412586045576154,0.0956780823401593,0.0590339270992964,-0.6788439853638334,0.8433586949022096,-0.4299184861854762,1.8297560659254937,-0.3970721309269415,2.1352746616864504,-0.9875131281469208,1.026872555713846,-0.5396342750352505,0.6457138739998843,-0.0427987472465973,-0.1815553332826958,-0.6181847096674825,9.558192525184497,-0.9840540400624777,0.245575515501622,-0.8582110586685542
1.38,1.8207345841411984,-0.3723838220375312,2.125967569147896,0.0435970602994982,0.0923356525722295,0.0589336342336406,-0.6806068428721641,0.8394549971013836,-0.442321354579119,1.810405803368516,-0.3767932322149225,2.12468673880846,-1.027513128742967,1.052727795939638,-0.5601105373066547,0.6560824405226765,-0.0881428754165358,-0.1951848900413,-0.6201434196821426,9.544733206712408,-0.9854056123671082,0.2421452402736843,-0.8588993175835755
1.4,1.8077767938012208,-0.3564752963690657,2.117446123840272,0.0453166815477906,0.0886655889091509,0.0587565366814981,-0.6833926248493053,0.8354020786680503,-0.4540486966309464,1.78670424199759,-0.330411072182462,2.10385150141894,-0.7806068443622802,0.8451282798811368,-0.4734330308250468,0.6358405473308066,-0.1392890988570594,-0.2026459216666665,-0.5863671025913675,9.544733206712408,-0.9874844743342376,0.2389342693098396,-0.8587845112387464
1.42,1.7940350073121638,-0.3396547733555683,2.1084031918812367,0.0521581780198177,0.0857705635908423,0.0589321077884644,-0.6907015192245314,0.8438862266409265,-0.4488707911548064,1.78670424199759,-0.330411072182462,2.10385150141894,-0.7806068443622802,0.8451282798811368,-0.4734330308250468,0.616869939561232,-0.3654447187613041,0.4242073986438111,0.2588952738069972,9.549412884600317,-0.9912000929650256,0.2319957089134517,-0.8581713324335563
1.44,1.7801466752254684,-0.3228047337663153,2.099470073672978,0.0639393890362806,0.0854101316966671,0.0595340924963624,-0.6974109111210637,0.8398964807970448,-0.444962270707229,1.78670424199759,-0.330411072182462,2.10385150141894,-0.7806068443622802,0.8451282798811368,-0.4734330308250468,0.43649325197864,-0.3354695948266151,-0.1994872921940838,0.1954260223788723,10.624338969105338,-0.9939898491029762,0.2240911163112675,-0.8566681209955138
1.46,1.7668469406749348,-0.3069440015189645,2.0910119661742077,0.0754132206832364,0.0865174683940042,0.0601865184389407,-0.7020916471515289,0.8298123546417607,-0.4455629788403075,1.7788981735539673,-0.3219597893836506,2.0991171711106893,-0.8006068446603034,0.8462629364370875,-0.4796553660742324,0.5566860433936867,-0.234036801523263,-0.5042063077642045,-0.0300354066539249,10.422570490027285,-0.9936149991600376,0.2141410601725222,-0.8600729058298014
1.48,1.7527679458814165,-0.2904949873570902,2.0820607677337453,0.0861917247372571,0.0883012158629352,0.0608098372764208,-0.7054803699112202,0.8157126065718107,-0.4496750372047907,1.7632860366667216,-0.3050572237860279,2.0896485104941886,-0.8406068452563499,0.8485322495489888,-0.4921000365726035,0.7536500540221345,-0.1694361379845632,-0.7049874034975034,-0.2056029182241597,10.183263665889172,-0.991865463119245,0.2045099190353914,-0.8652404945303642
1.5,1.7386343730128972,-0.2743532871855393,2.072996694770888,0.0951081148620243,0.0900462620159871,0.0612825761426806,-0.7076907743459493,0.7993811179733661,-0.4566222978660456,1.747673899779476,-0.2881546581884052,2.080179849877688,-0.8806068458523963,0.85080156266089,-0.5045447070709747,0.894242470336787,-0.1105202217364542,-0.8165744299222288,-0.3473630330627475,10.000472046620416,-0.9895258095185088,0.1956471566403956,-0.8711644526787259
1.52,1.7244666485239415,-0.2585554908768548,2.063771329249651,0.1020098852875626,0.0912880692102036,0.0615459926525495,-0.7090493572337183,0.7816304194501917,-0.4655359859524055,1.7300617628624282,-0.2711386269351874,2.070088955736268,-0.9206068464484428,0.8530708757727913,-0.5169893775693458,0.995473355776634,-0.0679291443884511,-0.8875349261587173,-0.4456844043179947,9.867105987918876,-0.9873757286172468,0.1882185955735499,-0.8766697277734122
1.54,1.7109880202226675,-0.2438854956286466,2.054838135458528,0.1068470914024619,0.0917587632415039,0.0615802926419701,-0.7097964644807918,0.763847526432842,-0.4743266267020037,1.7124496259453803,-0.2541225956819696,2.059998061594849,-0.9606068470444892,0.8553401888846925,-0.5294340480677169,0.992553295916182,-0.0373553623536748,-0.889144650867485,-0.4395320374799089,9.784710265924332,-0.9858093480061002,0.1815109457509702,-0.8815989678193812
1.56,1.6967823797518615,-0.2288108380010774,2.0452557739934885,0.1104136393209862,0.0915210052202083,0.0614040417564816,-0.7108113484168811,0.74478370553448,-0.4834174546022676,1.6938374890134311,-0.2370498316009542,2.04959605069097,-1.0006068476405356,0.8576095019965939,-0.541878718566088,1.0572398126262228,-0.0507441968044641,-0.9531910449181002,-0.4545413950131943,9.782534161877264,-0.9850220522606044,0.1759383877817898,-0.8854635582255672
1.58,1.6825533209888175,-0.2141224183819761,2.0354956596188045,0.1126358971670984,0.0907155347580124,0.0610431355183365,-0.7121085521547255,0.7252518412233648,-0.4920970311731701,1.6742253520665809,-0.2199203346921414,2.0388829230246315,-1.040606848236582,0.8598788151084952,-0.5543233890644591,1.0706440940567654,-0.0648601868922182,-0.97659321555576,-0.4339788285451257,9.801282238277054,-0.9850662569050526,0.171569313801922,-0.8881705705082701
1.6,1.6682958350525137,-0.1998326807109734,2.025567295938509,0.1134855736480784,0.0894520951234318,0.0605092175293231,-0.7136529828958618,0.70494518335629,-0.5002860368474292,1.6469478933810813,-0.1778598263208079,2.010890808060146,-0.8121085536448416,0.6906875510276613,-0.5115036404103641,1.0975033416551043,-0.0772215370568152,-1.015332893353743,-0.409450283712956,9.831644530606354,-0.9857515618407376,0.1680427078333638,-0.8901244189178869
1.62,1.654688664647797,-0.1865256974303594,2.0160710248605533,0.1167793794003079,0.0888701500746586,0.0602238916311539,-0.7182922528849305,0.6946546321080904,-0.4991352455690764,1.6469478933810813,-0.1778598263208079,2.010890808060146,-0.8121085536448416,0.6906875510276613,-0.5115036404103641,0.5673239629824127,-0.2319634994534358,-0.5145275624099777,0.0575395639176412,9.864604464586591,-0.9871124807552876,0.1631168507933261,-0.8913790651180131
1.64,1.640291468835835,-0.1728194543559525,2.0060875976058643,0.1230381698306145,0.0893303767331138,0.0602152629935551,-0.7210954347054312,0.6760658253476031,-0.4993462630031522,1.6469478933810813,-0.1778598263208079,2.010890808060146,-0.8121085536448416,0.6906875510276613,-0.5115036404103641,0.9400081029637594,-0.1401590910250383,-0.9294403380243677,-0.0105508717037933,10.363674049079236,-0.9878871414368564,0.1569863491879893,-0.8926873777268367
1.66,1.6265755226987455,-0.1601890820054731,1.9965819542238357,0.1289032457251654,0.0899531880732132,0.0601980820397899,-0.722565349458049,0.654501732731797,-0.5012305282440709,1.6388268078446329,-0.1709529508105313,2.0057757716560425,-0.8321085539428648,0.6837746929885207,-0.515384962257803,1.084805507016302,-0.0734957376308853,-1.0782046307903026,-0.0942132620459307,10.29002397421482,-0.9874584945883808,0.1498074817484456,-0.895889155230771
1.68,1.6121164377014916,-0.1473571735936818,1.986525769216429,0.134014561775677,0.0903011647835799,0.0600384942731581,-0.723303931618868,0.6299862749675996,-0.5043134351613149,1.622584636771736,-0.1571391997899781,1.9955456988478355,-0.8721085545389112,0.6699489769102392,-0.5231476059526805,1.2359788510092085,-0.0369291080409506,-1.2257728882098695,-0.1541453458621999,10.21722146234606,-0.9869097823432256,0.1430493679064329,-0.8993541649371821
1.7,1.5976479470362548,-0.1350292749997018,1.9764010900776297,0.1377300782580936,0.0899976082484034,0.0596646567572593,-0.7235854253310624,0.6042800725152649,-0.5079865756008174,1.6063424656988392,-0.1433254487694248,1.985315626039628,-0.9121085551349576,0.6561232608319578,-0.5309102496475582,1.29844141561983,-0.0140746856097218,-1.285310122616734,-0.1836570219751254,10.154055454955596,-0.9868320773780106,0.1371427899847393,-0.902302678911268
1.72,1.5831780715877644,-0.1232238338063018,1.9662017278023247,0.1399568595259013,0.0887646684234393,0.0590293427440418,-0.7235028884808812,0.577952638153455,-0.511715456250834,1.58810029459614,-0.1302029835527857,1.974697421046677,-0.9521085557310042,0.6422975447536764,-0.5386728933424358,1.32951604287906,0.0041268425090612,-1.3163717180904977,-0.186444032500832,10.154055454955596,-0.9876869482814976,0.1325668690173156,-0.9040005554706392
1.74,1.5694360018534077,-0.1125032217163525,1.956448807792157,0.1406811346980717,0.0864350238702628,0.0581413877013055,-0.7231526187165637,0.5521015688344687,-0.5146863509914342,1.5698581234934408,-0.1170805183361465,1.9640792160537257,-0.9921085563270506,0.628471828675395,-0.5464355370373134,1.3011789744329516,0.0175134882158756,-1.2925534659493143,-0.1485447370300097,10.159799526021745,-0.9901655233616842,0.1290440952466646,-0.9038573218803604
1.76,1.5549719389442445,-0.1017582163783768,1.9461295325538543,0.1395728373886235,0.0826101645934216,0.0568638839981964,-0.7234210687901743,0.5239553280315988,-0.5170068806430976,1.5506159523758405,-0.1043036960214644,1.9532669449684024,-1.032108556923097,0.6146461125971137,-0.5541981807321911,1.4121506600212737,-0.0134225036805324,-1.4073120401434935,-0.1160264825831702,10.202193223595714,-0.9941546377689164,0.1272225101688431,-0.9017185810565472
1.78,1.5404900216496369,-0.0915819250825847,1.935776408595895,0.1360809720934044,0.077526766475508,0.0552413012971566,-0.7250448011484808,0.4957043506889213,-0.5180366687266886,1.5303737812433391,-0.0918725166087393,1.942260607790708,-1.0721085575191434,0.6008203965188322,-0.5619608244270686,1.4158166292682424,-0.0811866179153242,-1.4125488671338753,-0.0514894041795499,10.325454485498994,-0.9995754113750772,0.1276809970995658,-0.8973989916406498
1.8,1.5259503768838736,-0.0819456208077574,1.9254221999049432,0.1308864505695426,0.0717370430448928,0.0534229072468694,-0.7290942033068665,0.4699037353443673,-0.5172504890496938,1.5042377815922128,-0.0667967075481386,1.9098745751595607,-0.8250448026385969,0.4492767804055084,-0.4797819494991362,1.306414452310686,-0.2024701079192836,-1.2900307672276985,0.0393089838497395,10.325454485498994,-1.0055897919723196,0.1296524952954427,-0.8918930199330793
1.82,1.5120080554044344,-0.0732186141840838,1.9156970064897727,0.1266517059666733,0.0673436644025078,0.0519131247532292,-0.738352079325991,0.4494156971665429,-0.5065761097122938,1.5042377815922128,-0.0667967075481386,1.9098745751595607,-0.8250448026385969,0.4492767804055084,-0.4797819494991362,1.2443977971293847,-0.4628938009562267,-1.024401908891223,0.5337189668700004,10.40093951039762,-1.0122806086603136,0.1318573074427932,-0.8852997291684858
1.84,1.4971313237905317,-0.0644733913111753,1.905700797123008,0.1232218511367725,0.0655100488556745,0.0507600550328262,-0.7487051867756099,0.4262315672551952,-0.4935443736906627,1.5042377815922128,-0.0667967075481386,1.9098745751595607,-0.8250448026385969,0.4492767804055084,-0.4797819494991362,1.426987085914832,-0.5176553724809463,-1.1592064955673858,0.6515868010815579,11.03604624574109,-1.0174314778048483,0.1342787557208671,-0.879563246558703
1.86,1.4820616262309436,-0.0561962193090874,1.895975569471691,0.1199274965829017,0.0659092522074107,0.0498916701789536,-0.7575429518670495,0.4028275094828826,-0.4795683819729409,1.495987333565827,-0.0623039397440835,1.9050767556645691,-0.8450448029366201,0.4399912663488258,-0.4721310056536257,1.432815721329019,-0.441888254571976,-1.170202888615629,0.6987995858860868,11.120749793220057,-1.0203566109096869,0.1365483553314271,-0.8763512753577278
1.88,1.466833897474514,-0.0483821166834141,1.8865358662003415,0.1164421350525142,0.0674602323175899,0.0491428309565877,-0.764667135885134,0.3799682366454953,-0.4650597813247372,1.479486437513055,-0.0533184041359733,1.8954811166745864,-0.8850448035326666,0.4214202382354606,-0.4568291179626048,1.3998212790805644,-0.3562092009042283,-1.1429636418693627,0.7254300324101848,11.155557871161363,-1.0214323483911238,0.1386596056992407,-0.8752387820358494
1.9,1.4522502060898907,-0.0413745544730785,1.877839922731905,0.1128882235542103,0.069238174084566,0.0484434398266632,-0.7700769378055741,0.3590425068387027,-0.4510048223573388,1.462985541460283,-0.0443328685278632,1.885885477684604,-0.925044804128713,0.4028492101220954,-0.4415272302715838,1.289083003864122,-0.2704900960220024,-1.0462864903396318,0.7027479483699195,11.16918714449912,-1.0217071166747167,0.1410172370815943,-0.8749356337528927
1.92,1.436799467260606,-0.0344157551079134,1.8689777639737943,0.1089927621107865,0.0708725125055231,0.0476636120811367,-0.7747027161675735,0.3381173723666981,-0.4359253900872969,1.4444846453777087,-0.0362758843254213,1.877054933079172,-0.9650448047247596,0.3842781820087303,-0.4262253425805628,1.3101987976187008,-0.23128891809997,-1.0462567236002278,0.7539716135020941,11.172394405332852,-1.0222565526953422,0.1436820527700247,-0.8740891920439857
1.94,1.421263934819566,-0.0278651353018137,1.860422077159159,0.105019686525736,0.0718981991984861,0.0468086514994316,-0.7786601665711931,0.318157620134511,-0.4203633032116078,1.4259837492951346,-0.0282189001229793,1.8682243884737404,-1.005044805320806,0.3657071538953651,-0.4109234548895418,1.2808509581464835,-0.1978725201809805,-0.9979876116093578,0.7781043437844581,11.179048294618951,-1.0235054735835531,0.1465880141212907,-0.8722295063863237
1.96,1.405648095477245,-0.0217063566684318,1.8521831537516589,0.1009362359072719,0.0722849360005718,0.0458794480050871,-0.7827957163982288,0.298947503672377,-0.4042830516241032,1.4064828531976592,-0.0206261916233716,1.859776391060584,-1.0450448059168524,0.3471361257819999,-0.3956215671985209,1.2695529114397817,-0.2067774913517839,-0.9605058231067,0.8040125793752295,11.200552766360488,-1.0249809829219445,0.1494188598617219,-0.8700287284969214
1.98,1.390733251790224,-0.0162023330087969,1.8446589648799052,0.0969624139078989,0.0722513723719343,0.0449536763089319,-0.7870293034023012,0.2815727468688059,-0.388520012048987,1.3859819570852825,-0.0134977588265979,1.851710940839704,-1.0850448065128988,0.3285650976686348,-0.3803196795074999,1.1919299995710388,-0.2116793502036196,-0.8687378401785517,0.7881519787558078,11.226251773970944,-1.026853741745105,0.1525086389590955,-0.8672359644552218
2.0,1.374943137835481,-0.0107537945970097,1.83706761963695,0.0927653731001138,0.0719499680588498,0.0439596099228575,-0.791801752079116,0.2643498471818153,-0.3714074941507326,1.351381786620109,-0.0021236956653566,1.825232964277456,-0.8870293048924173,0.259276143099742,-0.3594691310059105,1.237177037471852,-0.2386224338407405,-0.8611449843495295,0.8556258949127232,11.25091202697422,-1.0290655215615645,0.1557099251142346,-0.8639150021523643
2.02,1.3590197094897625,-0.0056740589407143,1.829719351388782,0.0872624499170073,0.0724302045999368,0.0429541251017314,-0.800258842259742,0.2454137698136691,-0.3646942412965681,1.351381786620109,-0.0021236956653566,1.825232964277456,-0.8870293048924173,0.259276143099742,-0.3594691310059105,1.0899141758638704,-0.4228545090313007,-0.94680386840731,0.335662642708226,11.275886477679704,-1.0262708876501223,0.1576935043437707,-0.8675802757226833
2.04,1.3437497563556486,-0.0011566676956363,1.822860799496506,0.0809111429439631,0.0739898437123911,0.042022502574877,-0.8065912249760561,0.2313532519981835,-0.357511725522799,1.351381786620109,-0.0021236956653566,1.825232964277456,-0.8870293048924173,0.259276143099742,-0.3594691310059105,0.8505671122050027,-0.3166191358157044,-0.7030258907742809,0.3591257886884524,10.618795798617612,-1.0272689536574815,0.1622556554813334,-0.8661660016840464
2.06,1.3275606591709124,0.0033401596615311,1.8158038890524744,0.0743006295242823,0.075851744061558,0.0410672518734571,-0.8119230948628793,0.2192002459567387,-0.3484984179235028,1.3425114935711848,0.0004690657656407,1.821638272967397,-0.9070293051904404,0.2548168223459292,-0.3536589547972952,0.8021285841636258,-0.2665934943411607,-0.6076503020722392,0.4506653799648125,10.772892875787877,-1.0275901523134794,0.1668937635621921,-0.8652563225005258
2.08,1.3112758105173348,0.0076141533084083,1.8089386437089368,0.0682265145284976,0.077447927839615,0.0401332853699465,-0.8162813301350225,0.2088581729031133,-0.3384442182298066,1.3247709074733365,0.0056545886276355,1.8144488903472784,-0.9470293057864868,0.2458981808383036,-0.3420386023800646,0.7533916996068462,-0.2179117636071592,-0.5171036526812695,0.5027099846848071,10.822182833054285,-1.0280016633502918,0.1712807130659347,-0.8640459382773844
2.1,1.2957314628673562,0.0114971663190338,1.802610823530672,0.0631166158486516,0.0784270363857647,0.0392621113054383,-0.8198055298835891,0.2003533860322285,-0.3281556412541869,1.307030321375488,0.0108401114896304,1.8072595077271605,-0.9870293063825334,0.236979539330678,-0.330418249962834,0.6903010208782555,-0.1762099874283329,-0.4252393435442439,0.5144288487809845,10.822182833054285,-1.0288108729242276,0.1750740065684243,-0.8622843201367025
2.12,1.2792998451515143,0.0154209184991627,1.7961672884166626,0.0584497687929803,0.0787427601139292,0.0383608954764882,-0.8232304773425257,0.1924514428331015,-0.3167172025275885,1.2872897352478374,0.0155797022762439,1.8006511427279035,-1.02702930697858,0.2280608978230524,-0.3187978975456034,0.7159065091212187,-0.1712473729468311,-0.3950971599563466,0.5719219363299222,10.858330417311665,-1.030270727886627,0.1786279965808383,-0.859638930264818
2.14,1.262799083833984,0.0191963081810666,1.7899540729552748,0.0544937635632719,0.078283401589602,0.0374790644092211,-0.8267598257578114,0.1854468038660164,-0.3051802386137792,1.267549149120187,0.0203192930628575,1.794042777728647,-1.0670293075746262,0.2191422563154269,-0.3071775451283728,0.6975363855101451,-0.1764674207642813,-0.3502319483542543,0.5768481956904631,10.888429927743346,-1.032267674373988,0.1816762191873009,-0.8563397835871004
2.16,1.24621904210974,0.0228382488089895,1.7839724011819924,0.0511745234849796,0.0772720549971734,0.0366288595484128,-0.8311449662180331,0.1790357077956044,-0.293561469623905,1.2468085629776349,0.0248359178117804,1.7877249215398212,-1.1070293081706726,0.2102236148078013,-0.2955571927111422,0.6987979008983725,-0.2192570230110879,-0.3205548035206021,0.5809384494937092,10.888429927743346,-1.0344121905372967,0.1840712150640686,-0.8529793945424591
2.18,1.2303786668689158,0.0261842936957125,1.7785067351073762,0.0485135555689921,0.0761536240679415,0.0358639757336503,-0.8360738147436293,0.1734464130239473,-0.282348627917722,1.225067976820182,0.0291295765230127,1.781697574161426,-1.147029308766719,0.2013049733001757,-0.2839368402939116,0.6731671095661587,-0.2464424262798081,-0.2794647385828561,0.5606420853091515,10.891892315002224,-1.0370576468688013,0.1862791084250618,-0.848987390914285
2.2,1.2135971171754474,0.0295960597921825,1.772985940493134,0.0461662953888028,0.0750554061486916,0.0351111204216976,-0.841848465025193,0.1679982722820882,-0.2703062021249386,1.1885749761317344,0.0348566143469099,1.7643893037114902,-0.930180325025192,0.1459361928390251,-0.2484137478696854,0.7211949153872375,-0.2887325140781827,-0.2724070370929532,0.6021212896391681,10.9117757628228,-1.0398536840339934,0.188212914758314,-0.8448137306838919
2.22,1.1966522516978226,0.0329364017336698,1.767657509620273,0.0452857140583484,0.0754214318039087,0.0345419863289714,-0.8519353589445137,0.1658050606397751,-0.2631433224620703,1.1885749761317344,0.0348566143469099,1.7643893037114902,-0.930180325025192,0.1459361928390251,-0.2484137478696854,0.6282166252821147,-0.5043446959660358,-0.1096605821156546,0.3581439831434163,10.9117757628228,-1.038561998521906,0.1883158118499094,-0.8460950594408063
2.24,1.1803890612498795,0.036061855857707,1.762732977310301,0.0462276708892556,0.0774951039761411,0.0342133676316922,-0.8592930629240112,0.1631150004799152,-0.2555742831451907,1.1885749761317344,0.0348566143469099,1.7643893037114902,-0.930180325025192,0.1459361928390251,-0.2484137478696854,0.5446617934416927,-0.3678851989748766,-0.1345030079929976,0.3784519658439789,10.624887420083724,-1.0398046659229867,0.1878665956748023,-0.8445625153116763
2.26,1.1631396421951798,0.0392884053982782,1.7577106328727574,0.048778659158014,0.0804018777622234,0.0340214216767828,-0.8651137964269418,0.1594677449662351,-0.2470438782999941,1.1792731728814825,0.0363159762753002,1.7619051662327934,-0.9490016270815048,0.1404341488020406,-0.2416267718600781,0.5476112172818455,-0.2910366751465276,-0.1823627756840029,0.4265202422598313,10.673943437186608,-1.0396769050589043,0.1860734328655947,-0.8449745180311885
2.28,1.1457918899229256,0.0424172273740029,1.7528610491119134,0.0522075248702511,0.0833554915721925,0.0339072879488402,-0.869283058340443,0.1533786616371847,-0.2383474377623443,1.1606695663809783,0.0392347001320807,1.7569368912753995,-0.9866442311941298,0.1294300607280717,-0.2280528198408635,0.5702801038006909,-0.2084630956750599,-0.3044541664525224,0.4348220268824906,10.698920760688452,-1.0390001198645726,0.1834217982120561,-0.8463258536188524
2.3000000000000003,1.1283754836741648,0.045402988556316,1.7481861476511371,0.0555155420041231,0.085859617447339,0.0337751157087565,-0.8721612171767468,0.1455230718949638,-0.2295839866312912,1.1420659598804748,0.0421534239888612,1.751968616318006,-1.024286835306755,0.1184259726541028,-0.2144788678216488,0.6057890808925067,-0.1439079418151911,-0.3927794871110418,0.4381725565526559,10.716015327031528,-1.0383413537132282,0.1808971617755917,-0.8476212402029061
2.32,1.1117853725989135,0.0480833991342205,1.743908680669271,0.0582015019791338,0.0875530835220567,0.0335900628984822,-0.8740786799474743,0.1371068336993156,-0.2211142597957875,1.1215802231743397,0.0445219434419432,1.747679038961573,-1.06192943941938,0.1074218845801339,-0.2009049158024342,0.6046610652073282,-0.0958731385363786,-0.4208119097824092,0.4234863417751824,10.716015327031528,-1.038028223928535,0.1785556373871,-0.8484338283405998
2.34,1.0942875851269944,0.0507266452662375,1.7395813265168,0.06047783259724,0.0884709517704078,0.0333146016651454,-0.8756561915139124,0.1277202433863063,-0.2120577191642841,1.1010944864682046,0.0468904628950253,1.74338946160514,-1.099572043532005,0.096417796506165,-0.1873309637832196,0.6569199887668954,-0.0788755783219019,-0.4693295156504656,0.4528270315751731,10.72859118229826,-1.0383226531466858,0.1766129232432408,-0.8484158543097111
2.36,1.076755117710581,0.0531737873204943,1.7354371277801022,0.0620873610587906,0.0886175038275663,0.0329525793373587,-0.8775881001864995,0.1176113600865293,-0.2028065781493678,1.079667684659254,0.0489838801462581,1.7394392330491877,-1.1372146476446303,0.0854137084321962,-0.173757011764005,0.6919273855788501,-0.0965954336293539,-0.5054441649888497,0.4625570507458126,10.739244524209424,-1.0389271358987964,0.1750945246962609,-0.8480030590045434
2.38,1.060059069346436,0.0553051825182921,1.7316745913942442,0.0628536839853673,0.0883363473727029,0.0325353818709667,-0.8798389003394288,0.1073668842304981,-0.1937035549818971,1.0572998177474875,0.0508021951956417,1.735828353293715,-1.1748572517572553,0.0744096203582273,-0.1601830597447903,0.6944069730366026,-0.1125400076464666,-0.5122237928015617,0.4551511583735373,10.754356762935458,-1.0401035980897406,0.1741002583677843,-0.8468391068651645
2.4,1.0424340917650057,0.0573345309112217,1.7279051376775811,0.062653137444771,0.0878272652360983,0.0320205349118173,-0.882576837155665,0.0961919510003456,-0.1836917796697422,1.0160671243294646,0.060673526729817,1.7219894136451492,-0.8860534868916613,0.0841672384281194,-0.1689035915225245,0.7625796279883532,-0.136896840811812,-0.5587466615076266,0.5005887656077415,10.777325490054864,-1.0416447608556878,0.1739347882091002,-0.8450771932624638
2.42,1.0246498775440562,0.0591154962165028,1.7242491763334171,0.0604357728136264,0.0903010140261019,0.0315593108421291,-0.8953194622894501,0.0828427192551688,-0.1828096665721217,1.0160671243294646,0.060673526729817,1.7219894136451492,-0.8860534868916613,0.0841672384281194,-0.1689035915225245,0.9237892170343842,-0.6371312566892551,-0.6674615872588379,0.0441056548810242,10.805022951581122,-1.033688471034251,0.1724302616995675,-0.8559487197335387
2.44,1.006651159852068,0.0606636279942533,1.7205981603656937,0.0562510441254149,0.0975581780031967,0.0312452822040721,-0.9032774177273704,0.0731599878465124,-0.1822526252133837,1.0160671243294646,0.060673526729817,1.7219894136451492,-0.8860534868916613,0.0841672384281194,-0.1689035915225245,0.627285097382861,-0.3978977718960108,-0.4841365704328207,0.0278520679369037,10.299699294807397,-1.0307059303923154,0.1752480703775252,-0.8597566598674085
2.46,0.98945136128512,0.0619877607411242,1.7171493123831394,0.0520773355153522,0.1065926883568076,0.0310326076059968,-0.906437613964836,0.0667420477395177,-0.1808294197577903,1.007206589460548,0.0615151991140982,1.720300377729924,-0.8872964042021078,0.0795273092676437,-0.16394359883065,0.3646995655505148,-0.1580098118732831,-0.3208970053497337,0.0711602727796689,10.282636885931424,-1.0240850255874494,0.1780522248116977,-0.8676812336558524
2.48,0.9713207697529626,0.0632677989503969,1.7135534811359845,0.0481474452065123,0.1170117472227934,0.0308605142709412,-0.9060691954507738,0.0615765227138946,-0.178836817062394,0.9894855197227148,0.0631985438826606,1.7169223058994736,-0.8897822388230008,0.0702474509466922,-0.154023613446901,0.2774384909017802,0.0184209257031109,-0.2582762512811545,0.0996301347698153,10.317790310535202,-1.0155449159004306,0.1805092741194741,-0.8775283332509318
2.5,0.953231680295082,0.0644565443327953,1.7100004362281354,0.0449337131580384,0.1276129468046511,0.0307221262419977,-0.9025312974271048,0.0574266487407899,-0.1766156390494013,0.9717644499848814,0.064881888651223,1.713544234069023,-0.8922680734438938,0.0609675926257408,-0.144103628063152,0.2944138591504088,0.1768949011834497,-0.2074936986552332,0.1110589006496354,10.348229787608034,-1.006583137500034,0.1823986543683144,-0.887559015363673
2.52,0.9352428854033048,0.0655691229245443,1.70649334659101,0.0424376513008323,0.1379903041925457,0.0306059138254257,-0.8962348661639739,0.0538992044790877,-0.1742533969193347,0.9539190885160036,0.0661012405037378,1.71066216150776,-0.8947539080647868,0.0516877343047893,-0.134183642679403,0.3796975689671,0.3148215631565476,-0.176372213085111,0.1181121065033291,10.39540310691973,-0.9967972619689024,0.1839160665243575,-0.8982286837660968
2.54,0.9182933478050692,0.0665648296833811,1.7032033492268102,0.04067880082878,0.1474545669443187,0.0305118632499521,-0.888013075346549,0.0509610657900424,-0.172224082585895,0.9360737270471255,0.0673205923562526,1.707780088946497,-0.8972397426856799,0.0424078759838378,-0.124263657295654,0.4481869583819335,0.41108954087124,-0.1469069344522677,0.1014657166719834,10.39540310691973,-0.9868553084947448,0.1849686597214234,-0.90879117747177
2.56,0.9006431842494906,0.0675546095499147,1.699780549026685,0.0393862119832413,0.1569113136158709,0.0304274935377054,-0.8771926001625934,0.0481578682381339,-0.1701953016663618,0.9181662197127256,0.0683079477507436,1.7051460160198275,-0.8997255773065728,0.0331280176628864,-0.114343671911905,0.5680152985199612,0.541023759197784,-0.1401598775954228,0.1014390459766603,10.400119093140349,-0.9770129125583512,0.1856216363923175,-0.918991562492055
2.58,0.8832313511831958,0.0684933032676658,1.696398620109851,0.0387427660593921,0.1658137782585303,0.0303684499975634,-0.8643110264206613,0.0457945559098356,-0.1681451614734307,0.9001965665128029,0.0690633066872109,1.702759942727752,-0.9022114119274658,0.0238481593419349,-0.104423686528156,0.6628032551983156,0.6440786870966053,-0.1181656164149166,0.1025070096465574,10.436088655878848,-0.9678752073006096,0.1858286695513682,-0.9282384393148648
2.6,0.866947196865008,0.0693437312159951,1.6932250553631567,0.0388189748912699,0.1737538634588764,0.0303473563000451,-0.8502761608830589,0.0437824316623701,-0.166056107315094,0.8400157998621628,0.0707830310631576,1.6879913620361795,-0.8190612923467839,0.0286468882038229,-0.1418476518031731,0.7165721211474121,0.701743276880118,-0.1006062123732741,0.1044527079168328,10.436088655878848,-0.9585361641674888,0.1855182608044732,-0.937502925719894
2.62,0.8500911739869825,0.0701762970386399,1.689812988680611,0.0388689175712912,0.1816387164027436,0.0303154923189926,-0.8359796306139002,0.039746791080101,-0.1758862064005549,0.8400157998621628,0.0707830310631576,1.6879913620361795,-0.8190612923467839,0.0286468882038229,-0.1418476518031731,0.8906570898446371,0.7148265134579335,-0.2017820291134557,-0.4915049542730462,10.465092274460403,-0.9456038076366216,0.1841380004717486,-0.9506554987495806
2.64,0.8335383647744425,0.0709371584901151,1.686199319681395,0.0384999672727052,0.1890830693882533,0.0302450126323959,-0.8198010204067678,0.0365675032239675,-0.1848424746686807,0.8400157998621628,0.0707830310631576,1.6879913620361795,-0.8190612923467839,0.0286468882038229,-0.1418476518031731,0.9381764769982284,0.8089305103566202,-0.1589643928066722,-0.447813413406288,9.74298117217495,-0.9353199670972454,0.1829557231184319,-0.9615470747308336
