t,x,y,z,roll,pitch,yaw,v_x,v_y,v_z,ref_x,ref_y,ref_z,ref_v_x,ref_v_y,ref_v_z,a_com,a_x,a_y,a_z,thrust,wind_x,wind_y,wind_z
0.0,-0.146121588672705,-1.209950387127809,2.289680687066438,0.0250826134465537,0.0995909312085109,0.0417734043055106,0.001235478308709,-0.0058177247007154,-0.0007599706155738,-0.1461108052076924,-1.2100092427731748,2.2896707733594406,0.1011733819485519,0.0939379986914456,-0.1008211324586569,0.2997911051096297,0.0617739154354534,-0.2908862350357735,-0.0379985307786925,10.260373166972386,-0.9400615990913648,0.2557094258880568,-0.8805120306077644
0.02,-0.1461836680724953,-1.2103023780269568,2.289555151152846,0.0152455224914727,0.1023313249199787,0.0411499766870912,-0.0072431426869253,-0.0251236178011946,-0.0121785302475589,-0.1461108052076924,-1.2100092427731748,2.2896707733594406,0.1011733819485519,0.0939379986914456,-0.1008211324586569,1.1989453974889166,-0.4239310497817209,-0.9652946550239588,-0.5709279815992561,10.260373166972386,-0.9279650909162496,0.2604409360513001,-0.8942368484983557
0.04,-0.1463963358025336,-1.21081706301778,2.2890955576887366,-0.0013273883130345,0.1094874207054766,0.0400700291202907,-0.0130189386456301,-0.0244971240732305,-0.0331826705197135,-0.1461108052076924,-1.2100092427731748,2.2896707733594406,0.1011733819485519,0.0939379986914456,-0.1008211324586569,1.0896401033370071,-0.28878979793524,0.0313246863982041,-1.0502070136077273,9.105218689123376,-0.9188410494094382,0.2711387281986097,-0.9035237429742728
0.06,-0.146681154122801,-1.2112318776223725,2.288199557975167,-0.0183825242764634,0.1187660987960578,0.0388338589558605,-0.0147667506461977,-0.0166124146050617,-0.0554111833979627,-0.1450990713882068,-1.2090698627862604,2.288662562034854,0.1211733822465751,0.1139379989894688,-0.1208211327566801,1.182508218750774,-0.0873906000283815,0.3942354734084403,-1.111425643912462,9.105218689123376,-0.9060892824821009,0.2802953740451278,-0.9183090681064304
0.08,-0.1469508539807939,-1.2114414527487525,2.2869383556811997,-0.0340191988361159,0.1283546524623872,0.0375504623618246,-0.0132483954815741,-0.0055278254418713,-0.0763011929836923,-0.1430756037492358,-1.2071911028124314,2.286646139385681,0.1611733828426216,0.1539379995855153,-0.1608211333527265,1.1848692119961293,0.0759177582311816,0.5542294581595223,-1.044500479286478,9.075278680695192,-0.8908912674698878,0.290530189777738,-0.934306632417768
0.1,-0.1471741991925093,-1.2113987767148022,2.285182772256618,-0.0496339427650472,0.1385762330837009,0.0361115110245823,-0.0088715223858041,0.0095048907864498,-0.0982091191126089,-0.1410521361102648,-1.2053123428386026,2.284629716736508,0.201173383438668,0.1939380001815618,-0.200821133948773,1.3463810777114464,0.2188436547885,0.7516358114160567,-1.0953963064458332,9.11820146986338,-0.8745373489098485,0.3011476284215623,-0.9500431885343912
0.12,-0.1472837794315999,-1.2110011156826717,2.282992288716507,-0.0635746970835732,0.1485591209302704,0.0346686853111371,-0.0020309066253446,0.0292459672967593,-0.1198165691410487,-0.1370286684414914,-1.2014335828349714,2.2806132940575323,0.2411733840347145,0.2339380007776082,-0.2408211345448194,1.5028190364275935,0.3420307880229729,0.9870538255154772,-1.0803725014219896,9.158490315174276,-0.8586243949979699,0.3110131654711285,-0.9640645510121256
0.14,-0.1472328544810683,-1.2101772210041222,2.2803696786930927,-0.0753102653201208,0.1581186149500656,0.0333001402518692,0.0070366251416536,0.0517975639173097,-0.1414214453858289,-0.133005200772718,-1.1975548228313402,2.276596871378557,0.281173384630761,0.2739380013736547,-0.2808211351408659,1.626011469850235,0.4533765883499183,1.1275798310275182,-1.0802438122390077,9.21800156612062,-0.8415458693389365,0.3204138561217599,-0.9782882785034576
0.16,-0.1469972559418335,-1.2089503049622736,2.2774768139378683,-0.0841837418614862,0.1667358968625953,0.0321214485944738,0.0175262235675989,0.0756948473937817,-0.1620382473128634,-0.1279817330890435,-1.1926760628128077,2.27158044868468,0.3211733852268074,0.3139380019697012,-0.3208211357369123,1.662952460528432,0.5244799212972643,1.194864173823599,-1.0308400963517232,9.29881343847228,-0.824380462439751,0.3284030471604339,-0.9919985475623364
0.18,-0.1465145639004869,-1.20715848311061,2.274005910678268,-0.0912158091267493,0.1752949415972702,0.0310360671889975,0.0304192204671515,0.1018889373775229,-0.1839896793327927,-0.1219582653904678,-1.186797302779374,2.2655640259759027,0.3611733858228538,0.3539380025657476,-0.3608211363329587,1.8263522981983693,0.6446498449776316,1.3097044991870614,-1.0975716009964678,9.29881343847228,-0.8071202116297138,0.3347594076520257,-1.0055327549728472
0.2,-0.145754632083129,-1.204829998893141,2.270097524410932,-0.0960155202470429,0.1833310974203139,0.0301277440719497,0.0451465268833717,0.129085789629225,-0.2057627235635999,-0.1449936028771294,-1.202064036241734,2.2648064267116284,0.1304192219572677,0.201888938867639,-0.2839896808229089,1.8911820257148964,0.7363653208110083,1.3598426125851035,-1.0886522115403612,9.364346070181456,-0.7925257825068709,0.3393233793672339,-1.0164555598286376
0.22,-0.1447130414681589,-1.2019768376549584,2.2661537648330827,-0.0950325184682597,0.1904299520563009,0.0297061041520225,0.0640030049333718,0.1677955863935979,-0.2081023531968306,-0.1449936028771294,-1.202064036241734,2.2648064267116284,0.1304192219572677,0.201888938867639,-0.2839896808229089,2.156089629868088,0.9428239025000056,1.9354898382186456,-0.1169814816615308,9.364346070181456,-0.7829740402270179,0.3392489971490258,-1.0234086083491745
0.24,-0.1432113286363243,-1.1982834944724317,2.2619569899588545,-0.0882409081629563,0.1973316667341894,0.0297663929302911,0.0853530993427845,0.1983835124204465,-0.2115767172780286,-0.1449936028771294,-1.202064036241734,2.2648064267116284,0.1304192219572677,0.201888938867639,-0.2839896808229089,1.8731784189470035,1.0675047204706327,1.5293963013424323,-0.1737182040599041,10.60827740032073,-0.7724511421081708,0.3380326464647041,-1.0259439102145476
0.26,-0.1412722064272507,-1.1940526545464072,2.257659959288146,-0.0800200540533941,0.2037353321771504,0.0300338655942767,0.1076300147669379,0.2228513720512233,-0.2180896261296972,-0.1436894106575567,-1.2000451468530575,2.261966529903399,0.1504192222552909,0.2218889391656622,-0.3039896811209321,1.6862347830569289,1.1138457712076686,1.2233929815388371,-0.3256454425834276,10.204129349528555,-0.7628757487189772,0.3350238555153684,-1.0287897475422396
0.28,-0.1390102243064148,-1.1896171991665303,2.253427551143828,-0.0724155955969264,0.2094202821026635,0.0303615225471238,0.1294880372663791,0.2427946436468293,-0.2271084578618221,-0.1410810262184113,-1.1960073680757048,2.256286736286941,0.1904192228513374,0.2618889397617087,-0.3439896817169785,1.5466468208147668,1.0929011249720637,0.997163579780301,-0.450941586606246,10.204129349528555,-0.7549759914001629,0.3314869476556589,-1.0317323324189922
0.3,-0.136172688170669,-1.184563800715281,2.248762502513977,-0.0652642782547447,0.2150301008867594,0.0307252073097263,0.1532260111176564,0.2615259107668485,-0.239059587583779,-0.138472641779266,-1.1919695892983522,2.250606942670483,0.2304192234473838,0.3018889403577551,-0.383989682313025,1.6257162053357244,1.1868986925638634,0.936563356000958,-0.597556486097843,10.04225680763193,-0.7462996795466955,0.3278254512499431,-1.036003406232232
0.32,-0.1328527754297914,-1.1791516319541486,2.243834901507074,-0.0591616688828774,0.2202899664789553,0.0310826589848493,0.1777017909358474,0.2788259112560506,-0.253123112402116,-0.1338642573103183,-1.1859318104911971,2.242927149024222,0.2704192240434303,0.3418889409538015,-0.4239896829090714,1.6553976447903225,1.223788990909548,0.8650000244601053,-0.7031762409168515,9.903482772393543,-0.7386667789492447,0.3245853546175566,-1.0399048712954786
0.34,-0.1290314209803928,-1.1734051860303634,2.2386172413812417,-0.0541005810102463,0.2251579872530267,0.0314268074915041,0.2032986939974263,0.2951159459843033,-0.2679662357990588,-0.1292558728413706,-1.179894031684042,2.235247355377962,0.3104192246394768,0.3818889415498481,-0.4639896835051179,1.6888494530067046,1.2798451530789456,0.8145017364126345,-0.7421561698471413,9.80401567197714,-0.731891463063229,0.3220610003455113,-1.0434675931434958
0.36,-0.1249062196847127,-1.1676428457489572,2.233379021521813,-0.0498998107209536,0.228984461056942,0.0317813988880438,0.2296063838532907,0.3105964606223115,-0.2826815288028403,-0.1236474883575218,-1.1728562528619857,2.2265675617168004,0.3504192252355232,0.4218889421458945,-0.5039896841011643,1.694314556979516,1.3153844927932214,0.7740257319004101,-0.7357646501890719,9.775143719262816,-0.7259598483045738,0.3199900007942458,-1.0461709691941294
0.38,-0.1200116640194035,-1.1612642715199692,2.2275568568667587,-0.0458146634278147,0.2316371807538412,0.0322210661475576,0.2584083662428049,0.3263782827513919,-0.2987713903033299,-0.1170391038587718,-1.1648184740250282,2.216887768040737,0.3904192258315696,0.4618889427419409,-0.5439896846972108,1.828594913030738,1.44009911947571,0.7890911064540235,-0.8044930750244789,9.758444630307167,-0.7220967981408836,0.3187606106602655,-1.0465855979303391
0.4,-0.1145325160896114,-1.154575320487603,2.2214078974451383,-0.0419411539499873,0.2325923850478772,0.0327377049203224,0.2879809525380019,0.3416342534333951,-0.3153158494838442,-0.1070912457072632,-1.1449453573823996,2.2126182873515923,0.3573904247082857,0.4263782842415081,-0.398771391793446,1.8580915149776085,1.4786293147598466,0.7627985341001564,-0.8272229590257169,9.732973169779145,-0.7201539842120526,0.3174792682084589,-1.0461774925545968
0.42,-0.1083699736108518,-1.147574760366959,2.2152009807997266,-0.0381953949714068,0.2309348406928411,0.0333582043031514,0.3265678843867357,0.3575593376510654,-0.3044475224571171,-0.1070912457072632,-1.1449453573823996,2.2126182873515923,0.3573904247082857,0.4263782842415081,-0.398771391793446,2.156780093796427,1.9293465924366928,0.7962542108835152,0.5434163513363566,9.712821116397208,-0.7178176344091195,0.3121971027106728,-1.0517379411601868
0.44,-0.1018124108698186,-1.140648337909695,2.209487392109811,-0.0351368331481272,0.2262798398311419,0.0340232558278792,0.3613351403245736,0.3709277655291883,-0.2974953751681353,-0.1070912457072632,-1.1449453573823996,2.2126182873515923,0.3573904247082857,0.4263782842415081,-0.398771391793446,1.89460371932193,1.7383627968918958,0.6684213939061462,0.3476073644490873,11.452829587853556,-0.7309188017942929,0.319922762509684,-1.0284174249418676
0.46,-0.094239980316086,-1.1330874138151708,2.203571712075346,-0.0326110360850937,0.2188760326509921,0.0347494985240355,0.3935604303855962,0.3845317871066343,-0.2945581120488786,-0.1035173414601804,-1.1406815745399843,2.2086305734336578,0.3771868364013819,0.4463782845395312,-0.4187713920914692,1.7551112765494388,1.6112645030511268,0.6802010788723001,0.1468631559628369,11.071556040769792,-0.7454562978202125,0.3266610066684657,-1.0061206159779017
0.48,-0.0860729479021977,-1.1252586810014096,2.197665647225329,-0.0306576478677964,0.2100100966107531,0.0354700155080344,0.4211397532673704,0.3977493725283022,-0.2960748534440232,-0.0963695329660147,-1.1321540088551545,2.200655145597789,0.4167796597875742,0.4863782851355777,-0.4587713926875156,1.5310324289968449,1.378966144088714,0.660879271083395,-0.0758370697572285,10.731405487600568,-0.7599447750526586,0.33150399372403,-0.9868097262014988
0.5,-0.0774013562546043,-1.1171707253968055,2.1916905050582574,-0.0291923454010047,0.2006607919293987,0.0361611174132655,0.4443549665602354,0.410423038108753,-0.3012836861951046,-0.089221724471849,-1.1236264431703242,2.19267971776192,0.4563724831737665,0.5263782857316242,-0.4987713932835621,1.3478685637953112,1.1607606646432456,0.63368327902254,-0.2604416375540735,10.432246771640166,-0.7723549981138668,0.3353033106201,-0.9708154840774914
0.52,-0.068771232848615,-1.1092584203511608,2.18588599078022,-0.0283524245199527,0.1920742853795936,0.0367664202843402,0.4627633938695634,0.4218665298614539,-0.3094100182675164,-0.0800942748083736,-1.1130988774556918,2.182704289896249,0.4959653065599588,0.5663782863276706,-0.5387713938796086,1.1574335536522768,0.9204213654664006,0.5721745876350437,-0.4063166036205906,10.176000652520088,-0.7834559261508073,0.3385227687152792,-0.9569146323577784
0.54,-0.059340967516198,-1.100700495464913,2.179590088919141,-0.0282325083757855,0.1839507749023969,0.0373279134871383,0.479131640152233,0.4333736758600922,-0.3198179311456041,-0.0709668251448983,-1.1025713117410594,2.172728862030578,0.5355581299461513,0.6063782869237171,-0.5787713944756551,1.1276729865989172,0.818412314133482,0.575357299931914,-0.5203956439043839,9.953309019474544,-0.7920563002945161,0.3411597950650451,-0.9463879871372566
0.56,-0.0496050301542657,-1.0919039639997885,2.1730660061413585,-0.0287077860685314,0.1770137283582696,0.0378261037187312,0.4935847471851636,0.4456653931791524,-0.3320384020992912,-0.0608495548967682,-1.0910437460115257,2.1617534341500053,0.5751509533323436,0.6463782875197635,-0.6187713950717014,1.1284043245740238,0.7226553516465312,0.6145858659530129,-0.6110235476843529,9.823872653663784,-0.7989817659765189,0.3434456095236616,-0.9380943182509152
0.58,-0.0395972885831038,-1.0828539650031712,2.1662814891576256,-0.0293153267577048,0.1712100820795306,0.0382970240776466,0.5063765549378345,0.4586381529836861,-0.3457791382404391,-0.0497424640639832,-1.0785161802670908,2.1497780062545315,0.6147437767185359,0.6863782881158099,-0.6587713956677479,1.140976196320572,0.6395903876335429,0.6486379902266831,-0.6870368070573979,9.715056371124774,-0.8044995029965959,0.3455736798533358,-0.9312935503160804
0.6,-0.0298686733180623,-1.0740100453790598,2.159568074847947,-0.0296674400483533,0.1668566699481502,0.0387382151856752,0.5169810585262441,0.4715468604171319,-0.3601936847201858,-0.014278460836212,-1.059922057353987,2.148992532245604,0.5894484722332904,0.5586381544738022,-0.4457791397305553,1.1032558340834533,0.5302251794204793,0.6454353716722927,-0.7207273239873357,9.621055612292366,-0.8082570750197758,0.3470940435810012,-0.926607571127349
0.62,-0.0193549247026343,-1.0643724034928754,2.15251687454097,-0.0279430545674185,0.1631964481980531,0.0393272879466751,0.5340435990856404,0.4911317337892256,-0.342426660545587,-0.014278460836212,-1.059922057353987,2.148992532245604,0.5894484722332904,0.5586381544738022,-0.4457791397305553,1.5735030214165169,0.8531270279698133,0.9792436686046818,0.88835120872994,9.535481760094626,-0.8085517262969641,0.3446845055592299,-0.9286163955328324
0.64,-0.0085172992883633,-1.054381717098122,2.145822661602077,-0.0237094318127148,0.1603533217200096,0.040059203886787,0.5487641750020066,0.5063621348419761,-0.3280094622669349,-0.014278460836212,-1.059922057353987,2.148992532245604,0.5894484722332904,0.5586381544738022,-0.4457791397305553,1.2811284847187414,0.7360287958183109,0.7615200526375265,0.7208599139326061,11.711499883966098,-0.8185234591454609,0.3496624395474259,-0.9096261888019428
0.66,0.0020300799731561,-1.0446458989307832,2.139659755792091,-0.0193849781187029,0.1588578623441073,0.0407359933138789,0.5608167563845349,0.5176696336705524,-0.3214059484383989,-0.0083839761138791,-1.0543356758092488,2.1445347408482984,0.6060628556923816,0.5786381547718253,-0.4657791400285785,0.8898463949249728,0.6026290691264147,0.5653749414288145,0.3301756914268011,11.195923226458037,-0.8263478598793067,0.3515664429447862,-0.8965317389782328
0.68,0.0133724513144096,-1.0341861628460465,2.133247342137889,-0.0153229589972789,0.1584295878005422,0.0413863056607788,0.572830807796685,0.5277638247656592,-0.320445245785802,0.0034049933307866,-1.0431629127197728,2.135619158053687,0.639291622610564,0.6186381553678718,-0.5057791406246249,0.7860551424439437,0.6007025706075086,0.5047095547553393,0.048035132629845,10.335249249857045,-0.830989667258344,0.3521698013700552,-0.8886225608203593
0.7000000000000001,0.0249518150961181,-1.0235353240177971,2.1267976974834446,-0.0120193846026294,0.158802474551878,0.0419710162738597,0.5845420759000284,0.5369111872025192,-0.3247733306791333,0.0151939627754524,-1.0319901496302968,2.126703575259076,0.6725203895287464,0.6586381559639183,-0.5457791412206714,0.7738868763965872,0.5855634051671665,0.4573681218429992,-0.2164042446665653,10.335249249857045,-0.8331220361625763,0.3521642675544484,-0.8844875729045566
0.72,0.0367631087669218,-1.0127086236810845,2.120212024404489,-0.0095069050928692,0.1596697620760928,0.0424972760160504,0.5960681107453887,0.5454782491183661,-0.3335591731601223,0.0286443705660273,-1.0188173865110184,2.1157879924346625,0.7057491564469287,0.6986381565599648,-0.5857791418167179,0.8417764804672975,0.576301742268015,0.4283530957923442,-0.4392921240494479,10.034900598280728,-0.8334849062476148,0.3518652982526309,-0.8830640292403588
0.74,0.0481993172725591,-1.0022680784216105,2.1137737274305075,-0.0078000452718382,0.160745958169907,0.0429510118984118,0.6072104313730425,0.553237578621539,-0.343713784727728,0.0420947783566023,-1.00564462339174,2.104872409610249,0.7389779233651111,0.7386381571560112,-0.6257791424127643,0.8477538548971665,0.5571160313826928,0.3879664751586464,-0.507730578380286,9.803043561526463,-0.8325835116761328,0.3514439252792339,-0.8834134580756752
0.76,0.0604721041762647,-0.991113958553136,2.1067730112401697,-0.0064874778562973,0.1618666236048191,0.0433989100158128,0.6194984958501859,0.5617511692442302,-0.3558902580198251,0.0563759053201317,-0.9914718602575604,2.0929568267709344,0.7722066902832935,0.7786381577520576,-0.6657791430088107,0.9640335260227768,0.6144032238571684,0.4256795311345596,-0.6088236646048573,9.705702027167716,-0.831456113077425,0.3510527119546444,-0.8843141623135545
0.78,0.0729955008510418,-0.9797882622276572,2.099513817940573,-0.0054170981859915,0.1626465490364458,0.0438356363599054,0.6322057359102637,0.5703533056691221,-0.3694752431317452,0.0714877514566158,-0.9762990971084798,2.080041243916719,0.8054354572014758,0.818638158348104,-0.7057791436048572,1.024722549654283,0.635362003003892,0.4301068212445968,-0.6792492555960039,9.624239795351968,-0.8303115275445033,0.3505491219051091,-0.8855447672857791
0.8,0.0857749628685953,-0.9682902650638774,2.0919669966902275,-0.0044381797692817,0.1628624463745955,0.0442715778360257,0.6450310556042117,0.5789500922201629,-0.3845191749543594,0.104605787646555,-0.951270596944201,2.081040055783985,0.675652347523299,0.6703533071592382,-0.4694752446218613,1.0778606692652672,0.6412659846973978,0.4298393275520396,-0.7521965911307077,9.55166628734878,-0.8294567083355052,0.3500392881021614,-0.8865837651583477
0.8200000000000001,0.0983043699552852,-0.9571658718167504,2.084847979046796,-0.0023346470568536,0.1594239650557548,0.0447792661949484,0.6726828697505656,0.5908550006331795,-0.3639869866694067,0.104605787646555,-0.951270596944201,2.081040055783985,0.675652347523299,0.6703533071592382,-0.4694752446218613,1.822032124905841,1.3825907073176935,0.5952454206508306,1.026609414247634,11.832261236191698,-0.8249669647212838,0.3420570266064521,-0.8996030863016312
0.84,0.1120197043727666,-0.9452579157600992,2.077749227008591,0.000750321130113,0.1495428655228788,0.0453632551730676,0.6963497963515359,0.5992211108574055,-0.3473245639776918,0.104605787646555,-0.951270596944201,2.081040055783985,0.675652347523299,0.6703533071592382,-0.4694752446218613,1.50644577149079,1.183346330048518,0.4183055112112976,0.8331211345857459,11.832261236191698,-0.8415049047651161,0.3487507117922,-0.8735570763251049
0.86,0.1261227327984295,-0.9332037216323216,2.070896638972116,0.0034318760458796,0.1357980889456392,0.0458752991921755,0.711975901166435,0.6058385132423392,-0.3390429281858191,0.111362311121788,-0.9445670638726088,2.076345303337767,0.6843416698459059,0.6903533074572614,-0.4894752449198845,0.9441274508766896,0.7813052407449561,0.3308701192466845,0.4140817895936344,11.246571719482745,-0.8610707577214316,0.35445486794409,-0.845643459213096
0.88,0.1404543014275487,-0.9210290117917754,2.064119631835691,0.0053750075969826,0.1204337861086824,0.0462918164688182,0.7198633880868082,0.611479081768387,-0.3389578015728133,0.124875358072254,-0.931159997729424,2.066955798445329,0.70172031449112,0.7303533080533079,-0.529475245515931,0.4848600565017175,0.3943743460186555,0.2820284263023886,0.0042563306502874,10.665172224503294,-0.8786756392720151,0.3584624799515628,-0.8215531886123073
0.9,0.1541497574255604,-0.909366345241648,2.0576192463013934,0.0064093539964423,0.1060064998537051,0.0466081657559101,0.7210994811901819,0.6160103384578478,-0.3452526233465858,0.1383884050227199,-0.9177529315862392,2.057566293552892,0.7190989591363341,0.7703533086493544,-0.5694752461119774,0.3926989766651787,0.0618046551686846,0.226562834473043,-0.314741088688622,10.175165668217232,-0.8943127417469352,0.3612259211220853,-0.8007536609885263
0.92,0.1685366609818198,-0.8970051373422119,2.0505927480298363,0.0063424449674645,0.0922656627195359,0.0468636983743839,0.7172600512469282,0.6199719104487011,-0.3573048359554263,0.1527703842054466,-0.902345865413252,2.0461767886306528,0.7364776037815483,0.8103533092454008,-0.6094752467080239,0.6627426040639037,-0.1919714971626851,0.198078599542667,-0.602610630442027,9.778442372864449,-0.9063340459435004,0.3628353167330198,-0.7854431126743832
0.94,0.1828038125392645,-0.884569463919374,2.0432879195639795,0.0047876028215578,0.080863295205145,0.0470457000641696,0.7095468142185717,0.6235378639366019,-0.3726908497572082,0.1671523633881733,-0.886938799240265,2.034787283708413,0.7538562484267624,0.8503533098414473,-0.6494752473040704,0.8788337021901584,-0.3856618514178234,0.1782976743950393,-0.7693006900890947,9.462603922852397,-0.91422413562977,0.3635300529155453,-0.776468652594244
0.96,0.1968876690755623,-0.8720501158504085,2.035649445063617,0.0019431071418035,0.0722463024389239,0.0471830931232491,0.6992883725936461,0.628543127421464,-0.3903801670612973,0.1819688086870304,-0.8705317330523767,2.022397778771272,0.7712348930719763,0.8903533104374937,-0.6894752479001167,1.0526160670083455,-0.5129220812462809,0.2502631742431038,-0.8844658652044562,9.29910268055164,-0.9190627204608094,0.3640875127132219,-0.7718265580648638
0.98,0.210057442546814,-0.8600416764897737,2.028049675355639,-0.0009912265432803,0.0668274319447321,0.047333256026379,0.6875264623714783,0.6352494503552718,-0.4087215270223696,0.1972197201020177,-0.8531246668495873,2.0090082738192305,0.7886135377171904,0.93035331103354,-0.7294752484961632,1.1398714670835417,-0.5880955111083885,0.3353161466903898,-0.9170679980536112,9.117207528362542,-0.9211946555955728,0.3644702047632618,-0.7708325425123949
1.0,0.2236618970538093,-0.8472534881291185,2.019659024066288,-0.0037515115678301,0.0644898543747874,0.0475313399708973,0.6736600798061981,0.6431813143159888,-0.4294515073598287,0.244433765665388,-0.8282792039720102,2.0076135990045207,0.6867892266647131,0.7352494518453879,-0.5002006422104914,1.3085517912271063,-0.6933191282640083,0.3965931980358494,-1.0364990168729549,9.117207528362542,-0.9201080378879511,0.3638206760702976,-0.7749569513111139
1.02,0.2370846567755963,-0.8342374093915536,2.01120612229298,-0.0041309315936937,0.063348201869964,0.0478997505598715,0.6695921088798867,0.657440471548486,-0.4128908795841501,0.244433765665388,-0.8282792039720102,2.0076135990045207,0.6867892266647131,0.7352494518453879,-0.5002006422104914,1.1114476424498898,-0.2033985463155696,0.7129578616248577,0.8280313887839286,9.048430818445468,-0.9105994350843666,0.3538932370741031,-0.8001298714599541
1.04,0.2504321143079889,-0.8209647203241227,2.00309406199696,-0.0014094467677174,0.0606732650925257,0.04848324823152,0.6651787761219707,0.6688048666467071,-0.3993229558708104,0.244433765665388,-0.8282792039720102,2.0076135990045207,0.6867892266647131,0.7352494518453879,-0.5002006422104914,0.9120245828259952,-0.2206666378958,0.568219754911059,0.6783961856669823,11.388504877930243,-0.9187195539297076,0.3578943239472166,-0.7839923772186123
1.06,0.2630132351695722,-0.8081811350746447,1.9955637292373176,0.0023653218608185,0.0570420145287636,0.0491039714113089,0.6592591760500721,0.6760561417598947,-0.3939913635962298,0.2513016579320351,-0.8209267094535563,2.002611592582416,0.68664177952336,0.7552494521434111,-0.5184964652481158,0.5386291209188458,-0.2959800035949311,0.3625637556593786,0.2665796137290316,10.90714346974346,-0.9260036789078976,0.3595865962548304,-0.7710445198054261
1.08,0.2761142038824692,-0.7946054876122114,1.98767970272347,0.0060587340629154,0.0525579355286084,0.0497118166976435,0.6509604076098096,0.681196715476949,-0.3949800762346908,0.2650374424653294,-0.8062217204166485,1.992607579738206,0.686346885240654,0.7952494527394576,-0.5550881113233646,0.490593030033602,-0.414938422013128,0.2570286858527171,-0.0494356319230504,10.425071416964784,-0.932015260178505,0.3597672587354473,-0.7617448434425388
1.1,0.2890244050351452,-0.780940656601131,1.979712436626498,0.0089157848832481,0.0480317035920025,0.0502385596523102,0.6402930602795845,0.6851778600218859,-0.4019310003952865,0.2787732269986236,-0.7915167313797408,1.982603566893996,0.6860519909579479,0.835249453335504,-0.5916797573986132,0.6670029191047295,-0.5333673665112504,0.1990572272468405,-0.3475462080297864,10.03300205337746,-0.9363722931513224,0.3590173112715294,-0.7560768136606996
1.12,0.3016949452731582,-0.7672045070605461,1.9715499448970564,0.0107785060568845,0.0442741875144025,0.0506869586792376,0.627204229609435,0.6884766763425265,-0.4139532717061899,0.2924942668177826,-0.7748117423130306,1.970769971746024,0.6857570966752418,0.8752494539315505,-0.6282714034738619,0.9037901926085248,-0.6544415335074771,0.1649408160320331,-0.6011135655451666,9.71405255119953,-0.938574248201529,0.3576407246081981,-0.7544005888768446
1.14,0.3134704215462985,-0.754100724750115,1.963551293714396,0.0115302796618176,0.0421800999479152,0.0510499410784994,0.6129428490920212,0.6908704380748626,-0.427411499747919,0.3062153066369416,-0.7581067532463206,1.958936376598052,0.6854622023925357,0.915249454527597,-0.6648630495491107,0.9877258874769484,-0.7130690258706884,0.1196880866168037,-0.6729114020864568,9.468945332309886,-0.9380331922794604,0.3553050838444166,-0.7578792693093181
1.16,0.3255660824119412,-0.740255184941764,1.954841328050318,0.011237698703204,0.0420317331986207,0.0513770721511521,0.5976303632760948,0.6936278889787504,-0.4429326517457242,0.3199289740990328,-0.7404017641647094,1.946187990298198,0.6851673081098296,0.9552494551236432,-0.7014546956243594,1.0988424781210375,-0.765624290796324,0.1378725451943896,-0.7760575998902591,9.376216774003296,-0.9359794687529762,0.3526636149739827,-0.7644741268753337
1.18,0.3373660107853437,-0.7263510014157049,1.9458110467375844,0.0099771748909596,0.0435973892677051,0.0516537843087772,0.5833159553723204,0.6967218059286373,-0.4593538017545746,0.3336352692040565,-0.721696775068197,1.9325248128464636,0.6848724138271236,0.9952494557196896,-0.738046341699608,1.1001463122485138,-0.7157203951887181,0.154695847494346,-0.821057500442518,9.306935116007024,-0.9330510740885022,0.3508853513990781,-0.771627420634186
1.2,0.348891322964331,-0.7123791092729638,1.936444651415022,0.0078822406199298,0.0463841995100168,0.0518800861344637,0.5701352863247752,0.7004046090384701,-0.476468352135665,0.3665318085539597,-0.691514911119273,1.922843356649856,0.5328588056282866,0.7967218074187534,-0.5272874431286858,1.095674347187149,-0.6590334523772612,0.1841401554916411,-0.8557275190545222,9.264059636846923,-0.9294662243819144,0.3497684653066287,-0.7791147110870199
1.22,0.3597311757025047,-0.6989796639815696,1.9275587152427172,0.0068462750345032,0.0462688044550628,0.0521358438082359,0.5711604111488423,0.709259689734093,-0.4580346008116516,0.3665318085539597,-0.691514911119273,1.922843356649856,0.5328588056282866,0.7967218074187534,-0.5272874431286858,1.0237999351759073,0.0512562412033568,0.4427540347811454,0.9216875662006684,11.413000102825208,-0.9249014896247028,0.3411197239077201,-0.7979269510037832
1.24,0.3711456055325035,-0.6847192469015484,1.918563160593131,0.0072777970878751,0.03988383341958,0.0524616836325882,0.5692970749200724,0.7162375290010489,-0.4429000589234171,0.3665318085539597,-0.691514911119273,1.922843356649856,0.5328588056282866,0.7967218074187534,-0.5272874431286858,0.8384757314669923,-0.0931668114384942,0.3488919633477916,0.7567270944117271,11.413000102825208,-0.933845292767874,0.3473490164283828,-0.7786445170251384
1.26,0.3824562891582114,-0.6703343402832586,1.909795092420964,0.0082687912712218,0.0294255944356838,0.0527836668935523,0.5612056925863845,0.7218907725028042,-0.4349432597243001,0.3718603966102426,-0.6835476930450854,1.9175704822185689,0.5227673756794798,0.8167218077167766,-0.540874171403508,0.6339169576039211,-0.4045691166843945,0.2826621750877667,0.3978399599558507,10.953984209882949,-0.945222080672656,0.3517906161717862,-0.7582220734198262
1.28,0.3935411246639969,-0.6558503483371215,1.901111609423147,0.0092479561160753,0.0171729067456877,0.0530718038076908,0.5472180407270821,0.7263091612364886,-0.4337624640725261,0.3825175727228083,-0.6676132568967104,1.907024733355995,0.5025845157818662,0.8567218083128231,-0.5680476279531526,0.7358173039386938,-0.6993825929651198,0.2209194366842193,0.059039782588699,10.517779282055926,-0.9562154308604152,0.3543496891988656,-0.7404772545641461
1.3,0.4037625086881217,-0.6420196784394789,1.8928331837180443,0.0097259799555279,0.0054808840404368,0.0532994889033341,0.5291828332686592,0.7294543502764423,-0.4376966730468087,0.393174748835374,-0.6516788207483353,1.8964789844934211,0.4824016558842527,0.8967218089088695,-0.595221084502797,0.9362677533947276,-0.9017603729211454,0.1572594519976877,-0.1967104487141296,10.156130070623476,-0.9664971509739224,0.3555489919963872,-0.7253843003894997
1.32,0.4141108778369301,-0.627405853483858,1.8839970521548064,0.0093055642738603,-0.0057234813528396,0.0534811755890223,0.5063926250131111,0.7318743074940246,-0.4458869290719799,0.4028227819530591,-0.6337443845701579,1.8845745628033652,0.4622187959866392,0.936721809504916,-0.6223945410524414,1.2168916129056402,-1.1395104127774058,0.1209978608791129,-0.409512801258563,9.874394984204628,-0.9749337702385892,0.3557993146162138,-0.7143326175580755
1.34,0.42396985511656,-0.6127495592451034,1.8749744734316065,0.0075398210035796,-0.0150322255367148,0.0535970048405626,0.4805600088289374,0.733790633535344,-0.4560151288841144,0.4124708150707442,-0.6158099483919804,1.872670141113309,0.4420359360890257,0.9767218101009624,-0.649567997602086,1.390662428350236,-1.2916308092086826,0.0958163020659708,-0.5064099906067238,9.661421298505047,-0.9811336006646558,0.3550947366355002,-0.7083982345151364
1.36,0.433281057945231,-0.5980410152477671,1.865737401970092,0.0046359146798452,-0.0217734126582673,0.0536745556195692,0.4518356062425812,0.7373105407368971,-0.4671859790375615,0.4216142766909889,-0.596875512198902,1.8600863830095125,0.4218530761914122,1.0167218106970088,-0.6767414541517304,1.5510230041825477,-1.4362201293178112,0.175995360077652,-0.5585425076723549,9.588094682096198,-0.985275956021566,0.3545850465909613,-0.7056227016534352
1.38,0.441568909954584,-0.5839838996143162,1.8567489018294177,0.0017385926693572,-0.0250200664648067,0.0537707928125842,0.4220513376186331,0.7422245343007117,-0.4784206354153356,0.4302531668137933,-0.5769410759909223,1.8468232884919744,0.4016702162937987,1.0567218112930552,-0.7039149107013748,1.6104871111991013,-1.489213431197406,0.2456996781907305,-0.5617328188887022,9.561365320967523,-0.98710086828054,0.3538512893271768,-0.7066712334215796
1.4,0.4496786240266054,-0.5690771223382796,1.84705282123112,-0.0010601007144765,-0.0246802253143348,0.0539023311145843,0.3909100776619134,0.7482127241965005,-0.490571606489692,0.4626714768355156,-0.5468726728992805,1.8328278700586509,0.3223164724896391,0.8422245357908278,-0.5376604215336045,1.69800072730393,-1.557062997835987,0.2994094947894432,-0.607548553717821,9.554758505055815,-0.9864434974610712,0.3522899045314855,-0.7124641234787663
1.42,0.4572484462805601,-0.5539836720477948,1.8373573862016128,-0.0016657351847844,-0.023618374819221,0.0541839350529252,0.3676888669331734,0.7602497674409728,-0.4771089348857288,0.4626714768355156,-0.5468726728992805,1.8328278700586509,0.3223164724896391,0.8422245357908278,-0.5376604215336045,1.4708488743698305,-1.1610605364369977,0.601852162223615,0.6731335801981569,9.5335963874968,-0.9838373721095652,0.3448221033862919,-0.7288087238881963
1.44,0.4643622212018511,-0.5386817159515873,1.8279368391046755,0.0004389211568258,-0.0246300896145129,0.054648817768282,0.344664690177434,0.7691770629933933,-0.4657632037420869,0.4626714768355156,-0.5468726728992805,1.8328278700586509,0.3223164724896391,0.8422245357908278,-0.5376604215336045,1.358799963518916,-1.1512088377869711,0.4463647776210222,0.5672865571820951,10.761394010571166,-0.9874312938748344,0.3464542266352527,-0.720538760396948
1.46,0.4706818658502415,-0.5240054630693476,1.819147574384936,0.0035073052495716,-0.0269957285738083,0.0551489267715752,0.3216037924266062,0.7749916377430339,-0.4599829789721975,0.465894641560412,-0.5384504275413723,1.8274512658433149,0.3023694994638403,0.862224536088851,-0.5495083787572583,1.2237496506472818,-1.1530448875413906,0.2907287374820322,0.2890112384944743,10.761394010571166,-0.9913307922019547,0.3464947361999213,-0.713422095768059
1.48,0.4768468920580078,-0.5084673995247887,1.8099703565916532,0.0064868441981635,-0.0303214582549912,0.0556332980105597,0.2959593499573211,0.77860422620967,-0.4582412649408558,0.4723409710102048,-0.5216059368255557,1.8166980574126428,0.2624755534122427,0.9022245366848974,-0.5732042932045659,1.2978075673580372,-1.282222123464252,0.1806294233318017,0.0870857015670828,10.456994936361298,-0.9950934640024618,0.345201886306505,-0.7086938297559588
1.5,0.4824805762352674,-0.4928702279010415,1.8007866159811965,0.0086143522550084,-0.0338214699389344,0.0560362614505465,0.2685361543113339,0.7811121549001233,-0.4603789695362574,0.4787873004599975,-0.5047614461097392,1.8059448489819707,0.2225816073606451,0.942224537280944,-0.5969002076518735,1.3810242093204708,-1.3711597822993609,0.1253964345226677,-0.1068852297700817,10.209182749193133,-0.99831680526883,0.3433496594657552,-0.7060928476226308
1.52,0.4875455023563166,-0.4772335697845581,1.7915245446947683,0.0096136483982741,-0.0366653042162703,0.0563506236625607,0.2392459715865452,0.7826386834864129,-0.4657202570337562,0.4832389326072104,-0.4859169553641203,1.7940068448289332,0.1826876613090475,0.9822245378769904,-0.620596122099181,1.490616018385693,-1.464509136239435,0.0763264293144772,-0.2670643748749396,9.868115878842218,-1.000315490114816,0.3413075662559192,-0.7061897209336553
1.54,0.4917992739371413,-0.4623595601521768,1.7826144890552966,0.009160148461834,-0.0380314843006468,0.0565556939204455,0.2100393746357924,0.7832014550139549,-0.471907768152389,0.4876905647544233,-0.4670724646185014,1.7820688406758958,0.1427937152574499,1.0222245384730368,-0.6442920365464887,1.4930064560134535,-1.4603298475376418,0.0281385763771013,-0.3093755559316374,9.868115878842218,-1.0009281750434915,0.3386991176221255,-0.7101083516085946
1.56,0.4956741962878492,-0.4466852624156189,1.7731030004409465,0.0071262886261159,-0.0377210990465585,0.0566736676614068,0.1791701309411628,0.7843323703996516,-0.4789187881283588,0.4911448482503463,-0.4472279738579813,1.7695384386616757,0.1028997692058523,1.0622245390690832,-0.6679879509937963,1.5837799539325863,-1.5434621847314798,0.0565457692848381,-0.3505509987984906,9.827517447765786,-1.0006605571482925,0.336482480863495,-0.7159093608956973
1.58,0.498935421025995,-0.4309727386275651,1.7634492275348734,0.0039195834424896,-0.0357464863503248,0.0567144963600311,0.1486798961554619,0.7872452645417974,-0.4860973550091616,0.4936017830949793,-0.4263834830825601,1.7564156387862728,0.0630058231542547,1.1022245396651296,-0.6916838654411038,1.5729519954790974,-1.5245117392850436,0.1456447071072897,-0.3589283440401408,9.805951818320864,-0.9994019739466394,0.3349841926841369,-0.7228801306379337
1.6,0.5015937505856204,-0.4151779564569814,1.753651127558937,0.0005548899623432,-0.0322741487629766,0.056737795001768,0.1189597581433923,0.792136769563716,-0.4933340019390485,0.506369415833768,-0.3916104754004752,1.7391443597844154,0.0486798946653458,0.8872452660319136,-0.5122643733481995,1.548856419768922,-1.4860069006034802,0.2445752510959298,-0.3618323464943451,9.80007624231166,-0.9976696345085456,0.3339251645310183,-0.7298674395420229
1.62,0.5035668364986439,-0.4000167569917006,1.7444336942359746,-0.0005620885757668,-0.0277297154567514,0.0568914008107706,0.0905657504611826,0.8025758834566662,-0.476516647783765,0.506369415833768,-0.3916104754004752,1.7391443597844154,0.0486798946653458,0.8872452660319136,-0.5122643733481995,1.730619955327859,-1.4197003841104852,0.5219556946475079,0.8408677077641757,9.79722913626847,-0.9936009770685492,0.3251406501787769,-0.7510582394390789
1.64,0.5050871562019135,-0.3838824212795092,1.7350756376214376,0.0006621360983053,-0.0220554431253834,0.057211771191719,0.0632201354907543,0.8102012639212378,-0.4603803612277396,0.506369415833768,-0.3916104754004752,1.7391443597844154,0.0486798946653458,0.8872452660319136,-0.5122643733481995,1.6327192265960382,-1.367280748521413,0.3812690232285809,0.8068143278012696,11.339858026699403,-0.99266579801113,0.3261088242700086,-0.7503537804967028
1.66,0.5060827459561683,-0.3676151550186786,1.726001234719087,0.0029380647960071,-0.0160319801710353,0.0576045206514577,0.0379152886007667,0.8161101493535475,-0.4480115631269493,0.5068562147804215,-0.3827380227401561,1.7340217160509337,0.0286798943673225,0.9072452663299369,-0.5174977770160071,1.4389556713429277,-1.26524234449938,0.2954442716154859,0.618439905039514,11.108859742234015,-0.9913340885749328,0.3263234391068264,-0.7506034374502046
1.68,0.5065930858222492,-0.3512514549263656,1.717134896069955,0.0053373468442543,-0.0099844571241137,0.0580078905891725,0.0145534689442453,0.8200239171289285,-0.4392132636652717,0.5078298126737284,-0.3649931174195178,1.7237764285839694,-0.0113201062287238,0.9472452669259832,-0.5279645843516223,1.2634301220099189,-1.168090982826072,0.1956883887690497,0.4399149730838825,10.864975961714665,-0.9894772851849049,0.3257870628240609,-0.7526795583588566
1.7,0.5066622132675604,-0.3356471786017846,1.7088478669845586,0.0069903246626396,-0.0044693564949518,0.0583463626200238,-0.0060074846807306,0.8225501739504439,-0.4335354218968824,0.5088034105670354,-0.3472482120988795,1.713531141117005,-0.0513201068247703,0.9872452675220296,-0.5384313916872374,1.07397936973148,-1.028047681248797,0.1263128410757708,0.2838920884194656,10.490198801204317,-0.9876161048776356,0.3249343343969686,-0.7556999190459515
1.72,0.5063293268193937,-0.3191779334955815,1.700219378512272,0.0076577593031947,0.0008652107365911,0.0586202037709942,-0.0260954692156076,0.824364869905432,-0.4297092985986026,0.50777700843054,-0.3275033067484389,1.702762513283261,-0.0913201074208167,1.027245268118076,-0.5488981990228525,1.0264738958884323,-1.0043992267438542,0.0907347977494033,0.1913061649139902,10.490198801204317,-0.9856926050285144,0.3242661777336582,-0.759289855198488
1.74,0.5056086086326833,-0.3026789131324268,1.6916562323839452,0.0067828618125074,0.0055425124487031,0.0587714890858458,-0.0449082693102728,0.825614046510416,-0.4268250385029992,0.5067506062940446,-0.3077584013979983,1.6919938854495158,-0.1313201080168632,1.0672452687141225,-0.5593650063584678,0.95367820292193,-0.9406400047332556,0.0624588302492012,0.1442130047801665,10.36009501220724,-0.9841505611207878,0.3240089921234009,-0.7629068821878582
1.76,0.5045179277886533,-0.2861458711451767,1.683145102152941,0.0043579145372404,0.0095994142395634,0.0587957371986311,-0.0631684896343898,0.8278179347890918,-0.4244289108983379,0.504724204142648,-0.2870134960326566,1.6809635874323807,-0.1713201086129096,1.1072452693101689,-0.5698318136940829,0.9274079433129732,-0.9130110162058496,0.1101944139337895,0.1198063802330645,10.291587127581806,-0.9832045499644408,0.3247461883024148,-0.7652761990869579
1.78,0.5031473125755577,-0.2703769343451026,1.6751012531775096,0.0013030643427816,0.0130393226351299,0.05874910630447,-0.0801457114013966,0.8321336095809181,-0.4224102979233253,0.5016978019763503,-0.2652685906524137,1.6696716192318553,-0.211320109208956,1.1472452699062152,-0.5802986210296981,0.8816545612906219,-0.8488610883503402,0.2157837395913131,0.10093064875063,10.291587127581806,-0.9827452591537128,0.3263200332419521,-0.7665056955140573
1.8,0.5013607634006341,-0.2536706641594961,1.6666725778079554,-0.0018042245356833,0.0163266431261185,0.0586917249751507,-0.0975523373873048,0.8382810121549346,-0.4205758282307845,0.4991400270054878,-0.2287702538660567,1.6539807382813434,-0.1801457128915127,0.9321336110710342,-0.4174161481378365,0.9275592510362493,-0.870331299295412,0.3073701287008235,0.0917234846270403,10.27678951290818,-0.9826801302800544,0.3281458276577239,-0.766776241054958
1.82,0.4992286887380032,-0.2367679886501969,1.6584539648565542,-0.0024476577177288,0.0193767305926153,0.0587929433828962,-0.1146477337831314,0.8506345653829184,-0.4013454585735777,0.4991400270054878,-0.2287702538660567,1.6539807382813434,-0.1801457128915127,0.9321336110710342,-0.4174161481378365,1.4271212040677297,-0.8547698197913289,0.6176776613991908,0.9615184828603408,11.34648280600777,-0.9864406096157396,0.3251268431398142,-0.7684061384395015
1.84,0.4968985206647869,-0.2205154746148407,1.6509984852127677,-0.0004787789440557,0.0219649343057345,0.0590616392199406,-0.1297593704128647,0.8593926931590808,-0.3844335115406164,0.4991400270054878,-0.2287702538660567,1.6539807382813434,-0.1801457128915127,0.9321336110710342,-0.4174161481378365,1.2156071695025217,-0.7555818314866638,0.4379063888081236,0.8455973516480642,11.175176269720396,-0.9886365535251224,0.3274235945688123,-0.7613674071630283
1.86,0.4941435012755442,-0.2032563859465985,1.6434724459711538,0.0028012744553885,0.0241687771297443,0.0594223770068705,-0.1449196725784255,0.8657320682653286,-0.3691699129028432,0.4973385698765727,-0.2194489177553463,1.649806576799965,-0.2001457131895359,0.9521336113690574,-0.4164173181807387,1.1213829429145232,-0.7580151082780401,0.3169687553123856,0.7631799318886634,11.175176269720396,-0.9905021177998166,0.3283169688143302,-0.7559399331273513
1.88,0.4910905437701244,-0.1859004636640156,1.6362238696821316,0.0058656340460585,0.0257925970359209,0.059758881516203,-0.1596365143173045,0.8696368084312397,-0.3565534896921724,0.4937356556187424,-0.2008062455339256,1.6414582538372084,-0.2401457137855824,0.992133611965104,-0.4144196582665432,0.9886942919341182,-0.735842086943951,0.1952370082955568,0.6308211605335373,10.83617522307577,-0.9923250063126507,0.3286191208941349,-0.7516309021052511
1.9,0.487745695455001,-0.1684800322813362,1.629201997947869,0.0080734842694811,0.0268564293290204,0.0600232560115994,-0.1741695617175759,0.8724816821129923,-0.3462451943253437,0.4901327413609121,-0.182163573312505,1.6331099308744517,-0.2801457143816288,1.0321336125611502,-0.4124219983523476,0.9021692279908564,-0.7266523700135724,0.1422436840876284,0.5154147683414351,10.83617522307577,-0.994354160428642,0.328806553894404,-0.7479144883728933
1.92,0.4842990667734732,-0.1518846383530905,1.622706458476348,0.00919690006772,0.0274068011809377,0.0601938393560756,-0.1879589679591228,0.8744502880831191,-0.3380011454554896,0.4845298270732796,-0.161520901061282,1.6248614909074048,-0.3201457149776752,1.0721336131571966,-0.4104243384381521,0.8093013587789378,-0.6894703120773434,0.0984302985063412,0.4122024434927068,10.705677028637185,-0.9966751848426768,0.3291555637009454,-0.7442398351543389
1.94,0.4803880257802478,-0.1343823800103553,1.6160334916086043,0.0090192026268419,0.027552113704348,0.0602661678806901,-0.2024700047454096,0.8758155587855491,-0.32973737498338,0.478926912785647,-0.1408782288100589,1.6166130509403578,-0.3601457155737217,1.1121336137532432,-0.4084266785239566,0.8377410923423647,-0.7255518393143381,0.0682635351214988,0.4131885236054788,10.58515508482924,-0.9993057449507692,0.3298252226936754,-0.7406586208742106
1.96,0.4761796645018401,-0.1168460248854836,1.6095232043928265,0.0074184883504517,0.0274583954375621,0.0602311351835581,-0.2176581538531568,0.877874528126261,-0.3216916324696926,0.4723239984831133,-0.1192355565439348,1.6084145524711655,-0.4001457161697682,1.1521336143492895,-0.406429018609761,0.865524697310409,-0.7594074553873592,0.1029484670355962,0.4022871256843696,10.58515508482924,-1.002021010031158,0.3314069678347907,-0.7364674457411639
1.98,0.4718947174354598,-0.1001380972658735,1.603487526213187,0.0049299314012209,0.0274405351326303,0.0601278019002562,-0.2326197798707115,0.8809725050129693,-0.3140322943790065,0.4647210841656783,-0.0965928842629094,1.6002659954998286,-0.4401457167658146,1.192133614945336,-0.4044313586955655,0.854565933482001,-0.748081300877737,0.154898844335416,0.382966904534307,10.573010956700273,-1.0050918121055397,0.3336916185894402,-0.7315858585897412
2.0,0.4670734577962616,-0.082465306557861,1.5972924056189024,0.0020556924565239,0.027667804542592,0.0600003677310891,-0.2486981887552088,0.8862109393611312,-0.3058694394391624,0.4602637284419242,-0.056089472015225,1.5877859114942363,-0.3326197813608276,0.9468154538669388,-0.2916291752470837,0.9388671730415628,-0.8039204442248676,0.2619217174080923,0.4081427469922044,10.571237282902077,-1.0082625244314012,0.3363286084448745,-0.7262575012948196
2.02,0.4619019661749043,-0.064507683797212,1.5913262784297355,0.0048798744821163,0.0288164481624786,0.0602669095006696,-0.2673856928592381,0.9072454310470774,-0.2907550895292485,0.4602637284419242,-0.056089472015225,1.5877859114942363,-0.3326197813608276,0.9468154538669388,-0.2916291752470837,1.5969629170111963,-0.9343752052014598,1.0517245842973144,0.7557174954956919,10.57274420676913,-1.0130393579208106,0.3359849835889855,-0.7200252092130315
2.04,0.4563772942413445,-0.0462562505128839,1.585669362792122,0.0140832038454011,0.0311266992980332,0.0609781030643998,-0.2839157079870888,0.9157042443141056,-0.2757061886324759,0.4602637284419242,-0.056089472015225,1.5877859114942363,-0.3326197813608276,0.9468154538669388,-0.2916291752470837,1.1950547479240328,-0.8265007563925397,0.422940663351401,0.7524450448386316,11.049524524310073,-1.0154816771857729,0.3329530469394108,-0.7167952821847169
2.06,0.4508398023116417,-0.0288421531352618,1.5805506326471643,0.0235352553057189,0.0337737714466908,0.061711574320653,-0.298054368718379,0.916885150490886,-0.2638571068702739,0.456937530628316,-0.0466213174765556,1.5848696197417658,-0.3526197816588509,0.9599840436377328,-0.2871485514206992,0.9242524077331792,-0.7069330365645055,0.059045308839023,0.5924540881101004,10.78197184137298,-1.0165421892488111,0.3283296312986975,-0.7168588422245163
2.08,0.4447356383658936,-0.0105295480887968,1.575383784425939,0.0323818395595137,0.0365924061158151,0.0624116756854389,-0.3115504786059886,0.9144363241448598,-0.2535453421686252,0.4502851350010994,-0.0276850083992169,1.579037036236824,-0.3926197822548973,0.9863212231793206,-0.2781873037679301,0.8580125637681489,-0.6748054943804843,-0.1224413173013083,0.515588235082437,10.65043926758517,-1.0172945830646287,0.323668089927877,-0.7180587204873262
2.1,0.4383730506029574,0.0077097841463056,1.570402200389415,0.0394745129606102,0.0391056260244407,0.062980362303429,-0.3240137749111444,0.9098698085364036,-0.2452006625482726,0.4436327393738828,-0.0087486993218781,1.5732044527318825,-0.4326197828509437,1.0126584027209085,-0.269226056115161,0.7839331884138943,-0.6231648152577873,-0.2283257804228056,0.4172339810176284,10.65043926758517,-1.0180915881058057,0.3196020516493492,-0.7193693132306265
2.12,0.4317697986590133,0.0258427143678093,1.5655714681415724,0.0446636527097849,0.0410960358575986,0.0633909999500645,-0.3357376716232205,0.9040994329490468,-0.2382708902979486,0.434980343716864,0.01150446873254,1.567819931609579,-0.4726197834469902,1.0389955822624963,-0.2602648084623919,0.7395416350279974,-0.5861948356038066,-0.2885187793678412,0.3464886125161992,10.54120653121663,-1.0189914916566665,0.3163733474510755,-0.7205102217501123
2.14,0.425284314838828,0.0429564532132619,1.5611059842793529,0.0480004236609885,0.0424038616000288,0.0636355618681107,-0.3464272371753438,0.898030793247684,-0.2321116188454601,0.4263279480598451,0.0317576367869582,1.562435410487276,-0.5126197840430367,1.0653327618040842,-0.2513035608096228,0.6874442238166273,-0.5344782776061652,-0.3034319850681422,0.3079635726244242,10.448828344802678,-1.020258279291024,0.313638226318907,-0.7212762676621894
2.16,0.418235930998874,0.0608516092304903,1.5565318436366171,0.0502705739062587,0.0432576275118362,0.0637700869074696,-0.3578840918755041,0.8919804042453673,-0.2256158268992755,0.4166755523879251,0.052669234329916,1.557274920556292,-0.552619784639083,1.091669941345672,-0.2423423131568537,0.7246758580704468,-0.5728427350080112,-0.3025194501158346,0.3247895973092315,10.448828344802678,-1.0218229288202316,0.3116784132421886,-0.7212744437650962
2.18,0.4109556346468646,0.0786247898096576,1.5520882824212243,0.0516015365798201,0.043814414590688,0.0638122675127762,-0.3695883087673842,0.8857133648788369,-0.2190563907670277,0.4060231567011039,0.0742392613614136,1.5523384618166272,-0.5926197852351295,1.1180071208872595,-0.2333810655040847,0.7404233212272098,-0.5852108445940085,-0.3133519683265195,0.3279718066123899,10.451941367348809,-1.0237090105409017,0.3103046404198278,-0.7206120726798677
2.2,0.4034391215951187,0.0962670864186999,1.5477770592053233,0.0519093441597912,0.0442818721405739,0.0637673847215393,-0.3814738567225379,0.8789680531829411,-0.2123838265597565,0.3924762192084953,0.1229104580535995,1.5411354628828728,-0.4695883102575003,0.8752591171731985,-0.1748851468610066,0.7604087604196879,-0.5942773977576837,-0.3372655847947881,0.3336282103635596,10.46557664546981,-1.0256444396915374,0.3095025144312881,-0.7196837808914606
2.22,0.3960521135306866,0.1131388720633618,1.5438234451366626,0.0587997460423604,0.0450562675788756,0.0641899980777414,-0.3950669790507868,0.8923633406685414,-0.2043435578783221,0.3924762192084953,0.1229104580535995,1.5411354628828728,-0.4695883102575003,0.8752591171731985,-0.1748851468610066,1.0354378565639184,-0.6796561164124443,0.669764374280013,0.4020134340717213,10.46557664546981,-1.0288551965504482,0.3070771240379655,-0.7159998792225749
2.24,0.388022460160206,0.1309512490491488,1.5398182558853806,0.071860643539641,0.0462530154080225,0.0650442757192629,-0.4070796873392517,0.8874917422709467,-0.196633362713663,0.3924762192084953,0.1229104580535995,1.5411354628828728,-0.4695883102575003,0.8752591171731985,-0.1748851468610066,0.7541298642281915,-0.6006354144232451,-0.2435799198797328,0.3855097582329533,10.510900638092608,-1.0311433077391023,0.2992210878207286,-0.7170895810514654
2.26,0.3797650739461304,0.1485901016567047,1.5359561094034675,0.085316229453938,0.0473929514427858,0.0659037693378838,-0.4180199854629688,0.8763097987677987,-0.1900396648437118,0.3877803361059203,0.1316630492253315,1.5393866114142627,-0.4895883105555236,0.8731682676320708,-0.1660508980798023,0.8488268892177068,-0.5470149061858581,-0.5590971751574025,0.3296848934975616,10.443045909560167,-1.032219784118957,0.2898481210662839,-0.720931102582429
2.28,0.3712988338743967,0.1659432086255321,1.532214384437634,0.0973672293789607,0.0482272791923798,0.0666175240294319,-0.4281077223431994,0.8598502021324004,-0.1844603524448878,0.3783885699007703,0.1491682315687955,1.5358889084770426,-0.52958831115157,0.8689865685498155,-0.1483824005173939,1.004750570550286,-0.5043868440115284,-0.8229798317699155,0.2789656199411974,10.443045909560167,-1.0326359446237987,0.2801734844344122,-0.726495632670807
2.3000000000000003,0.3630744262573301,0.182091596082161,1.5287584008941293,0.1066940101443355,0.0486013197485101,0.0670824422834709,-0.4371971509470096,0.8412572006334341,-0.1795832361689953,0.3689968036956203,0.1666734139122594,1.5323912055398226,-0.5695883117476165,0.8648048694675601,-0.1307139029549854,1.063136492004789,-0.4544714301905089,-0.9296500749483128,0.2438558137946245,10.418428265536932,-1.033274798243575,0.2707572164587905,-0.7319939078429778
2.32,0.3542334896028756,0.1986917430856627,1.525222824690849,0.1142170429056082,0.0484662956232461,0.0673259655917282,-0.4464971444314555,0.8200519769396333,-0.1741817011169589,0.357605037460668,0.1839695113016106,1.529776927480723,-0.609588312343663,0.8606231703853047,-0.113045405392577,1.1888313291140666,-0.4649996742222967,-1.0602611846900425,0.2700767526018194,10.420349043813983,-1.034823918171921,0.2628135990505426,-0.7357660263203167
2.34,0.3452066940189674,0.2148534123823618,1.5218013032299984,0.1195141505600189,0.0477611610848583,0.0673178284486671,-0.4558177128191192,0.7975391538858047,-0.1681695134503709,0.3462132712257156,0.2012656086909619,1.527162649421623,-0.6495883129397094,0.8564414713030494,-0.0953769078301685,1.2548372379121386,-0.4660284193831854,-1.1256411526914312,0.300609383329399,10.456715573137444,-1.0368258219604072,0.2559967760871016,-0.7386397568960549
2.36,0.3359863940284607,0.2305548914099519,1.5185102892317346,0.1227472645214518,0.0466883712171514,0.067092628172835,-0.4658435602536666,0.7742692151985184,-0.1611740975679603,0.3338215049758621,0.2184571636032567,1.5249900838015835,-0.6895883135357558,0.852259772220794,-0.0777084102677601,1.314290214011694,-0.501292371727366,-1.163496934364311,0.3497707941205311,10.574114641877712,-1.0392138518907137,0.2505397687591866,-0.7404514387005632
2.38,0.3270349923681004,0.24503459561659,1.5155238137866598,0.1241256493953418,0.0456319760077442,0.0667332193998587,-0.4759547891143329,0.7514413040391944,-0.1534980362269703,0.3204297387111075,0.2355441760384951,1.5232592306206043,-0.7295883141318023,0.8480780731385387,-0.0600399127053516,1.3060172229735374,-0.5055614430333172,-1.1413955579662016,0.3838030670495013,10.574114641877712,-1.0417538593891456,0.2463026314890866,-0.741676890887132
2.4,0.3174005816718434,0.2598025223472287,1.51254924413557,0.1236834793808033,0.0446722859902586,0.0662233942100015,-0.4869867933613336,0.7267489962143542,-0.1442804564001618,0.3032372529123838,0.2826066608185497,1.5078489119753111,-0.5759547906044491,0.670043278884127,-0.1193945644411865,1.4286173046744308,-0.5516002123500369,-1.234615391242011,0.4608789913404229,10.72538209722461,-1.0448312364404633,0.243179318194839,-0.7421109731436824
2.42,0.307496654352285,0.2743042298148224,1.509647301432009,0.1278943913585181,0.0446968199400797,0.0661455958283938,-0.5026065680883313,0.7220969140240235,-0.1474394100792545,0.3032372529123838,0.2826066608185497,1.5078489119753111,-0.5759547906044491,0.670043278884127,-0.1193945644411865,0.8300575576042872,-0.7809887363498802,-0.2326041095165321,-0.1579476839546345,9.809004524999182,-1.0444189327327649,0.2429696236511862,-0.7400118021698022
2.44,0.2973047059217484,0.2885662596419907,1.5066528099408278,0.1375384498651884,0.0459905420881376,0.0665885166293122,-0.5156274616111852,0.703619466996134,-0.1518802309429636,0.3032372529123838,0.2826066608185497,1.5078489119753111,-0.5759547906044491,0.670043278884127,-0.1193945644411865,1.151825297891914,-0.651044676142698,-0.923872351394478,-0.222041043185453,9.809004524999182,-1.0432586459382394,0.2292965186340055,-0.7518611383155382
2.46,0.2873987717735977,0.3017119401566899,1.503738713717348,0.1472318380315198,0.0476300046369129,0.0670858979572332,-0.5263831989303638,0.6808312974524758,-0.1547031754816603,0.2974777050063393,0.289307093607391,1.5066549663308997,-0.5959547909024723,0.6537636738531135,-0.1125738700840298,1.267828431115816,-0.537786865958928,-1.1394084771829072,-0.1411472269348346,10.03801323749849,-1.042170139819527,0.214984503934038,-0.7634890676831436
2.48,0.276766415420608,0.3150342549558003,1.500626822841698,0.1565896673560599,0.0493052129886377,0.0675247057275159,-0.5362453870926108,0.6526164153175031,-0.1562658242126033,0.2859586091942503,0.3027079591850735,1.5042670750420757,-0.6359547914985187,0.6212044637910865,-0.0989324813697163,1.4964827098017912,-0.4931094081123521,-1.4107441067486348,-0.0781324365471486,10.03801323749849,-1.0407207223050354,0.2007585155159516,-0.7753058224020316
2.5,0.2659496404447823,0.3277547039577504,1.4975017222642308,0.1641965646835447,0.0505547346261764,0.0677509613814095,-0.5450084673585016,0.6212389694133702,-0.1561427200136929,0.2744395133821613,0.3161088247627561,1.501879183753252,-0.6759547920945652,0.5886452537290595,-0.0852910926554028,1.628918998797226,-0.4381540132945394,-1.568872295206647,0.0061552099455186,10.164344733984764,-1.0404554664630743,0.1887393866945911,-0.7843620322010133
2.52,0.2555184009176377,0.3392381077698649,1.4945522156986004,0.1695839574710969,0.0511584090880701,0.0677147190470425,-0.5526800365011506,0.5895462178329364,-0.1542874190392251,0.26092041754027,0.3278817298373372,1.5001733619001438,-0.7159547926906117,0.5560860436670325,-0.0716497039410893,1.6330382861061437,-0.3835784571324496,-1.5846375790216916,0.0927650487233908,10.420437448777191,-1.0413348817631276,0.1788562065794409,-0.7905625319458505
2.54,0.2443834732931818,0.3506675328721282,1.4914998426847428,0.1734725383327525,0.0510757865230036,0.0673986656248139,-0.5605007851667337,0.5553442918325857,-0.1509427300125884,0.2474013216983787,0.3396546349119185,1.4984675400470358,-0.7559547932866582,0.5235268336050055,-0.0580083152267757,1.7621881259591627,-0.3910374332791566,-1.7100963000175329,0.1672344513318338,10.420437448777191,-1.0431722368370333,0.1716922691557147,-0.7937168470209401
2.56,0.2330871908398944,0.3613967896346723,1.4885280596312795,0.1754782998987192,0.0504024217934065,0.0668166344703896,-0.5688327939067426,0.5196339279239798,-0.1462840764389211,0.2328822258415862,0.350613559734949,1.4971027529117855,-0.7959547938827045,0.4909676235429785,-0.0443669265124622,1.8482123208982864,-0.4166004370004417,-1.7855181954302968,0.232932678683366,10.51458501865818,-1.04537831789709,0.1662258349336413,-0.7955716636979724
2.58,0.2216184944608333,0.3713936985849034,1.4856657760301646,0.175098644914048,0.049482096055622,0.0659974194800364,-0.5776958066829185,0.4823203241912648,-0.1401071361693105,0.2173631299698926,0.3607585043064288,1.4960790004943931,-0.835954794478751,0.4584084134809516,-0.0307255377981487,1.942300575404764,-0.443150638808798,-1.8656801866357455,0.3088470134805274,10.715884436837769,-1.0472361533154535,0.1625389305396031,-0.7971305862426207
2.6,0.210554423436001,0.3801899956681306,1.4830761167121844,0.1719951179459221,0.0486125419480014,0.0650109965863005,-0.5865609040621977,0.4461902364647044,-0.132674568907311,0.1927337041266874,0.3955097147944667,1.478660419221699,-0.6696688134082298,0.3823203227011487,-0.1190538610758743,1.8968501830516296,-0.4432548689639604,-1.80650438632802,0.3716283630999767,10.715884436837769,-1.0493379564352678,0.1607268498330697,-0.7981872734797812
2.62,0.198668355464032,0.388806113905403,1.4803531443734634,0.167818292506482,0.0491124816167864,0.0641412008597353,-0.6014398511291681,0.4173755757643681,-0.1408949716499059,0.1927337041266874,0.3955097147944667,1.478660419221699,-0.6696688134082298,0.3823203227011487,-0.1190538610758743,1.6727542843673084,-0.7439473533485175,-1.4407330350168168,-0.4110201371297445,9.760231448964989,-1.0432670277183869,0.1588061282667117,-0.8073831989303217
2.64,0.1865061692721964,0.3968579180173723,1.4774699104356368,0.1643745361155968,0.0516339999028432,0.0636470573261779,-0.6137962940701424,0.3891336145956861,-0.1469417673052964,0.1927337041266874,0.3955097147944667,1.478660419221699,-0.6696688134082298,0.3823203227011487,-0.1190538610758743,1.5707114554437935,-0.6178221470487133,-1.4120980584340996,-0.3023397827695256,9.760231448964989,-1.0437760372473404,0.1570885783831887,-0.8112154660308775
