t,x,y,z,roll,pitch,yaw,v_x,v_y,v_z,ref_x,ref_y,ref_z,ref_v_x,ref_v_y,ref_v_z,a_com,a_x,a_y,a_z,thrust,wind_x,wind_y,wind_z
0.0,0.2988141389341575,-0.4182266134347168,1.813851661043199,0.0230272088327804,0.0968658854837829,0.0415728132670196,0.0098410475597091,-0.0252181323957093,-0.0072532626078042,0.2987134526728892,-0.4178730784741712,1.8139195554480256,-0.0551336455178271,0.099937945857859,-0.0560268939863354,1.4012585745123525,0.492052377985458,-1.2609066197854693,-0.3626631303902118,10.258885602915145,-0.9427580423107677,0.2511968831255481,-0.884871971980442
0.02,0.2990916179695027,-0.4187566521572524,1.8136338898515088,0.006094306453,0.0878043120183703,0.040303257461691,0.0164735267115453,-0.0258239579185254,-0.0141172509736001,0.2987134526728892,-0.4178730784741712,1.8139195554480256,-0.0551336455178271,0.099937945857859,-0.0560268939863354,0.478202730412059,0.3316239575918099,-0.0302912761408029,-0.3431994182897976,9.900637478220233,-0.9477538741208356,0.2664060047173678,-0.872949034546
0.04,0.2994130275267769,-0.4191908117600632,1.8132909112102196,-0.0103962414639624,0.07538714903395,0.0392719142852449,0.0163899703636399,-0.0195061886894804,-0.0216246013817972,0.2987134526728892,-0.4178730784741712,1.8139195554480256,-0.0551336455178271,0.099937945857859,-0.0560268939863354,0.490615684233086,-0.0041778173952695,0.3158884614522494,-0.3753675204098534,9.843173955411658,-0.9558185506633192,0.2815437560624934,-0.8575538600245003
0.06,0.2996798946196175,-0.4194771718168821,1.8127670833426148,-0.0270820677059677,0.0607557285553261,0.038538520167037,0.0097533691788495,-0.0090908415375044,-0.0304065544220363,0.2981621162177109,-0.4168736990155926,1.8133592865081625,-0.0661886761915694,0.1199379461558823,-0.0671752133797318,0.7577048085882478,-0.3318300592395211,0.5207673575988024,-0.439097652011953,9.759136559760009,-0.9662313385493092,0.2952209003675747,-0.8403473167695477
0.08,0.2997486537597579,-0.4195219657959556,1.8120600742222552,-0.0429397121913572,0.0465558975180606,0.0381464914691725,-0.0027984802780361,0.0044407853671144,-0.0398652810752372,0.2970594433073543,-0.4148749400984354,1.812238748628436,-0.088298737539054,0.1599379467519287,-0.0894718521665245,1.036968371472942,-0.6275924728442844,0.6765813452309409,-0.4729363326600445,9.689688804097386,-0.9771856201049178,0.3073597521242971,-0.8233137766226852
0.1,0.2995350062132006,-0.4192775526865816,1.811208162132504,-0.0569761443816383,0.0347641150884925,0.0380163847110621,-0.0191066267250511,0.0207009468335043,-0.0493482561486684,0.2959567703969978,-0.4128761811812783,1.811118210748709,-0.1104087988865386,0.1999379473479752,-0.1117684909533173,1.245266344696666,-0.8154073223507484,0.8130080733194978,-0.4741487536715629,9.689688804097386,-0.9868836778296508,0.3176112159470088,-0.8083411290397888
0.12,0.2989419679562564,-0.4186451831691603,1.8101089297268065,-0.0700668245349284,0.0248840286954119,0.0380544999185877,-0.0393798851737839,0.0415831233154644,-0.0601057179675333,0.293748594419267,-0.4088774222343188,1.808882840929643,-0.1325188602340232,0.2399379479440216,-0.1340651297401101,1.551445525580244,-1.013662922436644,1.044108824098006,-0.5378730909432458,9.685389097918232,-0.9958416522659976,0.3267215569394508,-0.7946724600141926
0.14,0.2979148691901523,-0.4175652308557268,1.8087881839574609,-0.0809853943372093,0.0180665072820127,0.0381724495999052,-0.062426267983596,0.0651305592622204,-0.0714455761810322,0.2915404184415363,-0.4048786632873593,1.806647471110576,-0.1546289215815078,0.2799379485400681,-0.1563617685269029,1.7422757277374554,-1.1523191404906006,1.1773717973377993,-0.5669929106749423,9.67218629461695,-1.0015797863527869,0.3338932728510994,-0.7859012864900679
0.16,0.2963940879082847,-0.4159855167321837,1.8072357802375136,-0.0893683572721542,0.015272713813948,0.0382201857743333,-0.0882244833159562,0.0910339042787574,-0.0831794686263871,0.2887794909301183,-0.3998799043254986,1.80385468532184,-0.1767389829289924,0.3199379491361145,-0.1786584073136956,1.9197756570103028,-1.2899107666180132,1.2951672508268488,-0.586694622267745,9.67218629461695,-1.0043831060020718,0.3384892074162768,-0.782480753911621
0.18,0.2944751630150286,-0.4139939666479679,1.8055433854381628,-0.0950320745895919,0.0165079905905984,0.0381054191196849,-0.1119789382415615,0.1167502806740829,-0.0943065430983809,0.2854658118850133,-0.3938811453487367,1.800504483563434,-0.1988490442764769,0.359937949732161,-0.2009550461004883,1.836721215933411,-1.1877227462802613,1.285818819766276,-0.5563537235996917,9.686458898755518,-1.0048935208181389,0.3408198095738771,-0.7842296298032554
0.2,0.2919926503020756,-0.4113693995059326,1.8035339569434132,-0.098958162238923,0.0208602247955734,0.0378377035734397,-0.1346187595771375,0.1440043251178233,-0.1060067492722989,0.2888762161029505,-0.4081564526142638,1.800828058283244,-0.165723969598373,0.2167502821641991,-0.1473359983429221,1.865636133575066,-1.1319910667788036,1.3627022221870178,-0.5850103086958991,9.68741173176113,-1.0023167329621587,0.3419006873611992,-0.79018358180675
0.22,0.289051844633296,-0.4080711217460353,1.801387420548055,-0.0974036765299604,0.0282907167070306,0.0376497875221651,-0.1577594594109692,0.1831531232042706,-0.1072972501706136,0.2888762161029505,-0.4081564526142638,1.800828058283244,-0.165723969598373,0.2167502821641991,-0.1473359983429221,2.2747449159089617,-1.1570349916915856,1.957439904322364,-0.0645250449157329,10.410149494991856,-1.0006273883284034,0.3407722684160323,-0.7931540944517403
0.24,0.2856961061730286,-0.4040831447252564,1.7992356725053664,-0.0900987135101193,0.0384393973504904,0.0376471205440712,-0.1760897621769018,0.2126200050469738,-0.1078400811975134,0.2888762161029505,-0.4081564526142638,1.800828058283244,-0.165723969598373,0.2167502821641991,-0.1473359983429221,1.7353614829095063,-0.9165151382966266,1.473344092135162,-0.0271415513449911,10.261475998690004,-0.9948148127721076,0.3359803875367756,-0.8026256296982861
0.26,0.2822143836570426,-0.3998175757945802,1.797161327033972,-0.082102103052659,0.0490604854026792,0.0377089497141104,-0.1891613425712811,0.2347371119226938,-0.1104657534923748,0.2872189764069668,-0.4059889497926218,1.7993546982998148,-0.1764729758697353,0.2367502824622223,-0.1579418893918303,1.291246283207376,-0.6535790197189639,1.105855343786001,-0.131283614743069,10.261475998690004,-0.986960466292674,0.3303130102435236,-0.8143893604173448
0.28,0.2783232469314344,-0.3949131345797082,1.7949014639655667,-0.074252349862543,0.0600729477314274,0.0378357036267505,-0.1989785844246406,0.2545546645065046,-0.1155196949173636,0.2839044970149993,-0.4016539441493378,1.7964079783329563,-0.1979709884124599,0.2767502830582687,-0.1791536714896468,1.1343014942539251,-0.4908620926679749,0.9908776291905368,-0.2526970712494407,10.090739825117453,-0.977899159604625,0.3248544909176146,-0.8273956090610154
0.3,0.2742717047490442,-0.3896349500430332,1.792515557942554,-0.0675606948373776,0.0700409928321587,0.038033964458217,-0.2055141164992261,0.2723766010328993,-0.1229505719517782,0.2805900176230319,-0.3973189385060539,1.7934612583660978,-0.2194690009551845,0.3167502836543152,-0.2003654535874633,1.019255285182972,-0.3267766037292771,0.8910968263197344,-0.3715438517207327,9.941929417845133,-0.9684938741770484,0.3201198511267638,-0.8402594178771257
0.32,0.2701167603484197,-0.3840140696872472,1.7899588600829504,-0.0621078386747253,0.078416157989331,0.0383067772083893,-0.2095736470550918,0.2889507873822386,-0.1324645118397609,0.2762006376039282,-0.3909839328329675,1.7894539492943486,-0.2409670134979091,0.3567502842503616,-0.2215772356852797,0.9768552780079331,-0.2029765277932874,0.8287093174669691,-0.4756969943991315,9.81500959594905,-0.9596787986587596,0.3162701620865756,-0.8520011807226626
0.34,0.266113105630586,-0.3783763978869566,1.787340221581815,-0.0580364186886726,0.0846150042916087,0.0386288282558349,-0.2117249958873578,0.3038761938165337,-0.1427333969017251,0.2718112575848245,-0.3846489271598812,1.7854466402225992,-0.2624650260406337,0.3967502848464082,-0.2427890177830962,0.9122034579012808,-0.1075674416133001,0.7462703217147537,-0.5134442530982122,9.6621503639808,-0.9521501958165928,0.3132925286540167,-0.861472905265951
0.36,0.2618623522879822,-0.3721325315018286,1.7843634128249517,-0.0545096958084298,0.0893448834741777,0.0390367369671856,-0.2132633124374037,0.3197290860081407,-0.1544591908753842,0.2668844272521527,-0.3773139214718938,1.7809090365984046,-0.2839630385833583,0.4367502854424546,-0.2640007998809127,0.988907039311024,-0.0769158275022913,0.792644609580348,-0.5862896986829554,9.622932734409003,-0.9458590523603988,0.3110364825119873,-0.868998432421767
0.38,0.2575855745836773,-0.3655730808889106,1.781144115688672,-0.0513665231330666,0.0924556088835534,0.0395149174351756,-0.2144236101696558,0.3353743156743388,-0.16689476986234,0.2614201466059128,-0.3689789157690051,1.7758411384217645,-0.3054610511260829,0.476750286038501,-0.2852125819787291,1.0009534540581415,-0.0580148866126076,0.782261483309904,-0.6217789493477884,9.622932734409003,-0.9409778166368832,0.3090688424023352,-0.8749103553440134
0.4,0.2535013409372086,-0.3590555790213825,1.7778501729062224,-0.0485599803430771,0.0941911997238827,0.0400216910433467,-0.2155095291579164,0.3498303801463628,-0.1792203488144953,0.2468643940751945,-0.3488043651051937,1.772799377195555,-0.2607548966000147,0.4353743171644549,-0.2133031474501353,0.9514159402887302,-0.0542959494130287,0.7228032236012039,-0.6162789476077651,9.572572083487104,-0.9368930919591296,0.3070770872973417,-0.8799784849708895
0.42,0.2491846799955387,-0.3518958367942366,1.7742793132287835,-0.0457077374769284,0.0952513249148944,0.0405835611068778,-0.2160567741600511,0.3653365368938339,-0.1764030426367741,0.2468643940751945,-0.3488043651051937,1.772799377195555,-0.2607548966000147,0.4353743171644549,-0.2133031474501353,0.7884757261142046,-0.0273622501067369,0.7753078373735511,0.1408653088860623,9.572572083487104,-0.939476786421483,0.3042833054852846,-0.879365664280069
0.44,0.2448606874213184,-0.344444776154781,1.7707730564316997,-0.043366756079122,0.0958346641599701,0.0411274827730302,-0.216370004537652,0.3791424967680212,-0.1745950345457465,0.2468643940751945,-0.3488043651051937,1.772799377195555,-0.2607548966000147,0.4353743171644549,-0.2133031474501353,0.6963683195234125,-0.0156615188800418,0.6902979937093684,0.0904004045513759,10.550473800340114,-0.9397646679103648,0.3055723702194774,-0.8753587927323271
0.46,0.2405281896263846,-0.336722147815762,1.7672681956813632,-0.0417976371900242,0.0958759639579697,0.0416365506188966,-0.2169377159639192,0.392554931535104,-0.1759630387679272,0.2442568451091943,-0.3444506219335491,1.7706663457210536,-0.2700211538860865,0.4553743174624781,-0.2225848229676943,0.6746983366599298,-0.0283855713133621,0.6706217383541407,-0.0684002111090348,10.188703079377774,-0.939829767320103,0.3070043027440736,-0.8720157838176742
0.48,0.2363981919266994,-0.329141329598021,1.7638903245964763,-0.0410130795339067,0.0954711219680585,0.0420855767071509,-0.2178345166171477,0.4048393539668694,-0.1795252836295237,0.239041747177194,-0.33574313559026,1.766400282772051,-0.28855366845823,0.4953743180585245,-0.2411481740028124,0.6410945217900014,-0.0448400326614237,0.6142211215882654,-0.178112243079824,10.188703079377774,-0.9397557649619652,0.3083589002021218,-0.8696556809127531
0.5,0.2320278450356086,-0.3209139650954331,1.7602429680797684,-0.0410909177846072,0.094671071393542,0.0425078271833128,-0.2192194207057504,0.4173202049055705,-0.1851034822805316,0.2338266492451937,-0.3270356492469709,1.7621342198230483,-0.3070861830303736,0.535374318654571,-0.2597115250379305,0.687033295551993,-0.0692452044301378,0.624042546935058,-0.278909932550396,10.053983828145649,-0.9396242468784536,0.3098880523555113,-0.8679499955601196
0.52,0.2276245468342162,-0.3124373598173267,1.7564680051996011,-0.0422167082889526,0.0935927623118331,0.0428683038205028,-0.2210983509043754,0.4298018003437343,-0.1921708538755504,0.2276849255845863,-0.3163281628738795,1.7569399893222897,-0.3256186976025171,0.5753743192506174,-0.2782748760730486,0.723305510547538,-0.0939465099312475,0.6240797719081898,-0.3533685797509373,9.86680961665934,-0.9395674576240036,0.3117521332633084,-0.8665281687711112
0.54,0.2234024876027866,-0.3041500981880947,1.752744941553007,-0.0442483442803924,0.0923961979489357,0.0431539035202438,-0.2232830664898673,0.4420376369785976,-0.1993715232690903,0.2215432019239788,-0.305620676500788,1.751745758821531,-0.3441512121746607,0.6153743198466639,-0.2968382271081667,0.718224059851133,-0.109235779274594,0.6117918317431664,-0.3600334696769972,9.845313819715557,-0.9399365602251484,0.3142711396371821,-0.8646658367157546
0.56,0.2189060721361128,-0.2951527733082108,1.7486747943114618,-0.0467869982777603,0.0911015142766002,0.0434340033520163,-0.2262990648120602,0.4571207219348089,-0.2072763443862119,0.2149381653990678,-0.2939131901127955,1.7460874445448946,-0.3626837267468042,0.6553743204427103,-0.3154015781432848,0.8646992173141009,-0.1507999161096451,0.7541542478105623,-0.3952410558560784,9.845313819715557,-0.940606967595386,0.3173730957476804,-0.8619623402209032
0.58,0.2143424662347113,-0.2858356090076928,1.7444440933689485,-0.0488018557775402,0.0899760717437455,0.0437481762428621,-0.2299142426856757,0.4736871901072882,-0.2153966692303514,0.2078698160098531,-0.2812057037099018,1.73996504649238,-0.3812162413189478,0.6953743210387567,-0.3339649291784029,0.940022678372706,-0.1807588936807741,0.8283234086239655,-0.406016242206976,9.82250699755059,-0.9411311885161148,0.3199700715115555,-0.8596921849125294
0.6,0.2097017496280668,-0.2761762550585581,1.7400479740537316,-0.0498315197728973,0.0891464503354615,0.0441192268851069,-0.2339457369610695,0.4912104313975906,-0.2237975520139349,0.2028467541004275,-0.2621512495023284,1.7336742599074308,-0.2646825223275424,0.5736871915974043,-0.2441702508394813,0.9923353301104922,-0.2015747137696935,0.876162064515118,-0.4200441391791723,9.82250699755059,-0.941536096670252,0.3218144154692922,-0.8577434277994658
0.62,0.2051901111547379,-0.2666124769116759,1.7358653004133329,-0.0479610781261074,0.0898452067215224,0.0445949393456874,-0.2403345572506374,0.5137724176960008,-0.2159861693167088,0.2028467541004275,-0.2621512495023284,1.7336742599074308,-0.2646825223275424,0.5736871915974043,-0.2441702508394813,1.2357972629688965,-0.3194410144783915,1.128099314920511,0.3905691348613016,9.809140601812942,-0.947210048294848,0.3219266917312171,-0.8503437883024537
0.64,0.2003310823028929,-0.2561348258200606,1.7316209757926226,-0.0429234653638291,0.0926982811018509,0.0452074186593303,-0.2449398778018969,0.5320709539260015,-0.2089870923974248,0.2028467541004275,-0.2621512495023284,1.7336742599074308,-0.2646825223275424,0.5736871915974043,-0.2441702508394813,1.006270941723146,-0.2302660275629767,0.9149268115000332,0.3499538459642015,10.838938355498613,-0.9473977613184076,0.3213256339186342,-0.8470574140732943
0.66,0.1954024157055197,-0.2453409790662378,1.727482518117203,-0.0374172707931341,0.0966736517098462,0.0458117533149819,-0.2474966709385596,0.546338628311124,-0.2051881389372003,0.2001999288771521,-0.2564143775863544,1.731232557399036,-0.2716361782559157,0.5936871918954275,-0.2499249671613073,0.7492258853251792,-0.1278396568331355,0.7133837192561276,0.1899476730112245,10.648810040220267,-0.9458983295094984,0.3200775297293481,-0.8464899198381491
0.68,0.1906909074552258,-0.2348449956880616,1.723595142715371,-0.0327039019041553,0.1007486115396474,0.0463487066670972,-0.2482270823300359,0.5579058384767749,-0.2041984235615049,0.1949062784306012,-0.2449406337544063,1.7263491523822465,-0.2855434901126624,0.633687192491474,-0.2614343998049593,0.5816214154027154,-0.0365205695738127,0.5783605082825438,0.049485768784771,10.285771039570136,-0.9431944950317332,0.3185829038202591,-0.8478702856427567
0.7000000000000001,0.1857319700290567,-0.2235721109096893,1.719501378730535,-0.0286192872138115,0.1047918555354112,0.0468694227330737,-0.2475542663626498,0.5688935680701654,-0.2053352611124267,0.1896126279840504,-0.2334668899224582,1.7214657473654569,-0.2994508019694091,0.6736871930875205,-0.2729438324486112,0.5533427567083223,0.0336407983693054,0.549386479669528,-0.0568418775460891,10.285771039570136,-0.939945009295385,0.3173122228119807,-0.8502337422778106
0.72,0.1807989192615568,-0.2120864421422363,1.7153646340123074,-0.0254728845421303,0.1082004820356342,0.0473471200135289,-0.2457617520538764,0.5792540904077713,-0.20836367542757,0.1836236119446622,-0.2199931460607078,1.7160068707164846,-0.3133581138261557,0.7136871936835669,-0.2844532650922632,0.5470941964583258,0.0896257154386667,0.5180261168802935,-0.1514207157571667,10.157877160857424,-0.9365335302939574,0.3164047486588486,-0.8529473376599072
0.74,0.1759115739709662,-0.2003981270004321,1.7111570369020332,-0.0231932131195954,0.1107268803959903,0.0477864107806228,-0.2431192151026649,0.5892541780133684,-0.212245781162535,0.177634595905274,-0.2065194021989573,1.7105479940675123,-0.3272654256829024,0.7536871942796134,-0.2959626977359152,0.5523936517457081,0.1321268475605749,0.5000043802798559,-0.1941052867482501,10.057314102383316,-0.9337154434530872,0.315858800478611,-0.8552335506428597
0.76,0.1713206183622322,-0.189102330156459,1.7070836087389123,-0.0214397351371708,0.1122756001073402,0.0481912107033184,-0.2403251558051473,0.5992516646216307,-0.2163425979023267,0.1712978970694672,-0.1920456583223058,1.704801381602449,-0.3411727375396491,0.7936871948756598,-0.3074721303795671,0.5579883807927046,0.1397029648758818,0.4998743304131137,-0.2048408369895851,10.021487544822776,-0.9313954353899332,0.315708236304011,-0.8566562366335738
0.78,0.1665457375178652,-0.1770072152875526,1.702707765026482,-0.0197183552664981,0.11310325317005,0.0486200163229166,-0.2373550846848132,0.6096833321991618,-0.2210428639532026,0.1646135154372417,-0.1765719144307531,1.698767033321294,-0.3550800493963957,0.8336871954717062,-0.3189815630232191,0.591044651141039,0.1485035560167033,0.5215833788765556,-0.2350133025437961,10.001552379462735,-0.9295981615378036,0.3155974365953854,-0.8575280562973787
0.8,0.1618292948495366,-0.1647048070213295,1.6982336877322275,-0.0179980524502997,0.1132260164349434,0.049055036446222,-0.2345072471286359,0.6199429850694681,-0.2261258323426888,0.1546779832836245,-0.1465230486775945,1.6916556218288217,-0.2591704424146058,0.7036781210246738,-0.2506652045280632,0.589930553993589,0.1423918778088659,0.512982643515314,-0.2541484194743065,9.980505986123717,-0.9283956765106502,0.3154255020860832,-0.8578901506749541
0.8200000000000001,0.1573746492436359,-0.1527905653259686,1.6939856910796132,-0.015052905781399,0.1138927257037666,0.049542109955536,-0.2342274244424411,0.6327066076594591,-0.2207483462773661,0.1546779832836245,-0.1465230486775945,1.6916556218288217,-0.2591704424146058,0.7036781210246738,-0.2506652045280632,0.6926501980404264,0.0139911343097404,0.6381811294995487,0.2688743032661339,10.612128964814474,-0.9297882979090444,0.3144214531458313,-0.8558741316412269
0.84,0.1527063710445979,-0.1400406909546838,1.6896155081803614,-0.0112071209310145,0.1158597086417982,0.0500806978963452,-0.232460212640052,0.6415963671973037,-0.2166970341836932,0.1546779832836245,-0.1465230486775945,1.6916556218288217,-0.2591704424146058,0.7036781210246738,-0.2506652045280632,0.4963969980659223,0.0883605901194559,0.4444879768922327,0.2025656046836452,10.612128964814474,-0.9293998093241768,0.3140082091074772,-0.8541870039984711
0.86,0.1480879370684719,-0.1271316137774671,1.6852988262310422,-0.0078826156774478,0.1183670548941361,0.0505729369007749,-0.2293788099388445,0.6489593882052338,-0.2152846122676357,0.1520862788594785,-0.1394862674673477,1.6891489697835411,-0.2635335139605643,0.7224770787897761,-0.2565896726430353,0.4052901943027606,0.1540701350603746,0.3681510503965035,0.0706210958028724,10.455811393919248,-0.927687412831082,0.3135979773914844,-0.8542682940759583
0.88,0.143543331669509,-0.1140845993155211,1.6809847651866665,-0.0053577087546375,0.1208310114376929,0.0510061198953545,-0.225211823423772,0.6555791193138253,-0.2161847910764405,0.1469028700111863,-0.1254127050468542,1.6841356656929798,-0.2722596570524814,0.7600749943199809,-0.2684386088729796,0.3936843229500979,0.2083493257536234,0.3309865554295743,-0.0450089404402373,10.300634334814276,-0.9252824007060932,0.3132968632731464,-0.8555491003597222
0.9,0.1393113223059056,-0.1015710920156393,1.67685370360177,-0.0037128272634118,0.1227807086804852,0.051362567014891,-0.2204926858113455,0.6614604556285862,-0.2186187196910625,0.1417194611628942,-0.1113391426263608,1.6791223616024185,-0.2809858001443984,0.7976729098501857,-0.2802875451029238,0.3961829916636394,0.2359568806213269,0.2940668157380477,-0.1216964307310997,10.17970680569124,-0.9224574589941472,0.3131736076335197,-0.8574616344199464
0.92,0.1349586253479738,-0.0882828475395476,1.6724427262081203,-0.0028708815430315,0.1242179062344264,0.0516718385306072,-0.2150492736781156,0.6671306118449516,-0.2224067969524206,0.1360997451600063,-0.095385684429357,1.67351661070036,-0.2897119432363155,0.8352708253803904,-0.292136481332868,0.4362652189557383,0.2721706066614926,0.2835078108182676,-0.1894038630679079,10.090574943219508,-0.9195673036855784,0.3133739872912819,-0.8596124672930147
0.94,0.1307190005561911,-0.0748859346318394,1.6679494179313978,-0.0031908326318042,0.1249107696490146,0.0518956398485451,-0.2092705931068387,0.6724322358535417,-0.2267306871266043,0.1304800291571183,-0.0794322262323533,1.6679108597983014,-0.2984380863282325,0.8728687409105953,-0.3039854175628123,0.4477621927756824,0.2889340285638461,0.2650812004295066,-0.2161945087091846,10.02383084812118,-0.9172040353079278,0.3142220000913754,-0.8612027554479148
0.96,0.1265943975042901,-0.061372611205614,1.6633681362529038,-0.004478433478352,0.1248758034000145,0.0520491419631734,-0.2035663204701862,0.6786634687969331,-0.2311798271667912,0.1246421595769324,-0.0625388201470945,1.6620088854904944,-0.3071642294201495,0.9104666564408,-0.3158343537927565,0.4773935415494788,0.2852136318326231,0.311561647169567,-0.2224570020093436,10.00302577947332,-0.9157939880767956,0.3159172347977298,-0.8613437000056201
0.98,0.1227794969830182,-0.0484098603157,1.6589332885394017,-0.006202992674301,0.124246682979672,0.0521600893269464,-0.1983576428504233,0.6855108517145994,-0.2354213725729874,0.1185861364194486,-0.0447054661735806,1.6558106877769387,-0.3158903725120666,0.9480645719710048,-0.3276832900227007,0.4796031765965269,0.2604338809881493,0.3423691458833144,-0.2120772703098086,9.998018376796608,-0.9150381699601936,0.3182540895801932,-0.8604018089647442
1.0,0.1188671209142638,-0.034614344665788,1.6541773247895906,-0.0081749591865757,0.1230324937161771,0.0522689076735984,-0.1932122083089438,0.6937421947361886,-0.2399519628166026,0.112861614840497,-0.0141343177299701,1.647162219910752,-0.2134209202961568,0.7302453595137479,-0.2555886525615147,0.5356228909299362,0.2572717270739724,0.4115671510794616,-0.2265295121807606,9.997177086033844,-0.9150455948597184,0.3209097489123015,-0.858361311503196
1.02,0.1150290591986575,-0.0204293607069197,1.6494386862820525,-0.003019067818216,0.1220923562242243,0.0528652626954981,-0.1906226699377625,0.7212917366119795,-0.2330569780784405,0.112861614840497,-0.0141343177299701,1.647162219910752,-0.2134209202961568,0.7302453595137479,-0.2555886525615147,1.4258539380677002,0.1294769185590669,1.3774770937895475,0.344749236908104,9.991805659127747,-0.9215103771622768,0.3215572625601957,-0.8478995560856148
1.04,0.1112538543912299,-0.0058563587353256,1.6448431955032106,0.0098714906324193,0.1221004884823387,0.0539690878625168,-0.1868575291975442,0.7331672491679228,-0.2268820823748838,0.112861614840497,-0.0141343177299701,1.647162219910752,-0.2134209202961568,0.7302453595137479,-0.2555886525615147,0.6952219433566159,0.1882570370109151,0.5937756277971606,0.3087447851778363,10.729903287201523,-0.9217567284919824,0.3149656633391264,-0.8471037361721948
1.06,0.1077460061702629,0.008106649543903,1.6405588932878623,0.0231084728622319,0.1225344305404313,0.0550638220031905,-0.1825342559099675,0.7358542068297027,-0.2244112962606331,0.1107274056375354,-0.0068318641348326,1.6446063333851368,-0.2164335757853035,0.7391922610735776,-0.2596221085592201,0.2829099566012377,0.2161636643788322,0.1343478830889977,0.1235393057125333,10.5588918479134,-0.920853057302293,0.3065341586076811,-0.8489546366897757
1.08,0.1041483190890444,0.0228043320581391,1.6360690394481936,0.0358250719548459,0.123087749236737,0.0561085127209531,-0.1774577860992768,0.733819498266789,-0.2248431634822048,0.1064589872316123,0.0077730430554423,1.6394945603339066,-0.2224588867635969,0.7570860641932371,-0.267689020554631,0.2743040920762764,0.253823490534534,-0.1017354281456828,-0.0215933610785867,10.344406134617202,-0.9189346325986144,0.2976994058407162,-0.8530263051160716
1.1,0.1006565192564897,0.037425008196902,1.6315400173579373,0.0464361565984281,0.123471658526169,0.0569751490948098,-0.1720221051024453,0.7287336218218231,-0.2280243214016852,0.1021905688256892,0.0223779502457172,1.6343827872826764,-0.2284841977418903,0.7749798673128965,-0.275755932550042,0.4047608331516497,0.2717840498415752,-0.2542938222482971,-0.1590578959740171,10.17695834865117,-0.9163131602285484,0.2893031096384804,-0.8584476634243317
1.12,0.0974422980323417,0.0512019389328372,1.6271610934754903,0.0544766716894056,0.123525467239342,0.0576174319514346,-0.1666547365771275,0.7221235408008488,-0.2327434224904616,0.0976208848708513,0.0378775475919752,1.6288676686316754,-0.2345095087201838,0.7928736704325559,-0.2838228445454529,0.4867538676695527,0.2683684262658928,-0.3305040510487134,-0.2359550544388189,9.964976915338411,-0.9135629146940047,0.2820220507369146,-0.8641684893346797
1.14,0.0941699841628432,0.0655581645733366,1.6224474810449605,0.060971130846863,0.123176454610184,0.0581073921826769,-0.1609196732084753,0.7141104606001019,-0.2383828093374084,0.0930512009160135,0.0533771449382331,1.623352549980675,-0.2405348196984772,0.8107674735522153,-0.2918897565408638,0.5676774836022124,0.2867531684326074,-0.400654010037349,-0.2819693423473421,9.964976915338411,-0.910849218006386,0.2751622577752639,-0.8702119376592148
1.16,0.0910118317318254,0.0797489461530205,1.617618154523012,0.0657831082221355,0.1223958546617643,0.058426374744537,-0.1552473431984702,0.7055764136132564,-0.2442647010467094,0.0883308841867184,0.0693240873624825,1.6176357585297885,-0.2465601306767706,0.8286612766718747,-0.2999566685362747,0.590766315466688,0.2836165005002555,-0.4267023493422728,-0.2940945854650503,9.94154602110666,-0.9084927127777874,0.2693092466327504,-0.8757239625632289
1.18,0.0879663590811778,0.093763301028727,1.612670262611102,0.0692190687280893,0.1211786973971542,0.0585942675266021,-0.1496606130774758,0.6965702826728947,-0.2502181542396167,0.0834599346829659,0.0857183748647234,1.6117172942790172,-0.2525854416550641,0.8465550797915342,-0.3080235805316856,0.6077942762150367,0.2793365060497182,-0.4503065470180867,-0.2976726596453621,9.939076883710186,-0.906680742817442,0.2645484943005828,-0.8804075777741539
1.2,0.0851753755388762,0.1069074046026685,1.6078597028276658,0.0714577408881511,0.1195865140177089,0.0586291347948459,-0.1444760699186877,0.6876997861155923,-0.255847551685963,0.0804833284273041,0.1285918151623717,1.600159354899121,-0.1703364492084525,0.676134094466818,-0.2771301859348634,0.5857800622831493,0.2592271579394054,-0.443524827865116,-0.2814698723173192,9.94289058232971,-0.9052433668669886,0.2602920132265738,-0.8846818793121176
1.22,0.0823304100386986,0.120730931633397,1.602745617357729,0.0785404873760472,0.117609583388445,0.0589444243416391,-0.1402015609322263,0.692205483325699,-0.2551798754299344,0.0804833284273041,0.1285918151623717,1.600159354899121,-0.1703364492084525,0.676134094466818,-0.2771301859348634,0.312324054498556,0.2137254493230725,0.2252848605053314,0.0333838128014324,9.95026693343425,-0.9087862456113878,0.2559271670992053,-0.8813995175512469
1.24,0.0795730787821172,0.1345078099977711,1.5976296745813636,0.0904483202106179,0.1155562049219784,0.0595336808605144,-0.1357658873365012,0.6844483398343684,-0.2566425964345166,0.0804833284273041,0.1285918151623717,1.600159354899121,-0.1703364492084525,0.676134094466818,-0.2771301859348634,0.4527362039039708,0.2217836797862526,-0.3878571745665304,-0.0731360502291084,10.289103554842768,-0.907920919501668,0.245801796880257,-0.8854500409360118
1.26,0.0769033687669286,0.148045641786016,1.5924527421465235,0.1024972625946642,0.1133602135344135,0.0600521194018776,-0.1314929546662862,0.669699505771221,-0.2609869934302755,0.0787799639352195,0.1353531561070399,1.5973880530397724,-0.1744716164346479,0.6720468568256027,-0.2825125922739127,0.79790326024401,0.2136466335107528,-0.737441703157371,-0.2172198497879474,10.161212781014,-0.9064068226448484,0.2333281120327721,-0.891847840177536
1.28,0.0744440838042563,0.1605921057764374,1.5874348542197638,0.1124832869093512,0.1110888606455833,0.0603607534469088,-0.1276700100583615,0.6520117289082747,-0.26697645544938,0.0753732349510505,0.1488758379963762,1.5918454493210752,-0.1827419508870385,0.6638723815431721,-0.2932774049520114,0.9530818578523702,0.1911472303962352,-0.8843888431473101,-0.299473100955222,10.04395628945258,-0.9046917319961494,0.220712445647496,-0.8992881197229448
1.3,0.0719303219821373,0.1734143260754236,1.5820178247253711,0.1210496456390105,0.1084467259200003,0.0604590681169726,-0.1239899106893595,0.6313596568141862,-0.2744359708571317,0.0719665059668814,0.1623985198857126,1.586302845602378,-0.1910122853394292,0.6556979062607414,-0.3040422176301101,1.1132111022439175,0.1840049684500987,-1.0326036047044296,-0.3729757703875874,9.968463454397352,-0.9030238921580556,0.2087406787558728,-0.9070551640911008
1.32,0.0694859529161724,0.1858056794860196,1.5764442187882453,0.1275834302282761,0.1055068716909916,0.0603209426352157,-0.1207250957554159,0.60909525630487,-0.2825399076198163,0.0681462602600928,0.1755124780109274,1.580222001249776,-0.1992826197918199,0.6475234309783108,-0.3148070303082088,1.1958640575392834,0.1632407466971776,-1.1132200254658051,-0.4051968381342308,9.9165900675589,-0.9015250558807107,0.1976576436919765,-0.9148882952779036
1.34,0.0671019383419101,0.1977384462307028,1.5707084990272455,0.1321360094916926,0.102258227020175,0.0599537686974567,-0.1179623713021012,0.5857556726446911,-0.2905804011021972,0.0643260145533043,0.1886264361361423,1.5741411568971737,-0.2075529542442105,0.6393489556958801,-0.3255718429863074,1.2419927005377749,0.1381362226657363,-1.1669791830089482,-0.4020246741190447,9.9165900675589,-0.9005243203676868,0.1880316332857082,-0.922162567493218
1.36,0.0648811938796634,0.2086349549974411,1.5651140647622053,0.134822026927367,0.0989582372842436,0.059422265687185,-0.1160524727781282,0.56284302413871,-0.2978592509196431,0.0602990104852059,0.2015360323792963,1.5677911922276189,-0.2158232886966012,0.6311744804134495,-0.3363366556644061,1.2058387419089691,0.0954949261986484,-1.1456324252990535,-0.3639424908722932,9.939317134135308,-0.8998916694195803,0.1790745013555648,-0.9293572096467
1.38,0.062573459439315,0.2196312969103518,1.559079400312403,0.1360826362521152,0.0954250013574837,0.0587118195016128,-0.1149410575115449,0.5381827068274215,-0.3051886691144939,0.0560652480557978,0.2142412667403896,1.5611721072411118,-0.2240936231489919,0.6230000051310188,-0.3471014683425047,1.2875236549897235,0.0555707633291685,-1.233015865564424,-0.3664709097425389,9.97524700451413,-0.8996253529955565,0.1713038955980022,-0.9361659976486992
1.4,0.0602777336562426,0.2301207083236524,1.5529024624955907,0.1353801056057288,0.0920614685557503,0.0578630962239115,-0.1148044412888291,0.5123388324724989,-0.3121058750683024,0.0568264065637378,0.2465404322517229,1.5438199668566783,-0.1394177142017848,0.4604641658013061,-0.3011045053034361,1.3376960079486866,0.0068308111357898,-1.2921937177461318,-0.3458602976904257,10.007226179604004,-0.899370360774781,0.1651362336964451,-0.9427856282781144
1.42,0.0580811332836431,0.2397693565252794,1.5470090517737738,0.1382378740536645,0.0894184740975091,0.0573590124418541,-0.1163677291345792,0.5019153829076456,-0.3082814428176147,0.0568264065637378,0.2465404322517229,1.5438199668566783,-0.1394177142017848,0.4604641658013061,-0.3011045053034361,0.5606211995630621,-0.0781643922875066,-0.5211724782426652,0.191221612534384,10.047275128637011,-0.9063628308574578,0.1614778264030462,-0.9381376400686268
1.44,0.0557344797802876,0.2495912656899798,1.5408719149489871,0.145765610059085,0.0876717036229942,0.0572451050904542,-0.1182181436680438,0.480117411594793,-0.3057918322691135,0.0568264065637378,0.2465404322517229,1.5438199668566783,-0.1394177142017848,0.4604641658013061,-0.3011045053034361,1.1008789079467487,-0.0925207266732314,-1.08989856564263,0.1244805274250582,10.575476303192772,-0.906047846015296,0.1503922062876707,-0.943743744898918
1.46,0.0533556184220146,0.2589052866785675,1.5347716605521469,0.1536571130955399,0.0869344872516431,0.0572571572264526,-0.1194876245828553,0.4523370404102714,-0.3043820768551916,0.0554322294217199,0.251145073909736,1.5408089218036445,-0.1443130455398328,0.444920457596083,-0.3002876725412245,1.3922535825685187,-0.0634740457405733,-1.3890185592260795,0.0704877706960954,10.535572674729336,-0.9053820292254168,0.1379145811207653,-0.9507437866670474
1.48,0.0509608868207311,0.2676248209323461,1.52869524748044,0.1602494744499044,0.0867469199174702,0.0572225307675909,-0.1199146805115123,0.4213557497577704,-0.3032924418899618,0.0526438751376842,0.2603543572257621,1.5347868316975757,-0.1541037082159287,0.4138330411856368,-0.2986540070168014,1.5501693872109543,-0.0213527964328483,-1.5490645326250467,0.0544817482614923,10.528919402448992,-0.9043893413372652,0.1268935262106318,-0.957607850108994
1.5,0.0486848902961529,0.2753163277126229,1.522944409465504,0.1648800129853601,0.0867154827639551,0.0570659883684572,-0.1196752011937885,0.3902459098206522,-0.302060808344373,0.0498555208536485,0.2695636405417883,1.5287647415915069,-0.1638943708920247,0.3827456247751907,-0.2970203414923782,1.556756574136874,0.0119739658861868,-1.555491996855909,0.0615816772794375,10.585385199878148,-0.903282213485186,0.1167023776031666,-0.964604051812968
1.52,0.0462988544092452,0.282767898093749,1.516921399926164,0.1681004971746407,0.086562425919841,0.0567336285405557,-0.1189735425798848,0.3568325564102773,-0.3002370009953909,0.046577633435808,0.2772185530372921,1.522824334761659,-0.1736850335681207,0.3516582083647445,-0.2953866759679551,1.6735223214699593,0.035082930695187,-1.6706676705187469,0.0911903674491065,10.585385199878148,-0.9023335682617356,0.108003173365516,-0.9711601529191846
1.54,0.0439303898684151,0.2895408058343521,1.510943829630049,0.1696534817096378,0.086103069783601,0.0562023435387973,-0.1179645733127109,0.3223728323142224,-0.2975307296708711,0.0432997460179675,0.2848734655327959,1.5168839279318114,-0.1834756962442166,0.3205707919542983,-0.293753010443532,1.7290275505614758,0.0504484633586953,-1.7229862048027456,0.1353135662259891,10.632789115002195,-0.9019725747702216,0.100775345851514,-0.976979444832662
1.56,0.0415827554364431,0.2956028496192182,1.50502926537997,0.1689044657202467,0.0852806756467353,0.0554215673471751,-0.1169523161255328,0.2860319170953279,-0.2939940943290213,0.0397770920332247,0.2917511926180385,1.5109843627400743,-0.1932663589203126,0.2894833755438522,-0.2921193449191089,1.8263314137233493,0.0506128593589019,-1.8170457609447244,0.176831767092489,10.704126013676614,-0.9022895863228804,0.0958028126629047,-0.9817423707990632
1.58,0.0393697546724389,0.3006801531841521,1.4994848604896065,0.1653921749658441,0.0842001176052375,0.0544162017676912,-0.1161478555749047,0.2511074684531707,-0.2896577771987047,0.0360096714815794,0.29785173429302,1.505125639186448,-0.2030570215964086,0.2583959591334061,-0.2904856793946858,1.7600908470806778,0.040223027531408,-1.7462224321078603,0.2168158565158312,10.775423243411751,-0.9037428368454916,0.0942572027443049,-0.984525333291797
1.6,0.0370524641067629,0.3053434640354863,1.4937537130179417,0.1596015956000734,0.0827467681810671,0.0531529895779039,-0.1157077770754528,0.2176334727964235,-0.283541457618967,0.0335623618936937,0.3132355266068107,1.4850019716296712,-0.1370172205368865,0.1511074669630546,-0.2759407116334166,1.7015518060840027,0.0220039249725939,-1.6736997828373594,0.3058159789868869,10.841129851701226,-0.9065353166547964,0.0964885859749342,-0.9841783006088988
1.62,0.0347115195857477,0.3094389033577021,1.4881329371623613,0.1550902049695202,0.0816216112959293,0.052031075581246,-0.1184042644864274,0.1928034451438474,-0.2791464615633497,0.0335623618936937,0.3132355266068107,1.4850019716296712,-0.1370172205368865,0.1511074669630546,-0.2759407116334166,1.2679878823495585,-0.1348243705487299,-1.2415013826288026,0.2197498027808608,10.900238653946872,-0.9070455538878596,0.0991947479160403,-0.9840009621018196
1.64,0.0324407860408733,0.3128477787548331,1.4828743994235372,0.1527495529163611,0.0813444212465744,0.0512174683944107,-0.1204166451753132,0.1670457395592563,-0.2746221561040921,0.0335623618936937,0.3132355266068107,1.4850019716296712,-0.1370172205368865,0.1511074669630546,-0.2759407116334166,1.31146712969497,-0.1006190344442908,-1.287885279229556,0.2262152729628819,10.704565719130189,-0.9092905471049116,0.0986946614924483,-0.984235713308289
1.66,0.0300165925772836,0.3158918406067298,1.477442300646962,0.1509206786451902,0.0814497578298182,0.0504539107164918,-0.1218641085465612,0.1387205001971015,-0.2687683714984605,0.0321921896883248,0.3147466012764412,1.482242564513337,-0.1411910935292828,0.1311074666650314,-0.273197298520359,1.4479995937012538,-0.0723731685623972,-1.4162619681077404,0.2926892302815814,10.768198468882474,-0.9111348969343952,0.0977657329892426,-0.9847010386472016
1.68,0.0275692021423967,0.3183630781713522,1.472138831003719,0.1491482350972153,0.0816618356502771,0.0496971870690217,-0.122798424851855,0.1099196662719189,-0.2618117305890682,0.0294518452775871,0.3177687506157023,1.4767237502806687,-0.1495388395140755,0.0911074660689849,-0.2677104722942438,1.4821908062784277,-0.0467158152646904,-1.4400416962591305,0.3478320454696149,10.845683166634444,-0.91282318908574,0.0969764841105197,-0.9850979533504646
1.7,0.0251069205262986,0.3202578220667221,1.4669848082357595,0.1471793320838552,0.0817718600835531,0.0488991720077527,-0.123401933237673,0.0811324218996127,-0.253881058512726,0.0267115008668494,0.3207908999549634,1.4712049360480004,-0.1578865854988682,0.0511074654729384,-0.2622236460681286,1.4932893394325006,-0.0301754192909016,-1.43936221861531,0.3965336038171091,10.96821164191806,-0.9145179623490252,0.0965680255093192,-0.9851770521130996
1.72,0.0227585405599285,0.3215266668335871,1.4622440888428168,0.1450582675081299,0.081656077342278,0.0480813081401142,-0.1238184294044295,0.0540384093636212,-0.2455179776282613,0.023553769156872,0.3218130492644221,1.465960463126638,-0.1662343314836609,0.011107464876892,-0.2567368198420133,1.4179211069709472,-0.0208248083378222,-1.3547006267995754,0.4181540442232345,11.01369585143584,-0.9165188807893916,0.0966545035707098,-0.9847225100585612
1.74,0.0202774223305896,0.3223128735728061,1.4574314034677485,0.142646818703586,0.0812490038039534,0.0471583947100376,-0.1243218743017989,0.0261269040439628,-0.2361526674009702,0.0203960374468946,0.3228351985738809,1.460715990205275,-0.1745820774684537,-0.0288925357191544,-0.2512499936158981,1.4722556007937344,-0.0251722448684717,-1.395575265982918,0.4682655113645559,11.01369585143584,-0.9188087706268464,0.0973031609757713,-0.9835442066036084
1.76,0.0177833172092811,0.3225368985615037,1.452809126490035,0.1398142214932329,0.080588289731542,0.046164036182601,-0.1251320513320039,-0.0019782506073351,-0.2264909044840115,0.0170296120872975,0.3228573478684385,1.4556086879395655,-0.1829298234532464,-0.0688925363152008,-0.2457631673897829,1.4865276380353365,-0.0405088515102521,-1.4052577325648992,0.4830881458479347,11.041058609484026,-0.9211076844988196,0.0982304108908936,-0.9822923504261126
1.78,0.0153951139921801,0.3222335140526744,1.4486001220727192,0.13655836975067,0.0798258820891555,0.0451588214202833,-0.1262696176485935,-0.0282137212433111,-0.2169934231259138,0.0134544930780805,0.321879497148095,1.4506385563295088,-0.1912775694380391,-0.1088925369112472,-0.2402763411636677,1.3962414984192482,-0.0568783158294769,-1.3117735317988002,0.4748740679048832,11.072247524008162,-0.9238402962283676,0.0998559988694809,-0.980496920012283
1.8,0.0128535820188368,0.3213870171838699,1.44436855496558,0.1326359715755684,0.0789692612783862,0.0440597169975269,-0.1278719658272673,-0.0547933608217095,-0.2066126235343482,0.0090816331097504,0.3208228279905089,1.4377504509164234,-0.1456520031856218,-0.1282137227334272,-0.1905975061871321,1.4289906927299385,-0.08011740893369,-1.3289819789199238,0.5190399795782826,11.072247524008162,-0.9269251273670948,0.102045728753101,-0.9782194060228744
1.82,0.0102657414276569,0.320015050688842,1.4403254640305738,0.1281040559682856,0.0784068980937366,0.0429603527727849,-0.1308427546470526,-0.0806812162707104,-0.1982661984892792,0.0090816331097504,0.3208228279905089,1.4377504509164234,-0.1456520031856218,-0.1282137227334272,-0.1905975061871321,1.3680912405547745,-0.1485394409892676,-1.2943927724500437,0.4173212522534483,11.085023256763634,-0.9284142729933904,0.1045710677892499,-0.9774876337223076
1.84,0.0076193830927408,0.3181537616060444,1.4364581072648916,0.1234340564056649,0.0783148014254355,0.0419163221262003,-0.1336179637156745,-0.104093698350751,-0.1888583482681764,0.0090816331097504,0.3208228279905089,1.4377504509164234,-0.1456520031856218,-0.1282137227334272,-0.1905975061871321,1.2692061971026285,-0.1387604534310915,-1.170624104002029,0.4703925110551399,10.946600279241466,-0.932325226398336,0.1081667789151378,-0.973469583076734
1.86,0.0050561061226762,0.3159639586363552,1.4329682368276453,0.1193434376545711,0.0784396893823129,0.040978610303979,-0.1360539051991545,-0.1252250201276607,-0.1789598479075825,0.0076251130778942,0.3195406907631746,1.435844475854552,-0.1495284802930274,-0.1482137230314504,-0.1853183227993757,1.173080219272018,-0.1217970741740015,-1.0565660888454842,0.494925018029696,11.00153276859328,-0.9361671075875094,0.1119726851646364,-0.9690916074032636
1.88,0.0023097214537398,0.313235665995944,1.4295059330673183,0.1155176118448422,0.0786508417253449,0.040038295748403,-0.1384523668812475,-0.1464899812315135,-0.1677573153969521,0.0047120730141818,0.3169764163085061,1.4320325257308093,-0.1572814345078388,-0.1882137236274969,-0.174759956023863,1.207733335468319,-0.1199230841046491,-1.063248055192642,0.5601266255315179,11.047092558830627,-0.9399696454908952,0.1154919509757913,-0.9645780430580668
1.9,-0.0004837098201824,0.3100891877677845,1.42627313759008,0.1121864226320737,0.0788469659228762,0.0391348091660899,-0.1407767940077236,-0.1670891505088901,-0.1560619130221824,0.0017990329504693,0.3144121418538375,1.4282205756070667,-0.1650343887226501,-0.2282137242235433,-0.1642015892483503,1.1900747593030467,-0.1162213563238076,-1.0299584638688268,0.5847701187384882,11.100381802654738,-0.9435606825901772,0.1184727513971203,-0.9602572671986752
1.92,-0.0031803629377708,0.3067244452740487,1.4234221655259789,0.109434980500217,0.0789710521398062,0.0383026133528685,-0.1429797151525593,-0.18608801240358,-0.1446210141765146,-0.0015016548239836,0.3098478673693666,1.4249365438220998,-0.1727873429374614,-0.2682137248195897,-0.1536432224728376,1.1143426103096217,-0.110146057241782,-0.949943094734494,0.5720449422833868,11.110651804291592,-0.9473952793656508,0.1213001241034981,-0.955576429466208
1.94,-0.0060647060970235,0.3027988518888539,1.4206584297302824,0.1069533444328405,0.0790137606293044,0.0374509913004279,-0.1453548415560459,-0.2054906041613133,-0.1323432994853134,-0.0048023425984366,0.3052835928848957,1.4216525120371326,-0.1805402971522728,-0.3082137254156363,-0.143084855697325,1.154170774179822,-0.1187563201743319,-0.9701295878866673,0.6138857345600615,11.110651804291592,-0.951335493058704,0.1238219676764305,-0.9507219394981766
1.96,-0.0089988020525931,0.298481776419102,1.4181400595607327,0.1046137930384041,0.0790067046398937,0.036609722758857,-0.1479538216388255,-0.2251236665028553,-0.1200874555358808,-0.0082968542282599,0.2997193183855237,1.4186324394215537,-0.1882932513670841,-0.3482137260116827,-0.1325264889218123,1.1644929640088,-0.129949004138978,-0.9816531170770983,0.6127921974716267,11.10946379125835,-0.9551940590071584,0.1261463791680016,-0.946000600418466
1.98,-0.0119873588471874,0.2937740587396962,1.4158669083879143,0.1021011917706677,0.0790389047108144,0.0357674186557064,-0.1507755466130563,-0.2444643701292246,-0.1078054382570871,-0.0119851897134534,0.2931550438712506,1.415876325975362,-0.1960462055818954,-0.3882137266077291,-0.1219681221462996,1.1542019938358297,-0.1410862487115402,-0.9670351813184666,0.6141008639396872,11.10946379125835,-0.9588870803036524,0.1286150282310269,-0.941308747114379
2.0,-0.0148805490594672,0.2889489811457276,1.4139352267965533,0.0995096724035667,0.0791598308047659,0.0349697555870032,-0.1536246491360888,-0.2622904329365851,-0.0961129285900768,-0.0195261361778403,0.2815508402332349,1.41047663647506,-0.1540899411168881,-0.3444643716193407,-0.077746558851827,1.0754076932864132,-0.1424551261516249,-0.8913031403680257,0.5846254833505156,11.104033627709214,-0.9627152160341056,0.1315292665702171,-0.9362226713898534
2.02,-0.0180147645685637,0.2834989794589901,1.412102974314574,0.0961023641593525,0.0802766603939455,0.0341884573801149,-0.1595320365161795,-0.2813154068494717,-0.0878707455762852,-0.0195261361778403,0.2815508402332349,1.41047663647506,-0.1540899411168881,-0.3444643716193407,-0.077746558851827,1.0779383550061037,-0.2953693690045375,-0.95124869564433,0.4121091506895796,11.09604364342249,-0.9626640427554292,0.1342221149285692,-0.9355768904868031
2.04,-0.0212569035236146,0.2777030144270091,1.4104375006219494,0.0925059991635914,0.0829232410520291,0.0335459953044459,-0.1641671914299774,-0.2973324493792006,-0.0790264359986156,-0.0195261361778403,0.2815508402332349,1.41047663647506,-0.1540899411168881,-0.3444643716193407,-0.077746558851827,0.9437321182143084,-0.231757745689895,-0.8008521264864427,0.4422154788834807,10.879598359389092,-0.9641788113187568,0.1373267581612149,-0.9332788675005816
2.06,-0.0244074170799754,0.2719132115312816,1.4090270526363289,0.0896331645499415,0.0862033423690415,0.0330460750001156,-0.1670861469376003,-0.3114319343751435,-0.069896179372158,-0.0210670355890091,0.2781061965170415,1.4096991708865418,-0.1547528200176545,-0.3644643719173639,-0.071734782970775,0.8524631435893177,-0.1459477753811444,-0.704974249797144,0.4565128313228784,10.879598359389092,-0.964600308804125,0.1402402186893661,-0.9319418618922756
2.08,-0.0277676741061405,0.265536787140068,1.407735557164827,0.0872949884483267,0.0899372904552789,0.0325944009384968,-0.1686518047306304,-0.3255732962041971,-0.0597228931776112,-0.0241488344113469,0.2712169090846547,1.4081442397095052,-0.1560785778191873,-0.4044643725134104,-0.059711231208671,0.8745358064442635,-0.0782828896515028,-0.7070680914526811,0.5086643097273407,10.908886919341969,-0.9645080726216718,0.1426407852932485,-0.9310997791645578
2.1,-0.0311445088877141,0.2588818395196478,1.4066513166112913,0.0856588313902265,0.0935480160117926,0.032184195034239,-0.1688623523818516,-0.339286936042061,-0.0492077241172999,-0.0272306332336847,0.2643276216522679,1.4065893085324688,-0.15740433562072,-0.4444643731094568,-0.0476876794465669,0.8641137487087721,-0.0105273825610624,-0.6856819918931945,0.5257584530155661,10.935650863269077,-0.9642667435711773,0.1445141032542073,-0.9303954270692186
2.12,-0.0345130883843664,0.2519580519947439,1.4057805074670882,0.084783445873948,0.0967278787812837,0.03179570488737,-0.1679575246065569,-0.3525018584865054,-0.0384103937046253,-0.0303787199460991,0.2554383341900788,1.4056355549435375,-0.1587300934222527,-0.4844643737055032,-0.0356641276844629,0.8544519187117738,0.0452413887647343,-0.6607461222222222,0.5398665206337268,10.96266415455284,-0.9641926763717515,0.1457535116116906,-0.9295697824533408
2.14,-0.0376885351194972,0.2451390687064432,1.4051540666270994,0.084768783366179,0.0991897822257443,0.0314432297768869,-0.1663505028577215,-0.3647185818921645,-0.0280793475198087,-0.0335268066585135,0.2465490467278896,1.404681801354606,-0.1600558512237855,-0.5244643743015498,-0.0236405759223588,0.8039921718282215,0.0803510874417698,-0.6108361702829551,0.516552309240834,10.96266415455284,-0.96438892937746,0.1463481736360431,-0.92848538364054
2.16,-0.0409930786683925,0.2377024256853921,1.4047075157669793,0.0854467969165319,0.1011444526650436,0.0310749593134132,-0.1641902569524406,-0.3783180926597275,-0.0171114204183948,-0.0367080373159662,0.2366597592507993,1.4040286365597274,-0.1613816090253182,-0.5644643748975962,-0.0116170241602548,0.8802113104111339,0.1080122952640483,-0.6799755383781497,0.5483963550706942,10.964270512848998,-0.9649902558380182,0.1462099036428195,-0.9272046374610752
2.18,-0.0442507727268606,0.2299829915955989,1.404481179344073,0.0863682975587643,0.1024649481255746,0.0306779526074974,-0.1617293534898994,-0.3928756285619013,-0.0060617241900517,-0.0399224119184572,0.2257704717588079,1.4036760605589012,-0.162707366826851,-0.6044643754936426,0.0004065276018491,0.922054342397567,0.1230451731270593,-0.7278767951086867,0.5524848114171542,10.973384372220607,-0.9661042202474702,0.1457800882899277,-0.9255264981695636
2.2,-0.0474581858554979,0.2219622285943854,1.4044770020495292,0.0870699078464567,0.1032259424826018,0.0302253319898947,-0.1591837331542969,-0.4083568195244216,0.0051068732129757,-0.0523372404013555,0.2103392101675039,1.4041780931345704,-0.1493568774411318,-0.4857880342911951,0.0411011811453745,0.962918771836398,0.1272810167801216,-0.774059548126016,0.5584298701513769,10.980974241786498,-0.9676772021703772,0.1455155838075801,-0.9234180660015388
2.22,-0.0504725780842666,0.2139733204916155,1.4046379462779788,0.0846426434896567,0.1039232135843154,0.029585819996608,-0.1581970288503814,-0.430447009079664,0.0114056340617168,-0.0523372404013555,0.2103392101675039,1.4041780931345704,-0.1493568774411318,-0.4857880342911951,0.0411011811453745,1.1495917190458729,0.0493352151957796,-1.1045094777621194,0.3149380424370505,10.990969909972591,-0.967211137844344,0.1468068459586055,-0.9238773637717332
2.24,-0.0536221435936148,0.2051904323637049,1.4049582977320918,0.0789196508562678,0.1049556889281671,0.0287299994991871,-0.1567676734594043,-0.4461295440886926,0.0203609662593841,-0.0523372404013555,0.2103392101675039,1.4041780931345704,-0.1493568774411318,-0.4857880342911951,0.0411011811453745,0.9057910022650112,0.0714677695488538,-0.7841267504514332,0.4477666098833647,10.758302411623845,-0.96892019825982,0.1513475027069029,-0.921287276661429
2.26,-0.0565839318572848,0.1966028485027099,1.4054425465803315,0.0733792795635507,0.1060571095532042,0.0279327721019383,-0.1550344509827303,-0.45709780307129,0.0301557852520734,-0.0538308091757669,0.2054813298245919,1.4045891049460242,-0.1468823822313783,-0.5043705154370539,0.0505337622124598,0.7403466153811403,0.0866611238336992,-0.54841294912987,0.4897409496344665,10.86399033889029,-0.970106978625886,0.1565715967835547,-0.91868273813995
2.28,-0.0596620368464223,0.1873621487111614,1.4061626067800863,0.0684528346392812,0.1072399219001175,0.02717280143775,-0.152827781734206,-0.4665334597980882,0.0413567695275737,-0.0568179467245895,0.195765569138768,1.4054111285689317,-0.1419333918118713,-0.5415354777287714,0.0693989243466303,0.7405455012663962,0.1103334624262125,-0.4717828363399068,0.5600492137750166,10.91894993954429,-0.9713436446668358,0.1612631001813108,-0.9158479787649756
2.3000000000000003,-0.0626921491749485,0.1779451411451972,1.407112948974185,0.0647394281051872,0.1083686788836624,0.0265086493655849,-0.1502636028866245,-0.4748860472965877,0.0531234870321245,-0.0598050842734121,0.1860498084529441,1.4062331521918392,-0.1369844013923642,-0.5787004400204889,0.0882640864808009,0.7327966496825313,0.1282089423790766,-0.4176293749249743,0.5883358752275407,10.962999761087303,-0.9725891785109944,0.1649511708189108,-0.9130163296982516
2.32,-0.0656674640985359,0.1683681243271115,1.4083041814824322,0.0622335488418272,0.1093807934753209,0.0259363378193479,-0.1473798823133993,-0.4826955658955953,0.0653946505207095,-0.0625447723012594,0.1744757996525344,1.4079984339214553,-0.1320354109728572,-0.6158654023122064,0.1071292486149714,0.7414274719355033,0.1441860286612611,-0.3904759299503818,0.6135581744292469,10.98910540558336,-0.9740110268848896,0.167953433202697,-0.9099615940191872
2.34,-0.0684382309215083,0.1591283888405951,1.409666138132205,0.0608523545177865,0.1101993122466568,0.0254675460442136,-0.1444186038851687,-0.4897027815800874,0.0773481024255479,-0.0652844603291067,0.1629017908521246,1.4097637156510714,-0.1270864205533502,-0.653030364603924,0.125994410749142,0.708440636221169,0.1480639214115287,-0.350360784224607,0.5976725952419215,11.013598477733469,-0.9754667496990675,0.1701580940958173,-0.9068989675145286
2.36,-0.0712918978917531,0.14925423825122,1.4113488276912414,0.0602753519185473,0.1108902962980428,0.0250394309162679,-0.1410998617856403,-0.4973782871249791,0.0903129137501926,-0.0679004235964663,0.1503986579944219,1.4120006264340417,-0.1221374301338432,-0.6901953268956416,0.1448595728833125,0.7713847405420996,0.1659371049764185,-0.3837752772445829,0.6482405662322367,11.027640496558888,-0.9770270857412328,0.1716170413190609,-0.903857312906184
2.38,-0.0740773667106217,0.1392235867764433,1.4132947697956602,0.0603695382010931,0.1113907145051476,0.0246611329050058,-0.1376257038384492,-0.5053211428233572,0.1036380157067343,-0.0703926621033382,0.1369664010794262,1.414709166270366,-0.1171884397143361,-0.7273602891873591,0.163724735017483,0.7948538737395674,0.1737078973595582,-0.3971427849189024,0.6662550978270828,11.050082463285436,-0.9787006321822572,0.1725453937324054,-0.9008106661823037
2.4,-0.0766583437007081,0.1295432914723954,1.415393599280194,0.0608908283669477,0.1116912447994098,0.0243342027640673,-0.1342455651425631,-0.513252483746124,0.1166324928795008,-0.0809586519025441,0.1139575296352754,1.4184766705809968,-0.1192895269661958,-0.5634697355338522,0.1561119854642912,0.7797242195644117,0.1690069347943038,-0.3965670461383408,0.6497238586383264,11.067517922746449,-0.980660814252774,0.173184309277102,-0.8974391518679606
2.42,-0.079313392411402,0.1190518152816609,1.4177750155661413,0.0572122357604493,0.1118584268773412,0.0237020925008251,-0.1315697027047146,-0.5342618570816621,0.1199388600396479,-0.0809586519025441,0.1139575296352754,1.4184766705809968,-0.1192895269661958,-0.5634697355338522,0.1561119854642912,1.0717813111078285,0.1337931218924226,-1.0504686667769048,0.1653183580073519,11.086260945770846,-0.9806153106252586,0.1764692745758281,-0.8961527229282467
2.44,-0.0819195206101157,0.1082487614301997,1.420218715556263,0.0484007197665958,0.1119315412208815,0.0227344792797896,-0.1291761135134372,-0.5442078615908432,0.124511825255441,-0.0809586519025441,0.1139575296352754,1.4184766705809968,-0.1192895269661958,-0.5634697355338522,0.1561119854642912,0.5602773549281329,0.1196794595638706,-0.4973002254590575,0.2286482607896579,10.424599126242356,-0.980890849366778,0.1830923884065635,-0.8947766499947964
2.46,-0.0844792281873093,0.0973239081100763,1.4227767953716648,0.0394144144670731,0.1120131230297339,0.0217877826428127,-0.1269034231804041,-0.5478416252785276,0.1310496454493721,-0.0821515471722061,0.1083228322799369,1.4200377904356398,-0.1156222915917451,-0.5750994540759512,0.1666067794158026,0.3908722706203699,0.1136345166516561,-0.181688184384221,0.3268910096965553,10.559364775344877,-0.9818283364083435,0.1901557664549871,-0.892013279118626
2.48,-0.0868695363527234,0.0869132580753882,1.4253397240222796,0.0321935785162862,0.11218138253219,0.0210132455606709,-0.124796427986635,-0.5481724770832841,0.1383872546776672,-0.08453733771153,0.0970534375692598,1.4231600301449256,-0.1082878208428437,-0.5983588911601492,0.1875963673188254,0.3820647878646965,0.1053497596884563,-0.0165425902378224,0.366880461414755,10.643699807968916,-0.983203937657731,0.1969332227210829,-0.8883678280939973
2.5,-0.0893417764566324,0.0759644035957825,1.4281984052083827,0.0263603046664483,0.1125001149404486,0.020353926481154,-0.1225086984423471,-0.5469694178273342,0.1471307540289929,-0.0869231282508539,0.0857840428585828,1.4262822698542117,-0.1009533500939423,-0.6216183282443472,0.2085859552218481,0.4558778316275279,0.1143864772143919,0.0601529627974939,0.4371749675662839,10.70525552096842,-0.984698419777894,0.2024548963724147,-0.884622214354077
2.52,-0.0917666818077693,0.0650492744526042,1.431241482504578,0.0222995350132203,0.1129713608758152,0.0198481596981046,-0.1200617647928408,-0.5449022422721934,0.1567674751315421,-0.0889421952527328,0.0733516762936958,1.4304539889586485,-0.093618879345041,-0.6448777653285451,0.2295755431248709,0.5077575520589898,0.1223466824753147,0.1033587777570399,0.4818360551274603,10.814632277640158,-0.9859240864108344,0.2064132153419302,-0.8814846407364927
2.54,-0.0940232934446687,0.0547229189639414,1.434315999296789,0.0199316822251278,0.1135410692611456,0.0194960835776157,-0.1175646959402203,-0.5425632765985914,0.1663753381274705,-0.0909612622546116,0.0609193097288089,1.4346257080630855,-0.0862844085961396,-0.6681372024127432,0.2505651310278937,0.5099439788485236,0.1248534426310281,0.1169482836801016,0.4803931497964167,10.814632277640158,-0.9871158081196364,0.2094480449380928,-0.8784230027636075
2.56,-0.0963443356970664,0.043896218315762,1.4377547131782449,0.0185882425644659,0.1142133316255274,0.0192283145977283,-0.11464309552561,-0.5403226112182186,0.1770168749738345,-0.0927969674877679,0.047905457236817,1.439322166865098,-0.0789499378472382,-0.6913966394969412,0.2715547189309165,0.5630245038672281,0.1460800207305157,0.1120332690186409,0.5320768423182006,10.836623757158122,-0.9883151174445116,0.2116162798182777,-0.8754880692013908
2.58,-0.0986037709914512,0.0331162351713893,1.4414119814527608,0.0183057646396626,0.1148842930926964,0.0190550764024107,-0.1114267199394854,-0.5378642747552628,0.1882022547203933,-0.0944493109522017,0.0343101188177202,1.4445433653646862,-0.0716154670983369,-0.7146560765811392,0.2925443068339392,0.5947714059847785,0.1608187793062279,0.1229168231477895,0.5592689873279405,10.896272964575472,-0.9895643033139676,0.2130628566223407,-0.8725692509601878
2.6,-0.1007959329627175,0.0223857925835295,1.4452989865995032,0.0191225951546856,0.1154854164476748,0.0189764360626021,-0.1079383494998874,-0.5353909147497585,0.1999663914820956,-0.1041751069884255,0.0062230214336261,1.4508220941887806,-0.0644293218014391,-0.5584492789955372,0.2249972189444934,0.6258617095427822,0.1744185219798986,0.1236680002752121,0.5882068380851174,10.896272964575472,-0.9908728128266578,0.2137306036160519,-0.8697629419938027
2.62,-0.1028628050897342,0.0121042174110207,1.449075557910007,0.0166675859079356,0.1171654210634834,0.0187150337516835,-0.1097513379415372,-0.5456232304912169,0.1962253790624847,-0.1041751069884255,0.0062230214336261,1.4508220941887806,-0.0644293218014391,-0.5584492789955372,0.2249972189444934,0.5522281830143564,-0.0906494220824866,-0.5116157870729166,-0.1870506209805486,9.953473814728568,-0.9856124582715148,0.2159349142686108,-0.8739692463897113
2.64,-0.1050660426572006,0.0011680776970913,1.4529633790715546,0.0095887460497892,0.1211185883790561,0.0181731589826993,-0.110132325273553,-0.546713718788713,0.1929641594611316,-0.1041751069884255,0.0062230214336261,1.4508220941887806,-0.0644293218014391,-0.5584492789955372,0.2249972189444934,0.172987494940977,-0.0190493666007929,-0.0545244148748069,-0.1630609800676516,10.08486761725544,-0.98249541150202,0.2209127955867247,-0.8768927526777751
