t,x,y,z,roll,pitch,yaw,v_x,v_y,v_z,ref_x,ref_y,ref_z,ref_v_x,ref_v_y,ref_v_z,a_com,a_x,a_y,a_z,thrust,wind_x,wind_y,wind_z
0.0,2.4908321814796635,-1.9475968935603087,2.5090324871748666,0.0246051803444872,0.0995198119744376,0.0417997483966938,-0.0005387797972722,0.0077653129794425,0.0002696651614123,2.490821983471812,-1.9474411614751737,2.5090383848505824,-0.1003935987025581,0.1058847787388006,-0.0467921105966502,0.3894325636035313,-0.0269389898636129,0.3882656489721281,0.0134832580706168,10.255503649038474,-0.9413723099175292,0.2585583636450899,-0.8760302016862386
0.02,2.491006197002793,-1.947741535336556,2.508983072084144,0.0171147299123894,0.0938628117429097,0.0411727446230969,0.0171541506784702,-0.0168259561757284,-0.0051992320684467,2.490821983471812,-1.9474411614751737,2.5090383848505824,-0.1003935987025581,0.1058847787388006,-0.0467921105966502,1.5392198871443643,0.8846465237871246,-1.2295634577585512,-0.2734448614929555,10.254682360843615,-0.9496328051690204,0.2571725810992401,-0.8757164362327687
0.04,2.4914702110282825,-1.9481033558146712,2.508787809685002,0.000827626846109,0.0779128745439292,0.0399622072835335,0.0268699111881792,-0.0171577921698491,-0.0141423615581555,2.490821983471812,-1.9474411614751737,2.5090383848505824,-0.1003935987025581,0.1058847787388006,-0.0467921105966502,0.6604651438166758,0.4857880254854483,-0.0165917997060326,-0.4471564744854384,10.016295399325829,-0.9580747570464634,0.2742680950285674,-0.855998326807768
0.06,2.492007294601712,-1.948374345419967,2.508405622711366,-0.0161578282342474,0.0560138544497807,0.0390841774117364,0.0252613496679589,-0.009540448938695,-0.0235698510143218,2.4898180474847864,-1.9463823136877856,2.508570463744616,-0.1203935990005813,0.1258847790368238,-0.0561936719164782,0.6113283600318008,-0.0804280760110106,0.3808671615577024,-0.4713744728083153,9.685470699622783,-0.9714928043605208,0.2886302500221506,-0.8334768595831671
0.08,2.4923847583492607,-1.9484529905900745,2.507868991058286,-0.0317037998815343,0.0334426570887327,0.0387420444172675,0.0139489211107705,0.0011847258166199,-0.0324546755562141,2.487810175510735,-1.9442646181130097,2.507634621532683,-0.1603935995966277,0.1658847796328702,-0.0749967945561343,0.8971350518926228,-0.5656214278594215,0.5362587377657531,-0.4442412270946152,9.63288341945008,-0.9890265770432476,0.3018066271802648,-0.8068053729066268
0.1,2.492459461238821,-1.948285063597724,2.5071219418326973,-0.0472921944403696,0.0106725553014862,0.0388408444993075,-0.0064290929587318,0.0153805984275823,-0.0418091127770997,2.485802303536684,-1.942146922538234,2.50669877932075,-0.2003936001926742,0.2058847802289167,-0.0937999171957904,1.326924783402397,-1.0189007034751207,0.7097936305481188,-0.467721861044278,9.63864968148755,-1.0075781725675317,0.313070083870306,-0.7794911773533862
0.12,2.492048559573183,-1.9478039826185096,2.5061879916368413,-0.0621110511739432,-0.0090947555127238,0.0392459762021512,-0.0339214129059142,0.032340533935903,-0.051138733754014,2.48179443153283,-1.938029226933656,2.5048227809768338,-0.2403936007887206,0.2458847808249631,-0.1126030398354464,1.681152057442692,-1.3746159973591188,0.8479967754160341,-0.4664810488457175,9.669644491654251,-1.0246645834047667,0.3225821801446518,-0.7545531253391345
0.14,2.491026731124397,-1.9469308175074185,2.5050656580811355,-0.0754084856029671,-0.024522023355572,0.0397998201357262,-0.066725866428491,0.0538830774727162,-0.0606239497610108,2.477786559528977,-1.9339115313290771,2.502946782632918,-0.2803936013847671,0.2858847814210096,-0.1314061624751025,2.018776037386133,-1.640222676128842,1.077127176840659,-0.4742608003498395,9.71867611122434,-1.0385193105561863,0.3300458604697493,-0.7342033828441327
0.16,2.48940810710299,-1.9456649673232285,2.503821589092577,-0.0857531949311251,-0.0344818986491336,0.0403238474491317,-0.1018320405769113,0.0777187275313849,-0.0698236692981085,2.4727786875102225,-1.928793835709598,2.5006007062230107,-0.3203936019808135,0.325884782017056,-0.1502092851147586,2.1709540049364144,-1.7553087074210154,1.1917825029334337,-0.459985976854883,9.763048786176114,-1.048933876464767,0.3356956809303802,-0.7196401995837904
0.18,2.48695475883942,-1.9438293708476948,2.502322083221351,-0.0940713357850306,-0.0392564100193494,0.0406666634508363,-0.1414665876164863,0.1042009363645557,-0.07958221249923,2.466770815476566,-1.9226761400752173,2.497784551747112,-0.36039360257686,0.3658847826131025,-0.1690124077544146,2.43281414678768,-1.9817273519787464,1.3241104416585436,-0.4879271600560744,9.815307228579968,-1.0554458595876663,0.3386788998519675,-0.7130646745626893
0.2,2.48370898431674,-1.941448893405681,2.500631688530024,-0.0998263162880841,-0.0381051971462833,0.0406624231035695,-0.1803684867445938,0.1319003615700189,-0.0888195314051396,2.479881429458595,-1.938619324029467,2.4983429725963897,-0.2414665891066024,0.2042009378546719,-0.1267735119973112,2.4320485054044307,-1.9450949564053743,1.3849712602731552,-0.4618659452954816,9.852845304219043,-1.0585905155980848,0.3394378086226323,-0.7131046725972212
0.22,2.479885591559438,-1.9385366120487564,2.4989187121339635,-0.0991598934343964,-0.031513659916522,0.0405394215067489,-0.2191060814573235,0.1708721382071821,-0.0906528459090426,2.479881429458595,-1.938619324029467,2.4983429725963897,-0.2414665891066024,0.2042009378546719,-0.1267735119973112,2.7489823846538526,-1.9368797356364875,1.9485888318581623,-0.0916657251951523,9.873210297386322,-1.0592504054799463,0.3380906985923219,-0.7151345129721821
0.24,2.475134408031155,-1.93478975483058,2.497098214273385,-0.0923646241566749,-0.0197462006548185,0.0404000182027882,-0.2531766698215,0.2006734893051975,-0.0911751640836756,2.479881429458595,-1.938619324029467,2.4983429725963897,-0.2414665891066024,0.2042009378546719,-0.1267735119973112,2.263403595817531,-1.7035294182088223,1.4900675549007705,-0.0261159087316491,10.412257408565893,-1.0551332032565113,0.3317092300848817,-0.7280116494606355
0.26,2.469770591182997,-1.930525560000876,2.4952591445750163,-0.084278068690416,-0.0055530824075031,0.040222658805521,-0.28090106791792,0.2240273044604561,-0.0927481652320764,2.477466763567529,-1.93657731465092,2.4970752374764165,-0.2614665894046256,0.2242009381526951,-0.1362117718969274,1.8141921512946424,-1.386219904821001,1.167690757762928,-0.0786500574200384,10.291310521732155,-1.04857524806409,0.3258203991521163,-0.7420704775806917
0.28,2.463915154939602,-1.9258350327968328,2.493367662552157,-0.0767288618631868,0.0091767311260405,0.0400733963400712,-0.3028619631745217,0.2439550534386246,-0.0963220412138194,2.472637431785397,-1.9324932958938268,2.4945397672364704,-0.3014665900006721,0.2642009387487415,-0.1550882916961599,1.4934596490541738,-1.098044762830086,0.9963874489084242,-0.1786937990871498,10.137906744287648,-1.0398609572387212,0.3201013667901559,-0.758371565642304
0.3,2.4579939014903003,-1.921030422112212,2.491484884337977,-0.0706149568949181,0.0223896405470242,0.0400077916228271,-0.3191459361938021,0.2610007489469339,-0.1017198578455302,2.467808100003265,-1.9284092771367332,2.4920042969965244,-0.3414665905967186,0.304200939344788,-0.1739648114953924,1.209193881315382,-0.8141986509640209,0.8522847754154669,-0.2698908315855383,9.991491917393432,-1.0310914499964354,0.3155767433395093,-0.7730194798134
0.32,2.451466716347781,-1.9156357482795927,2.489372485822425,-0.065425068919427,0.0345772238734237,0.0400430919349987,-0.332541279193068,0.2777292316765216,-0.1093678710588594,2.460978768191331,-1.9223252583498376,2.4885250007666166,-0.381466591192765,0.3442009399408344,-0.1928413312946248,1.1377273999220492,-0.6697671499632935,0.8364241364793856,-0.3824006606664633,9.861193820377594,-1.02247022123518,0.3119804079331127,-0.7864950672549674
0.34,2.4447043590387736,-1.909914770358396,2.487088920789495,-0.0614676482546129,0.0444178202878932,0.0401912383900379,-0.3430649895955214,0.2937761585555082,-0.1186547898568183,2.4541494363793963,-1.9162412395629416,2.4850457045367085,-0.4214665917888115,0.384200940536881,-0.2117178510938574,1.0659493464209868,-0.5261855201226712,0.8023463439493311,-0.4643459398979435,9.749538259833573,-1.0150139598706274,0.3093161043473637,-0.7977093135635782
0.36,2.4380986822210606,-1.9041779622345407,2.4847355289293627,-0.0583845059475975,0.051573701915392,0.0404428677480711,-0.3517926211708341,0.309300192341624,-0.1286321823991735,2.446320104552561,-1.909157220761145,2.48109449531182,-0.4614665923848579,0.4242009411329274,-0.2305943708930898,1.0206805815864994,-0.4363815787656322,0.776201689305786,-0.4988696271177602,9.624654932696105,-1.008145265870204,0.3071763908370509,-0.8074814416848872
0.38,2.4309738093449123,-1.897823028942584,2.482043738476314,-0.0554856468593431,0.0570936501783987,0.0408137416965892,-0.3602557092690392,0.325337124675277,-0.1400767639968217,2.437490772710824,-1.901073201944447,2.4766713730919503,-0.5014665929809043,0.4642009417289737,-0.2494708906923223,1.072130480372346,-0.4231544049102559,0.8018466166826499,-0.5722290798824122,9.624654932696105,-1.002572481580336,0.3052068634395016,-0.8154713380224028
0.4,2.4236835149567457,-1.891150937325778,2.479115022255825,-0.0527872052679151,0.0609037359241823,0.0412709571492738,-0.3683872890052859,0.341004321814529,-0.1522591002284296,2.4129610238814605,-1.88155617270882,2.4750399002764727,-0.4602557107591553,0.4253371261653931,-0.1827319712135614,1.0723723365359992,-0.4065789868123365,0.783359856962601,-0.6091168115803943,9.582236171721888,-0.9984245441099108,0.303374035427407,-0.8216328389547674
0.42,2.416252032658468,-1.884162092432212,2.476080604034878,-0.050193127934964,0.0629653108908943,0.0418122475295228,-0.3744165772451799,0.3570575390244461,-0.1498293949837637,2.4129610238814605,-1.88155617270882,2.4750399002764727,-0.4602557107591553,0.4253371261653931,-0.1827319712135614,0.8659699288145932,-0.301464411994698,0.8026608604958574,0.1214852622332951,9.551767129295513,-1.0019302575797175,0.3008550357955866,-0.8201312730251369
0.44,2.4090850007183824,-1.877243364611976,2.473245718703061,-0.0482364012854478,0.0630644463901533,0.0423786899255222,-0.3798651074392871,0.3706618272661801,-0.1487924292227768,2.4129610238814605,-1.88155617270882,2.4750399002764727,-0.4602557107591553,0.4253371261653931,-0.1827319712135614,0.7345720485931533,-0.2724265097053591,0.6802144120866965,0.0518482880493442,10.445125201668816,-1.0027789476939903,0.3014703997594088,-0.8168491865143597
0.46,2.4014229721379308,-1.8696849040787384,2.470256100847449,-0.0469617629629597,0.0612835652202996,0.0430020144932676,-0.3861715326532853,0.3845180493248464,-0.150335910209193,2.408358466773869,-1.877302801447166,2.473212580564337,-0.4802557110571785,0.4453371264634163,-0.1912630126569093,0.7650951285203884,-0.3153212606999106,0.6928111029333162,-0.0771740493208092,10.25945881057214,-1.0047611404447496,0.3024704233884448,-0.812265477018019
0.48,2.393625281394183,-1.8618548629236311,2.467210842716656,-0.0466066785560019,0.0577093610585057,0.0436367929049183,-0.3934516741863567,0.3978978126987564,-0.1540923015335139,2.399153352558686,-1.868796058923858,2.469557941140066,-0.520255711653225,0.4853371270594627,-0.2083250955436052,0.7844249557236318,-0.3640070766535691,0.6689881686955029,-0.1878195662160409,10.101741543042408,-1.0079826830206515,0.3037299156431665,-0.8065259622833414
0.5,2.3856655825305064,-1.8537597049734933,2.464074852805181,-0.0472594952254948,0.0526397980606179,0.0442671400480609,-0.4024370780967493,0.4110520771309295,-0.1593108677156678,2.3899482383435027,-1.8602893164005505,2.4659033017157945,-0.5602557122492715,0.5253371276555092,-0.2253871784303011,0.8381610662366082,-0.4492701955196326,0.6577132216086551,-0.2609283091076997,9.98367070393124,-1.0117417806074311,0.3054607670834608,-0.8000750876599356
0.52,2.377912269848052,-1.8458249900566777,2.4609889824310573,-0.0488506860047283,0.0471141878304415,0.0448355767613303,-0.4134384659155993,0.4236220929985212,-0.1652499265879599,2.3787431240985173,-1.84978257384744,2.4613955581471885,-0.600255712845318,0.5653371282515557,-0.2424492613169969,0.8864370439303607,-0.5500693909424981,0.6285007933795855,-0.296952943614602,9.90155205431438,-1.0166438606185555,0.3076760705559464,-0.7923184365814631
0.54,2.369501364472383,-1.8372087481974813,2.4576166493552787,-0.0514658153777518,0.0413083103186447,0.0453802856764946,-0.427250982354144,0.4376531213750615,-0.1716794743436018,2.367538009853532,-1.8392758312943296,2.4568878145785824,-0.6402557134413644,0.6053371288476022,-0.2595113442036928,1.035609062352229,-0.6906258219272349,0.7015514188270122,-0.3214773877820959,9.847004324396949,-1.0224840649628693,0.3102685169959007,-0.7835920066420221
0.56,2.360783088403378,-1.828282605824945,2.454115012563587,-0.0540591110750664,0.0363353536617717,0.0458993258886435,-0.4439914864777037,0.4541087719669704,-0.1781489154498013,2.355332895593645,-1.8277690887263185,2.4519535189378088,-0.6802557140374108,0.6453371294436485,-0.2765734270903887,1.2174631236104207,-0.8370252061779854,0.8227825295954477,-0.3234720553099757,9.841084504012542,-1.0272861600568788,0.3129476671812031,-0.7757331638613497
0.58,2.352163955633715,-1.8194867158976624,2.4506677282324514,-0.0558161570049684,0.0333920911341751,0.0463537047518989,-0.4624846345098197,0.4707103755230556,-0.1843834590728553,2.3421277813188577,-1.815262346143406,2.446592671224868,-0.7202557146334573,0.685337130039695,-0.2936355099770845,1.2810925990721151,-0.9246574016057996,0.8300801778042599,-0.3117271811526975,9.865821852145928,-1.0311717612602296,0.3150856785461029,-0.7694283824882998
0.6,2.342696258989453,-1.809883195642328,2.4469077057478126,-0.0567059114563554,0.0330269537263335,0.0467461916427957,-0.4829957441851408,0.4886858837604331,-0.1912712103158043,2.329039723908224,-1.7959511971215094,2.441448555278809,-0.5624846359999358,0.5707103770131718,-0.2377918545718463,1.4064722123897635,-1.0255554837660552,0.898775411868874,-0.344387562147451,9.865821852145928,-1.0344146808000183,0.3157926981518335,-0.765704794510222
0.62,2.3328022306735794,-1.7998661710335593,2.443115468540776,-0.0549551991439851,0.0360813406451197,0.047124694138754,-0.5049366977194509,0.5116935418769443,-0.1869486533105278,2.329039723908224,-1.7959511971215094,2.441448555278809,-0.5624846359999358,0.5707103770131718,-0.2377918545718463,1.6042461415450568,-1.0970476767155068,1.150382905825556,0.2161278502638239,9.844326062798244,-1.0380064164181684,0.3150881086566731,-0.7621315568985385
0.64,2.3225053249249226,-1.7894301840170854,2.439409771810543,-0.0503936574650387,0.0422637954539394,0.0475332277992022,-0.5231871987146502,0.5300909968485821,-0.1839958483103383,2.329039723908224,-1.7959511971215094,2.441448555278809,-0.5624846359999358,0.5707103770131718,-0.2377918545718463,1.3040956573219196,-0.9125250497599656,0.9198727485818904,0.1476402500094731,10.345500028636708,-1.0375236967658,0.3132229484776245,-0.763335489339417
0.66,2.312419813416985,-1.7792160640637762,2.435905577188197,-0.0457060323521753,0.0495590756427928,0.0478935156012524,-0.5372456788673888,0.5441449090757667,-0.1849894059576802,2.3234148775482244,-1.7902440933513777,2.43907063673309,-0.582484636297959,0.590710377311195,-0.2484735336716445,0.995163893402673,-0.7029240076369292,0.7026956113592331,-0.0496778823670926,10.345500028636708,-1.0337440039100936,0.3108176863063168,-0.7691393616914608
0.68,2.301548502289715,-1.768197665432726,2.4321631439967826,-0.0413196105039436,0.0576011601877121,0.0482417850891388,-0.5489051051638527,0.5570297024306204,-0.1893670476523921,2.312165184828226,-1.7788298858111142,2.434314799641653,-0.6224846368940055,0.6307103779072415,-0.2698368918712409,0.895996467860276,-0.5829713148231941,0.6442396677426854,-0.2188820847355971,10.09937068115596,-1.0283626483574468,0.3083053268037649,-0.7773577179516353
0.7000000000000001,2.2904725451963315,-1.7569324868550804,2.428299899883668,-0.0377773747584845,0.0651608353681428,0.0485701078850365,-0.5579604295495225,0.5689553132359222,-0.1968835230098659,2.300915492108227,-1.7674156782708508,2.429558962550216,-0.6624846374900519,0.670710378503288,-0.2912002500708373,0.8377298111693673,-0.4527662192834902,0.5962805402650873,-0.3758237678736856,9.896781368408485,-1.022445204784905,0.3060365626149091,-0.7862898186555998
0.72,2.279238490636096,-1.7454357513330203,2.4242566498643616,-0.0350992466977662,0.071649882001059,0.0488888580526478,-0.5649747544541537,0.5803111667298493,-0.2070851564579428,2.2876657993584257,-1.754001470700785,2.4237349575487994,-0.7024846380860984,0.7107103790993344,-0.3125636082704337,0.8399843561819889,-0.3507162452315582,0.5677926746963546,-0.5100816724038489,9.729709487941363,-1.0160902226207569,0.3038228572298737,-0.7958957207103436
0.74,2.268450833127212,-1.734306157899782,2.4202123114791494,-0.0332562419274554,0.0765403903426164,0.0491895168900001,-0.5702587011017541,0.5908103654945162,-0.2181477986608223,2.2744161066086246,-1.740587263130719,2.4179109525473828,-0.7424846386821449,0.7507103796953809,-0.3339269664700302,0.8070553255254579,-0.2641973323800228,0.5249599382333436,-0.5531321101439751,9.536060300340978,-1.0102762886966794,0.3017774074661773,-0.8048995386348077
0.76,2.256991899595227,-1.7223694066015762,2.41571710375509,-0.0317200863611409,0.0803735014730117,0.0495180062842728,-0.5753634122648809,0.6022799928913243,-0.2308470959047261,2.2601664138439226,-1.7261730555457522,2.411552863590976,-0.7824846392781912,0.7907103802914273,-0.3552903246696265,0.8928641822382408,-0.2552355581563359,0.5734813698404062,-0.6349648621951905,9.536060300340978,-1.0050086948514867,0.2999876261951152,-0.8129337094851656
0.78,2.2454336074984957,-1.7102014723108023,2.410958858227509,-0.0302554967066347,0.0830954385851225,0.0498700376165151,-0.5802413460149902,0.6138512850864467,-0.2443529262099286,2.2449167210643197,-1.7107588479458842,2.4046606906795795,-0.8224846398742377,0.8307103808874737,-0.3766536828692229,0.9220852630970224,-0.2438966875054682,0.5785646097561215,-0.6752915152601221,9.458797425960256,-1.000781849238786,0.2982599184888365,-0.8195956111295855
0.8,2.234363377015981,-1.698428428584759,2.4061824653838446,-0.0287619141581979,0.0848944622100558,0.0502274279792352,-0.5848216213644326,0.6247445385386468,-0.2577583716516729,2.2164215401977456,-1.67950890805648,2.398741211917013,-0.6802413475051063,0.7138512865765628,-0.3229551582489034,0.8935153335871756,-0.2290137674721193,0.5446626726100023,-0.6702722720872147,9.458797425960256,-0.9969877422234332,0.2963548321820289,-0.8257652706291646
0.8200000000000001,2.222613028945182,-1.6858003252036913,2.40100944645643,-0.0266423705779538,0.0866140229688502,0.0506373375921563,-0.5898525875896856,0.6371995448172032,-0.2581250712927396,2.2164215401977456,-1.67950890805648,2.398741211917013,-0.6802413475051063,0.7138512865765628,-0.3229551582489034,0.6718859114188872,-0.2515483112626504,0.6227503139278223,-0.0183349820533362,9.434261786441311,-0.9991398301558206,0.2949347287408606,-0.8245454439356207
0.84,2.210775379322895,-1.672954388630386,2.395821191756341,-0.0245862174121906,0.0883519133763115,0.051032215535179,-0.5936421401597712,0.6469128207364282,-0.2609751612067348,2.2164215401977456,-1.67950890805648,2.398741211917013,-0.6802413475051063,0.7138512865765628,-0.3229551582489034,0.5404429902457241,-0.1894776285042809,0.4856637959612497,-0.1425044956997606,10.016865018670616,-0.997348229416632,0.2942781115408218,-0.8262761245521535
0.86,2.1994638817993564,-1.660577225684331,2.3907944175818217,-0.0233076309235446,0.0895635823401329,0.0513614769526049,-0.5968936039300912,0.6555595600752316,-0.2680045850855265,2.2096191267226946,-1.6723703951907145,2.395511660334524,-0.7002413478031295,0.733851286874586,-0.3386756046566984,0.5804113151693376,-0.1625731885159964,0.4323369669401722,-0.3514711939395815,10.016865018670616,-0.9946082869634186,0.2934794026121172,-0.8296306929441715
0.88,2.187491691027533,-1.647377456306792,2.3853253486522723,-0.0228198967735881,0.0902399771451707,0.0516516210335989,-0.6002042102001268,0.6640240107601344,-0.278682695258634,2.1960142997725924,-1.658093369459183,2.389052557169546,-0.740241348399176,0.7738512874706325,-0.3701164974722882,0.7011224503276369,-0.1655303135017827,0.4232225342451379,-0.5339055086553746,9.78257870053494,-0.9920394987918062,0.2928950419409605,-0.8331236451954789
0.9,2.175452227700552,-1.6340119249517429,2.379614543389319,-0.0234161863994702,0.0902643554738501,0.0518710560318633,-0.6036441654144754,0.672188214452122,-0.2919693535221598,2.1824094728224903,-1.6438163437276518,2.382593454004568,-0.7802413489952225,0.813851288066679,-0.4015573902878782,0.7984716676449888,-0.1719977607174294,0.4082101845993779,-0.6643329131762937,9.603224299994508,-0.9897594026688982,0.2927827897508514,-0.8364457196284619
0.92,2.1633415351641454,-1.6204830031119135,2.3736174781758894,-0.0251980593618213,0.0896700471347967,0.0520148677074915,-0.6073115064561388,0.6804010151358209,-0.3071494448240573,2.166804645842586,-1.6275393179663182,2.37456230619881,-0.8202413495912689,0.8538512886627254,-0.4329982831034681,0.8822338937605756,-0.183367052083172,0.4106400341849447,-0.7590045650948757,9.472705360395594,-0.9881825686666694,0.2932899619654308,-0.8389699926912999
0.94,2.1517668094656397,-1.607471074233756,2.3676305192302283,-0.0278948656059168,0.0885192908545862,0.0520932397787164,-0.6109726644467257,0.6892087608726521,-0.3223014415779129,2.1511998188626817,-1.6112622922049846,2.3665311583930526,-0.8602413501873154,0.8938512892587719,-0.464439175919058,0.8952143157165726,-0.183057899529343,0.4403872868415648,-0.7575998376927767,9.38002531937309,-0.9876019251366916,0.2946130633723693,-0.8402179190590858
0.96,2.139499370377424,-1.5935660024263767,2.3610127645470707,-0.0307958740304826,0.0867978939957959,0.0521858794415587,-0.6156518930447082,0.7007967351267888,-0.3386925175540897,2.134594991867876,-1.59398526642875,2.357713988266905,-0.9002413507833618,0.9338512898548184,-0.4958800687346479,1.0305868464660215,-0.2339614298991266,0.5793987127068301,-0.8195537988088419,9.350265100827528,-0.9877337260028796,0.2963341443746557,-0.8401582297505462
0.98,2.127128092791949,-1.579415535577398,2.3540649409060856,-0.0330557468842541,0.0848685657257601,0.0523298071638278,-0.6213121496288708,0.7135142358628738,-0.3552671560826223,2.1169901648581693,-1.575708240637614,2.3481107958203684,-0.9402413513794082,0.9738512904508648,-0.5273209615502378,1.082233768557417,-0.2830128292081291,0.635875036804251,-0.8287319264266291,9.332731879303536,-0.9885459687296242,0.2978280692018872,-0.8391459563463161
1.0,2.114631994194828,-1.5650029142353434,2.346782699548257,-0.0343743760134378,0.0831307316479006,0.0525303710271059,-0.628050497854884,0.7268998005713574,-0.3721193629391753,2.096062485310505,-1.5437398237842543,2.3363015831019545,-0.7213121511189869,0.8135142373529899,-0.3824521137210052,1.127580989681083,-0.3369174113006579,0.6692782354241811,-0.8426103428276488,9.328441489916258,-0.9892166872991373,0.2986036769171627,-0.8385047990983748
1.02,2.1026240704703496,-1.5510074386432091,2.339820461127367,-0.0332088212130207,0.0827152222612464,0.0528394672303621,-0.6353045143967344,0.7449201536972914,-0.3598531481975864,2.096062485310505,-1.5437398237842543,2.3363015831019545,-0.7213121511189869,0.8135142373529899,-0.3824521137210052,1.1487100448541951,-0.3627008270925214,0.9010176562966988,0.613310737079445,11.104303165119743,-0.9960934822432478,0.2972097186009019,-0.8327731820260946
1.04,2.089851721925504,-1.5359390393160333,2.3327442585172995,-0.0290756635158293,0.0838687340838479,0.0533016809848898,-0.6413588239238467,0.7602563076124301,-0.3486394721753601,2.096062485310505,-1.5437398237842543,2.3363015831019545,-0.7213121511189869,0.8135142373529899,-0.3824521137210052,0.996993995330916,-0.3027154763556139,0.7668076957569381,0.5606838011113141,10.847502731224267,-0.9973336449024296,0.2962188714509639,-0.8297473754268284
1.06,2.0769738333500443,-1.5206124334776414,2.3258433809799626,-0.0241528978727078,0.085730889265271,0.0537873975501171,-0.646035069562113,0.7715156380824872,-0.3419788687391227,2.088849363799316,-1.5356046814107245,2.3324770619647444,-0.7413121514170101,0.8335142376510131,-0.3878891052486818,0.6946283791319264,-0.2338122819133148,0.5629665235028558,0.3330301718118711,10.847502731224267,-0.9977093014196768,0.2950539390215213,-0.8275196287474271
1.08,2.0646639803354785,-1.5058672115178566,2.319374256948703,-0.0198508428526821,0.087551813250665,0.0542131692893122,-0.6494929479740851,0.7801432690101259,-0.3393076786870993,2.074423120776936,-1.5193343966636643,2.3248280196903246,-0.7813121520130566,0.8735142382470595,-0.398763088304035,0.4835498806471724,-0.1728939205986046,0.4313815463819315,0.1335595026011687,10.572031715060804,-0.99720415644725,0.2934076768179284,-0.8271060486322982
1.1,2.051643167032372,-1.490182311213248,2.312589289669857,-0.0161155517331277,0.0890935915199696,0.0546039060925558,-0.6524191177115171,0.7880020818515369,-0.3394652650065017,2.059996877754556,-1.5030641119166048,2.3171789774159044,-0.8213121526091031,0.913514238843106,-0.4096370713593881,0.4193692944668571,-0.1463084868715991,0.3929406420705494,-0.007879315970119,10.168640388385938,-0.9964189888280268,0.2918276553008828,-0.8275144830030008
1.12,2.0385685576647363,-1.4743483339497043,2.3057720581921544,-0.0132979346365763,0.089971237232173,0.0549295906517756,-0.654979909593329,0.7952018792461364,-0.3422421849978657,2.043570634702374,-1.4847938271397427,2.308986235988717,-0.8613121532051495,0.9535142394391524,-0.4205110544147413,0.406528050150518,-0.1280395940905954,0.3599898697299764,-0.1388459995681989,10.168640388385938,-0.9957746208053648,0.290597700426372,-0.8280088309108987
1.14,2.0254448287198388,-1.458374053694654,2.298891892772124,-0.0113027549827044,0.0900793955111251,0.0551947996144051,-0.6573768432472814,0.8020560605763541,-0.3456339205593974,2.027144391650192,-1.4665235423628806,2.3007934945615287,-0.901312153801196,0.9935142400351988,-0.4313850374700945,0.40071486985235,-0.1198466826976218,0.3427090665108878,-0.1695867780765858,10.033057837307751,-0.9957864936021862,0.2895395078932925,-0.828028158737298
1.16,2.0129274605649736,-1.4430652195449036,2.2922908303428016,-0.009813099928877,0.0895974903594751,0.0554120869273499,-0.6601833698050862,0.8090253129037992,-0.3490408915604915,2.009718148583109,-1.4472532575711172,2.2923289035579573,-0.9413121543972424,1.0335142406312452,-0.4422590205254476,0.4124758196717668,-0.1403263278902389,0.3484626163722526,-0.170348550054708,10.004204702595416,-0.9962821124912432,0.2888276722478181,-0.8273169981353893
1.18,1.9996881495448489,-1.4268086157512028,2.285270455713623,-0.0084001882443759,0.0887365784891882,0.0556194107989508,-0.6636535967744791,0.8162215873355942,-0.3528230633961823,1.9912919055011244,-1.4269829727644527,2.283592462978002,-0.9813121549932888,1.0735142412272916,-0.4531330035808008,0.4419662450671469,-0.173511348469646,0.3598137215897523,-0.1891085917845369,9.995259925262872,-0.9972415424691248,0.2882113064788063,-0.8260635578677142
1.2,1.9863735141318544,-1.410409337632385,2.2781717717920658,-0.0070420892640651,0.0877258564577118,0.055809667124594,-0.6676678305570825,0.8232748438214574,-0.3568498905843348,1.9665054697061248,-1.385997536384423,2.267629302543814,-0.7636535982645952,0.9162215888257104,-0.3860935528206494,0.4529840977341516,-0.2007116891301674,0.3526628242931595,-0.2013413594076252,9.982878021351098,-0.9983202746372036,0.2876084505637331,-0.8247362671678203
1.22,1.9736210828194212,-1.3946837396816227,2.2714329582256765,-0.0051398626461055,0.0877700491983129,0.0560130586772114,-0.6743325150170683,0.831357218803264,-0.3518109635040066,1.9665054697061248,-1.385997536384423,2.267629302543814,-0.7636535982645952,0.9162215888257104,-0.3860935528206494,0.5812348716710255,-0.3332342229992902,0.4041187490903264,0.2519463540164107,10.573026188745644,-1.0001386093548206,0.2861677652478996,-0.8235208281275825
1.24,1.9600787394135328,-1.377998666789568,2.2644420014358504,-0.0029498856914932,0.089480421342677,0.0562193996758458,-0.6793651836667389,0.8368373158168138,-0.3477257593631043,1.9665054697061248,-1.385997536384423,2.267629302543814,-0.7636535982645952,0.9162215888257104,-0.3860935528206494,0.4244057901588426,-0.2516334324835334,0.2740048506774895,0.2042602070451149,10.573026188745644,-1.0007472612902877,0.2857009227381503,-0.8222160989362011
1.26,1.946453178977967,-1.3612139269573251,2.257499376528138,-0.0014842155639829,0.0917752474463795,0.0563637581408501,-0.6828686094004939,0.8415260180910701,-0.3467323206481347,1.9588689337234784,-1.376835320496166,2.2637683670156075,-0.7836535985626184,0.9362215891237337,-0.3927476507055428,0.2968368296259462,-0.1751712866877475,0.2344351137128164,0.049671935748477,10.233575478412604,-0.9997777603493356,0.2854479762325796,-0.8228670098902414
1.28,1.9334561015438712,-1.3451872165613674,2.250899638794184,-0.0009836718158207,0.0938737620586294,0.0564301382506809,-0.6850697706613591,0.8454008177329544,-0.3480253996074657,1.9435958617581868,-1.3585108887196518,2.256046495959194,-0.8236535991586649,0.97622158971978,-0.4060558464753296,0.2320088164065374,-0.1100580630432612,0.1937399820942154,-0.0646539479665475,10.233575478412604,-0.9983361275282362,0.2855144849795926,-0.8242068348349767
1.3,1.919738768751764,-1.3282415262354492,2.2439085120211737,-0.0016857937597508,0.0955610838516159,0.0564054591032726,-0.6865652692555377,0.8490857353229648,-0.3510968742218058,1.9283227897928947,-1.3401864569431374,2.2483246249027813,-0.8636535997547113,1.0162215903158265,-0.4193640422451165,0.2512423630525626,-0.0747749297089317,0.1842458795005219,-0.1535737307170048,10.102604238467393,-0.9969435409554588,0.2862376366782764,-0.8254546018852971
1.32,1.905997482995326,-1.3112221813555471,2.2368415060687465,-0.0038863056272789,0.0964282396362668,0.0562692730119384,-0.6875944061606394,0.8528710716911629,-0.3554453308562367,1.9110497177978003,-1.319862025136821,2.239937344057879,-0.9036536003507578,1.0562215909118728,-0.4326722380149033,0.2928180718952129,-0.0514568452550823,0.1892668184099055,-0.2174228317215476,10.00602151651583,-0.9959874387517464,0.2877667152270197,-0.8260418167769261
1.34,1.8922369233771743,-1.2941097546078235,2.229684813396447,-0.0072591271119326,0.0963688678112068,0.0560503189233042,-0.6885473579691642,0.8585631474851869,-0.3600072785067982,1.8937766458027063,-1.2995375933305044,2.231550063212977,-0.9436536009468044,1.0962215915079194,-0.4459804337846901,0.3678287997178427,-0.0476475904262418,0.2846037897011988,-0.2280973825280724,9.94320669447734,-0.9955285578021816,0.2900912886080419,-0.8258725082314048
1.36,1.879140635303881,-1.277719135493974,2.2228032375428715,-0.0104140624540385,0.0955603141876666,0.0558506318956895,-0.690028343068098,0.8663750209322766,-0.364136404132628,1.875503573792711,-1.2782131615092869,2.2228300774738297,-0.9836536015428508,1.1362215921039658,-0.4592886295544769,0.4479630622341891,-0.0740492549466897,0.3905936723544834,-0.2064562812914894,9.949124224594923,-0.9961265699031322,0.2927964972406001,-0.8239500635971279
1.38,1.8653185374157244,-1.2602941183422942,2.215476076052622,-0.0130971648751862,0.0941364459690478,0.0556921209699516,-0.6921678139473593,0.8756006557716545,-0.3683503922380956,1.8562305017678145,-1.255888729673168,2.2137773868404382,-1.0236536021388971,1.176221592700012,-0.4725968253242638,0.5182841150994612,-0.1069735439630625,0.4612817419688941,-0.2106994052733818,9.949124224594923,-0.9975134860485684,0.2952162589808176,-0.8209985499577505
1.4,1.8514460901235972,-1.2426759126629023,2.2080658835193674,-0.0149089854448627,0.0923255469569248,0.0556000610905279,-0.6950310423333715,0.8855227426611251,-0.3724469520286431,1.8307101467183564,-1.2165140855537115,2.197058556440717,-0.7921678154374754,0.9756006572617706,-0.3876534495808633,0.55549007000621,-0.1431614193006136,0.4961043444735302,-0.2048279895273758,9.955993366864275,-0.9992425782089134,0.2970043440777596,-0.81777514335771
1.42,1.8374806943448827,-1.2248068187205583,2.2006958044752727,-0.0142213407502446,0.0915033394454023,0.0556634754944111,-0.7012330505638404,0.9004267639346645,-0.3636814912599655,1.8307101467183564,-1.2165140855537115,2.197058556440717,-0.7921678154374754,0.9756006572617706,-0.3876534495808633,0.9184607486171436,-0.3101004115234451,0.7452010636769701,0.4382730384338812,9.96094524570799,-1.0022011820515218,0.2963480340517426,-0.8152585942454597
1.44,1.824111232360408,-1.207581065186116,2.193864019888528,-0.0106411039731703,0.0923827742406617,0.0558944022533417,-0.7055892240398013,0.9115189028295144,-0.3559388256827241,1.8307101467183564,-1.2165140855537115,2.197058556440717,-0.7921678154374754,0.9756006572617706,-0.3876534495808633,0.7105643230142974,-0.2178086737980422,0.5546069447424973,0.3871332788620701,10.800318883047112,-1.004853650296577,0.2962427568464181,-0.8099619025400987
1.46,1.8099656221248093,-1.1892679954762635,2.186803637831665,-0.0060068091403178,0.0940162625800918,0.0561818196766222,-0.7086494833502088,0.9190707843470688,-0.3506412208919646,1.8227884685639817,-1.206758078981094,2.1931820219449087,-0.8121678157354986,0.9956006575597938,-0.3915140610494169,0.4859545195313884,-0.1530129655203771,0.3775940758777185,0.2648802395379734,10.643467135079844,-1.005264444899728,0.2946907488161206,-0.8084499916047967
1.48,1.7957714715309308,-1.1708298179753165,2.179815741983169,-0.0018362502821985,0.0956719773102663,0.0564299005903211,-0.7106120460801123,0.9245026049109094,-0.3484018741809669,1.806945112255232,-1.1872460658358583,2.1854289529532918,-0.852167816331545,1.0356006581558403,-0.3992352839865239,0.3097216524503255,-0.0981281364951736,0.2715910281920308,0.111967335549884,10.452658994759076,-1.00471633246284,0.2929622029528916,-0.8085165448219909
1.5,1.78154630668173,-1.1522953765968071,2.172848237817829,0.0014757893206475,0.0969000967940227,0.0566113255969837,-0.7118635925632535,0.9288751769811382,-0.3484581686649716,1.7911017559464826,-1.167734052690623,2.177675883961674,-0.8921678169275915,1.0756006587518867,-0.406956506923631,0.2274253953373351,-0.0625773241570593,0.2186286035114393,-0.0028147242002313,10.283787447981013,-1.0040912336547398,0.2914804829619646,-0.808981865195877
1.52,1.7680132349404474,-1.1346124027778517,2.1662118647186284,0.0037651990728363,0.0974291313214776,0.0567145854638983,-0.7126985811599655,0.9324812366568708,-0.3501010903569891,1.7732583996079307,-1.146222039515585,2.169536753823201,-0.932167817523638,1.115600659347933,-0.4146777298607381,0.2024849625755292,-0.0417494298356024,0.1803029837866288,-0.0821460846008759,10.155874943557135,-1.003715979339314,0.2901777880210855,-0.8093635050692591
1.54,1.7537523632850982,-1.1159289508041463,2.159185867795223,0.0052678169347496,0.0971865642089619,0.0567472873042327,-0.7134229689358659,0.9357834506284411,-0.352432726117668,1.755415043269379,-1.1247100263405476,2.1613976236847283,-0.9721678181196844,1.1556006599439796,-0.4223989527978452,0.2053404495246013,-0.0362193887950168,0.1651106985785244,-0.1165817880339481,10.06457025806867,-1.0039628818462425,0.2892280907647805,-0.8091708125579691
1.56,1.7394716623791286,-1.0971744823354588,2.1521110871068325,0.0060225888532676,0.0961934501502918,0.0567144889444642,-0.7146856183698959,0.9395051045544212,-0.3549280536850291,1.736571686915926,-1.1021980131506086,2.1530654629728283,-1.0121678187157308,1.195600660540026,-0.4301201757349523,0.2327641037963637,-0.0631324717014991,0.1860826962989947,-0.1247663783680519,10.0329252442898,-1.004840724483169,0.2888398987014493,-0.8079720906131469
1.58,1.7251593984281124,-1.0783433743282762,2.1449866995084825,0.006330560561452,0.0946773570604747,0.0566390786542282,-0.7165515856180483,0.9434001304080444,-0.357379474134893,1.716728330547572,-1.0786859999457683,2.1445402716875,-1.0521678193117772,1.2356006611360724,-0.4378413986720594,0.2483068786480866,-0.0932983624076233,0.1947512926811612,-0.122571022493198,10.027387316303248,-1.006237943243759,0.288782968418262,-0.8060501360300913
1.6,1.7115215308850082,-1.0603799666169338,2.138173806393989,0.0063601040494501,0.0929458559150395,0.0565407169522536,-0.7189807430005617,0.9472606232793882,-0.3596389950078253,1.68933181914721,-1.031173367807874,2.127117725801738,-0.8165515871081644,1.0434001318981605,-0.3813506648109862,0.2545075901320635,-0.1214578691256684,0.1930246435671911,-0.112976043646612,10.027387316303248,-1.0080890367382025,0.2889449600988393,-0.8034769822471458
1.62,1.6970725875161805,-1.041362719994902,2.131026557093792,0.0072093045475202,0.0923268202114201,0.0564950119533566,-0.7256433417479475,0.954002579550808,-0.3545859369879982,1.68933181914721,-1.031173367807874,2.127117725801738,-0.8165515871081644,1.0434001318981605,-0.3813506648109862,0.537069808744973,-0.333129937369292,0.3370978135709968,0.2526529009913542,10.029439742043904,-1.010199765079415,0.2880387391513326,-0.8018308554172673
1.64,1.6825073215165078,-1.0222367991857917,2.1239800815904784,0.0089844828013354,0.0937305980014101,0.0565203520610438,-0.7303362176910999,0.9582447377471024,-0.3504426268357822,1.68933181914721,-1.031173367807874,2.127117725801738,-0.8165515871081644,1.0434001318981605,-0.3813506648109862,0.3781071600672908,-0.2346437971576187,0.2121079098147127,0.2071655076107986,10.51113341605378,-1.010961249051046,0.287712453487548,-0.8004923820223131
1.66,1.6678672303413458,-1.0030397989728723,2.116988841188951,0.010625671411511,0.0959330647063105,0.0565377609340289,-0.7333464043108736,0.9613346676759542,-0.3488819089987446,1.6811663032761284,-1.0207393664888924,2.123304219153628,-0.8365515874061876,1.0634001321961837,-0.3861449029462048,0.2293726804674335,-0.1505093309886851,0.154496496442591,0.0780358918518797,10.23713036947629,-1.010144091258521,0.2871849345589981,-0.8011683748195053
1.68,1.6539170228684923,-0.984754765935577,2.110355966193121,0.011620297863422,0.0980645758179958,0.0565108628742556,-0.7349351740994012,0.963371330212734,-0.3493924667001266,1.664835271533965,-0.9998713638509292,2.1156772058574083,-0.8765515880022341,1.1034001327922305,-0.395733379216642,0.1316515561634325,-0.0794384894263811,0.101833126838996,-0.0255278850690987,10.23713036947629,-1.0086622630162343,0.2866795873424761,-0.802889176723551
1.7,1.639210423874543,-0.9654728365410964,2.103347625028914,0.0116450079975849,0.09984870967737,0.0564009656872855,-0.735649828273046,0.964819647434622,-0.3514847324982103,1.6485042397918015,-0.979003361212966,2.1080501925611888,-0.9165515885982806,1.1434001333882766,-0.4053218554870793,0.1321545452581543,-0.0357327086822401,0.0724158610943992,-0.1046132899041818,10.120299729329416,-1.0071197248254111,0.2865982466993294,-0.8047236103080169
1.72,1.624496914244575,-0.9461659982302328,2.096284380727383,0.0102491981096106,0.1008241036595661,0.0561779985175942,-0.7357705819274406,0.9659971821079244,-0.3547287528891532,1.630173208019836,-0.9561353585452004,2.0999437554514477,-0.9565515891943268,1.183400133984323,-0.4149103317575165,0.1726617911462497,-0.0060376827197283,0.0588767336651141,-0.1622010195471479,10.0334201085725,-1.0060160754993506,0.2872417147326851,-0.8059108965887375
1.74,1.6097837778371007,-0.9268309286676368,2.089154113761119,0.0073425215566156,0.1008484149514617,0.0558383950605316,-0.7356835868315051,0.9679042594277542,-0.3581289243340066,1.6118421762478703,-0.9332673558774348,2.091837318341706,-0.9965515897903734,1.2234001345803696,-0.4244988080279537,0.1949722922938191,0.004349754796773,0.0953538659914876,-0.1700085722426719,9.977968637222148,-1.005568523409718,0.2888345897689047,-0.8060947554443979
1.76,1.5958023211004015,-0.9083962407116845,2.0823208503378225,0.0041379435250856,0.1000735806550998,0.0554818157516217,-0.7361285672254926,0.9724982222262388,-0.3609880970888682,1.5925111444610036,-0.9093993531947684,2.083491169325203,-1.0365515903864198,1.263400135176416,-0.434087284298391,0.271465331981069,-0.0222490196993718,0.2296981399242337,-0.1429586377430763,9.971666050641945,-1.0062060838615334,0.2911950076675717,-0.8043674233425505
1.78,1.581070211945804,-0.8888811717355273,2.0750729440996234,0.0011816333521856,0.098605814633135,0.0551386456474422,-0.7371261768533589,0.978697047903505,-0.36363094245159,1.572180112659236,-0.8845313504972004,2.07490530840194,-1.076551590982466,1.3034001357724625,-0.4436757605688282,0.340607165067053,-0.0498804813933162,0.3099412838633075,-0.1321422681360901,9.993507600945122,-1.0077634148053454,0.293572739422118,-0.8012416701557817
1.8,1.5663112574188298,-0.8692318148743384,2.067776305969906,-0.0010292695018051,0.0966312371254259,0.0548530901501413,-0.7387910077989158,0.985717184724129,-0.3658927739589702,1.544213903103136,-0.839946319340352,2.056891396977044,-0.837126178343475,1.0786970493936212,-0.3803516453232702,0.3780537819720299,-0.0832415472778458,0.3510068410311984,-0.1130915753690092,10.012890656320453,-1.0099533000640508,0.2956064436777289,-0.7972803126246255
1.82,1.5514769791455627,-0.8493886071972987,2.060524179050084,-0.00079570082617,0.0956107079586861,0.0547386083217676,-0.7444763780787673,0.9977502720849049,-0.3587169111639067,1.544213903103136,-0.839946319340352,2.056891396977044,-0.837126178343475,1.0786970493936212,-0.3803516453232702,0.7559954257544473,-0.2842685139925749,0.6016543680387954,0.3587931397531718,10.03045300847134,-1.0126962099397665,0.295246828323864,-0.7946603371314924
1.84,1.5372908798961098,-0.8303414956051196,2.053771806076016,0.0022766384506051,0.0963958858638478,0.0548219173413298,-0.7483345637280744,1.0062609535545972,-0.3524576019203182,1.544213903103136,-0.839946319340352,2.056891396977044,-0.837126178343475,1.0786970493936212,-0.3803516453232702,0.5623527535941224,-0.1929092824653533,0.425534073484618,0.3129654621794264,10.646215549231783,-1.0148948687678312,0.2950350217896804,-0.7905083843907434
1.86,1.5222961647849187,-0.8101590786756945,2.0467677155957484,0.0064924259930714,0.097981530345577,0.0549753792116699,-0.7508354543087461,1.0113693556316563,-0.3484015736295176,1.5358426413197013,-0.8291593488464158,2.0530878805238117,-0.8571261786414982,1.0986970496916444,-0.3836957858976063,0.3492906775637277,-0.1250445290335855,0.2554201038529657,0.2028014145400297,10.521340948628676,-1.0151776717569856,0.2935494949166173,-0.7894689808959735
1.88,1.507264656985564,-0.7899008936413936,2.0398147557363435,0.0102723568835192,0.0996202784629198,0.0550960681692568,-0.7521891063025576,1.0143474967915307,-0.3470878750858431,1.5191001177528318,-0.8075854078585434,2.0454808476173456,-0.8971261792375447,1.138697050287691,-0.3903840670462784,0.1762633140513007,-0.0676825996905772,0.1489070579937079,0.0656849271837234,10.206838231189067,-1.0144519518826036,0.2916710510518776,-0.7902814417936183
1.9,1.4922147900898164,-0.7695948317127402,2.03286643760428,0.0131811777902667,0.1008423386778745,0.0551484658325331,-0.7527884566431731,1.0163393709916393,-0.3478068573737018,1.5023575941859624,-0.7860114668706709,2.0378738147108804,-0.9371261798335913,1.178697050883737,-0.3970723481949505,0.1100422554079642,-0.0299675170307711,0.09959371000543,-0.0359491143929358,10.206838231189067,-1.0135858365172277,0.2900176235960678,-0.7915085448169373
1.92,1.4779107128907176,-0.7502721332976342,2.026238414223095,0.0150649932908736,0.1013613073892283,0.055124270457692,-0.7529666257573656,1.0177500587504311,-0.3498399319312187,1.4836150705892903,-0.7624375258529962,2.0299323677469814,-0.9771261804296376,1.2186970514797837,-0.4037606293436226,0.1240481392694021,-0.0089084557096275,0.0705343879396025,-0.1016537278758444,10.095910520791222,-1.012935108291519,0.2885923697054874,-0.7925823003063754
1.94,1.4628520561396383,-0.7299082763104113,2.0192141371620616,0.0160577033298929,0.1010912716506692,0.0550125758068456,-0.7529639915081818,1.018652284032337,-0.3524981347160685,1.4648725469926187,-0.7388635848353214,2.0219909207830824,-1.0171261810256842,1.2586970520758305,-0.4104489104922947,0.1403572178760491,0.0001317124591893,0.0451112640952877,-0.1329101392424897,10.020127761532422,-1.0129347869025398,0.2876326227849098,-0.7929009642518342
1.96,1.4477888849555258,-0.7095222591103365,2.012135857718718,0.016085278872569,0.1000252342088772,0.0548171861984204,-0.75344118121166,1.019949385497597,-0.3551911286972491,1.4451300233810458,-0.7142896438027455,2.0138822667904663,-1.0571261816217306,1.2986970526718766,-0.4171371916409668,0.1513472729103467,-0.0238594851739104,0.0648550732629926,-0.1346496990590279,9.994167764127267,-1.013514126693965,0.2872834242380177,-0.7923270576061594
1.98,1.432709985847921,-0.6891061683606053,2.005006171303495,0.0154318652911862,0.0983752199830252,0.054563656913599,-0.7545046026359096,1.021610172764498,-0.3576377022935571,1.4243874997545716,-0.6887157027552685,2.0056064057691336,-1.097126182217777,1.338697053267923,-0.4238254727896389,0.1571209870896064,-0.0531710712124766,0.0830393633450499,-0.1223286798154005,9.994692886333723,-1.0147712420403086,0.2874093472323535,-0.7907596369466373
2.0,1.418358744082881,-0.66967554765161,1.9981906252301629,0.0143696963649452,0.0964435880379609,0.0542876192494719,-0.7561679956554116,1.0236339908857075,-0.3596609240219531,1.3949847557161257,-0.6380256597223805,1.987124286188817,-0.8545046041260257,1.0822264759997904,-0.3625306107959272,0.1655003193903165,-0.0831696509751012,0.1011909060604887,-0.1011610864197987,10.023206609619592,-1.0165309069525006,0.2879473504009964,-0.7883834792702243
2.02,1.403174546726522,-0.649011064279574,1.9910550754465524,0.0183617602111327,0.0953107799822412,0.0543626182246582,-0.7620164712915157,1.0404524197167406,-0.3533588512625364,1.3949847557161257,-0.6380256597223805,1.987124286188817,-0.8545046041260257,1.0822264759997904,-0.3625306107959272,0.9444314912628712,-0.2924237818052067,0.8409214415516453,0.3151036379708344,10.559959397004604,-1.019706273953488,0.2856449026834344,-0.7851926004345868
2.04,1.387890261456709,-0.6281372082900607,1.984050295642968,0.0279755473660589,0.0958611190039548,0.054842586468289,-0.7659128084961495,1.045129174172117,-0.3474851042550525,1.3949847557161257,-0.6380256597223805,1.987124286188817,-0.8545046041260257,1.0822264759997904,-0.3625306107959272,0.4229491096929433,-0.1948168602316891,0.2338377227688148,0.2936873503741943,10.559959397004604,-1.0216019922478432,0.2810406227229743,-0.7832413341565094
2.06,1.3733131803144758,-0.6082939735247221,1.9774749160457692,0.0376060055174679,0.0970272847654771,0.0553401091315809,-0.7682638699229337,1.0433545929123795,-0.3449623856654809,1.3864397096748655,-0.6272033949623825,1.9834989800808576,-0.8745046044240489,1.0943497366468489,-0.3635091924964013,0.1939119488459525,-0.1175530713392103,-0.0887290629868697,0.1261359294785824,10.453584359788692,-1.0212433562718224,0.2745650201319201,-0.7853547451391333
2.08,1.3579325619675582,-0.5874816050254841,1.9705777690542463,0.0466307897888559,0.0983089042589059,0.0557804744726881,-0.7696555370984446,1.038079778841566,-0.3450075223795569,1.369349617592345,-0.6055588654423868,1.9762483678649392,-0.9145046050200952,1.1185962579409658,-0.3654663558973493,0.2727748079093967,-0.0695833587755434,-0.2637407035406713,-0.0022568357038038,10.26596255450022,-1.0197898933214642,0.2676718661574691,-0.7896858587055444
2.1,1.3425322666259971,-0.5667978418056815,1.9636555453558364,0.0539676077017374,0.0992032693209406,0.0560756255637623,-0.770338733785451,1.0307777591499048,-0.3472954564633568,1.3522595255098244,-0.583914335922391,1.9689977556490208,-0.9545046056161418,1.1428427792350828,-0.3674235192982973,0.3841252779444479,-0.0341598343503224,-0.3651009845830666,-0.1143967041899951,10.11842315008562,-1.0180954820443346,0.261252401276151,-0.7944882983588308
2.12,1.3271229652696932,-0.5462735875980258,1.956671908878218,0.0595432431588064,0.0994493753104931,0.0562001523034973,-0.7706294894655293,1.022268221443108,-0.3509963887922029,1.3331694333975015,-0.5610574803376893,1.9616492852630547,-0.9945046062121882,1.1670893005291998,-0.3693806826992454,0.4642027330584979,-0.0145377840039151,-0.4254768853398372,-0.1850466164423053,9.945245249377876,-1.0166861678658814,0.2557824934318053,-0.79886168215967
2.14,1.3124818278104495,-0.5269421337260621,1.9499642639870896,0.0632616690516989,0.0989215012134208,0.0561489270512599,-0.7706349628812668,1.0134168000636432,-0.3548685771064112,1.3140793412851788,-0.5382006247529876,1.9543008148770888,-1.0345046068082346,1.1913358218233168,-0.3713378461001934,0.4830671090433962,-0.0002736707868711,-0.4425710689732409,-0.1936094157104134,9.945245249377876,-1.0158086630714784,0.2506601608133542,-0.8028945670274039
2.16,1.297065800849175,-0.5067715389349543,1.9428265431245144,0.0659479534541122,0.0975749895979901,0.055943896877868,-0.7710464307108474,1.0042632779081768,-0.3586776906516072,1.2939892491579548,-0.5147376061359331,1.9469034154060991,-1.074504607404281,1.2155823431174335,-0.3732950095011415,0.4961492205616907,-0.020573391479034,-0.4576761077733193,-0.1904556772597987,9.938385473620656,-1.0158284391163952,0.2466164196737329,-0.805335727352851
2.18,1.2816362362760103,-0.4867866837508606,1.9356183766825232,0.0676912635736809,0.0955742845002669,0.0556151273819448,-0.7719851678309568,0.9948566870195188,-0.3619410876438068,1.2728991570158297,-0.4906684244865256,1.9394570868500856,-1.1145046080003274,1.2398288644115507,-0.3752521729020895,0.5000373472450703,-0.0469368560054694,-0.470329544432907,-0.1631698496099787,9.958705631847806,-1.0165998913907492,0.2432632298397623,-0.8066594694139873
2.2,1.266954344748487,-0.4679795885454823,1.92871570664324,0.0685452045347815,0.0932355478238294,0.0552056021259213,-0.7735144109651166,0.9854134019939086,-0.3644879615391865,1.2430369778844623,-0.4370438493998847,1.917521322300333,-0.871985169321073,0.9812811480266368,-0.364288385610287,0.494976724900408,-0.0764621567079903,-0.4721642512805046,-0.1273436947689887,10.027147475977472,-1.017848712155226,0.2405953120172792,-0.8072129378788196
2.22,1.2514148677582244,-0.4481683852947899,1.9214264621762227,0.0753929249796639,0.0916337885339428,0.0552320308658238,-0.7802932797612065,0.9927471580985372,-0.364396982773895,1.2430369778844623,-0.4370438493998847,1.917521322300333,-0.871985169321073,0.9812811480266368,-0.364288385610287,0.4993628888206312,-0.3389434398044955,0.3666878052314359,0.0045489382645785,10.027147475977472,-1.0191194285327807,0.2357492453083562,-0.8065430868525405
2.24,1.2357554011846097,-0.4283912983645452,1.914123831411344,0.0877614412531137,0.0918588910188386,0.0557482759088514,-0.7851018172814919,0.9839452195390268,-0.3659376312661668,1.2430369778844623,-0.4370438493998847,1.917521322300333,-0.871985169321073,0.9812811480266368,-0.364288385610287,0.5073700653027606,-0.2404268760142658,-0.4400969279755307,-0.0770324246135933,10.144480163424303,-1.0197194323254468,0.2261906395450752,-0.8094273528148269
2.26,1.2208055857543,-0.4098260123154589,1.90713694800222,0.0998672175508678,0.092824584803772,0.0563082097575688,-0.7882469784073135,0.9704633756016466,-0.3694856268639087,1.2343171261912518,-0.4272310379196183,1.91387843844423,-0.8919851696190961,0.9785660402280606,-0.364757845203583,0.7145635507441707,-0.1572580562910819,-0.6740921968690028,-0.1773997798870941,10.07179816032749,-1.0183096550049044,0.2143238910446971,-0.8161067191105347
2.28,1.2050175933769651,-0.3905914895270819,1.8996943959131984,0.1121497549520696,0.0939827169559648,0.0568626573275854,-0.7903373922775487,0.9534081286026038,-0.3746743640630398,1.2168774228048305,-0.4076054149590856,1.9065926707320244,-0.9319851702151426,0.973135824630908,-0.3656967643901752,0.8974606872572152,-0.1045206935117615,-0.8527623499521408,-0.2594368599565522,9.97124792606337,-1.016365184564522,0.2023382304206956,-0.8233735148277403
2.3000000000000003,1.1891985974143653,-0.3717433105950705,1.8921338148394005,0.1232066369686969,0.0948194178937957,0.0572758044417399,-0.7914740790107102,0.9323312183345196,-0.3811700876549752,1.199437719418409,-0.3879797919985528,1.8993069030198184,-0.9719851708111892,0.9677056090337552,-0.3666356835767673,1.1042221562722856,-0.0568343366580736,-1.0538455134042113,-0.3247861795967727,9.910568008147491,-1.0142369414077823,0.1905183027546543,-0.830941289969024
2.32,1.1733647336975392,-0.3533510725668206,1.8844350155775609,0.1322151767411148,0.0950338888096145,0.0574436502940543,-0.7919686036607414,0.9083785931522504,-0.3883574351786199,1.1799980160021852,-0.3686256798178777,1.8919741893482835,-1.0119851714072354,0.9622753934366024,-0.3675746027633594,1.2506306131082472,-0.0247262325015595,-1.1976312591134577,-0.3593673761822347,9.87405788363867,-1.0123719608633948,0.1800125913299356,-0.8379539872476465
2.34,1.1583174683807986,-0.3363397834459545,1.876988971019676,0.1387334746279309,0.0945022243436611,0.0573348830930809,-0.7920336451351594,0.8839346130968715,-0.3950378786207638,1.160558312585961,-0.3492715676372026,1.884641475676748,-1.051985172003282,0.9568451778394496,-0.3685135219499515,1.2670247786890767,-0.0032520737208996,-1.2221990027689478,-0.3340221721071928,9.902752699891607,-1.0110776678899922,0.170174378569165,-0.8443574611052717
2.36,1.1424744950750765,-0.3189434722941632,1.869020719275569,0.1436214734567108,0.0931427050160346,0.0569393629824108,-0.7923397656130663,0.8572872265943023,-0.4013636406057587,1.1401186091548363,-0.3300532108464563,1.877285289025548,-1.0919851725993284,0.951414962242297,-0.3694524411365436,1.369481819754378,-0.015306023895345,-1.3323693251284574,-0.3162880992497452,9.902752699891607,-1.0105686200111588,0.1618668160572372,-0.8493837432698738
2.38,1.126621622936158,-0.3020897906721038,1.860937254663384,0.1466573874696422,0.0910816145312534,0.0562823970905635,-0.7930255374153115,0.8297577731295844,-0.4065663817885589,1.1186789057088102,-0.3109706094456388,1.8699056293946827,-1.1319851731953747,0.9459847466451444,-0.3703913603231357,1.4012580123285907,-0.034288590112258,-1.3764726732358956,-0.2601370591400115,9.96019099764817,-1.011508701643049,0.1559604806137179,-0.8515871526829055
2.4,1.110749645562657,-0.2857976670392503,1.8527648148100888,0.1478282693122066,0.0884478867884682,0.0553854528004202,-0.7942577000458173,0.8012366462945248,-0.4103667802683657,1.0869703460653926,-0.2606019020156246,1.840608935573956,-0.8831103658516861,0.7833511836811324,-0.3795094139489602,1.4399791051391069,-0.0616081315252925,-1.4260563417529792,-0.1900199239903394,10.035574048029956,-1.0135601781100223,0.1520725575404192,-0.8518618331960733
2.42,1.0955859644516288,-0.2707741046153174,1.8449291502878808,0.1496593786711489,0.0871289588610003,0.0547423859536518,-0.8019461806580074,0.7809759580867011,-0.4144218436128147,1.0869703460653926,-0.2606019020156246,1.840608935573956,-0.8831103658516861,0.7833511836811324,-0.3795094139489602,1.1023290791616709,-0.3844240306095037,-1.0130344103911892,-0.2027531672224525,10.119533392336962,-1.0127319387983649,0.1473345739527588,-0.8551752741920968
2.44,1.0794821166632784,-0.255425752637239,1.8366118921721628,0.1531171997284271,0.0884502313768434,0.0545621456570218,-0.8076859312137011,0.7547417075448848,-0.4169835404294313,1.0869703460653926,-0.2606019020156246,1.840608935573956,-0.8831103658516861,0.7833511836811324,-0.3795094139489602,1.3488355427114138,-0.2869875277846878,-1.3117125270908137,-0.1280848408308277,10.052557706514564,-1.013599506561665,0.1421424619533512,-0.8573811868368756
2.46,1.0632932557611527,-0.2406375428866629,1.8282627510084997,0.1561078419356043,0.0910514555543683,0.0545329258618067,-0.8107756064425916,0.725661298272812,-0.4177901957693714,1.0781392424068756,-0.2527683901788133,1.836813841434466,-0.9011273315389612,0.774069865791442,-0.3740980203810405,1.4627602241043558,-0.1544837614445238,-1.4540204636036391,-0.040332766997006,10.195486399378751,-1.0123042815585,0.1371690269988766,-0.861858246902476
2.48,1.047878551213253,-0.2271426418270505,1.8203297742157625,0.1578721330387408,0.0937895097960619,0.0544609479318647,-0.8116385371926431,0.6966350131146344,-0.417189877816155,1.060477035089842,-0.2371013665051906,1.8292236531554869,-0.9371612629135108,0.7555072300120612,-0.363275233245201,1.452265696427638,-0.0431465375025752,-1.4513142579088811,0.0300158976608205,10.3988834226966,-1.010165858872199,0.1327041629869779,-0.8671794977717902
2.5,1.0316528154938684,-0.213541772067401,1.812004930404872,0.1582714478083161,0.0962591687461084,0.0542047094356894,-0.8108666380606119,0.6651313161304921,-0.4152456708579348,1.0428148277728082,-0.221434342831568,1.821633464876508,-0.9731951942880608,0.7369445942326804,-0.3524524461093616,1.5786534551913818,0.0385949566015619,-1.575184849207112,0.0972103479110086,10.3988834226966,-1.0087110291725483,0.129814993698156,-0.8711700522812712
2.52,1.0154562638506577,-0.2005833045482132,1.8037339685167129,0.1566293935339603,0.0978380959449696,0.0536492942679476,-0.8088778478816644,0.6325185766953572,-0.41184945867472,1.023350923887047,-0.2066954509469143,1.8145844159543203,-1.0092291256626107,0.7183819584532997,-0.3416296589735221,1.6424678969718889,0.0994395089473743,-1.6306369717567493,0.1698106091607421,10.588288833590925,-1.0080873438140716,0.1286465992662195,-0.8738280093584088
2.54,0.9993071118400152,-0.188274800726837,1.7955491186656989,0.1526329197683037,0.0982562770559374,0.0527351350747378,-0.806252657396361,0.600721347116972,-0.4066175989977489,1.0038870200012855,-0.1919565590622607,1.807535367032133,-1.0452630570371606,0.6998193226739188,-0.3308068718376826,1.61657646712441,0.1312595242651704,-1.5898614789192578,0.2615929838485548,10.684989617673637,-1.008846583390893,0.1298171926382826,-0.8741056966060636
2.56,0.9840133740727792,-0.1771477722463929,1.7878933292718475,0.1475003150645155,0.0975248070940927,0.0515981269238556,-0.8038679922840516,0.5726126728496423,-0.3994506185523613,0.9835222678311608,-0.1776817330720916,1.800756887788342,-1.0812969884117103,0.681256686894538,-0.3199840847018432,1.4552918998170723,0.1192332556154696,-1.405433713366483,0.3583490222693775,10.684989617673637,-1.010617938590525,0.1323200690161528,-0.872899182563563
2.58,0.9679601303480132,-0.1659905818918914,1.7800020854199643,0.1414649433437686,0.0956371260908904,0.0502006688621913,-0.801683296186737,0.5448987159350897,-0.3899255095999093,0.962256667376672,-0.1638709729764071,1.7942489782229467,-1.1173309197862602,0.6626940511151572,-0.3091612975660037,1.4693229779862786,0.1092348048657321,-1.3856978457276348,0.4762554476226005,10.7933265692227,-1.0135523652314455,0.1356645478422087,-0.8699467280809856
2.6,0.9519449933336748,-0.1553727933216459,1.772322546474104,0.1351091510485352,0.0926326087032123,0.0486427635810696,-0.8000951366326866,0.5186036615692458,-0.3784556312074808,0.9278759655386764,-0.1387456460951369,1.760505809939969,-0.8318941767494,0.5064368184128786,-0.3370839989762159,1.436584704436973,0.0794079777025169,-1.3147527182921948,0.5734939196214262,10.894336298320924,-1.0176161541575526,0.1395339193100165,-0.8653314337007236
2.62,0.9366157146647336,-0.1457308441669337,1.765149027569165,0.1296299708264013,0.0928233069804207,0.0476259908801856,-0.8127117531829408,0.4974955654820087,-0.3772440604349656,0.9278759655386764,-0.1387456460951369,1.760505809939969,-0.8318941767494,0.5064368184128786,-0.3370839989762159,1.2310550732410293,-0.6308308275127072,-1.0554048043618507,0.0605785386257606,10.41831021312828,-1.010431270082156,0.1393524059724134,-0.8747881417016764
2.64,0.920273751523764,-0.136016000900658,1.757646163259117,0.1245509039898743,0.0986714074110617,0.0473271566008159,-0.8201089931283629,0.4752094298358646,-0.3728780461221109,0.9278759655386764,-0.1387456460951369,1.760505809939969,-0.8318941767494,0.5064368184128786,-0.3370839989762159,1.1942079821251144,-0.3698619972711092,-1.1143067823072033,0.2183007156427358,10.602612866690832,-1.0097627872231254,0.1426263582860081,-0.8765248737245201
