t,x,y,z,roll,pitch,yaw,v_x,v_y,v_z,ref_x,ref_y,ref_z,ref_v_x,ref_v_y,ref_v_z,a_com,a_x,a_y,a_z,thrust,wind_x,wind_y,wind_z
0.0,1.8019556429580863,-1.2224209217734388,2.767506455659276,0.0308776942008266,0.0996740808811058,0.0422087305697491,-0.0006105621131508,0.005957835713015,-0.0002406246896335,1.8019344069113987,-1.2221858207188534,2.767500740325901,-0.1006669980536417,0.1071765284732958,-0.1001982843441558,0.2996935631547405,-0.0305281056575402,0.2978917856507517,-0.0120312344816774,10.25440366447492,-0.9406323401268026,0.2527944563731931,-0.8790368550052146
0.02,1.8021088233499647,-1.222602517693834,2.76738809017989,0.0230189989923553,0.0944907078804432,0.0415233433234889,0.0152693466880752,-0.0194234148155984,-0.0118931581067199,1.8019344069113987,-1.2221858207188534,2.767500740325901,-0.1006669980536417,0.1071765284732958,-0.1001982843441558,1.6063630636999648,0.7939954400613017,-1.2690625264306743,-0.5826266708543225,10.254974300654794,-0.9459612515354384,0.2523359319113808,-0.880688052119225
0.04,1.8025314836237445,-1.223025757917921,2.76695975069824,0.0063962904092736,0.07934550975914,0.0401978213653913,0.0245877082099402,-0.0207040808029263,-0.0302106350406134,1.8019344069113987,-1.2221858207188534,2.767500740325901,-0.1006669980536417,0.1071765284732958,-0.1001982843441558,1.0295653549520216,0.4659180760932517,-0.0640332993663934,-0.915873846694674,9.207124813885455,-0.9510999121338968,0.2669933677394134,-0.8677441465483527
0.06,1.802997408143299,-1.223365261694322,2.766197292168984,-0.0100349167220789,0.0593981888698686,0.0392048220888986,0.0231004917983582,-0.0146629887661647,-0.0491000531170919,1.8009277369308625,-1.2211140554341204,2.76649875748246,-0.120666998351665,0.127176528771319,-0.120198284642179,0.99438010956512,-0.0743608205790988,0.3020546018380785,-0.9444709038239256,9.207124813885455,-0.9614778303081796,0.2802669658207101,-0.8518975733981904
0.08,1.8033548427725647,-1.2235597698992926,2.764998789800911,-0.0266945503009549,0.0363930540720254,0.038661507913407,0.011947661540688,-0.004771635570427,-0.069816395839206,1.7989143969697896,-1.2189705248646543,2.7644947917955767,-0.1606669989477114,0.1671765293673655,-0.1601982852382254,1.2761184766503102,-0.5576415128835096,0.494567659786884,-1.0358171361057045,9.097750240950518,-0.9756493010248156,0.2914987808258122,-0.8337946441285233
0.1,1.803397606437698,-1.2235265029608706,2.7633774951527403,-0.0425396623695253,0.0142262359402549,0.0385939216294699,-0.0076016387659232,0.0079148844353742,-0.0913460733531154,1.7969010570087167,-1.2168269942951886,2.7624908261086936,-0.2006669995437579,0.2071765299634119,-0.2001982858342719,1.586387362995404,-0.9774650153305672,0.6343260002900675,-1.0764838756954658,9.058994085610266,-0.9908766275388796,0.3009477611583818,-0.8158281330570892
0.12,1.802977522464274,-1.2232122222534931,2.7613197482063487,-0.0575975459202017,-0.0050946098146266,0.0388504512867826,-0.033676071512835,0.0231796681219657,-0.1134039059441237,1.7928877170178417,-1.2126834636959205,2.7584868603920083,-0.2406670001398043,0.2471765305594583,-0.2401982864303183,1.8704529148608675,-1.3037216373455909,0.7632391843295736,-1.102891629550417,9.051672861268344,-1.0045375712190885,0.308505142966876,-0.8007377594701606
0.14,1.802046465430323,-1.2226076622557904,2.7589495689423496,-0.0712139448277038,-0.0196907670024105,0.039220127552822,-0.0629027431055089,0.0399530942335322,-0.1350189742487599,1.7888743770269664,-1.208539933096652,2.7544828946753226,-0.2806670007358508,0.2871765311555049,-0.2801982870263648,2.001722591744596,-1.4613335796336933,0.8386713055783267,-1.0807534152318117,9.082343223255066,-1.0165909921767595,0.3150887299520462,-0.7889691320820297
0.16,1.8004337204870329,-1.2215908920732064,2.756001915727763,-0.0844675861949151,-0.0306223257143094,0.0395950190463998,-0.0968146868434847,0.0609078693641696,-0.1586529311832372,1.78386103702119,-1.2033964024824826,2.749478928943736,-0.3206670013318972,0.3271765317515513,-0.3201982876224112,2.317156905155509,-1.6955971868987922,1.047738756531868,-1.1816978467238628,9.082343223255066,-1.0251705139190117,0.3208000483037741,-0.7819783920298832
0.18,1.798111098203065,-1.220112051323757,2.7525735023386164,-0.0957379318772102,-0.0364286224465485,0.0398172060097613,-0.133791476268489,0.0856223072548774,-0.1830194381230142,1.7778476970005126,-1.197252871853412,2.7434749631972486,-0.3606670019279436,0.3671765323475977,-0.3601982882184577,2.5356523109847684,-1.8488394712502136,1.2357218945353878,-1.218325346988848,9.084870104842594,-1.0291271723099509,0.3252712227594528,-0.7808636537301377
0.2,1.7952078444584534,-1.2182265175425426,2.74886238680665,-0.1040559649596928,-0.0366466812911323,0.0397401279204779,-0.169274353367983,0.1110850410989165,-0.2062891291484982,1.7914215243896403,-1.2158309359610135,2.7434225304324658,-0.2337914777586051,0.1856223087449935,-0.2830194396131303,2.474299851721524,-1.7741438549746995,1.2731366922019551,-1.163484551274202,9.11406650398112,-1.0309601655817535,0.327256852615834,-0.7853232171475109
0.22,1.7913986396501729,-1.2155547844218968,2.7446810522828544,-0.1061858635828657,-0.0311654578799349,0.0395286092425811,-0.2090684012794698,0.1529326559778995,-0.2091517699278666,1.7914215243896403,-1.2158309359610135,2.7434225304324658,-0.2337914777586051,0.1856223087449935,-0.2830194396131303,2.8909271144708426,-1.9897023955743371,2.09238074394915,-0.1431320389684187,9.12366134461081,-1.0341075444174626,0.3256529560020506,-0.7863235847564176
0.24,1.7868477380503691,-1.2121341339931238,2.740477265242663,-0.101224609353222,-0.0205072973255708,0.0392847452722522,-0.2432273749151561,0.1856544207865615,-0.2111270084900214,1.7914215243896403,-1.2158309359610135,2.7434225304324658,-0.2337914777586051,0.1856223087449935,-0.2830194396131303,2.367198206432203,-1.7079486817843186,1.6360882404331034,-0.0987619281077406,10.582404537932234,-1.0316830008541815,0.3218756132613269,-0.7910782723869699
0.26,1.7816779458269318,-1.2081428550940994,2.7361949374414984,-0.0940938431980703,-0.0070029722713373,0.0389770843871071,-0.2714107627819929,0.2114235081586703,-0.2168794328148609,1.7890836096120544,-1.2139747128735636,2.7405923360363342,-0.2537914780566284,0.2056223090430167,-0.3030194399111535,1.930958053180427,-1.409169393341836,1.2884543686054364,-0.2876212162419747,10.004124902092371,-1.0258032691805774,0.3171528003126292,-0.8003897754712554
0.28,1.7762993277454422,-1.2039156544048142,2.731984106495644,-0.0872956907513771,0.0067842639543654,0.0386867671715515,-0.2929663008727176,0.2322425849574093,-0.2260533781239936,1.7844077800568825,-1.2102622666986638,2.734931947244072,-0.2937914786526748,0.2456223096390632,-0.3430194405071999,1.567032588738536,-1.077776904536237,1.0409538399369531,-0.4586972654566368,9.740089558231375,-1.017059463883911,0.3118916072059366,-0.8138935949399893
0.3,1.7702457874150592,-1.1990647188382242,2.727326724485021,-0.0809267611825705,0.0209497221579829,0.038448308362278,-0.3109054739434823,0.2518071192283348,-0.2394003072103585,1.7797319505017102,-1.206549820523764,2.729271558451809,-0.3337914792487213,0.2856223102351096,-0.3830194411032464,1.4855347923706783,-0.8969586535382351,0.978226713546272,-0.6673464543182434,9.740089558231375,-1.0066919957583738,0.3070334499906231,-0.8292203489600058
0.32,1.7638763336666188,-1.1938381868490693,2.7223643616470823,-0.0756017410337956,0.0337887971511016,0.0383195169770273,-0.3249267546503916,0.2699598114653033,-0.2563507662862823,1.7730561209167357,-1.2008373743190617,2.7216111696297443,-0.3737914798447677,0.325622310831156,-0.4230194416992928,1.4260387538533184,-0.7010640353454639,0.9076346118484236,-0.8475229537961911,9.512025465756778,-0.9961262891531664,0.3030664252199057,-0.8441146005290218
0.34,1.7575971513701996,-1.18854700130418,2.717312362416746,-0.0715265765768816,0.0441590351424671,0.038315426168417,-0.3353216326166814,0.2862836858245525,-0.2746288914292258,1.7663802913317614,-1.1951249281143594,2.713950780807679,-0.4137914804408142,0.3656223114272026,-0.4630194422953393,1.3309885619077615,-0.5197438983144897,0.8161937179624629,-0.9139062571471762,9.22234173815832,-0.9855871181936704,0.2993582388626727,-0.8589238133818691
0.36,1.7507916326067154,-1.1826403704487267,2.711600788854421,-0.0679127099466765,0.05301924806233,0.0384430609867986,-0.3446237395036456,0.3035023219998395,-0.2956694624770222,1.758704461731886,-1.188412481894756,2.705290391970713,-0.4537914810368607,0.405622312023249,-0.5030194428913858,1.4367639457221006,-0.4651053443482128,0.8609318087643508,-1.0520285523898163,9.22234173815832,-0.9757045894216668,0.2961476827685274,-0.8724944667068056
0.38,1.743812828303933,-1.176391926415468,2.705452286001635,-0.0646276746341755,0.0599464730405359,0.0386994264907716,-0.3527679417533025,0.3204129235190263,-0.3182042857470627,1.750028632117109,-1.1807000356602515,2.695630003118846,-0.4937914816329071,0.4456223126192954,-0.5430194434874321,1.4663856363828704,-0.4072101124828448,0.8455300759593387,-1.1267411635020264,9.140079390727806,-0.9669531700324084,0.2930766369160971,-0.8845881739574315
0.4,1.7366790891739274,-1.1698102941282535,2.698839540799405,-0.0615009335693576,0.0651998090962726,0.0390647428463662,-0.3601975123628219,0.3368183143325033,-0.342003995017561,1.7261744312162677,-1.1603712802395163,2.689542071714282,-0.4527679432434187,0.4204129250091424,-0.4182042872371788,1.492281414935697,-0.371478530475966,0.8202695406738514,-1.1899854635249174,9.07707948312236,-0.9602636617296288,0.2902903792014571,-0.8939711989942309
0.42,1.729801722601325,-1.163248925057396,2.692388050551449,-0.0588657460259463,0.0683771416896943,0.0395038169633747,-0.3635564945972357,0.35311367106968,-0.3359199622724323,1.7261744312162677,-1.1603712802395163,2.689542071714282,-0.4527679432434187,0.4204129250091424,-0.4182042872371788,0.8857720746427303,-0.1679491117206916,0.8147678368588318,0.3042016372564377,9.023066478996045,-0.9657714517528088,0.2874279779665922,-0.8898548105194815
0.44,1.7224968277551769,-1.1560249778609435,2.6856949650354744,-0.0569327885375688,0.0694971378056741,0.0400352643303664,-0.3669036676597833,0.3685923085431213,-0.3341277889326007,1.7261744312162677,-1.1603712802395163,2.689542071714282,-0.4527679432434187,0.4204129250091424,-0.4182042872371788,0.7968746307055931,-0.1673586531273779,0.773931873672068,0.0896086669915779,10.760937872831164,-0.9639128539098604,0.2876916647822279,-0.8899852593779695
0.46,1.7151186489144186,-1.1484937379847726,2.6789656970869262,-0.0559413037581078,0.0684096092873334,0.0406195597524514,-0.3709013929264133,0.3838457613028119,-0.3388591369485911,1.7216467517838334,-1.1561671509894251,2.68536002884191,-0.4727679435414418,0.4404129253071656,-0.4382042875352021,0.8231574613158453,-0.1998862633315001,0.7626726379845267,-0.23656740079952,10.35530467551689,-0.9633655863468908,0.2881852488985772,-0.8893641559142793
0.48,1.7080269322134911,-1.141059710847494,2.672440280767711,-0.0557346266198765,0.0654704073790955,0.0412231711157962,-0.3755367430935248,0.3979796803254318,-0.347773115779608,1.7125913929189651,-1.147758892489242,2.6769959430971664,-0.5127679441374883,0.4804129259032121,-0.4782042881312485,0.8670541458143448,-0.2317675083555792,0.7066959511309978,-0.4456989415508455,10.01503110300473,-0.9647020732689828,0.2889104899272907,-0.8871270468848531
0.5,1.7004532506869847,-1.1329485252641716,2.6653529171940025,-0.0563641678742333,0.060535027977674,0.0418984664678013,-0.3819067146137828,0.4124434952476882,-0.3606486496555685,1.7035360340540968,-1.1393506339890591,2.668631857352423,-0.5527679447335347,0.5204129264992585,-0.518204288727295,1.0192618062416396,-0.3184985760128961,0.7231907461128173,-0.6437766937980233,9.566959232047338,-0.9674019223234058,0.290059011479384,-0.8836460865182088
0.52,1.6927233514763986,-1.1245484440657278,2.657978012676622,-0.0579136411232601,0.0544046802182547,0.0425804379968313,-0.3910417674766574,0.4269042069057053,-0.3763014488389007,1.692480675159426,-1.1289423754590742,2.658267771577877,-0.5927679453295812,0.560412927095305,-0.5582042893233414,1.1592794041316683,-0.4567526431437319,0.723035582900855,-0.7826399591666089,9.42680402721362,-0.9714447692766288,0.2916557465920731,-0.8788984912483032
0.54,1.6847829501653415,-1.1158545202502277,2.6502779424188394,-0.0602798005519238,0.047969127853099,0.043234915706885,-0.4027257893943954,0.4420006165838168,-0.3929166358889144,1.6814253162647554,-1.118534116929089,2.647903685803331,-0.6327679459256277,0.6004129276913515,-0.5982042899193879,1.2653876817506406,-0.5842010958868993,0.7548204839055744,-0.8307593525006873,9.391655505435663,-0.976601359788004,0.2936325616758038,-0.8728677804638604
0.56,1.6769969228572084,-1.1072930016515683,2.642649965009185,-0.0625033649573663,0.0422968596156421,0.0438459585748721,-0.4163274553471802,0.4583222516478188,-0.4091823652443142,1.6693699573551837,-1.1071258583842027,2.636539600013884,-0.672767946521674,0.6404129282873978,-0.6382042905154343,1.3378854952094372,-0.6800832976392418,0.8160817532001041,-0.8132864677699858,9.376574184215317,-0.9820549850684226,0.2957168805155467,-0.8663547749471759
0.58,1.668499243287095,-1.0979381655281009,2.6342794375600374,-0.0642279839462013,0.0374990663133144,0.0444683550449533,-0.4328713630320883,0.4761719105588348,-0.4270392502728086,1.6563145984307106,-1.0947175998244154,2.624175514209536,-0.7127679471177205,0.6804129288834443,-0.6782042911114807,1.5092875369253216,-0.8271953842454022,0.8924829455507988,-0.8928442514247237,9.376574184215317,-0.9865227366300944,0.2972378060539571,-0.861137083951821
0.6,1.6596442772886428,-1.0882178170405012,2.625542882151424,-0.0649786196899283,0.0347919827899447,0.0450256580551303,-0.4518176871648435,0.4947752884682922,-0.4457059199236799,1.6468556751354906,-1.0741295700001592,2.612927475046397,-0.5328713645222044,0.576171912048951,-0.5270392517629248,1.6228781713673626,-0.9473162066377632,0.9301688954728689,-0.9333334825435636,9.344546336695204,-0.9892862847336747,0.2979262204727259,-0.8581321448941058
0.62,1.6508436518534977,-1.07858080660885,2.617175319756925,-0.0632966697176295,0.0358456707068606,0.0454811837571383,-0.472898966810433,0.5180726505197109,-0.4340298840409446,1.6468556751354906,-1.0741295700001592,2.612927475046397,-0.5328713645222044,0.576171912048951,-0.5270392517629248,1.675945437645084,-1.054063982279474,1.1648681025709318,0.5838017941367651,11.209409944151048,-1.000045617135272,0.2967773658309798,-0.8458335753129551
0.64,1.641182618937554,-1.068000165873985,2.608585496772338,-0.0589796185788335,0.0407505317606954,0.0458970220153044,-0.4916028831923655,0.5381131951192709,-0.4259002065245192,1.6468556751354906,-1.0741295700001592,2.612927475046397,-0.5328713645222044,0.576171912048951,-0.5270392517629248,1.4296429382807003,-0.9351958190966236,1.002027229978003,0.4064838758212674,11.209409944151048,-0.999555226535198,0.2954965280152347,-0.8445415049549636
0.66,1.631183717351489,-1.0570613041575183,2.600077686225194,-0.0541429287175843,0.0478997458308176,0.0462307156921264,-0.5069456730637742,0.5546546082647238,-0.4252219276976215,1.6415269614902686,-1.0683678508796697,2.6076570825287675,-0.5528713648202276,0.5961719123469742,-0.547039252060948,1.1285827528960624,-0.7671394935704373,0.8270706572726438,0.0339139413448846,10.740163705234409,-0.9955664909248996,0.2934204493542264,-0.8484788281563425
0.68,1.62091231263307,-1.045814479166644,2.59151845259294,-0.0495940041894598,0.0560294241996763,0.0465134619493575,-0.5191388015402544,0.5692238939289065,-0.4307178482208576,1.6308695341998245,-1.0568444126386909,2.597116297493509,-0.592871365416274,0.6361719129430207,-0.5870392526569944,0.9888650175911744,-0.6096564238240065,0.7284642832091348,-0.2747960261618026,10.295227362682454,-0.9893633881548176,0.2908045093595076,-0.855863074514096
0.7000000000000001,1.61095557332446,-1.034873167642098,2.5832354767418795,-0.0458075050172311,0.0637896061761565,0.0467629073635182,-0.5281705519795207,0.5818492604037824,-0.4409008948727839,1.6202121069093804,-1.0453209743977117,2.586575512458251,-0.6328713660123205,0.6761719135390671,-0.6270392532530409,0.9282602460213052,-0.4515875219633147,0.6312683237437944,-0.5091523325963132,9.938726058368047,-0.9823981320492344,0.2882691810326825,-0.8643789602306858
0.72,1.6003130155251652,-1.023106678511137,2.574264750652169,-0.0424945087767702,0.0713454661066636,0.0470219920231869,-0.5354758634797822,0.5942112230843947,-0.4558414289574583,1.607554679589134,-1.0317975361269305,2.57403472739319,-0.672871366608367,0.7161719141351136,-0.6670392538490874,1.036104792200121,-0.365265575013074,0.6180981340306146,-0.747026704233722,9.653000266173876,-0.975077097918356,0.2858617323880476,-0.8735582135693275
0.74,1.5895450796553003,-1.0110990924418488,2.5649655828948106,-0.0398867496204518,0.0778014378291783,0.0472866550598899,-0.5409334943714891,0.6060632083361589,-0.4733371070479431,1.5948972522688876,-1.0182740978561489,2.561493942328129,-0.7128713672044135,0.7561719147311601,-0.7070392544451338,1.0912768223553757,-0.2728815445853461,0.5925992625882115,-0.8747839045242373,9.31142435685797,-0.9682730994427756,0.2836300199889724,-0.8823785706974465
0.76,1.5786775973180929,-0.9988489106018376,2.5552985207044108,-0.0375921284413706,0.083065243477316,0.0475784030321448,-0.5455218332625216,0.618279046339235,-0.4925055671049434,1.58123982493374,-1.0037506595704664,2.547953157248167,-0.7528713678004598,0.7961719153272064,-0.7470392550411802,1.1594281056335254,-0.2294169445516247,0.6107919001538065,-0.9584230028500174,9.235369582540445,-0.9623514570195396,0.2816590482716637,-0.8900525472274906
0.78,1.5682745944640348,-0.986986234141706,2.545745761414029,-0.0354138500663011,0.0870818771705643,0.0478902558227925,-0.549294347409097,0.6297012261131636,-0.5120967735178789,1.5665823975836914,-0.9882272212698828,2.533412372153304,-0.7928713683965063,0.8361719159232529,-0.7870392556372267,1.1494709897255966,-0.1886257073287711,0.5711089886964282,-0.9795603206467718,9.235369582540445,-0.9567833849618844,0.2794482799523246,-0.8974812424989158
0.8,1.557251034589642,-0.9742702757406732,2.5352732648486307,-0.0330811249277273,0.0904115744078007,0.0482481543062372,-0.5528494907803028,0.641199992709075,-0.5341944604405484,1.54080987709358,-0.955501172836048,2.520140922738135,-0.6492943488992131,0.7297012276032797,-0.612096775007995,1.2581419285491977,-0.1777571685602885,0.5749383297955712,-1.104884346133478,9.167295923765778,-0.9519261511979726,0.2771576874538629,-0.9041068826972728
0.8200000000000001,1.5461814272536696,-0.9613126285708664,2.52465913018927,-0.0305241851283625,0.09311814748068,0.0486350120371527,-0.5537500658681771,0.6538447879396309,-0.5244934551929324,1.54080987709358,-0.955501172836048,2.520140922738135,-0.6492943488992131,0.7297012276032797,-0.612096775007995,0.7981406278436465,-0.0450287543937166,0.6322397615277919,0.4850502623807984,11.065492205742885,-0.9556929073754464,0.2737715466657191,-0.9034216811055482
0.84,1.53566144821048,-0.9487900947107416,2.5147559012692384,-0.0283102941427202,0.0950937345955947,0.04899722662995,-0.5536461863220894,0.6638471482409343,-0.5186243497510554,1.54080987709358,-0.955501172836048,2.520140922738135,-0.6492943488992131,0.7297012276032797,-0.612096775007995,0.579880162716954,0.0051939773043852,0.5001180150651707,0.293455272093851,10.61789801667237,-0.9534787259858478,0.2737970072796312,-0.9036797820219304
0.86,1.524590703524028,-0.9354090434205944,2.50438415229394,-0.026581067484818,0.0962330510344532,0.0493523728082362,-0.5535204984950441,0.6737907646888246,-0.5191613696401206,1.534316933604588,-0.9482041605600152,2.514019954988055,-0.6692943491972363,0.7497012279013029,-0.6320967753060182,0.4979450166782321,0.0062843913522625,0.4971808223945162,-0.0268509944532591,10.61789801667237,-0.9512796989083866,0.2736520758710675,-0.9047487892992612
0.88,1.513519921833261,-0.9218352134568202,2.4939346689270465,-0.0255091620600367,0.0962841275089467,0.0496780844141893,-0.5536874901698144,0.6831652470936006,-0.5257303396432199,1.5213310466266037,-0.9336101360079496,2.501778019487895,-0.7092943497932828,0.7897012284973494,-0.6720967759020646,0.5724075765538836,-0.008349583738515,0.4687241202388004,-0.3284485001549653,10.218639467238065,-0.9498581541068444,0.273565476689257,-0.9055673826737722
0.9,1.502996106391476,-0.908771440478357,2.48384446065582,-0.0252086965028072,0.0952892259562632,0.0499525405064906,-0.5541559183360324,0.691576867704382,-0.536056829417062,1.5083451596486197,-0.919016111455884,2.489536083987735,-0.7492943503893292,0.8297012290933958,-0.7120967764981111,0.6663542175447938,-0.0234214083108974,0.4205810305390689,-0.5163244886921048,9.9087009631794,-0.9496511283093662,0.2738330165257214,-0.9052891147649756
0.92,1.4919053362831949,-0.8948517821610943,2.4729778681435017,-0.0258372962582494,0.0930109394712898,0.0501968430159842,-0.5549841533876262,0.700023357340054,-0.5502004488269187,1.493359272640833,-0.902422086874016,2.475294148457773,-0.7892943509853757,0.8697012296894423,-0.7520967770941576,0.8247289410422645,-0.0414117525796897,0.4223244817836036,-0.7071809704928322,9.677637600467278,-0.9504607260756824,0.2745718164359226,-0.9041889784711254
0.94,1.4807936684860863,-0.8807629359935968,2.461813565022356,-0.027575149685869,0.0892985810731823,0.0503967633201302,-0.5562598709377994,0.7085403362725422,-0.5655447531805464,1.4783733856330463,-0.885828062292148,2.4610522129278105,-0.8292943515814222,0.9097012302854888,-0.792096777690204,0.8797926765736162,-0.0637858775086597,0.4258489466244075,-0.7672152176813885,9.440895328754776,-0.9528188634179894,0.2760254035955155,-0.9014926404182784
0.96,1.4696419441777318,-0.8664871288179881,2.4503367243539174,-0.0300267449612068,0.0842323119046067,0.0505886152610282,-0.5591164525373628,0.7187432772074014,-0.5813623939347833,1.4623874986103589,-0.868234037695379,2.445810277382947,-0.8692943521774685,0.9497012308815352,-0.8320967782862504,0.9519162531248272,-0.1428290799781684,0.5101470467429592,-0.7908820377118431,9.440895328754776,-0.955776967618329,0.2779980616971677,-0.897908631904184
0.98,1.458971148151178,-0.8527186706007506,2.439137533112177,-0.0321614408568669,0.0787866240976215,0.050811262265626,-0.5641453247948456,0.7299224115224628,-0.5966950019405417,1.4454016115727697,-0.8496400130837087,2.429568341823183,-0.909294352773515,0.9897012314775816,-0.8720967788822969,0.9815185536638014,-0.2514436128741415,0.5589567157530728,-0.766630400287921,9.419281112094724,-0.960334330195912,0.280087999635379,-0.8923645840175206
1.0,1.4476130903898727,-0.8379905088476397,2.427028361252506,-0.0338273097510235,0.0730821715649123,0.0510911313466044,-0.5715427156055167,0.7422018951278905,-0.6134332743517953,1.4307638819114357,-0.8162225500246274,2.40930278301515,-0.6641453262849617,0.829922413012579,-0.6966950034306578,1.1019038884302714,-0.3698695405335572,0.6139741802713816,-0.8369136205626793,9.40339596577178,-0.9654895289214368,0.2817606294072926,-0.8861510954663672
1.02,1.4360476757595872,-0.822959697592196,2.4149139707031035,-0.0333298276269699,0.0698379150935826,0.0514349846479135,-0.5846244662926,0.7595697473348033,-0.5971177637016012,1.4307638819114357,-0.8162225500246274,2.40930278301515,-0.6641453262849617,0.829922413012579,-0.6966950034306578,1.3592004810703682,-0.6540875343541641,0.8683926103456419,0.8157755325097049,9.367942584809498,-0.973018468191054,0.2788481384405281,-0.8824101962773844
1.04,1.4248172314259042,-0.8083835067295713,2.403676752335144,-0.0304663719641746,0.0708347722220453,0.051779415090036,-0.5963578441666982,0.7736471799198451,-0.5866064900220674,1.4307638819114357,-0.8162225500246274,2.40930278301515,-0.6641453262849617,0.829922413012579,-0.6966950034306578,1.0563298950716502,-0.5866688937049114,0.7038716292520897,0.5255636839766875,10.92710958753105,-0.9756430513644728,0.2791497149590629,-0.8765268384324699
1.06,1.4127844419460367,-0.7927863042177614,2.3919929445390875,-0.026358747847164,0.0746059986918549,0.0521285358186334,-0.6059778367293822,0.7850862564473893,-0.5826356727080849,1.424122428648586,-0.8079233258945017,2.4023358329808437,-0.6841453265829849,0.8499224133106021,-0.716695003728681,0.7732465952885443,-0.4809996281341988,0.5719538263772084,0.1985408656991261,10.92710958753105,-0.9744721860942452,0.2778467154622547,-0.8761208364369877
1.08,1.400585555118177,-0.77698513204708,2.3803165674311484,-0.0223502155319072,0.0797970016119949,0.0524353432481979,-0.6131925705948779,0.7944428974061094,-0.5854723689958423,1.4108395221228869,-0.7913248776342501,2.38840193291223,-0.7241453271790314,0.8899224139066486,-0.7566950043247275,0.607548270940889,-0.3607366932747824,0.4678320479360065,-0.14183481438787,10.456311595933585,-0.9707942108739908,0.2760588906939521,-0.8792628817456432
1.1,1.388265010046,-0.761010775365415,2.368516863071599,-0.0188760345006431,0.0853985361634854,0.0527004605842279,-0.6183463717333216,0.8026262725275032,-0.5943372065733326,1.3975566155971877,-0.7747264293739985,2.374468032843617,-0.7641453277750778,0.9299224145026952,-0.7966950049207739,0.6559623461513509,-0.2576900569221885,0.4091687560696888,-0.4432418788745118,10.063560609652995,-0.9660288808719024,0.2743756078178315,-0.8839794184313513
1.12,1.3764818563164125,-0.7456907290138546,2.3570989196696925,-0.0161726727820108,0.0904595486843111,0.0529180282523545,-0.6216663213757172,0.809722610061762,-0.607111928883994,1.382273709041686,-0.7561279810839446,2.3585341327452016,-0.8041453283711243,0.9699224150987416,-0.8366950055168204,0.7492889998903716,-0.1659974821197785,0.3548168767129434,-0.6387361155330729,9.751998146391088,-0.9607049318658402,0.2726162486638788,-0.8897235021223199
1.14,1.3640253859261142,-0.7294237783454333,2.344792823794249,-0.013986896482827,0.0950601443112739,0.0531112371125912,-0.6237612595754806,0.8167071094128903,-0.6229343394200052,1.3669908024861843,-0.7375295327938907,2.3426002326467863,-0.8441453289671708,1.009922415694788,-0.8766950061128669,0.8710922345205703,-0.1047469099881681,0.3492249675564107,-0.7911205268005594,9.51082660683187,-0.9555430718008344,0.2708098580666142,-0.8958696316777058
1.16,1.3515341439056168,-0.7130107398243456,2.332150052531864,-0.0121580284679169,0.0987454354441481,0.0532867970541682,-0.6252555154671341,0.8241894967099331,-0.640553660282378,1.350707895915782,-0.7179310844889356,2.3256663325334697,-0.8841453295632171,1.0499224162908345,-0.9166950067089132,0.9600252444388327,-0.0747127945826764,0.3741193648521435,-0.8809660431186417,9.310954137959015,-0.9507608088962742,0.2690847784395939,-0.9016989115763492
1.18,1.339643632402964,-0.6972796310906183,2.3197993822894065,-0.0104324395534939,0.1014798783068531,0.0534547407902674,-0.6263070371786285,0.8312473929872187,-0.6586413785782304,1.333424989330478,-0.6973326361690794,2.307732432405252,-0.9241453301592636,1.0899224168868809,-0.9566950073049596,0.9722205908650264,-0.0525760855747181,0.3528948138642795,-0.904385914792616,9.310954137959015,-0.9467598374270156,0.2673493979300687,-0.9067274655718378
1.2,1.327108188266372,-0.6805797656085449,2.306412615122308,-0.0085744696910227,0.1036442283615041,0.0536325342429791,-0.6271851680212968,0.8382889299200088,-0.6791555350783948,1.3083282805440326,-0.6557172614412574,2.286867313360495,-0.7263070386687446,0.9312473944773348,-0.7190754219856705,1.085339777518923,-0.043906542133415,0.3520768466395041,-1.0257078250082208,9.24248703833564,-0.9430125503948912,0.2653733731458988,-0.9116273607781816
1.22,1.3145862965221815,-0.6637281337466183,2.292968955977128,-0.0063097486039321,0.1054037740022296,0.0538309513693051,-0.6247253788785314,0.8462580261987099,-0.662287577871728,1.3083282805440326,-0.6557172614412574,2.286867313360495,-0.7263070386687446,0.9312473944773348,-0.7190754219856705,0.9408573728945534,0.1229894571382672,0.3984548139350563,0.8433978603333392,9.166129434239338,-0.9457663799703026,0.2582446838236591,-0.9172899582739436
1.24,1.3021278888014314,-0.6467395241298688,2.2798806176356488,-0.0039584096811791,0.1067803930648831,0.0540251986263133,-0.6213063618148388,0.8522581308298564,-0.6475992579599043,1.3083282805440326,-0.6557172614412574,2.286867313360495,-0.7263070386687446,0.9312473944773348,-0.7190754219856705,0.8115381616082568,0.1709508531846315,0.3000052315573209,0.7344159955911866,11.126621725535188,-0.9449353061575608,0.258616462142554,-0.9155143232667274
1.26,1.2903587606836024,-0.6304990400755757,2.26765698160761,-0.0021748062617509,0.1073106204272588,0.0541690060066319,-0.6178388801272044,0.8570985693174373,-0.6398178310931365,1.3010652101573452,-0.6464047874964841,2.279676559140638,-0.7463070389667678,0.951247394775358,-0.7311622306671586,0.4899078436017063,0.1733740843817166,0.2420219243790489,0.3890713433383874,11.126621725535188,-0.9442694298021392,0.2593843512003638,-0.9132992027327256
1.28,1.2780407383164856,-0.6133116548161427,2.2548993559494965,-0.000996635086352,0.1067472225533413,0.054260229317822,-0.6142319064059817,0.861441969248335,-0.6365658637201695,1.2865390693839702,-0.6277798396069374,2.265295050700925,-0.7863070395628142,0.9912473953714044,-0.7553358480301346,0.3257709094599896,0.180348686061138,0.2171699965448859,0.1625983686483478,10.735662117616812,-0.9445025670711756,0.2600003049058843,-0.9110401116101676
1.3,1.2657940243759631,-0.5960438304585096,2.2421630026192627,-0.0008394819405296,0.1047029384463701,0.0542688076917388,-0.6107095293418494,0.8652091782042608,-0.6373779757849898,1.2720129286105957,-0.6091548917173907,2.250913542261211,-0.8263070401588607,1.0312473959674509,-0.7795094653931107,0.2610485084489033,0.1761188532066138,0.1883604477962874,-0.0406056032410118,10.43741751050311,-0.9462020131086006,0.261054436373648,-0.9076038435282772
1.32,1.2536162005152574,-0.5787050040686071,2.229375774325613,-0.0019909337940976,0.1007483761852703,0.0541803914218294,-0.6074248975772205,0.8686627858433942,-0.6412689931325579,1.2554867878074183,-0.5885299437980417,2.235323352953349,-0.8663070407549072,1.0712473965634972,-0.8036830827560868,0.3076370733240948,0.1642315882314449,0.1726803819566691,-0.1945508673784068,10.210206444195135,-0.9492795070763832,0.2627051380288964,-0.9029877878690172
1.34,1.241492727028377,-0.5612956965104658,2.2165065045167207,-0.0045998423138461,0.0947114791872929,0.0539992621887206,-0.6055751813924257,0.8724143665826314,-0.6454366147395384,1.2389606470042411,-0.5679049958786926,2.2197331636454867,-0.9063070413509536,1.1112473971595438,-0.8278567001190629,0.295232441756821,0.0924858092397395,0.1875790369618601,-0.2083810803490238,10.046963139426223,-0.9539181191388094,0.2650506251047472,-0.8970183117109866
1.36,1.2299789247269683,-0.5446608512984893,2.204207132756739,-0.0076772620399738,0.0877657347281003,0.0538083459612244,-0.606775321409026,0.8784859570410064,-0.6490083880283603,1.221434506186163,-0.5462800479444424,2.20353863390355,-0.946307041947,1.1512473977555902,-0.852030317482039,0.3572887878887932,-0.0600070008300146,0.303579522918751,-0.1785886644410927,10.03036907254682,-0.9603440211543498,0.2680476071010837,-0.8888073932138235
1.38,1.217804619336109,-0.5270105899080394,2.191189338865529,-0.0106212604742311,0.0800472366784599,0.0536534386101908,-0.6108468146654664,0.8861712164321297,-0.6525630270941,1.2029083653531831,-0.5236550999952911,2.1867397637275388,-0.9863070425430464,1.1912473983516365,-0.876203934845015,0.4697758192312891,-0.2035746628220203,0.384262969556165,-0.1777319532869858,10.047995155519857,-0.9678900323906284,0.2709407091453754,-0.8791510915287856
1.4,1.205520746532527,-0.5091978422127768,2.1781016096014643,-0.0129546109920664,0.0725713577717581,0.0535574759109205,-0.6175210150583904,0.8946047521483766,-0.6560164577950081,1.1872622786028355,-0.4827020290864329,2.158561187510824,-0.7108468161555825,0.9229682519176358,-0.6694177901251058,0.5647912427793434,-0.3337100196461995,0.4216767858123471,-0.1726715350454044,10.053420699869092,-0.975643119509727,0.2733417319653602,-0.8692529016495651
1.42,1.193031902506871,-0.4909317938794206,2.16522446599445,-0.005591123951827,0.0675127857328764,0.0540923400286232,-0.630750227388476,0.9256085673044552,-0.631353153694133,1.1872622786028355,-0.4827020290864329,2.158561187510824,-0.7108468161555825,0.9229682519176358,-0.6694177901251058,2.088376871088528,-0.661460616504278,1.550190757803921,1.2331652050437514,10.054155024039574,-0.9834910214560884,0.265793552164515,-0.8657412665559308
1.44,1.1809230592544435,-0.4732315517187276,2.1534375604251026,0.0090227246000626,0.0666509456422967,0.055046262432419,-0.6426686584526413,0.9349409458117895,-0.6106362878007388,1.1872622786028355,-0.4827020290864329,2.158561187510824,-0.7108468161555825,0.9229682519176358,-0.6694177901251058,1.2828979110594745,-0.5959215532082673,0.4666189253667296,1.0358432946697138,11.936564221030494,-0.9896606606794284,0.2576465393822283,-0.8572738598323446
1.46,1.1679613333443777,-0.4545146467399973,2.1413953055067823,0.0255219364698065,0.0685984130447868,0.0561238395972751,-0.6525717776688825,0.9357753060353786,-0.5949729072767242,1.18015381044128,-0.4734723465672565,2.151867009609573,-0.7308468164536057,0.930327659014737,-0.672788742731307,0.9275093215621476,-0.4951559608120603,0.0417180111794479,0.7831690262007251,11.084809610213595,-0.9912742574248156,0.2473627138317613,-0.8559435153772871
1.48,1.1548260473093486,-0.4358349581622843,2.12959456888874,0.0413575621508018,0.0721229663979119,0.0572022080275884,-0.660219798977426,0.9318822661130652,-0.5858701474550053,1.1659368741181684,-0.4550129815289038,2.138478653807071,-0.7708468170496522,0.9450464732089394,-0.6795306479437093,0.6255162390868867,-0.3824010654271736,-0.1946519961156689,0.4551379910859465,11.084809610213595,-0.9901644650273428,0.2371114430607092,-0.8586643185111293
1.5,1.1415610325259289,-0.4172860398715492,2.117920983767421,0.0555618050710053,0.0762201794511813,0.0582132935271083,-0.6657704321778802,0.9233901486232716,-0.5819520188700755,1.1517199377950569,-0.4365536164905511,2.1250902980045687,-0.8108468176456987,0.9597652874031418,-0.6862725531561117,0.5437768843801826,-0.2775316600227118,-0.4246058744896808,0.1959064292464896,10.709558883530008,-0.9872754052118208,0.2260615813888223,-0.8647088856309441
1.52,1.1288737766168602,-0.3998525421009583,2.106864467489068,0.0670074754733897,0.0799851358430263,0.0590428435023804,-0.6694198922308486,0.9124709325582786,-0.5820888621725507,1.1355030014421428,-0.4173583107424883,2.1113648469414463,-0.8508468182417451,0.9744841015973442,-0.693014458368514,0.5756877718035317,-0.18247300264842,-0.545960803249651,-0.0068421651237604,10.425115182598349,-0.983459507394921,0.2154875712761599,-0.872440170814069
1.54,1.1154593639721735,-0.3817460284861735,2.095204639875436,0.0768290253306683,0.0833259298254405,0.0597272494980857,-0.6718089539296079,0.8989964395794987,-0.5839510525128592,1.119286065089229,-0.3981630049944255,2.097639395878324,-0.8908468188377916,0.9892029157915468,-0.6997563635809164,0.69053843068146,-0.1194530849379649,-0.6737246489389948,-0.0931095170154217,10.14286156678645,-0.9797378784245028,0.2057765469133958,-0.8803946236309226
1.56,1.1020046786987978,-0.3639245484246533,2.083495113301737,0.084490121666107,0.0858306987644783,0.0601919606599167,-0.6735860286182913,0.8842083446630279,-0.5868961223165224,1.1020691287214135,-0.3785997288915075,2.083745397184892,-0.930846819433838,1.003921729985749,-0.7064982687933187,0.7591429079168137,-0.0888537344341688,-0.7394047458235409,-0.1472534901831634,10.105218783824055,-0.9767205694728514,0.197707318506562,-0.8869965564717284
1.58,1.0885182051561144,-0.3464076128601358,2.0717209863094954,0.0903653767996452,0.0875843195198185,0.0604536216445967,-0.6749985142086734,0.8684510116700531,-0.5903801037720472,1.0838521923386972,-0.3586684824337346,2.0696828508611493,-0.9708468200298844,1.0186405441799515,-0.713240174005721,0.8099796068065058,-0.0706242795191047,-0.7878666496487385,-0.1741990727762377,10.089277391093674,-0.9745033863921456,0.1911521558432393,-0.8923662722114244
1.6,1.0756827415938677,-0.33006785002262,2.060467560351988,0.0943854279006626,0.0886044797689795,0.0605155981192743,-0.676097126759775,0.8526635857865478,-0.5939980096496073,1.0547682794456807,-0.3029850622766332,2.042201981120893,-0.7749985156987895,0.8259089750472904,-0.5945643251552314,0.8116942289179714,-0.0549306275550776,-0.7893712941752673,-0.1808952938780028,10.089277391093674,-0.9727745765215978,0.1853010297793203,-0.8972738094637023
1.62,1.062138458191886,-0.3130498398106907,2.0486581903906904,0.1022239312174507,0.0894408900044037,0.0607864343897339,-0.6780823150307235,0.8474410615186335,-0.5864264808947247,1.0547682794456807,-0.3029850622766332,2.042201981120893,-0.7749985156987895,0.8259089750472904,-0.5945643251552314,0.470488522405377,-0.0992594135474256,-0.2611262133957126,0.3785764377441269,10.084140915258104,-0.973572382994506,0.1773178685167497,-0.8995246711510722
1.64,1.0485723595043888,-0.2962660757939718,2.0369905488526,0.1136178050272071,0.0901251222677217,0.0612585248513025,-0.6784134438259953,0.8306875037923929,-0.5809481106683936,1.0547682794456807,-0.3029850622766332,2.042201981120893,-0.7749985156987895,0.8259089750472904,-0.5945643251552314,0.8814815413584782,-0.0165564397635931,-0.8376778863120327,0.2739185113165565,10.74190254930545,-0.9738111781055296,0.1679985954521381,-0.9012702968962168
1.66,1.0350085861209068,-0.279867757204542,2.025402534692464,0.1250893539512941,0.0901161636153012,0.0616184426433091,-0.6780533236100937,0.809679200640609,-0.5781601458006558,1.0470182942886928,-0.2947259725261603,2.036256337869341,-0.7949985159968127,0.817400567722738,-0.5954011694318683,1.0597773775549406,0.0180060107950796,-1.050415157589191,0.1393982433868901,10.588064056822075,-0.9736400378466132,0.1571612782048267,-0.9042026567499544
1.68,1.0221335123446444,-0.2647036880287305,2.01442982969388,0.1355390358850931,0.0892174907847475,0.0617715325556263,-0.6773178634561676,0.7873495671747306,-0.5770324138929026,1.031518323974717,-0.2782077930252145,2.024365051366236,-0.8349985165928592,0.8003837530736329,-0.5970748579851419,1.1185092887569787,0.0367730076963057,-1.1164816732939231,0.0563865953876585,10.469735739709904,-0.974280687055561,0.1461925775584633,-0.9065323787697434
1.7,1.008599474386346,-0.2492303131463797,2.002891944298722,0.1457470220950855,0.0870126848612512,0.0616447347033394,-0.6761884371575189,0.7610377880341777,-0.5768621434372093,1.0160183536607412,-0.2616896135242686,2.0124737648631315,-0.8749985171889056,0.7833669384245278,-0.5987485465384156,1.316827928521223,0.056471314932438,-1.3155889570276469,0.0085135227846644,10.399987017279273,-0.976160638642083,0.1354589444880899,-0.907685158022174
1.72,0.99509023305963,-0.2343229242846739,1.9913495013996123,0.1544094855687338,0.0831309101139339,0.0610891209473263,-0.6749204279880597,0.7312143467497036,-0.5773671500789,0.9985183833169632,-0.2460222747557781,2.0004987939323637,-0.914998517784952,0.7663501237754227,-0.6004222350916892,1.492732836955807,0.0634004584729563,-1.4911720642237003,-0.0252503320845365,10.359507403089085,-0.9794609121092224,0.1260404023587353,-0.907244660252165
1.74,0.9816004338542916,-0.2200400743351265,1.9798016407837105,0.1609055778509744,0.077325923423088,0.0600027417525006,-0.6746040810810657,0.6990616820435861,-0.5773169117380529,0.981018412973185,-0.2303549359872875,1.9885238230015947,-0.9549985183809986,0.7493333091263176,-0.6020959236449629,1.60771300840703,0.0158173453497001,-1.6076332353058775,0.0025119170423582,10.359507403089085,-0.9844002857234154,0.1174176281738352,-0.9051838190891052
1.76,0.9687631894458384,-0.207084515304556,1.968843105556744,0.1649961865234356,0.0706702219703857,0.0585717243399071,-0.6770015916308794,0.6668488952843302,-0.576125238381655,0.9625184426145056,-0.2151130175850246,1.9765070098569943,-0.9949985189770448,0.7323164944772126,-0.6037696121982367,1.6161928822251592,-0.1198755274906815,-1.6106393379627937,0.0595836678198957,10.41421340944362,-0.9911170448186722,0.1105992426139177,-0.9010158691363028
1.78,0.9551729576294686,-0.1941152190705924,1.9573463457133484,0.1672460684178183,0.0633246060938317,0.0568093793232142,-0.682165473004578,0.6321435804655907,-0.5734805916377271,0.9430184722409252,-0.2002965195489893,1.9644483544985627,-1.0349985195730913,0.7152996798281075,-0.6054433007515103,1.7593455487123757,-0.2581940686849304,-1.7352657409369754,0.1322323371963918,10.50115463893053,-0.9990028795456064,0.1057301175065538,-0.8952413085240654
1.8,0.9414530347613852,-0.1818550067153948,1.9459172495928247,0.167216829427214,0.0562769379844037,0.0549028102791461,-0.6897681554821689,0.595881900286616,-0.569443685403576,0.9210646839792396,-0.1625080400473128,1.928672316131462,-0.7571211375796779,0.5991563583901284,-0.5450190552451576,1.8634691050569103,-0.3801341238795441,-1.8130840089487343,0.2018453117075547,10.592750926100052,-1.007490836649095,0.1030018569178997,-0.8884034749607929
1.82,0.9274425621711796,-0.1703827080405259,1.9345794413813464,0.1628473760253528,0.0537885233697293,0.053446504831989,-0.7103301474492296,0.5549921038955904,-0.5642060438133634,0.9210646839792396,-0.1625080400473128,1.928672316131462,-0.7571211375796779,0.5991563583901284,-0.5450190552451576,2.3033691909790157,-1.0280995983530383,-2.044489819551281,0.2618820795106336,10.68954488759664,-1.0107077427986917,0.1030051917672164,-0.8873565327189452
1.84,0.913782368810521,-0.1601842728721408,1.9239447011354185,0.1554690874337258,0.0578487035715011,0.052876134655956,-0.7258669222250211,0.5214813860700538,-0.5553208980884766,0.9210646839792396,-0.1625080400473128,1.928672316131462,-0.7571211375796779,0.5991563583901284,-0.5450190552451576,1.8995429675114497,-0.7768387387895759,-1.6755358912768303,0.4442572862443372,10.931329079379791,-1.0127574763766605,0.1074950822470224,-0.8870587108459764
1.86,0.8991400300086128,-0.150089701371322,1.9129570837430816,0.1464288041427616,0.0659736982380117,0.0527324838107969,-0.7370029408881636,0.4902879116881373,-0.5437582349877473,0.9134934726034428,-0.1565164764634116,1.9232221255790105,-0.7721122704946979,0.5925589139750359,-0.5393267479666437,1.7540944484705674,-0.5568009331571255,-1.5596737190958248,0.5781331550364643,11.039595498007657,-1.0102467928780174,0.1139517304814493,-0.8905939991800238
1.88,0.8843281929076658,-0.1405860374089526,1.9022141172330127,0.1368740841471627,0.075898666629597,0.0527292785959068,-0.7432372911280887,0.462161733975675,-0.5310573434921113,0.8983510498518493,-0.144533349295609,1.9123217444741072,-0.8020945363247379,0.579364025144851,-0.5279421334096158,1.5742153921962068,-0.3117175119962512,-1.4063088856231143,0.6350445747818012,11.086386097273136,-1.0054306261045554,0.1207808154122313,-0.8960250685196649
1.9,0.8701840268857662,-0.1320498682974279,1.892247890908876,0.1277164677972954,0.0855166378440685,0.052653921247566,-0.7451121301898999,0.4381434119341825,-0.5186342631893788,0.8832086271002558,-0.1325502221278064,1.901421363369204,-0.8320768021547779,0.566169136314666,-0.516557518852588,1.3552930858348309,-0.0937419530905592,-1.2009161020746255,0.6211540151366268,11.10072010636577,-0.9986623768913202,0.1280414304666975,-0.9031280218167193
1.92,0.8552938418847321,-0.1235277399204267,1.8820139731452832,0.1182862156501477,0.0947442108360941,0.0523822292191721,-0.7436286946819216,0.4156176235978801,-0.505412314049579,0.8665670910571602,-0.1212268394015131,1.8910902129921523,-0.8620590679848178,0.5529742474844811,-0.5051729042955603,1.3080822414260491,0.0741717753989124,-1.1262894168151183,0.6610974569899897,11.09616402102074,-0.9917940807553524,0.1351023927556499,-0.9100405009937212
1.94,0.8404636255911263,-0.1154292176730978,1.872044213988324,0.1092695986210658,0.1023025570926467,0.0518639400024203,-0.7394073179353492,0.3955812467474094,-0.4922377271746915,0.8499255550140647,-0.1099034566752198,1.8807590626151005,-0.8920413338148578,0.5397793586542962,-0.4937882897385324,1.2174216178614303,0.2110688373286207,-1.0018188425235357,0.6587293437443714,11.093085733341468,-0.985550045580954,0.1417015664197126,-0.9161230332301026
1.96,0.8257363625033192,-0.107708851687278,1.862338680468665,0.1007450767102961,0.107834760955581,0.0511031890149662,-0.7336252200663681,0.3776383195361628,-0.4789806632337844,0.8325344623252182,-0.0989099461696811,1.8707125276019745,-0.9220235996448978,0.5265844698241112,-0.4824036751815046,1.152314016455444,0.2891048934490547,-0.8971463605623314,0.6628531970453572,11.087405571159252,-0.980915006461644,0.1476398995116342,-0.9203294514093318
1.98,0.8118611040817033,-0.1006874177263584,1.8533666770952897,0.093157118685321,0.1112469287633868,0.0501996305423421,-0.7273417086964971,0.3624607367917721,-0.4661081079007209,0.8143938129906206,-0.088246307884897,1.8609506079527744,-0.9520058654749376,0.5133895809939263,-0.4710190606244768,1.0434848033163988,0.3141755684935521,-0.7588791372195342,0.6436277666531737,11.094802618881658,-0.9777916670390466,0.1536306388561024,-0.922680797065109
2.0,0.7973869019078836,-0.0935891985845882,1.8441910327485416,0.0857834541413906,0.1130505794596784,0.0491119514432481,-0.7205198536587606,0.348261215312341,-0.4521147807664601,0.7754940186468785,-0.0825643808867698,1.8300612717002536,-0.7226690174704915,0.3463562323257153,-0.4294702838719905,1.0535384671277483,0.3410927518868234,-0.7099760739715522,0.6996663567130412,11.1125395335348,-0.9764574970748838,0.1592858490650519,-0.9229719354739436
2.02,0.7829459755444834,-0.0867257415505633,1.83524560943041,0.0801327638513462,0.1162518112652347,0.0482532690407928,-0.723610708513529,0.3383438438859252,-0.443462503475471,0.7754940186468785,-0.0825643808867698,1.8300612717002536,-0.7226690174704915,0.3463562323257153,-0.4294702838719905,0.6759614302290113,-0.1545427427384227,-0.4958685713207927,0.4326138645494526,11.138423571806925,-0.9696055260061652,0.1629692448860794,-0.9287954147180651
2.04,0.7691987460546906,-0.080399332102031,1.8269036508274905,0.0763130222522485,0.1226527681999308,0.0478001680561703,-0.7228227323597175,0.3279949802662003,-0.4350641741969066,0.7754940186468785,-0.0825643808867698,1.8300612717002536,-0.7226690174704915,0.3463562323257153,-0.4294702838719905,0.6675549028166767,0.0393988076905771,-0.5174431809862434,0.4199164639282216,10.807732426537768,-0.9659388617963004,0.1658790924360603,-0.93241404916259
2.06,0.7547873140886169,-0.0739533606382121,1.818304267279528,0.0729860999588187,0.1310683867400349,0.0474765197909498,-0.7179617485664254,0.3171685755774863,-0.4252953456924181,0.7682673284721736,-0.0791008185635127,1.8257665688615337,-0.7217344792252904,0.3431353314325039,-0.4221427190662444,0.768554182007626,0.2430491896646069,-0.5413202344357021,0.4884414252244229,10.843424960581617,-0.9591205004301774,0.1681055306860584,-0.9391404870361408
2.08,0.7405090151829392,-0.0677193987729657,1.8099069642817451,0.0700617214106865,0.1401392329465747,0.0472047375586621,-0.7097832808835627,0.3068146938518958,-0.4149273193370242,0.7538139481227637,-0.0721736939169984,1.8171771631840936,-0.7198654027348882,0.3366935296460812,-0.4074875894547523,0.8390264759429356,0.4089233841431339,-0.5176940862795215,0.5184013177696983,10.903185889040287,-0.9512247580327232,0.1699524343687655,-0.9467288604020496
2.1,0.7264243146172806,-0.0616863087728554,1.801721569454083,0.0674193224820433,0.1492765290707925,0.046935029922065,-0.69881120699765,0.2970591531018388,-0.4041399652404898,0.7393605677733539,-0.0652465692704841,1.808587757506654,-0.717996326244486,0.3302517278596584,-0.3928324598432601,0.910939060925549,0.5486036942956352,-0.4877770375028539,0.5393677048267181,10.986630072569824,-0.9424994858780558,0.1718239528319365,-0.9548070434654028
2.12,0.7132707022231308,-0.0561296180034098,1.7941492734440538,0.0651413266277309,0.1577347900936067,0.0466619139444551,-0.6861103331655717,0.2883658878688729,-0.393521323082355,0.7250006412484642,-0.0586415347132909,1.8007311083097888,-0.7161272497540837,0.3238099260732357,-0.378177330231768,0.934933978673873,0.6350436916039148,-0.4346632616482937,0.5309321079067425,10.986630072569824,-0.933593345666224,0.1735662179913057,-0.9628059743751124
2.14,0.6997077683757885,-0.0504529368862155,1.7863977330892475,0.06297908526014,0.1662551952253549,0.0463498691683335,-0.670616729199671,0.2797876103364978,-0.3822134724571303,0.7106407147235745,-0.0520365001560977,1.7928744591129235,-0.7142581732636815,0.317368124286813,-0.3635222006202758,1.050602321334075,0.7746801982950358,-0.4289138766187528,0.5653925312612329,11.024880785727872,-0.9246370184760592,0.1751496063222242,-0.9706327323043146
2.16,0.6864785399354596,-0.0449430763823855,1.7788728114343044,0.0610250792657797,0.1742280647294132,0.0460045784557048,-0.6528816857536082,0.271662021269226,-0.3708686915379666,0.6963275151109448,-0.0455925106435651,1.7853841881563457,-0.7123890967732793,0.3109263225003902,-0.3488670710087836,1.128340615492195,0.8867521723031402,-0.4062794533635894,0.5672390459581844,11.05174463259209,-0.9159886570499688,0.1766113872724575,-0.9779738198354896
2.18,0.6736392598110954,-0.0395903422057702,1.7715754375705426,0.0592376727919101,0.1810346437550564,0.0455898778613425,-0.6319317070239255,0.2640358690744465,-0.3594674294690251,0.6820610424105752,-0.0393095661756931,1.7782602954400553,-0.7105200202828771,0.3044845207139675,-0.3342119413972915,1.252046906905628,1.0474989364841314,-0.3813076097389761,0.5700631034470771,11.0736297927333,-0.90910601232894,0.1780207456803809,-0.9834976005428482
2.2,0.661853597743369,-0.0346420267356983,1.7648560071378283,0.0576807461353892,0.1857442973415901,0.04509613245515,-0.6098264748590951,0.2572272669428435,-0.3484258703688285,0.6420426744598992,-0.0263885487520479,1.7536020660970912,-0.606262773036308,0.2412817456400221,-0.3227590931455254,1.2815170496433663,1.10526160824152,-0.3404301065801529,0.5520779550098276,11.099033552205585,-0.9026617404880086,0.1792511968821857,-0.9884975036866412
2.22,0.6498660069440811,-0.0295347238450103,1.7579062486628705,0.0571803502420054,0.1894031186033703,0.044579827339953,-0.5901743232409041,0.2536711735682829,-0.3477202762501113,0.6420426744598992,-0.0263885487520479,1.7536020660970912,-0.606262773036308,0.2412817456400221,-0.3227590931455254,0.9991880783582856,0.9826075809095502,-0.1778046687280293,0.0352797059358589,11.133894338568098,-0.8910915008729583,0.1786220934699621,-0.9981989158157086
2.24,0.6382859625169753,-0.0245026857433518,1.750968327127648,0.0585474251613709,0.1922615889018039,0.0441521011363502,-0.5687477950199721,0.2495478734149216,-0.3459447430868709,0.6420426744598992,-0.0263885487520479,1.7536020660970912,-0.606262773036308,0.2412817456400221,-0.3227590931455254,1.0945892309113878,1.0713264110466023,-0.2061650076680646,0.0887766581620208,10.412616186277774,-0.8854465430527773,0.1762372510561338,-1.0036248797347966
2.26,0.6271538117882758,-0.0195641945426597,1.744096019691716,0.0614567747092633,0.1938388302725529,0.043761122396498,-0.5456595717925952,0.2441065534009527,-0.3414159409759991,0.6359800467295361,-0.0239757312956477,1.750374475165636,-0.6011289862387845,0.2367309209531372,-0.3154174258808255,1.207460210370348,1.1544111613688457,-0.272066000698444,0.2264401055435905,10.74752711385372,-0.8810066361155016,0.172659655830057,-1.0080712023065694
2.28,0.6170169522062483,-0.0150012654049763,1.7376718915635514,0.0647439782245412,0.1939749992646309,0.043342098590934,-0.5226631913743497,0.2363665460860621,-0.3350456247438163,0.6238547912688099,-0.0191500963828472,1.7439192933027254,-0.5908614126437376,0.2276292715793675,-0.3007340913514256,1.254314707791904,1.1498190209122738,-0.3870003657445275,0.3185158116091435,10.74752711385372,-0.87782311035464,0.1684785157569703,-1.0113467397515437
2.3000000000000003,0.6068252752208098,-0.0103756754364434,1.7310596473213606,0.0679553945567272,0.1925151027935286,0.0427731543656878,-0.4977707844207285,0.2265866136809849,-0.3264187607168508,0.6117295358080838,-0.0143244614700468,1.737464111439815,-0.5805938390486906,0.2185276222055977,-0.2860507568220257,1.405081656641636,1.244620347681061,-0.4889966202538634,0.4313432013482748,10.89343016856219,-0.8767207054819445,0.1647518347348524,-1.0125261929406486
2.32,0.5971379149789513,-0.0059587204569601,1.7246397372378903,0.0705974537817822,0.1890829048879472,0.0420186933011046,-0.4723117004415461,0.2156546091077879,-0.3159072291796798,0.6001176590271099,-0.0099539090259348,1.7317430963033746,-0.5703262654536435,0.2094259728318279,-0.2713674222926259,1.4816932681094974,1.2729541989591198,-0.5466002286598478,0.5255765768585496,11.024044288705229,-0.8775538929944584,0.1616491347113982,-1.0117955138785366
2.34,0.5879577509318126,-0.001769630367346,1.7184464621055295,0.0725319114264263,0.1833469612581875,0.0410383360602869,-0.4474549503239758,0.2039422139599818,-0.3038929919933206,0.5885057822461361,-0.0055833565818229,1.726022081166934,-0.5600586918585966,0.2003243234580582,-0.256684087763226,1.49948334575261,1.2428375058785135,-0.5856197573903029,0.6007118593179595,11.141222957356147,-0.8793538824702948,0.1590986646051068,-1.0102030230826715
2.36,0.5796741036303633,0.0019842053949916,1.712799423230105,0.0736298068576957,0.1762274267746815,0.0399236252284381,-0.4261240128347528,0.1919162324545751,-0.2910807496794454,0.5771505948050385,-0.0014403453720552,1.7206681493937286,-0.5497911182635495,0.1912226740842884,-0.2420007532338261,1.3818345400652865,1.0665468744611497,-0.6012990752703353,0.6406121156937589,11.219495719561564,-0.8835531621547797,0.1571876615003095,-1.0063860508134554
2.38,0.571363415568,0.0056813910504712,1.7071327557005445,0.0737985078780788,0.1677528380738218,0.0386060540967682,-0.4064113377645006,0.1785097256780697,-0.2761585973160456,0.566052096703817,0.0024751246033682,1.715681300983758,-0.5395235446685026,0.1821210247105187,-0.2273174187044262,1.406231323014056,0.9856337535126076,-0.6703253388252728,0.7461076181699888,11.370327440830806,-0.8898264264691294,0.156438551525997,-1.0004373768421164
2.4,0.5634176010762814,0.0091031149244923,1.7017781214567966,0.0726583986183825,0.1589380081993226,0.0371827091110178,-0.3894561338953409,0.1644627109767737,-0.2599630398203997,0.5510428486797749,0.0146068773343747,1.6933248258347422,-0.4359032522007218,0.1643087504909469,-0.2482281047808121,1.3666506895124753,0.8477601934579887,-0.7023507350647995,0.809777874782297,11.43044999192898,-0.8974219688459615,0.1571351987136164,-0.9928956222011878
2.42,0.5561940756264969,0.0120678901536635,1.6968662354296302,0.0689805231000967,0.1489312003856633,0.0355658928193514,-0.3725404173882456,0.1494585146763924,-0.2577352483627602,0.5510428486797749,0.0146068773343747,1.6933248258347422,-0.4359032522007218,0.1643087504909469,-0.2482281047808121,1.136035239712576,0.845785825354764,-0.7502098150190664,0.1113895728819758,10.537491959279578,-0.9044312349418844,0.1604905449251599,-0.9848610110773048
2.44,0.5488888322721159,0.0149375492146043,1.6917579809729757,0.0632472339746041,0.1359474956736829,0.0336484971974501,-0.359475959478038,0.1386364540016901,-0.2529675188715356,0.5510428486797749,0.0146068773343747,1.6933248258347422,-0.4359032522007218,0.1643087504909469,-0.2482281047808121,0.881090662525736,0.6532228955103803,-0.5411030337351144,0.2383864745612279,10.537491959279578,-0.9143732169406472,0.1641229517454934,-0.9755018634167496
2.46,0.5417907437680088,0.0176220156840837,1.686779499496273,0.0574168436735769,0.1220048816353284,0.0317735534745087,-0.3514679111616364,0.1304421130789327,-0.2449632779509538,0.5466838161577677,0.0162499648392841,1.6908425447869342,-0.441801635087966,0.1614685554535223,-0.2426420062737654,0.6988274710379433,0.4004024158200808,-0.4097170461378696,0.4002120460290886,10.685015940599442,-0.9270303581542952,0.1685866613533557,-0.9626202113537148
2.48,0.5348017092278443,0.0201604648201324,1.681989867657609,0.0521441230417446,0.1084297594264926,0.0300670275992774,-0.3481565294973534,0.1237806944596087,-0.2343791770318638,0.5379657511137532,0.0195361398491031,1.685877982691318,-0.4535984008624544,0.1557881653786732,-0.231469809259672,0.646844144315129,0.1655690832141509,-0.3330709309662012,0.5292050459545006,10.840393818563824,-0.9402069301153216,0.1728681305095317,-0.9485093350739322
2.5,0.5281835117807538,0.0224589347864334,1.6776525280439112,0.0478115825926568,0.0967289464336021,0.0286426224689414,-0.3488213716847695,0.1184280680996762,-0.2226949932275184,0.5292476860697388,0.022822314858922,1.6809134205957017,-0.4653951666369429,0.150107775303824,-0.2202976122455786,0.6434531359332613,-0.0332421093708068,-0.2676313179966208,0.5842091902172705,10.96220771735898,-0.9540555104095956,0.1771240114745405,-0.9329823171269922
2.52,0.5211701422266289,0.0247759621393068,1.6733388095744244,0.0439571229413458,0.086216849703166,0.0273529735551301,-0.3526446148079667,0.1135216711753872,-0.2092282561434236,0.5199397827369999,0.0258244703649985,1.67650746835079,-0.4771919324114314,0.1444273852289749,-0.2091254152314852,0.7416921976970672,-0.1911621561598631,-0.2453198462144527,0.6733368542047397,11.049118430189992,-0.9671325828571866,0.1810429325551013,-0.9176272292866297
2.54,0.5140493720125437,0.0270021083799298,1.6692975262308154,0.0407858196702601,0.0779404175282524,0.0262685360510806,-0.3592692559817578,0.1092555419908222,-0.1955563943048312,0.510631879404261,0.028826625871075,1.6721015161058783,-0.4889886981859198,0.1387469951541258,-0.1979532182173918,0.7889954610681289,-0.3312320586895512,-0.2133064592282504,0.6835930919296198,11.10886278189264,-0.97767186513075,0.1843375860306391,-0.9046371519721244
2.56,0.5071364075767122,0.029041794095219,1.6657104234618518,0.0382960056441241,0.0725576655115242,0.0254175072847287,-0.3681286151055246,0.1056054793286993,-0.1827029540419695,0.5010290569271599,0.0316867716252802,1.6679748687863194,-0.5007854639604082,0.1330666050792767,-0.1867810212032984,0.8015954841942512,-0.4429679561883393,-0.1825031331061412,0.6426720131430835,11.107556872757414,-0.9860550734540888,0.1872236239692919,-0.8938665451192802
2.58,0.4996562645915167,0.0311174595769871,1.6621969121890874,0.0361242396308085,0.0701706285222058,0.0247104349501063,-0.3792793069630702,0.1021353106518858,-0.1693116623923017,0.4911313153056967,0.0344049076276142,1.6641275263921125,-0.5125822297348968,0.1273862150044275,-0.175608824189205,0.8884068487944229,-0.5575345928772818,-0.1735084338406765,0.6695645824833896,11.102832481426958,-0.9929215325060898,0.1898647488099263,-0.8847084253530646
2.6,0.4919589997988212,0.0331280565169432,1.6589486925629475,0.0343465069219671,0.0710102404850089,0.0241712800751845,-0.3895742615210662,0.0990818581685329,-0.1561718635065906,0.4806922992433632,0.0362242251095814,1.6537313290694724,-0.3903465651571591,0.0769586681892746,-0.1324577864274218,0.848475067659963,-0.5147477278998003,-0.1526726241676462,0.6569899442855548,11.086523086494708,-0.9975189136552076,0.1924495138562393,-0.8778510827963688
2.62,0.4840212129086138,0.0351382504303267,1.655922229427323,0.0347280896904016,0.0757499243660509,0.0239358076126947,-0.4028496900679826,0.1013430050205609,-0.1471057761546568,0.4806922992433632,0.0362242251095814,1.6537313290694724,-0.3903465651571591,0.0769586681892746,-0.1324577864274218,0.8117014969550301,-0.6637714273458217,0.1130573426013997,0.4533043675966922,10.808426271744793,-0.9950964021552966,0.1931585872716989,-0.8791295883189731
2.64,0.4762778453022853,0.0370737093646385,1.653216537840739,0.0379002622657401,0.0836695105372453,0.0240553393623246,-0.4110618405175386,0.1017749447314379,-0.1381458791497379,0.4806922992433632,0.0362242251095814,1.6537313290694724,-0.3903465651571591,0.0769586681892746,-0.1324577864274218,0.608082521658717,-0.4106075224777961,0.0215969855438515,0.4479948502459474,10.8056005069584,-0.9932147056966982,0.191459431828945,-0.8809579100348413
