t,x,y,z,roll,pitch,yaw,v_x,v_y,v_z,ref_x,ref_y,ref_z,ref_v_x,ref_v_y,ref_v_z,a_com,a_x,a_y,a_z,thrust,wind_x,wind_y,wind_z
0.0,-2.0753658008206117,2.196514039570133,2.5672775369422176,0.0327142251654448,0.0996729885028221,0.0423179446184987,0.0014974977563591,0.0027136858329751,-0.0010191036395617,-2.0753254878748475,2.196671842761698,2.567249413384382,0.0179062111416177,-0.0953978528064305,-0.1009583369482579,0.1631346266014547,0.0748748878179556,0.1356842916487567,-0.050955181978085,10.255999628820971,-0.9399073726160936,0.2507795120664662,-0.880815856227013
0.02,-2.0753626520401345,2.1967757797455043,2.5671702858368715,0.0407586791282487,0.0999775460515444,0.0428743713428943,-0.001021780021135,0.0197318015833016,-0.0103272383492533,-2.0753254878748475,2.196671842761698,2.567249413384382,0.0179062111416177,-0.0953978528064305,-0.1009583369482579,0.9780137984525764,-0.1259638888747058,0.8509057875163267,-0.4654067354845839,10.256890360738907,-0.9381550050680628,0.2500325382484716,-0.8773162652323994
0.04,-2.0754057882769046,2.197160055932021,2.566818619168844,0.0540814031502979,0.1007915877928454,0.0438062475340958,-0.0032580413749135,0.0192650041428806,-0.0262296271129064,-2.0753254878748475,2.196671842761698,2.567249413384382,0.0179062111416177,-0.0953978528064305,-0.1009583369482579,0.8032819135943912,-0.1118130676889292,-0.0233398720210489,-0.7951194381826537,9.317899772752751,-0.9306434992311868,0.2345054693922678,-0.8926587974492887
0.06,-2.0754896420185154,2.1974828410968152,2.5660964018746943,0.0685158234425912,0.1021009026612649,0.0448283916563615,-0.0049114527342454,0.0126744663187403,-0.0452790217076355,-2.075146425763432,2.1957178642336337,2.5662398300148994,0.0212108319738225,-0.1153978531044537,-0.1209583372462811,1.011247240243808,-0.0826705679665952,-0.329526891207016,-0.9524697297364562,9.23460166245968,-0.922733151555854,0.2163382035685061,-0.9104732908635506
0.08,-2.0755984124604487,2.1976369395273188,2.5649788156718185,0.0824180373591409,0.10367821882565,0.045822510374334,-0.0057938642074233,0.0027498949623727,-0.0656185911256711,-2.074788301540599,2.193809907177505,2.5642206632759343,0.0278200736382321,-0.1553978537005002,-0.1609583378423276,1.1324463019573123,-0.0441205736588951,-0.4962285678183784,-1.0169784709017804,9.23460166245968,-0.914083183184961,0.1972025587743744,-0.9295917308884216
0.1,-2.075716338055841,2.197563442700372,2.563444897386412,0.0956502153379219,0.105338201116873,0.0467671476606069,-0.0058838654606701,-0.0098999955957501,-0.0868236998558042,-2.0744301773177667,2.1919019501213763,2.5622014965369693,0.0344293153026417,-0.1953978542965466,-0.200958338438374,1.2345894738888323,-0.0045000626623356,-0.6324945279061492,-1.0602554365066543,9.203028082940364,-0.9062487635910824,0.1794306132010767,-0.9465678454047564
0.12,-2.07582279481653,2.1972353060151577,2.561588709161552,0.1076040207348551,0.1068499981657568,0.0476038096672313,-0.0052740395581072,-0.0242541909497917,-0.1075676532179174,-2.073741591011714,2.187993993035445,2.558182329768202,0.0410385569670514,-0.2353978548925931,-0.2409583390344205,1.2616719195010178,0.0304912951281429,-0.7177097677020783,-1.0371976681056605,9.192331060993638,-0.8980464774111291,0.1607556232818352,-0.9640315131889714
0.14,-2.075916350260839,2.19657143859151,2.5591981141211644,0.1195633489230828,0.1082702565425214,0.0484060023396951,-0.0040698696672178,-0.0416468579521625,-0.1305011152596784,-2.073053004705661,2.1840860359495147,2.5541631629994344,0.047647798631461,-0.2753978554886396,-0.280958339630467,1.4403980107962957,0.0602084945444723,-0.8696333501185372,-1.1466731020880463,9.190826291844132,-0.8895364596816498,0.1418646848416501,-0.9816705611279936
0.16,-2.0759793861450797,2.195535673935757,2.5563410841489804,0.1309115899774875,0.1094311473177609,0.0491118340976695,-0.0022765200726499,-0.0613179033323645,-0.154130728151563,-2.072199187357998,2.1791780788486825,2.549143996215766,0.0542570402958707,-0.315397856084686,-0.3209583402265134,1.5399064375300755,0.0896674797283937,-0.9835522690101042,-1.181480644594232,9.162910704402748,-0.8815054134731742,0.1236053512901769,-0.9984399954273172
0.18,-2.0760013193311364,2.194166510154776,2.5531847666720484,0.1411523168291592,0.1102425701975429,0.049679810980503,-0.0001220662571524,-0.0820319024594201,-0.1769921055573108,-2.0711801389687245,2.173270121732949,2.543124829417196,0.0608662819602803,-0.3553978566807324,-0.3609583408225598,1.5462486927777854,0.1077226907748755,-1.0356999563527776,-1.143068870287388,9.163874205978573,-0.874311209075024,0.1060488119528498,-1.013065478476426
0.2,-2.075976342342478,2.1922610905541724,2.549384477729727,0.1508031996462136,0.1107831795528863,0.0501205993954159,0.0024993285184338,-0.1073364571493216,-0.2018616464854208,-2.076007422643994,2.190064915031805,2.5443351613941827,0.0025721845257992,-0.1820319039495362,-0.2769921070474269,1.7788242356951862,0.1310697387793127,-1.265227734495075,-1.2434770464055,9.174070493744694,-0.8674378210546915,0.0892580875930794,-1.0270271888613305
0.22,-2.075868369428148,2.189657775062193,2.5452843051778253,0.1544621417488982,0.1111571220627924,0.0500790640678698,0.0082211648566902,-0.1499002061935457,-0.2054330436818125,-2.076007422643994,2.190064915031805,2.5443351613941827,0.0025721845257992,-0.1820319039495362,-0.2769921070474269,2.1547430367191565,0.2860918169128194,-2.1281874522112068,-0.178569859819587,10.662470908462636,-0.8682341539866184,0.0748577211853144,-1.0375952172255922
0.24,-2.075644048535169,2.186272528385202,2.541143146019973,0.1512603623985118,0.1114201569079828,0.0495108249201456,0.0138453294708928,-0.1854328274270899,-0.2086363242444902,-2.076007422643994,2.190064915031805,2.5443351613941827,0.0025721845257992,-0.1820319039495362,-0.2769921070474269,1.8058650321226872,0.2812082307101303,-1.7766310616772072,-0.1601640281338842,10.662470908462636,-0.8673758562562581,0.0756795670398101,-1.039828037347197
0.26,-2.0753316395356127,2.1824648505314737,2.5371155940446,0.1454347622145779,0.1114119649051288,0.0487202942649605,0.018695918510135,-0.2130072309342054,-0.2150538142212824,-2.075981700798736,2.1882445959923094,2.5415652403237083,0.0031110346823896,-0.2020319042475594,-0.2969921073454502,1.4361929887754223,0.2425294519621086,-1.3787201753557785,-0.32087449883961,10.436284550103665,-0.8656090260579777,0.0791391890717633,-1.0429349030913062
0.28,-2.074909890580652,2.1779417997209047,2.53271292072994,0.1387378581681269,0.1110771972646707,0.0477909779982523,0.0231603572014224,-0.2376451728824521,-0.2250286758984873,-2.07593025710822,2.1846039579133185,2.53602539818276,0.0041887349955703,-0.2420319048436059,-0.3369921079414966,1.3476435561312263,0.2232219345643727,-1.2318970974123322,-0.4987430838602452,10.18748179801878,-0.8631353067367344,0.0825605750100059,-1.0472404831079385
0.3,-2.0744060119713885,2.172956318050317,2.52807439666737,0.1324178991701804,0.1104451578991577,0.0468405363613123,0.0269551641456231,-0.2596598245868705,-0.2383164934826261,-2.075878813417704,2.180963319834328,2.530485556041812,0.005266435308751,-0.2820319054396524,-0.376992108537543,1.2996264324412174,0.1897403472100354,-1.1007325852209204,-0.66439087920694,9.788779798758696,-0.8613054914495104,0.0858129635955858,-1.0506268342758949
0.32,-2.073863435989004,2.1678307468465707,2.5233963818786798,0.1270688668008184,0.109651479216815,0.0459538949957688,0.0299364567489452,-0.2788466894297234,-0.2534564569078438,-2.075773484711529,2.1753226817255347,2.5229457138710605,0.0063441356219316,-0.3220319060356988,-0.4169921091335895,1.231099488873115,0.1490646301661022,-0.9593432421426462,-0.756998171260885,9.788779798758696,-0.859415852793046,0.0882584213677152,-1.0545986799261453
0.34,-2.073236508090417,2.1620553947411287,2.5181470325138657,0.1222710668442719,0.1087139331097119,0.0450619604786415,0.0325654204600228,-0.297751595841857,-0.2707627076129136,-2.075668156005354,2.1696820436167417,2.5154058717003096,0.0074218359351123,-0.3620319066317453,-0.456992109729636,1.288228677402056,0.1314481855538807,-0.9452453206066774,-0.8653125352534902,9.640715511194683,-0.8573503767837263,0.0894447182005217,-1.0592985916408817
0.36,-2.0725609873996675,2.155901928706488,2.51253872362488,0.1180508777712173,0.107754593264402,0.0442030645499451,0.03483099566096,-0.3165844530360757,-0.2892014355057002,-2.075535884791349,2.163041405493048,2.506866029514658,0.008499536248293,-0.4020319072277917,-0.4969921103256824,1.322682905492814,0.1132787600468612,-0.9416428597109366,-0.9219363946393304,9.565852964152327,-0.8553485032537731,0.0898883730462273,-1.0640686494974885
0.38,-2.071880482683332,2.1497111917320435,2.50686035268466,0.1142392641097988,0.1068724475182388,0.0434000363802337,0.0366709868806154,-0.3340255602630521,-0.3075982699576083,-2.0753766710695154,2.155400767354452,2.4973261873141044,0.0095772365614737,-0.4420319078238381,-0.5369921109217288,1.2708474602034343,0.0919995609827698,-0.8720553613488169,-0.9198417225954048,9.516894529152523,-0.8530634808366794,0.0898695680836358,-1.0696288341598936
0.4,-2.071129807382836,2.1428450973008046,2.5004951230967816,0.11036715560692,0.1060152042998393,0.0425684178164983,0.0382797957454346,-0.3515701908251196,-0.3280077361405069,-2.070046933339301,2.1330099137188907,2.4914804391867795,0.0407308413098306,-0.4340255617531682,-0.4075982714477245,1.3480992520896156,0.0804404432409623,-0.8772315281033755,-1.0204733091449258,9.4712954121851,-0.8504973343702997,0.0896926503209243,-1.075527439407496
0.42,-2.0703281696298923,2.1356194169197384,2.4939856521574795,0.1070668050530515,0.1054870243872262,0.0418076849720021,0.0419700115025805,-0.3703903157551592,-0.3205195722130334,-2.070046933339301,2.1330099137188907,2.4914804391867795,0.0407308413098306,-0.4340255617531682,-0.4075982714477245,1.0294262889120562,0.1845107878572907,-0.9410062465019796,0.3744081963736712,9.414697792662992,-0.8562509790733849,0.0875356786381929,-1.0760515591181576
0.44,-2.069498003232757,2.128415346517753,2.487942110056048,0.1048109434966201,0.1054376791959425,0.0411878887016647,0.0452625229898866,-0.3872027285921176,-0.3161954667082843,-2.070046933339301,2.1330099137188907,2.4914804391867795,0.0407308413098306,-0.4340255617531682,-0.4075982714477245,0.8834530911578861,0.1646255743653082,-0.8406206418479223,0.2162052752374549,11.181663316446247,-0.8571382477865951,0.0908689280102175,-1.0736045041743534
0.46,-2.0685588175948566,2.120488560215468,2.481611771211363,0.1030814407108383,0.1056479429985368,0.0405991778230422,0.0484830916718564,-0.4046004262513182,-0.317321470378111,-2.069639624926203,2.128669658101359,2.4874044564723023,0.0415428121956736,-0.4540255620511914,-0.4275982717457476,0.8864533698123981,0.1610284340984872,-0.8698848829600314,-0.056300183491334,10.787479625373637,-0.8566298054604607,0.0925261966129232,-1.0734816174549464
0.48,-2.06755762755308,2.1122190717986755,2.475206200345508,0.1017340852793752,0.1059397481871969,0.0400362780174991,0.0514677604939089,-0.4214461742575082,-0.323371055180352,-2.068825008100006,2.1199891468662955,2.479252491043348,0.0431667539673597,-0.4940255626472378,-0.4675982723417941,0.9073105176080728,0.1492334411026259,-0.8422874003094993,-0.3024792401120496,10.441822790882725,-0.8551362429473817,0.0928701417931918,-1.0752612030171391
0.5,-2.0664994786390825,2.103620106562119,2.4686337560875007,0.1007249388702478,0.1061962152289274,0.0394843498379712,0.0541992049654535,-0.4376128018123886,-0.3335572632152606,-2.068010391273809,2.1113086356312323,2.471100525614393,0.0447906957390458,-0.5340255632432843,-0.5075982729378405,0.9651158862149494,0.1365722235772311,-0.8083313777440204,-0.5093104017454303,10.169206508347996,-0.853016015651909,0.0922447005627782,-1.0782909155220468
0.52,-2.0654458521877634,2.0951571223627186,2.4621713419689826,0.1001312106476217,0.1063625645353918,0.0389694333225552,0.056569900201196,-0.452437961501447,-0.3461902925127217,-2.0671145773590287,2.1006281243663665,2.460948560155636,0.0464146375107319,-0.5740255638393308,-0.547598273533887,0.9810695502070224,0.1185347617871226,-0.7412579844529171,-0.6316514648730565,9.956542664695007,-0.8505181498784545,0.0906708197812271,-1.0823418289579594
0.54,-2.0642893147976573,2.085949400312169,2.455094117392757,0.1000231107977848,0.106447073963402,0.0384454779532102,0.0589523250135965,-0.4675867074105005,-0.3609368345804624,-2.0662187634442475,2.089947613101501,2.45079659469688,0.0480385792824179,-0.6140255644353773,-0.5875982741299335,1.0637445106314902,0.1191212406200282,-0.7574372954526759,-0.737327103387031,9.790293562443368,-0.8479519211316058,0.0880667704257218,-1.0870572017589688
0.56,-2.0630851674686093,2.0764280935914194,2.447708660839134,0.1001709432717802,0.1064280872390337,0.0379193795660473,0.0613275750053904,-0.4836950110395493,-0.3768654065693575,-2.0652823509851745,2.078267101821734,2.439644629223221,0.049662521054104,-0.6540255650314236,-0.6275982747259798,1.138901514546537,0.118762499589696,-0.8054151814524402,-0.7964285994447567,9.71619641644338,-0.8461578468882687,0.0854142963421222,-1.0909315513532007
0.58,-2.061897760057364,2.0670770713933058,2.4403875499180447,0.1000464994944339,0.1063072131621727,0.0373821600003007,0.0635256815820904,-0.499686828825793,-0.392974808470115,-2.064305339981809,2.065586590527066,2.4274926637346623,0.0512864628257901,-0.6940255656274701,-0.6675982753220263,1.140266129277594,0.1099053288349954,-0.799590889312185,-0.8054700950378774,9.667608538733475,-0.8443357150803792,0.0828195269776971,-1.0950147891070232
0.6,-2.0606043213827085,2.0569031329751377,2.4323390353828795,0.0993045821443562,0.1060857658832845,0.0367567900163276,0.0656816138019172,-0.5167655755368729,-0.4110749998141214,-2.058721475978259,2.042092729952016,2.420738809494539,0.0741141207635374,-0.5996868303159091,-0.4929748099602312,1.248948117064265,0.1077966109913432,-0.853937335553992,-0.9050095672003156,9.620871543731482,-0.8426887355593788,0.0810115300357425,-1.0987447285361824
0.62,-2.059248828138222,2.0463297529764435,2.4242160068147665,0.0968344047299203,0.1061919906179293,0.036037239355294,0.0699451764168541,-0.5393165709480391,-0.3987008045528422,-2.058721475978259,2.042092729952016,2.420738809494539,0.0741141207635374,-0.5996868303159091,-0.4929748099602312,1.3036928976662718,0.2131781307468438,-1.1275497705583115,0.6187097630639599,11.559072751651,-0.8483685898664626,0.078672259481123,-1.0985951897325066
0.64,-2.057880778895832,2.0359036527739773,2.416733433690174,0.0931730787509022,0.106870984612776,0.035315135005598,0.0738949397852497,-0.5568026089581204,-0.3897042292046742,-2.058721475978259,2.042092729952016,2.420738809494539,0.0741141207635374,-0.5996868303159091,-0.4929748099602312,1.0028715320912138,0.1974881684197814,-0.8743019005040653,0.4498287674083973,11.559072751651,-0.8489702124369557,0.0838115485550617,-1.0958172838843503
0.66,-2.0563606073708725,2.024598524767108,2.4089782527219685,0.0892757348062573,0.107889543909959,0.0345779830726002,0.0779334666280563,-0.5726852751985232,-0.3865725663637347,-2.057980334770624,2.0360958616488567,2.415809061394937,0.0762318085998268,-0.6196868306139323,-0.5129748102582544,0.8342303310738302,0.201926342140328,-0.7941333120201399,0.1565831420469732,11.1104685462642,-0.8478927536371668,0.0881772505768114,-1.0953705808846157
0.68,-2.054760855820446,2.012994217669533,2.4012241229847078,0.0856906727398023,0.1089663822443202,0.0338658313086535,0.0818480419984657,-0.5869089710609724,-0.3892269961723217,-2.056498052355353,2.0241021250425386,2.405949565195732,0.0804671842724056,-0.6596868312099787,-0.5529748108543008,0.7494721841515957,0.19572876852047,-0.7111847931224602,-0.1327214904293466,10.699909292821758,-0.8457175435641876,0.091297831690499,-1.0967854308395009
0.7000000000000001,-2.0530846071280933,2.0011199218714566,2.3933621247061763,0.082557331184034,0.1099433874373301,0.0331755581699915,0.0855954653326244,-0.5998614783913163,-0.3968246368940331,-2.055015769940082,2.0121083884362205,2.396090068996528,0.0847025599449844,-0.6996868318060252,-0.5929748114503473,0.7738455471284601,0.1873711667079378,-0.647625366517196,-0.3798820360855715,10.366937752001832,-0.8432912250397141,0.0936802124899247,-1.098966464143536
0.72,-2.0514244234731267,1.9896089479482435,2.3857167730970708,0.0800476541712183,0.1107170334787176,0.0325395344548185,0.0889790381184684,-0.6112534808052645,-0.4075737551682807,-2.053321718741182,1.9981146518001,2.3842305727675206,0.0889379356175632,-0.7396868324020717,-0.6329748120463937,0.8012019524911762,0.1691786392921994,-0.5696001206974111,-0.5374559137123786,10.10642500722679,-0.8411928344547903,0.0953510281921852,-1.101160470823066
0.74,-2.049608089326826,1.9772656658702807,2.3774295222071204,0.0779515254317414,0.1113569305526965,0.0318947764590652,0.0924759633102512,-0.6225570241540553,-0.4206714368755801,-2.0516276675422827,1.98412091516398,2.372371076538513,0.093173311290142,-0.7796868329981181,-0.6729748126424402,0.8825358974861065,0.1748462595891356,-0.56517716743954,-0.6548840853649707,9.80759075318838,-0.8389996519521665,0.0958524570177783,-1.104207292813963
0.76,-2.047721135352212,1.964691208703275,2.368863816342228,0.0761185984164942,0.1117968968336938,0.0312539997108931,0.0960306591554311,-0.634241687129395,-0.4352392001195214,-2.0498277319515683,1.9691271785129576,2.3595115802946056,0.0974086869627209,-0.8196868335941645,-0.7129748132384865,0.9505089917125208,0.1777347922589996,-0.5842331487669827,-0.7283881621970661,9.80759075318838,-0.8368713565358082,0.0958371583937223,-1.1074714529010137
0.78,-2.0457634085190706,1.951884153094301,2.359993266756855,0.0742245694835763,0.1120171273508057,0.0305943571998423,0.0995428110170936,-0.6457552291598327,-0.4510847355555267,-2.04792191196904,1.953133441847035,2.3456520840357964,0.1016440626352997,-0.859686834190211,-0.752974813834533,0.9949596148082268,0.1756075930831241,-0.5756771015218876,-0.7922767718002627,9.674655700970106,-0.834639076172706,0.0957513599750916,-1.1110874174743557
0.8,-2.043839716174282,1.9395079307397056,2.3512606110865435,0.0723048500561389,0.1120326650683058,0.0299479567951711,0.1027530585426844,-0.6563149022236915,-0.4673453297736636,-2.040786267968216,1.9195963916363088,2.3374390299790786,0.1171576729673719,-0.7457552306499489,-0.5510847370456429,0.9826231585888524,0.1605123762795375,-0.5279836531929372,-0.8130297109068457,9.674655700970106,-0.8328929839040448,0.0958258347139129,-1.1142864203538556
0.8200000000000001,-2.0417254600055585,1.9262336852434905,2.342041262520928,0.0697911558126265,0.1122389150727982,0.0292504990665867,0.1087074090049866,-0.6703426874402716,-0.4520641172561984,-2.040786267968216,1.9195963916363088,2.3374390299790786,0.1171576729673719,-0.7457552306499489,-0.5510847370456429,1.079060359194929,0.2977175231151089,-0.7013892608290051,0.7640606258732585,9.608492666488928,-0.835249931737729,0.0923608114752679,-1.1187041612580495
0.84,-2.0394902379555977,1.9127049685156017,2.3331336197255195,0.0671684001000825,0.1129279492876767,0.0285832971569479,0.1145211060266047,-0.6818069538212816,-0.4399965491920576,-2.040786267968216,1.9195963916363088,2.3374390299790786,0.1171576729673719,-0.7457552306499489,-0.5510847370456429,0.8815535657244549,0.2906848510809051,-0.5732133190505029,0.6033784032070416,11.239576120376114,-0.8353341959350887,0.0965303421582336,-1.1159544005581528
0.86,-2.037141943006078,1.8989614771529373,2.324382962127121,0.0649637899329715,0.1138344021451891,0.0279640020023186,0.1200564508196297,-0.6920374486799005,-0.4356407560387689,-2.039614691238542,1.9121388393298095,2.331928182608622,0.1206806453574276,-0.765755230947972,-0.571084737343666,0.6210394533041615,0.2767672396512536,-0.5115247429309411,0.2177896576644356,11.239576120376114,-0.83452034738893,0.0998560521090006,-1.1146075034815626
0.88,-2.034810566105663,1.8857245207561717,2.316094109635489,0.063287375089403,0.1146827854887828,0.0274080698572994,0.125089684258107,-0.7008972775541432,-0.4370800568614295,-2.0372715377791946,1.8972237347168108,2.3209064878677093,0.1277265901375389,-0.8057552315440185,-0.6110847379397125,0.5145424991805416,0.2516616719238647,-0.4429914437121374,-0.0719650411330319,10.7937919426613,-0.8335889481545684,0.1022354249070844,-1.1139756243699444
0.9,-2.0322558408480704,1.871618290220466,2.3072932319496244,0.0620791951642266,0.1154553838455827,0.0268587241637088,0.1301084018931495,-0.7092832797352778,-0.4431385568190594,-2.034928384319848,1.882308630103812,2.3098847931267965,0.1347725349176502,-0.845755232140065,-0.651084738535759,0.5749303893057011,0.2509358817521248,-0.4193001090567305,-0.3029249978814929,10.452472821372794,-0.8320144133107927,0.1033128638812554,-1.1148318786115314
0.92,-2.0296038022419296,1.857353431479193,2.298325968239541,0.0616997088043505,0.1160597566832176,0.0263614668549546,0.1348479645818493,-0.716893593719462,-0.4532776908366269,-2.0322329336214944,1.8653935254610103,2.296863098356081,0.1418184796977615,-0.8857552327361115,-0.6910847391318055,0.6767244122317815,0.2369781344349869,-0.3805156992092107,-0.5069567008783776,10.184204995822256,-0.8300032655242392,0.1030127890438977,-1.1168259302021428
0.94,-2.0269971910903672,1.8436648444529669,2.2896024226334317,0.0622916360328969,0.1164656406679507,0.0259487584204479,0.1392925345033009,-0.7237548313213026,-0.4644890064132465,-2.0295374829231414,1.8484784208182088,2.283841403585366,0.1488644244778728,-0.925755233332158,-0.7310847397278519,0.6937657749091821,0.2222284960725837,-0.3430618800920271,-0.5605657788309765,9.973622836743743,-0.8279231507678523,0.1008857787092152,-1.1199367587297049
0.96,-2.024161803398045,1.8291057268402493,2.2801763506537043,0.0637700062706742,0.116696740092496,0.0255640975467396,0.1439984152786964,-0.731839612075728,-0.4775896157177678,-2.0266658836052853,1.8305633161605068,2.2698197087997496,0.1559103692579841,-0.9657552339282044,-0.7710847403238983,0.8048834665171656,0.2352940387697746,-0.4042390377212712,-0.6550304652260669,9.890878748212344,-0.8259512049446542,0.0976448536318265,-1.123270908051037
0.98,-2.021232280847632,1.8143740452572223,2.2704759753745254,0.0656914961272716,0.1166958451244574,0.0251964108557318,0.148695679849956,-0.7409419141173965,-0.4918406734121546,-2.023618135667927,1.8116482114879036,2.254798013999232,0.1629563140380955,-1.0057552345242506,-0.8110847409199448,0.877509034595818,0.2348632285629787,-0.4551151020834254,-0.7125528847193391,9.823754975413069,-0.8241683170165726,0.0939528694349197,-1.1266173508179715
1.0,-2.0182096122285764,1.7994473384008831,2.2604779609475623,0.0675627364045469,0.1164499167320268,0.0248089118298267,0.1532993954538932,-0.7512393548831433,-0.5072491556157867,-2.0137974968551338,1.7773269495513526,2.2458839417039176,0.171521941668365,-0.8409419156075126,-0.5918406749022707,0.9547942284932972,0.2301857801968593,-0.5148720382873395,-0.7704241101816028,9.717479748830556,-0.8224477775296712,0.0899289692234383,-1.1302148638577385
1.02,-2.0152226366297925,1.785002319098406,2.251012089482582,0.0675399982526417,0.1162849555465841,0.0243203236363355,0.1609134450959186,-0.7681000874684059,-0.4883225035604312,-2.0137974968551338,1.7773269495513526,2.2458839417039176,0.171521941668365,-0.8409419156075126,-0.5918406749022707,1.3233255582881445,0.3807024821012708,-0.8430366292631275,0.9463326027677716,9.717479748830556,-0.8225500467188576,0.083207961466389,-1.137561290326896
1.04,-2.0119255267491067,1.769477501815175,2.24140869383468,0.0650271823643757,0.11639969260791,0.0236572494141538,0.1683636446652788,-0.7832707869864592,-0.4734546986978084,-2.0137974968551338,1.7773269495513526,2.2458839417039176,0.171521941668365,-0.8409419156075126,-0.5918406749022707,1.1255079063731517,0.3725099784680094,-0.7585349759026694,0.7433902431311395,11.977244041531776,-0.8244082275652526,0.0880307848747465,-1.1326528143937151
1.06,-2.0084867144943104,1.753682403358276,2.23201543704703,0.0610693594027683,0.1166223282151306,0.0229103528939282,0.1751422281426694,-0.7950589490434614,-0.4665436934939754,-2.01208227743845,1.7689175303952775,2.239965534954895,0.1760871940320468,-0.8609419159055358,-0.6118406752002938,0.7626794076961569,0.3389291738695274,-0.5894081028501086,0.3455502601916488,11.452003358598631,-0.8258816181512896,0.0937804065606839,-1.1284165258680243
1.08,-2.005100361055075,1.738490332080307,2.2231588863284784,0.0572223696417977,0.1167809721168465,0.0222029192876915,0.18097015459053,-0.8035109958155277,-0.4660539376067632,-2.0086518386050827,1.7520986920831272,2.2281287214568497,0.1852176987594103,-0.9009419165015824,-0.6518406757963403,0.5139106978550065,0.2913963223930324,-0.4226023386033117,0.0244877943606114,10.581629092696858,-0.8260730948902926,0.0989111998558577,-1.1263673642926493
1.1,-2.001422523243653,1.7223445376628277,2.2137945355865742,0.0536829995127077,0.1168522196865762,0.0215012498973523,0.1864763382564251,-0.8106748455620598,-0.4706406889409984,-2.0052213997717154,1.735279853770977,2.216291907958804,0.1943482034867739,-0.9409419170976288,-0.6918406763923868,0.5066485210566762,0.2753091832947529,-0.3581924873266084,-0.2293375667117597,10.581629092696858,-0.8254637646247452,0.1025186462999697,-1.1262650106593464
1.12,-1.9976405626816132,1.7060669319467765,2.204290755136728,0.0508717075039321,0.1168410315799855,0.0208591502337695,0.1914209980762762,-0.816823193076759,-0.4796901919532065,-2.00133443570198,1.7164610154290243,2.2024550944309564,0.2034787082141375,-0.9809419176936752,-0.7318406769884332,0.6003027208490777,0.2472329909925588,-0.3074173757349585,-0.4524751506104069,10.274031805679442,-0.8245657190923267,0.1049023417050808,-1.1270654984368504
1.14,-1.9937633771291243,1.6896739675029857,2.194578554614172,0.0488380548656715,0.1167711595752533,0.0202809489674441,0.1960518566119106,-0.8223625618112809,-0.4910733622531188,-1.9974474716322448,1.697642177087072,2.1886182809031087,0.2126092129415011,-1.0209419182897217,-0.7718406775844797,0.6739918820558248,0.2315429267817206,-0.2769684367260938,-0.569158514995613,9.92012666066148,-0.8233318425661409,0.105875437100054,-1.1289077156312637
1.16,-1.9899948542950596,1.673992693430561,2.1851261759371745,0.0473077964009807,0.1166330249308153,0.0197672796581775,0.2003885050132267,-0.8280030058739378,-0.5033448632618496,-1.993332244944325,1.6778233387302182,2.17378146736036,0.2217397176688647,-1.060941918885768,-0.8118406781805261,0.7092440792630538,0.2168324200658003,-0.2820222031328478,-0.6135750504365378,9.92012666066148,-0.8219036123808691,0.1062088692106395,-1.131330651470456
1.18,-1.9859407543099987,1.6573719692768063,2.1749091397201243,0.0458752181405672,0.1163810422863472,0.0192455625817577,0.2047707732622261,-0.8337353907563825,-0.5177845589410984,-1.9889887556382213,1.6570045003584633,2.1579446538027094,0.2308702223962283,-1.1009419194818144,-0.8518406787765725,0.8071079896085576,0.2191134124499741,-0.2866192441222326,-0.7219847839624427,9.841314500885346,-0.820432522676958,0.1062571022500991,-1.133966657991018
1.2,-1.9818010528243528,1.6406387051984737,2.164386593233341,0.0445609035040299,0.1160108630345228,0.0187386524829175,0.2089564443060482,-0.8392564044306778,-0.5337455052998633,-1.9757022156468875,1.6156851997389872,2.149019911773069,0.2374151158933277,-0.9337353922464986,-0.6177845604312145,0.8699902912478633,0.2092835521911029,-0.276050683714768,-0.7980473179382441,9.68145927509704,-0.8189833414546773,0.106069790411883,-1.1367195943855966
1.22,-1.9777691928818328,1.6246028568451398,2.154425232078326,0.0426384964212839,0.1161160833174248,0.0182412287501555,0.2153761685480274,-0.8479066011846119,-0.5139785853978514,-1.9757022156468875,1.6156851997389872,2.149019911773069,0.2374151158933277,-0.9337353922464986,-0.6177845604312145,1.12557750248193,0.3209862120989601,-0.432509837696704,0.988345995100598,9.68145927509704,-0.8170994801984461,0.1022719144930562,-1.1451879355762609
1.24,-1.9733934602021816,1.6075815338421606,2.144313572983275,0.0402830681951758,0.1171026896524374,0.017743236772964,0.2219118126558501,-0.8537667212893332,-0.4987208079072396,-1.9757022156468875,1.6156851997389872,2.149019911773069,0.2374151158933277,-0.9337353922464986,-0.6177845604312145,0.8801355371459731,0.3267822053911337,-0.2930060052360628,0.7628888745305845,12.014126027972452,-0.8182738115812358,0.1074698603413958,-1.1399573560083789
1.26,-1.9688880457969755,1.5904599270008186,2.1344155569380203,0.0384220860798378,0.1186074099756971,0.0173114452032474,0.2283916399675891,-0.858249208043982,-0.4918116904409305,-1.973328064487954,1.606347845816522,2.142842066168757,0.2439439844195481,-0.9537353925445218,-0.6377845607292377,0.5239674456939548,0.3239913655869494,-0.2241243377324397,0.3454558733154589,10.960625974462346,-0.8179119670016677,0.1109163130521838,-1.137514116787417
1.28,-1.9644872150889665,1.5741213175085238,2.125079720543764,0.0373174004918069,0.12017598879604,0.0169625855562209,0.2345768000981166,-0.861494793252308,-0.4912452558787759,-1.9685797621700876,1.5876731379715925,2.130486374960133,0.2570017214719887,-0.9937353931405682,-0.6777845613252842,0.3503957665910622,0.309258006526375,-0.1622792604163037,0.0283217281077302,10.590016670470504,-0.8163966692274196,0.1129291392627642,-1.137120200942478
1.3,-1.9597277220140248,1.5568657719436176,2.1152150078987946,0.0371947021298054,0.1217669801536952,0.0166759993549523,0.2410653816709009,-0.8639832544020359,-0.4954760244457837,-1.9638314598522209,1.5689984301266622,2.1181306837515086,0.2700594585244293,-1.0337353937366147,-0.7177845619213307,0.4067970390377841,0.3244290786392184,-0.1244230574863947,-0.2115384283503912,10.590016670470504,-0.8140945939001002,0.113219525279248,-1.1383041323381309
1.32,-1.9548384057732988,1.5395662740287914,2.105222137541757,0.0384815178257176,0.1231778335980366,0.0164914076116209,0.2475519682919994,-0.8659828300712882,-0.5037646541145899,-1.9584302706817325,1.54832372225193,2.103774992513082,0.28311719557687,-1.073735394332661,-0.7577845625173771,0.5356666188887768,0.3243293310549219,-0.099978783462612,-0.4144314834403112,10.304128194121404,-0.8113038471296516,0.1115051978998786,-1.140733748422915
1.34,-1.949817583613838,1.5222249978121063,2.0950417873611893,0.0413546768388714,0.124328733855394,0.0164166814369725,0.2542282615586434,-0.8684551103602651,-0.5138617744801003,-1.953029081511244,1.5276490143771977,2.089419301274656,0.2961749326293106,-1.1137353949287077,-0.7977845631134236,0.6177315381399596,0.3338146633322006,-0.1236140144488473,-0.504856018275518,10.084760798276877,-0.80821098440831,0.1077171130938514,-1.1443340292846156
1.36,-1.9449198190283048,1.5056753566967316,2.085173244736457,0.0446984994048799,0.125077198021182,0.0163808024560932,0.2609632021549402,-0.87356274988383,-0.5244356432041779,-1.947301448914444,1.505974306487564,2.0740636100213274,0.3092326696817513,-1.153735395524754,-0.83778456370947,0.676856901664515,0.3367470298148378,-0.2553819761782427,-0.5286934362038809,10.006304657383223,-0.8052364887767471,0.1026919206563243,-1.1483495136281547
1.38,-1.939624886722335,1.4881328664903015,2.0745572748035834,0.0479353100846567,0.1254241216681285,0.0163082297500979,0.2681416723786496,-0.8803958174586771,-0.536655652701032,-1.941247372891333,1.4832995985830295,2.0577079187530987,0.3222904067341919,-1.1937353961208004,-0.8777845643055164,0.7866858956062363,0.3589235111854716,-0.341653378742357,-0.6110004748427045,9.961489730681931,-0.8028060801198407,0.0978650743157602,-1.1520267114770677
1.4,-1.9341862498699267,1.4704425006160384,2.0636846709581604,0.0505472329643364,0.1252878385304462,0.016172052810186,0.2752957425718313,-0.8881507666154095,-0.5499883232061626,-1.9262178031034023,1.4441130756173677,2.047724492168532,0.3189275193868779,-0.9803958189487932,-0.6366556541911481,0.8501177264809511,0.357703509659088,-0.387747457836618,-0.6666335252565325,9.906547434056847,-0.8008769874994743,0.0935773788746113,-1.155436997671324
1.42,-1.9288750568546555,1.453422578713586,2.053405303453961,0.0508089934949255,0.1255766087693844,0.0159127706934231,0.2836908613646124,-0.9026297053015536,-0.5295843838130657,-1.9262178031034023,1.4441130756173677,2.047724492168532,0.3189275193868779,-0.9803958189487932,-0.6366556541911481,1.319505994472177,0.4197559396390549,-0.7239469343072125,1.0201969696548463,12.26304380050442,-0.7980529810153952,0.0879503523028998,-1.1640720718592292
1.44,-1.9231080754881265,1.4352354281788242,2.043013782106778,0.047933270113504,0.1271396556922777,0.0154910405388649,0.2926608950254312,-0.9149200644930532,-0.5111971666481145,-1.9262178031034023,1.4441130756173677,2.047724492168532,0.3189275193868779,-0.9803958189487932,-0.6366556541911481,1.1933190981495414,0.448501683040936,-0.6145179595749783,0.9193608582475588,12.26304380050442,-0.7997131751157674,0.0936270175668648,-1.158632252689269
1.46,-1.91715972559242,1.41684785642524,2.0328966078367743,0.0435992891584859,0.129440435523069,0.0150096606222839,0.3018477093608566,-0.922895226203502,-0.5013881531969978,-1.9230285279095336,1.4343091174278797,2.0413579356266203,0.3290846887885236,-1.0003958192468163,-0.6566556544891713,0.7813730012381661,0.4593407167712726,-0.3987580855224382,0.4904506725558366,11.704886165890455,-0.7994179849038738,0.1000261863158191,-1.1554290167604735
1.48,-1.91133591721196,1.3992640648832155,2.0234009654821605,0.0395743037081895,0.1318222225085464,0.0145723674492712,0.3107937984649659,-0.9276826647645716,-0.4986355456879549,-1.916649977521796,1.414701201048904,2.0286248225427976,0.3493990275918149,-1.040395819842863,-0.6966556550852178,0.5256636908079104,0.4473044552054661,-0.2393719280534723,0.1376303754521468,11.171578490525462,-0.7973129936560326,0.1058524335864369,-1.1545906523839526
1.5,-1.9050203599642908,1.380675148600632,2.0134070942201374,0.0360284812817133,0.1342400099835854,0.0141628355782341,0.3203244783698887,-0.9310545281818544,-0.5011467372572802,-1.9102714271340584,1.395093284669928,2.0158917094589746,0.3697133663951062,-1.0803958204389097,-0.7366556556812642,0.5208392397198011,0.4765339952461367,-0.1685931708641508,-0.1255595784662666,10.752193470668317,-0.7942796108984114,0.1104731337364663,-1.1551899642366024
1.52,-1.8985129040714632,1.362029445170082,2.003313041837622,0.033376514821312,0.1363942362037483,0.0138143493095424,0.3299625333226224,-0.9334911828731316,-0.5083262103164723,-1.9028771598061565,1.37348536826115,2.0011585963453493,0.3900277051983975,-1.1203958210349558,-0.7766556562773107,0.613135838872805,0.4819027476366866,-0.1218327345638592,-0.3589736529596044,10.426379835358604,-0.7907232474073196,0.1136109159893531,-1.157031138495798
1.54,-1.8918099988876589,1.3433416698188223,1.9930490150211588,0.0316507955028321,0.1381728805176233,0.013527910043068,0.3398588761700826,-0.9353002292977506,-0.5178004064960037,-1.8954828924782543,1.3518774518523715,1.986425483231724,0.4103420440016889,-1.1603958216310024,-0.8166556568733572,0.6909606428175745,0.4948171423730108,-0.0904523212309438,-0.473709808976569,10.170865955341467,-0.7871689449321028,0.1150564390518888,-1.1598519312193758
1.56,-1.8852540411088383,1.3255516964246734,1.9831061019626468,0.0307006931855644,0.1393738624824338,0.0132986881079716,0.3497102582756942,-0.9372714436146138,-0.5283482436379049,-1.88758076668027,1.329269535428692,1.9706923701031973,0.4306563828049802,-1.2003958222270488,-0.8566556574694035,0.7283410664754537,0.4925691052805769,-0.09856071584316,-0.5273918570950609,10.061593142974743,-0.7836751094490083,0.1155369756219876,-1.1631068915064149
1.58,-1.878149672861067,1.306785437181613,1.9724083930874503,0.0302293001559392,0.1400155622701681,0.0130863537946425,0.3601642960584071,-0.9392618830216104,-0.5409389036940176,-1.8791707824122037,1.3056616189901116,1.95395925695977,0.4509707216082715,-1.2403958228230951,-0.89665565806545,0.8242776771875918,0.5227018891356489,-0.0995219703498306,-0.6295330028056378,9.984073773300224,-0.7806307245962505,0.1153382128022078,-1.1662869855690852
1.6,-1.8708362248585984,1.2879793651575666,1.9614427362728852,0.0302579369360592,0.1399775846960388,0.0128994222264188,0.3705721926829554,-0.9412663097580743,-0.5549959422037828,-1.8601414580581463,1.2598223430305324,1.9453614479027492,0.4103538917279151,-1.0392618845117263,-0.6409389051841338,0.8802590106811664,0.5203948312274109,-0.100221336823203,-0.702851925488257,9.90259725062424,-0.7781190182242607,0.1144334806731466,-1.1694214628155133
1.62,-1.863644184845462,1.2700340796823872,1.9510712882773704,0.0296925892455096,0.139077292940952,0.012664202534189,0.3861641226557706,-0.9474354062191164,-0.534195290636024,-1.8601414580581463,1.2598223430305324,1.9453614479027492,0.4103538917279151,-1.0392618845117263,-0.6409389051841338,1.3358827952576169,0.7795964986407639,-0.3084548230520956,1.0400325783879394,9.830779321013324,-0.7773415527525996,0.1097800610127064,-1.1766825564548755
1.64,-1.8557574680123263,1.251039864107119,1.940591715948931,0.028106158210203,0.1369640550388881,0.0123271239075922,0.4014865540674238,-0.9515796784484428,-0.5154281583611346,-1.8601414580581463,1.2598223430305324,1.9453614479027492,0.4103538917279151,-1.0392618845117263,-0.6409389051841338,1.2289804214253943,0.7661215705826591,-0.2072136114663225,0.9383566137444675,11.727651738738132,-0.7819065450856656,0.1147767999856834,-1.1687786888124696
1.66,-1.8475832213232488,1.2319822280251052,1.9303924222303837,0.0264864878445817,0.1337080857688657,0.0119743234289159,0.4150469182784385,-0.954044814927446,-0.5053813650017461,-1.8560379191408676,1.249429724185415,1.938952058850908,0.4203918108618167,-1.0592618848097497,-0.660938905482157,0.852787242226529,0.6780182105507321,-0.1232568239501519,0.5023396679694259,11.727651738738132,-0.7867678362919323,0.1191676654535013,-1.1615017224394644
1.68,-1.83958402520776,1.213845516429749,1.920823467770108,0.0254196444025272,0.1295281775257631,0.0116616059886544,0.4261667618602947,-0.9550794935664212,-0.5023457649582058,-1.8478308413063087,1.2286444864951809,1.9261332807472251,0.4404676491296199,-1.0992618854057965,-0.7009389060782034,0.578654363146175,0.5559921790928096,-0.0517339319487664,0.1517800021770154,11.191062169034012,-0.7920552517337163,0.1222688124141537,-1.1552210581369913
1.7,-1.830957716486173,1.194744000008528,1.9107590366334088,0.0252849816300528,0.1241363282377752,0.0113919625477904,0.4356107198800744,-0.9551240387401634,-0.5044804478387667,-1.8396237634717507,1.207859248804946,1.9133145026435427,0.4605434873974231,-1.1392618860018426,-0.7409389066742499,0.4841156843989507,0.4721979009889882,-0.0022272586871097,-0.1067341440280422,10.769916531410672,-0.7973255357155746,0.1234535435929422,-1.1503201521971282
1.72,-1.8221730046840376,1.1756483414277408,1.900602248267405,0.0265956201377962,0.1182686502334434,0.0112179688812578,0.4421619135410689,-0.9545981792197756,-0.5112654657903849,-1.8304128937238024,1.1850740110849092,1.8984957245100575,0.4806193256652263,-1.179261886597889,-0.7809389072702964,0.4723111665597633,0.3275596830497218,0.0262929760193875,-0.3392508975809116,10.438106265874922,-0.8025521483041514,0.12239843693913,-1.1465722872535635
1.74,-1.8132838011260284,1.1565625031647602,1.8902818708714115,0.0296120154097774,0.112581956465297,0.0111611015207074,0.446325719741608,-0.9545637357263616,-0.5204154274000502,-1.8212020239758535,1.1622887733648724,1.8836769463765728,0.5006951639330295,-1.2192618871939356,-0.8209389078663428,0.5026436756993853,0.2081903100269566,0.0017221746706985,-0.4574980804832651,10.055541261357575,-0.8068324733573605,0.1189702817696871,-1.1446655744749608
1.76,-1.8047785644330472,1.1384000091749495,1.880294322831147,0.0331235360135577,0.1077273954768046,0.0111529871276278,0.4486466726813382,-0.957374223659674,-0.5304422874518717,-1.8114892582712103,1.1385035356299344,1.8678581682281865,0.5207710022008327,-1.259261887789982,-0.8609389084623892,0.5334406889958595,0.1160476469865084,-0.14052439666562,-0.5013430025910759,10.055541261357575,-0.810791348239328,0.1141638827833425,-1.1436261527942106
1.78,-1.7957955767613507,1.1192064448184122,1.8695615485849368,0.0365994010164059,0.103556429237722,0.0111452374886661,0.4493944140708769,-0.9618390360264436,-0.5423681712825016,-1.8012745966098715,1.1137182978800952,1.8510393900648991,0.5408468404686358,-1.2992618883860283,-0.9009389090584357,0.6378094774259896,0.0373870694769379,-0.2232406183384716,-0.5962941915314934,9.982191981126562,-0.8138969495763528,0.1092514217012837,-1.1435181567847392
1.8,-1.786814877797929,1.0999118210190328,1.8585748858238864,0.0395241922130769,0.1007989159803663,0.0111415939597763,0.4485816911214376,-0.9672880756552132,-0.5556945973292192,-1.773325856057807,1.0711144930170902,1.8424431400208117,0.5197274851239051,-1.0618390375165596,-0.6423681727726177,0.7210169600069796,-0.0406361474719646,-0.2724519814384873,-0.6663213023358816,9.906644026591492,-0.8153996380763636,0.1049229092411562,-1.1446394107071094
1.82,-1.7778638014379666,1.0804208376501865,1.8477064537144887,0.0397790336537988,0.1012614931583228,0.0110793398341614,0.4472112725384449,-0.9804730847880746,-0.5304030746335986,-1.773325856057807,1.0711144930170902,1.8424431400208117,0.5197274851239051,-1.0618390375165596,-0.6423681727726177,1.4277461549495962,-0.0685209291496374,-0.6592504566430679,1.2645761347810314,9.839794866521515,-0.8131691061082349,0.0982619376378463,-1.1544083825606657
1.84,-1.7693710083211776,1.0616929172753842,1.8378098703494568,0.0370565181593693,0.1052444555444744,0.0109582309182202,0.4473023988812055,-0.9898599550399798,-0.5126850373062065,-1.773325856057807,1.0711144930170902,1.8424431400208117,0.5197274851239051,-1.0618390375165596,-0.6423681727726177,1.002559828478215,0.0045563171380325,-0.4693435125952605,0.8859018663696039,12.383277394333165,-0.8134446671556659,0.104594994556732,-1.148514113247796
1.86,-1.7604033030764972,1.041834072677317,1.827678705256362,0.032875313818204,0.1118737641551699,0.0108219191707265,0.4498373327253819,-0.9952441956678636,-0.5017068212460946,-1.768128581206568,1.0604961026419246,1.836019458293085,0.5337940993345107,-1.0818390378145828,-0.6623681730706409,0.6243740157065424,0.1267466922088206,-0.2692120313941892,0.5489108030055978,11.727431131853336,-0.8093404098632223,0.1116391886661758,-1.1469422717956634
1.88,-1.751358521608426,1.021901880603267,1.817686350501444,0.0289439375807191,0.1198001276834336,0.0107294424251924,0.4548618000219964,-0.9978043132657608,-0.4980644583425356,-1.7577340315040897,1.039259321891593,1.8231720948376329,0.561927327755722,-1.1218390384106294,-0.7023681736666874,0.3356571213717703,0.2512233648307216,-0.1280058798948602,0.182118145177948,11.194173854455585,-0.8022798765296815,0.1174205184710602,-1.148925803307603
1.9,-1.74264919463959,1.0029348688324975,1.8082085675753263,0.0259520095774545,0.1276598447969974,0.0106885841172836,0.4618774310524917,-0.9987959606734154,-0.4997962256038988,-1.7473394818016117,1.0180225411412622,1.8103247313821809,0.5900605561769332,-1.1618390390066755,-0.7423681742627338,0.3646966588299338,0.3507815515247675,-0.049582370382728,-0.0865883630681629,10.773899776762846,-0.7931596332685076,0.1219730397600362,-1.1533874135628754
1.92,-1.7333160427576326,0.982957876135432,1.798153766532182,0.0237410323398646,0.1356517376653891,0.0106948593234187,0.4712558522770997,-0.9990314865713992,-0.5058022414139562,-1.735538270678073,0.9947857603611288,1.795477367896926,0.6181937845981444,-1.201839039602722,-0.7823681748587803,0.5569615853572369,0.4689210612304012,-0.0117762948991961,-0.3003007905028693,10.464508170577574,-0.7831506597853914,0.1249670923190378,-1.1593918956023093
1.94,-1.7237731948365638,0.9629828123283616,1.7879555351227077,0.0225767702511863,0.1429019699833983,0.0107554847812855,0.4826971205294993,-0.9985735627541832,-0.513802162022061,-1.7237370595545345,0.9715489795809952,1.7806300044116714,0.6463270130193557,-1.241839040198769,-0.8223681754548268,0.6984107730800685,0.5720634126199803,0.0228961908608049,-0.3999960304052363,10.23088767205445,-0.7732228879722439,0.1262577903279025,-1.1662325047136228
1.96,-1.7139782974626654,0.9430147888955076,1.7775822793897331,0.0224303326156326,0.1489284656894526,0.010866022410984,0.4962182636124417,-0.9983307763720028,-0.5231456584065345,-1.7112325177204657,0.9473121987859604,1.7647826409115157,0.6744602414405669,-1.281839040794815,-0.8623681760508731,0.8218594468998984,0.6760571541471194,0.0121393191090224,-0.4671748192236757,10.09628725219045,-0.7646051205034524,0.1263371653681721,-1.1724468842355549
1.98,-1.704408624949315,0.9240479248904724,1.7675433498455568,0.0230690530156258,0.1532024705521607,0.0110027226510313,0.5103701196780762,-0.9982513486867056,-0.5331324566749529,-1.6980246451758665,0.9220754179760248,1.7479352773964585,0.7025934698617782,-1.3218390413908614,-0.9023681766469196,0.8660506314784829,0.707592803281723,0.0039713842648558,-0.4993399134209209,10.09628725219045,-0.7568441858449362,0.1253891752507946,-1.17840238644844
2.0,-1.6940384927026877,0.904081953818925,1.756758206117532,0.0245040023543085,0.156090816846981,0.0111739404617678,0.5258318027489842,-0.9984168444470124,-0.5449204942356183,-1.6788901189654113,0.874135357456137,1.7408867270118091,0.6011145182123742,-1.0982513501768216,-0.633132458165069,0.9721739321792428,0.7730841535454003,-0.0082747880153333,-0.5894018780332688,10.045886501788118,-0.750927880670749,0.123412525978971,-1.1834106055439892
2.02,-1.6833045175099464,0.884055091646964,1.746084838154669,0.0252714667957939,0.1575802313561365,0.0112738282376608,0.5470104108377948,-1.0040313593199377,-0.5199437496138898,-1.6788901189654113,0.874135357456137,1.7408867270118091,0.6011145182123742,-1.0982513501768216,-0.633132458165069,1.6612450073188905,1.058930404440528,-0.2807257436462707,1.2488372310864249,9.98255984838488,-0.7469265289541137,0.1179106452786401,-1.1922975618891511
2.04,-1.6721492248648562,0.86393354057195,1.735919116228576,0.0247067068606632,0.158068939837409,0.0112636101804322,0.567291075271234,-1.0077610407376176,-0.4984553768431525,-1.6788901189654113,0.874135357456137,1.7408867270118091,0.6011145182123742,-1.0982513501768216,-0.633132458165069,1.48909875232749,1.0140332216719616,-0.1864840708839965,1.0744186385368617,12.54080447258093,-0.7495010909516077,0.1226103682473044,-1.184815202423136
2.06,-1.6611902355766068,0.8447644883887214,1.726574075802363,0.023787063440605,0.1577378389197899,0.0112165848240161,0.5851701435661298,-1.0099001264407408,-0.486252304125819,-1.6728789737832876,0.8631528439543688,1.7345554024301584,0.6192633979192338,-1.1182513504748448,-0.6531324584630922,1.0876025865215957,0.8939534147447914,-0.1069542851561577,0.6101536358666781,11.415167901028326,-0.752264462740893,0.1275342345656686,-1.177669230917369
2.08,-1.649303074311438,0.8245560094036417,1.7169224970272243,0.0229603188551757,0.1566602487381209,0.011170575873458,0.6024899412199637,-1.010881340444585,-0.4798217052855418,-1.66085668341904,0.8411878169508323,1.721892753266857,0.655561157332953,-1.1582513510708914,-0.6931324590591387,0.9250550971910578,0.8659898826916923,-0.049060700192216,0.3215299420138595,11.415167901028326,-0.7548262786241258,0.1313131599773734,-1.1721203123431607
2.1,-1.6370843179470889,0.8043400473421038,1.7073328743159044,0.0228042567145172,0.1549211621819083,0.0111669732050516,0.618446821698576,-1.0108335714687369,-0.4794222116948875,-1.6488343930547926,0.8192227899472959,1.7092301041035556,0.6918589167466721,-1.1982513516669375,-0.7331324596551851,0.7980975999411765,0.7978440239306162,0.0023884487924119,0.0199746795327138,10.651952632452776,-0.7572266127736254,0.1335176542827439,-1.1679842818486983
2.12,-1.6245601667359375,0.7841326786506181,1.697702759360334,0.0237201818768239,0.1525828273243363,0.0112320701627743,0.6330925808640054,-1.0101160894030825,-0.4835903114774528,-1.6349972147198593,0.7952577629139572,1.694567454910452,0.7281566761603913,-1.238251352262984,-0.7731324602512316,0.7622107612788559,0.7322879582714714,0.0358741032827292,-0.2084049891282663,10.651952632452776,-0.7593236768091097,0.1338484740936617,-1.1653104858574908
2.14,-1.6124016407774446,0.764951385937782,1.6884559284370853,0.0258924524294166,0.1499214464332809,0.0113755689832377,0.6459462646819389,-1.0092693882272417,-0.4895375830114561,-1.621160036384926,0.7712927358806184,1.6799048057173482,0.7644544355741105,-1.278251352859031,-0.8131324608472781,0.709408431849631,0.6426841908966752,0.0423350587920312,-0.2973635767001631,10.384129496414062,-0.7612776312017402,0.131889968193477,-1.1640144852585033
2.16,-1.5993465922764942,0.7447539328056975,1.678584434072435,0.0290723109373151,0.1467051617827909,0.0115717555218448,0.6587869131671391,-1.010744483113443,-0.4973641059316998,-1.6064154140646494,0.7463277088323785,1.6642421565093437,0.8007521949878297,-1.318251353455077,-0.8531324614433244,0.7555008594715009,0.6420324242600084,-0.0737547443100616,-0.3913261460121858,10.266343024550224,-0.7635280831881917,0.1285330108006916,-1.163132782007368
2.18,-1.5860423490230142,0.7245064887983824,1.66853931541217,0.0321726980693525,0.1429585253206661,0.0117362524910043,0.6708762594241622,-1.013909198308788,-0.5067376730184898,-1.59076334775903,0.7203626817692375,1.6475795072864374,0.8370499544015488,-1.3582513540511234,-0.8931324620393709,0.7810753406688733,0.6044673128511535,-0.1582357597672556,-0.4686783543394995,10.172936560224116,-0.7663723725365217,0.1249540683663568,-1.162220157867077
2.2,-1.5725067704243472,0.7041853573207312,1.6582907965866416,0.0348246544599919,0.1386324511734837,0.0118393807883867,0.6819401743161266,-1.01796244847376,-0.5176263589370051,-1.5524985360518062,0.673811028882943,1.6432024317612457,0.7708762609142783,-1.113909199798904,-0.5944331151585922,0.8021884608191392,0.5531957445982227,-0.2026625082485966,-0.5444342959257664,10.089449222398798,-0.7699385551437152,0.1218900260384076,-1.16080913256288
2.22,-1.5594150291741846,0.6847270645592812,1.6487307451742506,0.0349821628310337,0.1345432937386821,0.0117681179464409,0.6953905070204802,-1.0291444464131816,-0.4880779307278008,-1.5524985360518062,0.673811028882943,1.6432024317612457,0.7708762609142783,-1.113909199798904,-0.5944331151585922,1.7168707998925954,0.6725166352176792,-0.5590998969710825,1.4774214104602168,10.001462144157813,-0.7714329949482722,0.1152019357371567,-1.1685696093655202
2.24,-1.545389011654016,0.6640497627766726,1.6392404658029485,0.0320606886945406,0.1313667167239265,0.0115307051823543,0.706274937359102,-1.0375965311235509,-0.463021188099502,-1.5524985360518062,0.673811028882943,1.6432024317612457,0.7708762609142783,-1.113909199798904,-0.5944331151585922,1.429815469639674,0.5442215169310871,-0.4226042355184534,1.2528371314149382,12.812634894801704,-0.7792330392329085,0.1230959812083561,-1.1563348732911507
2.26,-1.5311743102433648,0.6432519770990868,1.6301552657724956,0.0278400677600915,0.1299889172194688,0.0112828340580372,0.714744048524494,-1.0414975207903654,-0.4471150925833209,-1.5447897734426634,0.662671936884954,1.6372581006096596,0.7908762612123015,-1.1339092000969273,-0.6119722035866126,0.9218831798040388,0.4234555582696031,-0.1950494833407368,0.7953047758090581,11.515305746284866,-0.7842669318509693,0.1312498277964799,-1.1469751674128366
2.28,-1.5167980720256526,0.622411534134927,1.621297422727468,0.02397576990463,0.1302385193752234,0.0111233197847794,0.7226472643449001,-1.0424982372896223,-0.4394262974918091,-1.529372248224378,0.6403937528889758,1.6253694383064876,0.830876261808348,-1.173909200692974,-0.6470503804426536,0.5535788646955773,0.3951607910203047,-0.0500358249628463,0.3844397545755884,11.515305746284866,-0.7861011684304948,0.1382637082211457,-1.1413335686346109
2.3000000000000003,-1.5029940404950173,0.6026102690232835,1.6129666289055344,0.0211625622434729,0.1315444967190153,0.0110684206285941,0.7301602494274876,-1.0420412971403663,-0.4378784614251172,-1.5139547230060924,0.6181155688929978,1.613480776003316,0.8708762624043944,-1.2139092012890202,-0.6821285572986946,0.3842184783444692,0.3756492541293732,0.0228470074627895,0.0773918033345921,11.025423361591493,-0.785176377116265,0.1432180487796224,-1.1393618021924456
2.32,-1.4883064052321804,0.5817843149296855,1.6041835858221962,0.0192621260163779,0.133697435080917,0.0111096090300928,0.7383183517182041,-1.0407655393460504,-0.4407116248655546,-1.4965371977580044,0.5938373848672174,1.599838204857342,0.9108762630004408,-1.2539092018850666,-0.7172067341547356,0.43648884870001,0.4079051145358281,0.063787889715805,-0.141658172021869,10.66413749068397,-0.7827657612698325,0.1465972259229688,-1.1391920547148422
2.34,-1.473448441926761,0.5609928274005664,1.5953180244254903,0.0186617241705742,0.1363538339844417,0.0112592527792517,0.7472032742191419,-1.0386835617417522,-0.4456973267336028,-1.4791196725099165,0.569559200841437,1.586195633711368,0.9508762635964874,-1.2939092024811132,-0.7522849110107765,0.5199367791124428,0.4442461250468876,0.1040988802149089,-0.2492850934024099,10.39736838146655,-0.7794413604070534,0.1478270311633034,-1.1408920740604496
2.36,-1.4583979371853273,0.5402383858553867,1.5863401435769855,0.0193274725347633,0.1390465743645941,0.0115067562600193,0.7574491833979563,-1.0369790458240216,-0.4518496931941204,-1.4607021472469277,0.5442810168007554,1.5716761081439932,0.9908762641925336,-1.3339092030771595,-0.7873630878668174,0.6036050912616866,0.5122954589407203,0.0852257958865343,-0.3076183230258766,10.298771607962408,-0.7758719263216562,0.1476542222434064,-1.143063570934981
2.38,-1.4438998054755174,0.5205493288308163,1.5776876182437296,0.0209731100132363,0.1412015330237795,0.0118134383385764,0.7681441368001279,-1.0357326245842444,-0.4586407073191179,-1.4412846219690374,0.5180028327451727,1.5562796281552171,1.03087626478858,-1.373909203673206,-0.8224412647228584,0.6365011135644354,0.5347476701085818,0.062321061988857,-0.3395507062498776,10.239145009839376,-0.7725029478699029,0.146182215345994,-1.1454436577983158
2.4,-1.428413501950489,0.4998420968046285,1.5684296700166969,0.0236172481277996,0.1428056236209488,0.0121939803707643,0.7799052185538552,-1.0353274919374928,-0.4668522677385788,-1.4054925986355111,0.468762697601604,1.5547555828777735,0.8681441382902441,-1.1357326260743603,-0.5197026074281705,0.7174902455813899,0.5880540876863627,0.0202566323375785,-0.4105780209730458,10.188208444269549,-0.7696129804103595,0.1436256272591062,-1.1477599251292487
2.42,-1.412593796377282,0.4790662253691083,1.5593717574881296,0.0250209152501634,0.1423647283781179,0.0124438100168839,0.8017319846709543,-1.0418349988414173,-0.4365389033203767,-1.4054925986355111,0.468762697601604,1.5547555828777735,0.8681441382902441,-1.1357326260743603,-0.5197026074281705,1.895821344157916,1.0913383058549553,-0.3253753451962216,1.515668220910105,12.86505790175579,-0.7702677418497412,0.1369540811216076,-1.1540668465133803
2.44,-1.396336626719507,0.4581791077965074,1.5509355248276464,0.0243165467200803,0.1384146122469666,0.0124655923180951,0.8225320824316306,-1.0463783614211344,-0.4087622187388017,-1.4054925986355111,0.468762697601604,1.5547555828777735,0.8681441382902441,-1.1357326260743603,-0.5197026074281705,1.7498788648994892,1.040004888033813,-0.2271681289858551,1.3888342290787503,12.86505790175579,-0.7787067559463601,0.1429616677692895,-1.1408530235179353
2.46,-1.3805454538457975,0.4382718016763872,1.5433614487907037,0.0226871655446149,0.1320274614152737,0.0123709816209157,0.8381944711437643,-1.0489068185472212,-0.3898308640265842,-1.3968111572526087,0.4574053713408604,1.549558556803492,0.8881441385882672,-1.1557326263723835,-0.5319149874499811,1.2350098247061003,0.7831194356066884,-0.1264228563043423,0.9465677356108788,12.332632641994678,-0.788507283844285,0.1490735558942634,-1.1280954541032011
2.48,-1.3636541958458293,0.4172830294473916,1.535710562785266,0.020688617008259,0.1239408694319265,0.0122466408465704,0.8497008729461993,-1.0498447788540963,-0.3765226765263836,-1.3794482744868035,0.4346907188193732,1.5391645046549287,0.9281441391843136,-1.1957326269684303,-0.5563397474936022,0.8808872040687837,0.5753200901217503,-0.0468980153437548,0.6654093750100287,11.774874499997168,-0.7992484773244077,0.1544907602835406,-1.115803392438226
2.5,-1.346583028978334,0.3962936244779186,1.528251648645376,0.0190972481719839,0.1157236360680626,0.0121757876767442,0.856646403627728,-1.0491966406669162,-0.3699741491566798,-1.362085391720999,0.411976066297886,1.5287704525063652,0.9681441397803602,-1.2357326275644769,-0.5807645075372232,0.478392334463818,0.347276534076435,0.0324069093590062,0.3274263684851869,11.310925382016649,-0.8088717181497912,0.1584316011752058,-1.1055608194655635
2.52,-1.3302714777632063,0.3763771092060871,1.5212413039849988,0.0184562972407841,0.1086143094825629,0.0122016815473676,0.8598568009869337,-1.0473971627421037,-0.3685000759748843,-1.3427225089253918,0.3872614137465965,1.5171551623556208,1.0081441403764069,-1.275732628160523,-0.6051892675808442,0.1982275444481117,0.1605198679602848,0.0899738962406249,0.0737036590897771,10.905950957908315,-0.8175245303507708,0.1606777007181105,-1.0972152766981738
2.54,-1.313066813014603,0.3554596199238672,1.5138610253253144,0.019289878283717,0.102597373192167,0.0123689662897958,0.8602734096465146,-1.0446236784914222,-0.369685351945538,-1.3233596261297846,0.3625467611953069,1.5055398722048765,1.0481441409724532,-1.3157326287565696,-0.6296140276244654,0.1522387663394645,0.0208304329790409,0.1386742125340734,-0.0592637985326827,10.58753294691178,-0.8236045500612894,0.1604405690592019,-1.0922938462261125
2.56,-1.295877828879869,0.3345899742904625,1.5064367465506132,0.0217501986820764,0.0987581127076681,0.0126876681281008,0.858564963425729,-1.0426751726287438,-0.3726699911193564,-1.3029967433192762,0.3368321086291163,1.4933139630530414,1.0881441415684996,-1.355732629352616,-0.6540387876680864,0.1976330854392853,-0.0854223110392793,0.0974252931339236,-0.1492319586909235,10.447498896834077,-0.826986750393037,0.1583408884460018,-1.090083903179033
2.58,-1.2795920101927076,0.3147790158116691,1.499317955673083,0.0249581486728475,0.0975127641799692,0.0130969190566535,0.8560516490525987,-1.0430059275204049,-0.3765264916077552,-1.2816338604938666,0.3101174560480244,1.4804774349001155,1.128144142164546,-1.3957326299486623,-0.6784635477117075,0.2307528112155997,-0.1256657186565146,-0.0165377445830561,-0.1928250244199375,10.356163923165695,-0.8282975797535824,0.1549531092249473,-1.089770856797512
2.6,-1.262488988203838,0.2938989155145675,1.4917385685302398,0.0283158218717291,0.098330914122888,0.0135782624002412,0.8545981193217239,-1.045023530140449,-0.3812386257196836,-1.2367894277400775,0.2626287194356489,1.4804916310926952,0.9560516505427148,-1.135607070344101,-0.4015956519946752,0.266400435903095,-0.0726764865437379,-0.10088013100219,-0.2356067055964195,10.293612065537673,-0.8273499653605901,0.1513622372761146,-1.091405855560042
2.62,-1.2453407741503393,0.2728702454899397,1.4843784700548437,0.0284933176337773,0.0997340591894372,0.0138576851183398,0.8605086088610331,-1.0568887147985542,-0.3528228674780891,-1.2367894277400775,0.2626287194356489,1.4804916310926952,0.9560516505427148,-1.135607070344101,-0.4015956519946752,1.567778531880356,0.2955244769654586,-0.5932592329052744,1.420787912079724,12.573913154507864,-0.8273411173452385,0.1468579512854821,-1.0969713449327387
2.64,-1.228070472252471,0.2516457417870049,1.4776092611169025,0.0243094552545648,0.1006507670097621,0.0138259509076737,0.8661722132933718,-1.0639459059466227,-0.3256588748049454,-1.2367894277400775,0.2626287194356489,1.4804916310926952,0.9560516505427148,-1.135607070344101,-0.4015956519946752,1.4315750591682117,0.2831802216169354,-0.3528595574034288,1.3581996336571838,12.573913154507864,-0.8300397304355643,0.1543608056580494,-1.089346497010249
