t,x,y,z,roll,pitch,yaw,v_x,v_y,v_z,ref_x,ref_y,ref_z,ref_v_x,ref_v_y,ref_v_z,a_com,a_x,a_y,a_z,thrust,wind_x,wind_y,wind_z
0.0,0.3043990358136572,-0.4087365930530837,1.8060722804547464,0.0218902569909935,0.0995287280883386,0.0415404906340955,-0.000159999428867,-0.0040388387565004,0.0001878162436829,0.3043985789072395,-0.4089295398884581,1.806075828177894,-0.0617818036248277,0.094200314207861,-0.0538293914975532,0.202318395478755,-0.0079999714433513,-0.2019419378250233,0.0093908121841473,10.259300633926614,-0.9407793917953772,0.2585942765602795,-0.8785996462654161
0.02,0.3045061608260367,-0.4090536110941321,1.806022031309544,0.0125250791502285,0.0960990782482072,0.0408473957182427,0.0106469131605296,-0.0235519434872286,-0.0052529554574958,0.3043985789072395,-0.4089295398884581,1.806075828177894,-0.0617818036248277,0.094200314207861,-0.0538293914975532,1.1479902140823948,0.5403456294698359,-0.9756552365364104,-0.2720385850589411,10.258429460204752,-0.945130035766041,0.2606979975631281,-0.879356895715087
0.04,0.3047942780048928,-0.4095259949939327,1.8058321280891247,-0.0039196995022582,0.086122562408336,0.0397223959064718,0.0166235121576578,-0.0219081208242329,-0.0135582554721188,0.3043985789072395,-0.4089295398884581,1.806075828177894,-0.0617818036248277,0.094200314207861,-0.0538293914975532,0.5181696074953381,0.2988299498564103,0.0821911331497849,-0.4152650007311504,9.739861919038958,-0.9499348625311298,0.2765712543756919,-0.8658999748493816
0.06,0.3051232321392997,-0.409880114602159,1.8054675177362316,-0.020751439724051,0.072341491963852,0.0388399255351521,0.0152729521751758,-0.0131974599365852,-0.0224862839519001,0.3037807608709912,-0.4079875367463795,1.8055375342629183,-0.0741275840570519,0.1142003145058842,-0.0646225968481906,0.6273143508275232,-0.067527999124103,0.4355330443823869,-0.4464014239890613,9.739861919038958,-0.9585117943646564,0.290967465434989,-0.8501357376044392
0.08,0.3053514524827144,-0.4100192448779733,1.804922928039541,-0.0369057990721128,0.0573934224105058,0.038326489092249,0.0071778453150054,-0.0007946053421186,-0.0315286011613659,0.3025451247984946,-0.4061035304622222,1.8044609464329675,-0.0988191449215005,0.1542003151019307,-0.0862090075494655,0.8676477650603088,-0.4047553430085188,0.6201427297233276,-0.4521158604732917,9.701980497957264,-0.9687399823864444,0.3033840404737362,-0.8334744359220109
0.1,0.3053619634130217,-0.4098926805465086,1.8042382990707684,-0.0515111581968299,0.043908159628234,0.0381332709697746,-0.0058508472211703,0.0137944708171878,-0.0400998538734629,0.3013094887259981,-0.404219524178065,1.8033843586030165,-0.123510705785949,0.1942003156979772,-0.1077954182507403,1.067771447266313,-0.6514346268087903,0.7294538079653257,-0.4285626356048486,9.701975488373137,-0.9799856165222134,0.3151395866953579,-0.8159013360264783
0.12,0.3050604821241313,-0.4094174697929528,1.8033399685076177,-0.0656915304181313,0.0316741499653496,0.0381585279538449,-0.0237759447697061,0.0330476382549191,-0.0492943089397759,0.2988392746102791,-0.4003355178641055,1.8012284502380014,-0.1482022666503976,0.2342003162940236,-0.1293818289520152,1.393315813514916,-0.8962548774267918,0.9626583718865676,-0.4597227533156493,9.720113748679978,-0.9907935420044548,0.3256456121988892,-0.7988976933932598
0.14,0.304363694793319,-0.408514967132448,1.8022546537322996,-0.0779248375278197,0.0221831315452708,0.0383336920533622,-0.0450429526909137,0.0560487899834291,-0.0587761270639245,0.2963690604945602,-0.3964515115501459,1.7990725418729867,-0.1728938275148462,0.2742003168900701,-0.1509682396532901,1.6364928060474917,-1.0633503960603807,1.150057586425497,-0.4740909062074326,9.735246065075444,-0.9996767255266376,0.3342371862537624,-0.7849639357632182
0.16,0.3032061908790625,-0.4071165827073993,1.8009764796392067,-0.0875212024847919,0.0162002887661411,0.0385438426077856,-0.0695961221932913,0.0819832024567646,-0.0685374954817003,0.29328155735723,-0.3915675052212852,1.79637697324044,-0.1975853883792947,0.3142003174861165,-0.172554650354565,1.851172733929178,-1.2276584751188755,1.296720623666774,-0.4880684208887896,9.750073238760706,-1.0048352178384807,0.3406357679048736,-0.7762502329368568
0.18,0.3016291913342707,-0.4052940167170265,1.7995801306336447,-0.0941480010550373,0.0146193565559153,0.0386147971382738,-0.0946936935040846,0.1079697355000249,-0.077882185708118,0.2895767651982885,-0.3856834988775233,1.7931417443403614,-0.2222769492437432,0.3542003180821629,-0.1941410610558398,1.865818333022085,-1.2548785655396653,1.299326652163018,-0.4672345113208867,9.777659629240588,-1.0079995326763485,0.344338265918177,-0.7728702189918472
0.2,0.2994713051147462,-0.4028401067762212,1.797920309522437,-0.0988720898158924,0.016875235233882,0.0384944193515044,-0.1193421995473532,0.1356789550002269,-0.0875429182417902,0.2968945066590665,-0.3998955299420252,1.7956860213482388,-0.1255046736303463,0.2079697369901411,-0.1161936634586578,1.9161676913585732,-1.2324253021634333,1.3854609750100992,-0.4830366266836097,9.792533633494712,-1.008127352236884,0.3461170950878459,-0.7747243058142689
0.22,0.2967851914231446,-0.399697360936073,1.7961420282874507,-0.0976605884782385,0.023870921021607,0.0383250220904248,-0.147302721678922,0.1757313973451894,-0.0891054776559144,0.2968945066590665,-0.3998955299420252,1.7956860213482388,-0.1255046736303463,0.2079697369901411,-0.1161936634586578,2.44357858866313,-1.3980261065784398,2.002622117248122,-0.0781279707062106,9.790361936652516,-1.006305588882536,0.3460219922697805,-0.7764796534114253
0.24,0.293604831807946,-0.3958524466147059,1.7943566187915756,-0.0903007062007349,0.0354591704273773,0.0381896630485038,-0.1685586577594826,0.2056459828243101,-0.0893173624876533,0.2968945066590665,-0.3998955299420252,1.7956860213482388,-0.1255046736303463,0.2079697369901411,-0.1161936634586578,1.8348992739592136,-1.062796804028028,1.4957292739560382,-0.0105942415869433,10.419864644390143,-1.0007225527193868,0.3403091243487632,-0.7877762230620883
0.26,0.2902466270153618,-0.3917170368908886,1.792645529638304,-0.0821365540287361,0.0484059477894799,0.0380645516356679,-0.1833864830122775,0.2279788723833147,-0.0907590116270319,0.2956394599227631,-0.3978158325721238,1.7945240847136523,-0.1316668696555986,0.2279697372881643,-0.1238559590087658,1.3422934757563172,-0.7413912626397442,1.1166444779502307,-0.0720824569689304,10.151351624316703,-0.9917078900960355,0.3341858634387384,-0.8021268386388545
0.28,0.2864553523828033,-0.3869461537287404,1.790799773272908,-0.0741012031838357,0.0627335434770713,0.0379525305771419,-0.1944928096235094,0.247950843520928,-0.0938416396776631,0.2931293664501561,-0.3936564378323209,1.792200211444479,-0.1439912617061033,0.2679697378842107,-0.1391805501089817,1.1529665190450615,-0.5553163305615962,0.9985985568806643,-0.1541314025315564,10.151351624316703,-0.9804697472166214,0.3285435779375941,-0.8182837368252275
0.3,0.282483339656419,-0.3817998092259806,1.7888723815376062,-0.0672820103078712,0.0770360101137703,0.0378656778774058,-0.2017548952664159,0.2659025729647509,-0.0987804858894694,0.2906192729775492,-0.3894970430925181,1.789876338175306,-0.156315653756608,0.3079697384802572,-0.1545051412091976,0.9992430632896588,-0.363104282145324,0.8975864721911447,-0.2469423105903187,10.04024671725074,-0.9684562610916604,0.3239559959289658,-0.8343336624233192
0.32,0.2784093149454673,-0.3763075101725163,1.7868291981083275,-0.0617325676196823,0.0906723017510114,0.0378224031083063,-0.2050072686825484,0.2826644038219388,-0.1053453495335398,0.287492959902417,-0.383337648322913,1.786786235351122,-0.1686400458071127,0.3479697390763036,-0.1698297323094135,0.914650672645272,-0.1626186708066232,0.8380915428593955,-0.3282431822035206,9.86740866954733,-0.9554568251403254,0.3198826496405003,-0.8508788241067451
0.34,0.2745197492980981,-0.3707862606187913,1.784755923611375,-0.0575461945915797,0.1022267552993346,0.0378517594631275,-0.2041779671629402,0.297889230258223,-0.1126187932903355,0.2843666468272848,-0.3771782535533078,1.7836961325269385,-0.1809644378576174,0.3879697396723501,-0.1851543234096294,0.8446686704096947,0.0414650759804083,0.76124132181421,-0.3636721878397836,9.86740866954733,-0.942946842927114,0.3166718467119355,-0.865985968396833
0.36,0.2704726440776374,-0.3646586756524027,1.7824144724196973,-0.053896690138878,0.1122781531829533,0.0379937129102973,-0.2004829566323236,0.3140748215958091,-0.1212117563346224,0.2809322239508901,-0.3700188587688016,1.7802229149252489,-0.1932888299081221,0.4279697402683965,-0.2004789145098454,0.9346997962570482,0.1847505265308316,0.8092795668793007,-0.429648152214343,9.82616170377696,-0.9313759905455962,0.3145199558966672,-0.8786609521039267
0.38,0.2665237629086722,-0.3582080396070647,1.7798930320003163,-0.050622801451569,0.119853663773781,0.0382715950338991,-0.1946818398962998,0.3301233888879993,-0.1305274442871325,0.2771896912732327,-0.3618594639693941,1.776366582546054,-0.2056132219586267,0.467969740864443,-0.2158035056100612,0.9721001871534092,0.2900558368011868,0.8024283646095143,-0.4657843976255071,9.79611702515558,-0.9225211251761912,0.3132101630974872,-0.8873560386064621
0.4,0.2628915515337031,-0.3517859462622876,1.777320405348935,-0.0476731746199226,0.1247690059206457,0.0386563842971349,-0.1880722595199139,0.3450076013716751,-0.1398218889960975,0.2734471585955753,-0.3537000691699866,1.7725102501668593,-0.2179376140091314,0.5079697414604895,-0.2311280967102772,0.9375673795241638,0.3304790188192949,0.7442106241837887,-0.4647222354482505,9.77732832399306,-0.9148897297039588,0.3120957854183828,-0.89432700102859
0.42,0.2591832988968515,-0.3446787706035748,1.7745376413560394,-0.0433148143103151,0.1289585039624676,0.039208050649912,-0.182913689705269,0.3641376834640282,-0.1372944748296801,0.2567896709138572,-0.3417018701626647,1.7733666597859596,-0.1874633551295185,0.4161599667087772,-0.149339683457207,0.998697533992825,0.257928490732244,0.9565041046176532,0.1263707083208692,9.764945692517358,-0.912326269216718,0.310520517552713,-0.8956970879085729
0.44,0.255594818855283,-0.3372380310375176,1.771821450489503,-0.0380536031017443,0.1332398574499843,0.0398327645558695,-0.1760588626190602,0.3788596212096616,-0.1345907290976281,0.2567896709138572,-0.3417018701626647,1.7733666597859596,-0.1874633551295185,0.4161599667087772,-0.149339683457207,0.823156039812197,0.342741354310444,0.7360968872816731,0.1351872866026005,10.546378461323002,-0.9091172936439132,0.3096009404787462,-0.8960952226397783
0.46,0.2523278513375618,-0.3299188541979931,1.7692735433498632,-0.0334756165656056,0.1368814789081868,0.040425180263892,-0.16815904951039,0.3909274986921092,-0.1337445924427643,0.2567896709138572,-0.3417018701626647,1.7733666597859596,-0.1874633551295185,0.4161599667087772,-0.149339683457207,0.7224206899756994,0.3949906554335067,0.6033938741223793,0.0423068327431941,10.454454662493845,-0.905394222706474,0.3088260585997777,-0.8969683154341377
0.48,0.2490613578432736,-0.3219792522280228,1.7665949440818791,-0.029414551025261,0.1399514815987988,0.0410291982226276,-0.1588986915831213,0.4024848104532864,-0.1342244693008084,0.254915037362562,-0.3375402704955769,1.7718732629513876,-0.1860196581761622,0.4333672822729328,-0.1531021312912219,0.7408710513393327,0.4630178963634351,0.5778655880588596,-0.0239938429022076,10.352443176862836,-0.9017620130599152,0.3084000441137541,-0.89792784221481
0.5,0.2459873079103975,-0.3138155907520469,1.7638942655760663,-0.0261749862040238,0.1420735017845528,0.0416063878610505,-0.1490034289947501,0.4134013885371465,-0.1358651098265323,0.2511657702599716,-0.3292170711614014,1.7688864692822437,-0.1831322642694497,0.467781913401244,-0.1606270269592517,0.7412482716480369,0.4947631294185628,0.545828904193002,-0.0820320262861953,10.211640689466549,-0.8985925085458091,0.3084324757649721,-0.8984823789749352
0.52,0.2431150000165873,-0.3054385619176946,1.7611507889323066,-0.0236944850481806,0.1431767521353948,0.0421555596048829,-0.1388234672422493,0.4239067201220685,-0.1383937955753298,0.2474165031573813,-0.3208938718272258,1.7658996756130994,-0.1802448703627372,0.5021965445295551,-0.1681519226272814,0.742273306484395,0.50899808762504,0.5252665792461003,-0.1264342874398749,10.211640689466549,-0.8961592857016496,0.3088760412837565,-0.8984577235781865
0.54,0.2405752639634026,-0.2972880369712176,1.7584966614084256,-0.0219335902862083,0.1433386968347828,0.0426526879329281,-0.1291271362375564,0.43363063033631,-0.1408544346554671,0.2438116057501265,-0.3108499409366347,1.7625366371605538,-0.1773574764560246,0.5366111756578662,-0.1756768182953112,0.6975457144336468,0.4848165502346457,0.4861955107120758,-0.1230319540068664,10.166778926773077,-0.8944949687558688,0.3096891087700834,-0.8976087460364774
0.56,0.2380987374333976,-0.2885043876715688,1.7556527163956577,-0.02044370791424,0.1426769478594668,0.0431632604498112,-0.1190960567481175,0.4441933742751748,-0.1434005481074135,0.2402067083428718,-0.3008060100460436,1.7591735987080082,-0.1744700825493121,0.5710258067861774,-0.183201713963341,0.7393862470854586,0.501553974471941,0.5281371969432402,-0.1273056725973179,10.165044750900051,-0.8938616935711754,0.3108808389202674,-0.8955600694670891
0.58,0.2358214501981168,-0.2795078634090073,1.752758463965186,-0.0190487711953502,0.1411698043433119,0.0436776327536235,-0.109217853343094,0.454854179313281,-0.1458839589312625,0.2366739957832848,-0.2899017133772447,1.7556224378637617,-0.1715826886425996,0.6054404379144885,-0.1907266096313708,0.7372228223060193,0.4939101702511786,0.5330402519053118,-0.1241705411924504,10.165403028524452,-0.8940695647001495,0.3120201060512151,-0.892887118459364
0.6,0.2338378867431803,-0.2707639573449802,1.7499631669172866,-0.0176642408155271,0.1389328311157595,0.0441780263231992,-0.1001540836435915,0.4649407283176484,-0.1482188441852543,0.2303605575309621,-0.2567651544433432,1.745464266018623,-0.1282648584451323,0.4850916957015781,-0.1599335131749463,0.6880081415441819,0.4531884849751241,0.504327450218367,-0.1167442626995918,10.160312987532052,-0.8950730700378465,0.3132117489681005,-0.8892490439833398
0.62,0.2319729081145272,-0.2611754102949102,1.7470251998623618,-0.010386456606255,0.1342889852680062,0.0451228494259847,-0.0867328007508043,0.4901921981900533,-0.1450521013664689,0.2303605575309621,-0.2567651544433432,1.745464266018623,-0.1282648584451323,0.4850916957015781,-0.1599335131749463,1.4385720570113307,0.6710641446393572,1.2625734936202475,0.15833714093927,10.160312987532052,-0.9054938467467132,0.312141586679472,-0.8750237641111924
0.64,0.2303594446229381,-0.2512349085922075,1.7441579477877265,0.0023471086718679,0.1262195891187343,0.0463800580359285,-0.0758463721082104,0.5016614382464544,-0.1418607029922592,0.2303605575309621,-0.2567651544433432,1.745464266018623,-0.1282648584451323,0.4850916957015781,-0.1599335131749463,0.8066021628481934,0.5443214321296984,0.5734620028200521,0.1595699187104893,10.420179455402833,-0.9101194343840634,0.3070524014537213,-0.8674089363363703
0.66,0.2289874894576536,-0.2416621697383202,1.741477251941022,0.0148176777876815,0.1168631258848039,0.047448904348374,-0.0694779937834943,0.505310834330531,-0.1404401969574568,0.2290779089465108,-0.2519142374863274,1.7438649308868737,-0.13207425946554,0.4911391989792375,-0.1627434240236831,0.37380533590392,0.3184189162358012,0.182469804203833,0.0710253017401199,10.420179455402833,-0.9170199221870832,0.3001391481233482,-0.8590954873212394
0.68,0.2276324878284154,-0.2315596809407899,1.7386699574475752,0.0265955421027149,0.1065526035185615,0.0483085604668736,-0.0667016359545207,0.504793996837894,-0.1404161992648482,0.2265126117776081,-0.2422124035722959,1.7406662606233747,-0.1396930615063554,0.5032342055345563,-0.1683632457211566,0.1412078227077837,0.138817891448683,-0.0258418746318489,0.0011998846304261,10.302110655140496,-0.9246487674750608,0.2929562740654761,-0.8514080024636985
0.7000000000000001,0.2262937043888498,-0.2215018426663197,1.7358467195667504,0.0363497599960881,0.0968077453104309,0.0488955713609052,-0.0674978871473228,0.5013712878417124,-0.1418790160346804,0.2239473146087055,-0.2325105696582643,1.7374675903598755,-0.1473118635471707,0.5153292120898751,-0.1739830674186301,0.190320688160038,-0.039812559640108,-0.1711354498090844,-0.0731408384916088,10.207706358886751,-0.931974185604454,0.286111681052658,-0.845062079551202
0.72,0.2249081637086353,-0.2115323291142149,1.7329829535956252,0.0440680106958347,0.088326182563101,0.0492742142074274,-0.0710984929974995,0.496140991501929,-0.1443997624079309,0.2210010773377621,-0.2222039854164668,1.7339879290115032,-0.1549306655879861,0.527424218645194,-0.1796028891161037,0.3415937812978059,-0.1800302925088336,-0.2615148169891695,-0.1260373186625224,10.07641872048498,-0.938147768936773,0.280104338764351,-0.8406019965770383
0.74,0.2235034427583698,-0.2021701077451684,1.730210393291956,0.0496584058978586,0.0818490439368707,0.0495087722604962,-0.0766500227201146,0.4899803751524337,-0.1473019906361848,0.2180548400668187,-0.2118974011746693,1.7305082676631305,-0.1625494676288015,0.5395192252005128,-0.1852227108135772,0.4393051466680691,-0.2775764861307567,-0.3080308174747637,-0.1451114114126947,10.07641872048498,-0.9433584602559214,0.2744441111730825,-0.8377571583084634
0.76,0.2218900335968334,-0.1924449408752182,1.72722922675797,0.0540478593076263,0.0771581290102965,0.0497074438464405,-0.0845312264489654,0.4830461918071846,-0.1506673985546388,0.2149181327448549,-0.2012884417689888,1.726888110772321,-0.1701682696696168,0.5516142317558317,-0.1908425325110507,0.551185634198622,-0.3940601864425401,-0.3467091672624545,-0.1682703959227025,10.0555566462981,-0.9466945102100504,0.2694494920340756,-0.8372275447589397
0.78,0.2200990345682535,-0.1828650582118507,1.7241775219597368,0.0571642730187378,0.0753063213651232,0.0499406497642614,-0.0939910187773013,0.4755753881796697,-0.1543192014603953,0.2115909553718707,-0.1903771071994254,1.7231274583390748,-0.1777870717104321,0.5637092383111505,-0.1964623542085243,0.6297544009346471,-0.4729896164167933,-0.3735401813757422,-0.1825901452878239,10.048360640772444,-0.9481803151401932,0.2648160453133155,-0.8394274869045907
0.8,0.2182296517304995,-0.1739046692249389,1.7212091575691355,0.0591662274934942,0.0760566240685343,0.0502233378533559,-0.1020405118057721,0.4682344072125664,-0.1579446288960408,0.2153994836293884,-0.1590862888028673,1.7164615618867172,-0.1299337148122096,0.4539371903553108,-0.1559107911114658,0.5740820143191756,-0.4024746514235406,-0.3670490483551669,-0.1812713717822753,10.040082486629217,-0.9479179537337564,0.2601854214542641,-0.8442731078180136
0.8200000000000001,0.2161314160137043,-0.1644992770392906,1.7180751117116764,0.0644900397289527,0.0780091756076016,0.0508035469534854,-0.1070991713285461,0.4706294115213835,-0.15508835910495,0.2153994836293884,-0.1590862888028673,1.7164615618867172,-0.1299337148122096,0.4539371903553108,-0.1559107911114658,0.3141829042377324,-0.2529329761387006,0.1197502154408558,0.1428134895545385,10.027969065823529,-0.9512208578113052,0.2555920292073502,-0.8435751890040358
0.84,0.2139516251707649,-0.1551461105758352,1.7149958272350925,0.0730849602256701,0.0799090801209981,0.0515998351955456,-0.1105713997320669,0.4640469346036611,-0.1531094660022461,0.2153994836293884,-0.1590862888028673,1.7164615618867172,-0.1299337148122096,0.4539371903553108,-0.1559107911114658,0.3850369799463904,-0.1736114201760397,-0.3291238458861228,0.0989446551351982,10.318825594638838,-0.9493337751265278,0.2482980750140358,-0.8488378908941563
0.86,0.2117127931987946,-0.1459842266829779,1.7119391733863685,0.0815969634902246,0.081472153786718,0.0523549280349175,-0.1131512348650038,0.4525127979259823,-0.1526620624642801,0.2141001464812663,-0.1545469168993141,1.7149024539756026,-0.1371222540191913,0.449609550790439,-0.1562291090416799,0.5913798021117507,-0.1289917566468436,-0.576706833883936,0.0223701768982967,10.318825594638838,-0.947278359066818,0.2399023863517128,-0.8550932886426521
0.88,0.2095440319139941,-0.1375229686387001,1.7090336089515643,0.0885236395896984,0.0825054429047791,0.0529400816874218,-0.1150581058638019,0.4389752169803783,-0.153199763941031,0.2115014721850221,-0.1454681730922079,1.7117842381533732,-0.1514993324331546,0.4409542716606954,-0.1568657449021081,0.6840895002536928,-0.0953435499399059,-0.6768790472802017,-0.0268850738375459,10.260237054505524,-0.945367848842606,0.2315938635241849,-0.861703461108658
0.9,0.2072251695590661,-0.1289086389591164,1.7059581960601151,0.0943414025522833,0.0830471688714626,0.0533851057395959,-0.1167724344754994,0.4233551599549178,-0.1543227575602635,0.2089027978887779,-0.1363894292851017,1.7086660223311438,-0.1658764108471179,0.4322989925309519,-0.1575023807625364,0.7876963544671878,-0.0857164305848749,-0.7810028512730244,-0.0561496809616229,10.224570647838846,-0.9438057079819088,0.2240150518407259,-0.8679506988393457
0.92,0.2048732749971037,-0.1206183006811335,1.7028568278058451,0.0986533922513387,0.0830187240037929,0.0536481158318071,-0.1183951882885556,0.4066888308004444,-0.15574917894158,0.2055852696718355,-0.1277434494344827,1.7055159747158932,-0.1802534892610812,0.4236437134012083,-0.1581390166229646,0.840289437307345,-0.0811376906528112,-0.8333164577236735,-0.0713210690658244,10.208629321460648,-0.9426353986822276,0.217295864947725,-0.8736940074595078
0.94,0.2024882731263711,-0.1126681296936044,1.6997283322640713,0.101566804297707,0.0824632596024696,0.0537375068692619,-0.1200970385676908,0.3893964213093714,-0.156998230301248,0.2022677414548932,-0.1190974695838636,1.7023659271006424,-0.1946305676750446,0.4149884342714647,-0.1587756524833928,0.8710393930222524,-0.0850925139567568,-0.8646204745536457,-0.0624525679834023,10.229216848689248,-0.941868076679672,0.2117176372746035,-0.8786838769506015
0.96,0.200187785314952,-0.1054434886282034,1.6967361299524013,0.1030522852857671,0.0815622451630778,0.0536738673013906,-0.1220479453378939,0.372236705361149,-0.1578891341655804,0.1985907862776018,-0.1106678717114882,1.699199963588881,-0.2090076460890079,0.4063331551417211,-0.159412288343821,0.8646612029361342,-0.0975453385101549,-0.8579857974111205,-0.0445451932166177,10.229216848689248,-0.9413479946552932,0.206760515241156,-0.8834821914637139
0.98,0.1977218992653324,-0.0981954089376826,1.6935710054501902,0.1031812163853811,0.0803960564277755,0.0534650544065705,-0.1244959297624793,0.3536091640275475,-0.1585533273453648,0.1945544041399612,-0.1024546558173563,1.6960180841806087,-0.2233847245029712,0.3976778760119775,-0.1600489242042492,0.93997217572931,-0.1223992212292683,-0.9313770666800752,-0.033209658989218,10.257170247031354,-0.9410573795570032,0.2026379724819494,-0.8881562663775603
1.0,0.1952028917860286,-0.0913281394890987,1.6903962090648832,0.1014638043067553,0.0791520538797457,0.053104642427535,-0.1273373138545687,0.3343420159122043,-0.1588716454374205,0.1914971027772084,-0.0805149507363053,1.685643339082922,-0.1379370481741991,0.3221011764985081,-0.1536314891698594,0.973906805686614,-0.1420692046044717,-0.9633574057671596,-0.0159159046027854,10.283507250463115,-0.9409716232818106,0.1999599560943548,-0.8922904327495516
1.02,0.1926981839747088,-0.0851291823049389,1.687375745426126,0.0989501343510442,0.0797095455782507,0.0528659553099516,-0.1356583816291686,0.3191132575205868,-0.159063034357744,0.1914971027772084,-0.0805149507363053,1.685643339082922,-0.1379370481741991,0.3221011764985081,-0.1536314891698594,0.8677440301992431,-0.4160533887299936,-0.761437919580879,-0.0095694460161777,10.31194590510222,-0.9385966994810372,0.1997377248934131,-0.896649300946234
1.04,0.1899156095741619,-0.0789083861860142,1.6841992756770037,0.0963386840481737,0.0830663122222041,0.0528750147592015,-0.1418120725683382,0.3038490011092858,-0.1585409186805152,0.1914971027772084,-0.0805149507363053,1.685643339082922,-0.1379370481741991,0.3221011764985081,-0.1536314891698594,0.8233134894212073,-0.3076845469584838,-0.7632128205650485,0.0261057838614395,10.361503996738064,-0.9364007992335018,0.1975867152962318,-0.9035951986078736
1.06,0.1870401005705781,-0.0729871283710042,1.6810399775082874,0.0938193639476785,0.0879149020612023,0.0530115933375637,-0.1451738850624586,0.289118408794609,-0.1573996218807227,0.1901177322954664,-0.0772939389713202,1.6841070241912233,-0.140625271856543,0.3157995789927003,-0.1526471215347583,0.7576191186408495,-0.1680906247060201,-0.7365296157338386,0.0570648399896248,10.361503996738064,-0.9323096614014296,0.1958759174814243,-0.9118102058683027
1.08,0.1841256407696644,-0.0673547188492521,1.6779089073610698,0.0913795914608976,0.0932124235742213,0.0531705776697008,-0.1459515317020946,0.2749381545382869,-0.1557837092130509,0.1873589913319824,-0.07085191544135,1.681034394407826,-0.1460017192212309,0.3031963839810845,-0.1506783862645561,0.7146599170577914,-0.0388823319817974,-0.7090127128161039,0.0807956333835901,10.4199083655285,-0.9275806020446448,0.1947286664593885,-0.9197405927440676
1.1,0.1813640561416275,-0.0622611849732225,1.6749674469545628,0.0891434077457823,0.0979566146407187,0.053277544571431,-0.1446484149395599,0.2619896242140224,-0.153940867029073,0.1846002503684984,-0.0644098919113798,1.677961764624429,-0.1513781665859189,0.2905931889694688,-0.148709650994354,0.6571883637326642,0.0651558381267361,-0.6474265162132287,0.0921421091988949,10.4199083655285,-0.9225471587130362,0.1941263733504439,-0.9272553986869516
1.12,0.178500848751047,-0.0571592698288871,1.6719115072491026,0.086904956058034,0.1021632813782088,0.0533052011692594,-0.1416910444509534,0.2489285203228247,-0.1517502684510618,0.1815726870367801,-0.0585980281319905,1.674987571604542,-0.1567546139506068,0.277989993957853,-0.1467409157241518,0.6784858089774665,0.1478685244303251,-0.6530551945598803,0.1095299289005632,10.44371604085336,-0.917950574369484,0.1939419452038737,-0.9336465608366116
1.14,0.1757098459307226,-0.0523138891527304,1.6689016282871918,0.0847880356575811,0.1052730176200732,0.0532254306093543,-0.137567337319052,0.2363080290649484,-0.1493462493634923,0.1785451237050617,-0.0527861643526011,1.672013378584655,-0.1621310613152947,0.2653867989462373,-0.1447721804539496,0.6746500349685489,0.2061853565950677,-0.6310245628938171,0.1202009543784743,10.46554741746786,-0.914377598587142,0.1940099156307516,-0.9384947969537782
1.16,0.173009038710693,-0.0477187085849484,1.6659424022999425,0.0827065514202055,0.1071616807360458,0.0530272618521256,-0.1328218442064942,0.2239309668110215,-0.146700900014415,0.1753831491892261,-0.0472893804485021,1.6690884039465228,-0.1675075086799826,0.2527836039346215,-0.1428034451837475,0.6758499243500347,0.237274655627892,-0.6188531126963437,0.1322674674538657,10.503376123344424,-0.9116471851688676,0.1944038177560668,-0.9421391774776212
1.18,0.1705329143948509,-0.0435791595018384,1.6631825408111744,0.0807055995082529,0.1078877718669258,0.0527359207018735,-0.1281667542299298,0.2125139866076205,-0.1439415275014376,0.1720867634892733,-0.0421076764196935,1.666212647690146,-0.1728839560446705,0.2401804089230058,-0.1408347099135453,0.6317266741244514,0.2327544988282193,-0.570849010170052,0.1379686256488668,10.503376123344424,-0.9100792428850152,0.1950737216311847,-0.944341721001394
1.2,0.1680198443858206,-0.039451094794011,1.6603367405415708,0.0785931639845863,0.1076733777208979,0.0523391745710588,-0.1234711591457113,0.2009622439917454,-0.140767911019698,0.1641245766833544,-0.0329534601714574,1.6559854644361025,-0.1301530855363277,0.2026034487463329,-0.1256224441237187,0.643356845443358,0.2347797542109224,-0.5775871307937566,0.1586808240869819,10.538300666052235,-0.909629701960176,0.1959506568951281,-0.9452339093992757
1.22,0.1655734216536175,-0.0356074567028162,1.657539366625135,0.0746405621119489,0.1074227610818959,0.0518033840141334,-0.1213462350772713,0.1853703102056817,-0.1390170930469641,0.1641245766833544,-0.0329534601714574,1.6559854644361025,-0.1301530855363277,0.2026034487463329,-0.1256224441237187,0.7916581728550465,0.1062462034220022,-0.7795966893031816,0.0875408986366926,10.538300666052235,-0.9074155211041568,0.1978537495464629,-0.9479900523489332
1.24,0.1631736331069141,-0.0320211712571845,1.6547915558365012,0.069224923224021,0.1077008979976419,0.0512017378127757,-0.1187103588917464,0.1743597100610161,-0.1358252105511177,0.1641245766833544,-0.0329534601714574,1.6559854644361025,-0.1301530855363277,0.2026034487463329,-0.1256224441237187,0.5881523456520834,0.1317938092762427,-0.5505300072332825,0.1595941247923213,10.54543255923545,-0.90817861279436,0.2012720845913397,-0.9474948017024328
1.26,0.1609478513978462,-0.0287915144884678,1.6522516419090223,0.0640428388826797,0.1081051938980173,0.0506346118821499,-0.1157130518301,0.166228027600484,-0.1316923573868375,0.1628230458279911,-0.030927425683994,1.6547292399948652,-0.1305503517976073,0.2006213411740754,-0.1219586274481749,0.4800744331304845,0.1498653530823214,-0.4065841230266057,0.2066426582140124,10.54543255923545,-0.9089140986950472,0.2056190739793223,-0.9461546813179106
1.28,0.1586702893873406,-0.0255416150044037,1.649671468877462,0.0590304903169344,0.1084513199287025,0.0500611711376166,-0.11220113109794,0.1592212861658677,-0.1265079924682883,0.1602199841172646,-0.0268753567090674,1.6522167911123908,-0.1313448843201664,0.1966571260295603,-0.1146309940970873,0.4698554361961448,0.1755960366080021,-0.3503370717308149,0.2592182459274589,10.600853553116394,-0.9098436326490124,0.2101176529242648,-0.9440138068055556
1.3,0.1564655652831008,-0.022419285111447,1.6472019893259646,0.0546325002326469,0.1085702175437757,0.049516025287772,-0.1084664844504014,0.1533546307140019,-0.1206754750020319,0.157616922406538,-0.0228232877341407,1.6497043422299165,-0.1321394168427256,0.1926929108850453,-0.1073033607459998,0.4538267614604235,0.1867323323769265,-0.2933327725932869,0.2916258733128188,10.644045226701564,-0.9111022238179396,0.2144965933742738,-0.9411198135871858
1.32,0.1543365775394864,-0.0194043110642798,1.644854817637722,0.0508876074368705,0.10837505468574,0.0489995031219336,-0.104670640910092,0.148366517158152,-0.1143336054326017,0.1549741340696835,-0.0189694295164398,1.6475582750149964,-0.1329339493652848,0.1887286957405303,-0.0999757273949122,0.4458391376500833,0.1897921770154728,-0.2494056777924982,0.3170934784715098,10.67515061852555,-0.9126784853654032,0.2184277409477877,-0.9377091052468062
1.34,0.1523833371049139,-0.016625945909867,1.6427454876924816,0.0478913505135086,0.1078868468825508,0.0485338111936998,-0.1011749340113569,0.1442722578750967,-0.1080154693458548,0.152331345732829,-0.0151155712987389,1.6454122078000766,-0.1337284818878439,0.1847644805960152,-0.0926480940438246,0.4150354485143473,0.174785344936755,-0.2047129641527631,0.3159068043373465,10.709761402349612,-0.9147039635109456,0.2222882162086394,-0.933545556656356
1.36,0.1503962426964583,-0.0137809834091073,1.6406576613050532,0.0452470992351393,0.1070948767819253,0.0480679343216544,-0.0977691396617559,0.1404144237474359,-0.1010824159840059,0.1496686940829105,-0.0113608184596509,1.6434493314189338,-0.1345230144104031,0.1808002654515002,-0.085320460692737,0.4317104012719694,0.1702897174800488,-0.1928917063830373,0.3466526680924439,10.709761402349612,-0.9170904155894136,0.2258327818419919,-0.9289198984827018
1.38,0.1484736173498266,-0.0110085759913066,1.6387109656559824,0.0430522588370982,0.106087484619157,0.0476262082659289,-0.0947151295926124,0.1369921118150624,-0.0939188055252639,0.146986179119928,-0.0077051709991757,1.641669645871568,-0.1353175469329623,0.1768360503069851,-0.0779928273416495,0.4253131530692826,0.152700503457176,-0.1711155966186761,0.3581805229371002,10.721346969707156,-0.9199315545045554,0.2292306679580198,-0.923609397416998
1.4,0.1466078908315458,-0.0083005319236238,1.636909601385589,0.0412569688393204,0.1049390399677807,0.0472089952298063,-0.0920620102229182,0.1339303929217105,-0.0865655061309933,0.1437378608701959,-0.0041589704005535,1.6340150253797192,-0.098226414769113,0.1380119189982462,-0.0890221442585793,0.4197742755146382,0.1326559684847107,-0.1530859446675983,0.3676649697135312,10.727887632690909,-0.9228823127971648,0.2322331965591063,-0.9182430045582626
1.42,0.1448652316989568,-0.0057936908892815,1.635275365804396,0.0394232202001353,0.1041029257933121,0.0468169660486341,-0.0914575603847145,0.1303678748981632,-0.0858162688163457,0.1437378608701959,-0.0041589704005535,1.6340150253797192,-0.098226414769113,0.1380119189982462,-0.0890221442585793,0.1845145714345072,0.0302224919101833,-0.1781259011773645,0.0374618657323758,10.731447917053629,-0.9230842306749086,0.2355262125079968,-0.9151191339277744
1.44,0.143043793766081,-0.0032145392098008,1.6335689149042651,0.0373385526560301,0.1037170730950424,0.0464166365655007,-0.0906837023634237,0.1277921062500852,-0.0848208550641257,0.1437378608701959,-0.0041589704005535,1.6340150253797192,-0.098226414769113,0.1380119189982462,-0.0890221442585793,0.1433901051646011,0.0386929010645416,-0.1287884324038965,0.0497706876110018,10.33106101951671,-0.9239841591169629,0.2368320395029207,-0.9141392678179624
1.46,0.1412402801872642,-0.0006782469262769,1.631888707346402,0.03541362891827,0.1036420814184643,0.0460423080708776,-0.0896825015701888,0.1259674714177044,-0.083226033009011,0.1427555967225048,-0.002778851210571,1.633124803937133,-0.0989286718044132,0.1382158804348829,-0.0880428120052424,0.131102561830344,0.0500600396617409,-0.0912317416190425,0.0797411027557329,10.362303794968284,-0.924674408815241,0.2382775967853484,-0.9130534684425534
1.48,0.1394592213461171,0.0018269295591128,1.6302455038106063,0.0337679666633042,0.1037324456777351,0.0456961031202251,-0.0884570894585839,0.1246286512009753,-0.081156048344342,0.1407910684271225,-1.861283060614408e-05,1.6313443610519618,-0.1003331858750135,0.1386238033081564,-0.0860841474985686,0.137649109404634,0.0612706055802443,-0.0669410108364541,0.1034992332334533,10.393407238917462,-0.9252759705360024,0.2396639239708682,-0.9118371480464892
1.5,0.1377918526007563,0.0041867277783397,1.6287267047587315,0.0325373963893853,0.1038650318569242,0.0453943383777893,-0.087114975359886,0.1238169083086511,-0.0788215488240521,0.1388265401317403,0.0027416255493587,1.6295639181667902,-0.1017376999456137,0.1390317261814299,-0.0841254829918948,0.1406243647754217,0.0671057049348985,-0.0405871446162116,0.1167249760144928,10.417413139564816,-0.925951486746086,0.2410832990332955,-0.9102661770139544
1.52,0.1360656065936153,0.0066581433913069,1.6271786782808275,0.0316948428250465,0.1039764666324484,0.0451095343908717,-0.0855805226918262,0.1233600524058432,-0.0760905261167362,0.136791786132828,0.0055222600729873,1.6278814085069524,-0.103142214016214,0.1394396490547034,-0.082166818485221,0.1582857174093817,0.0767226334029889,-0.0228427951403924,0.1365511353657936,10.435608156969463,-0.9267036844090036,0.2423054485788215,-0.9084700566621068
1.54,0.134370621217209,0.0091236928906826,1.6256852386366338,0.0314222139128019,0.104009405850659,0.0448637544166991,-0.0840025292941013,0.1231935503017821,-0.0733929267654666,0.1347570321339157,0.0083028945966159,1.6261988988471143,-0.1045467280868143,0.1398475719279769,-0.0802081539785472,0.1564834525907665,0.078899669886244,-0.0083251052030559,0.1348799675634837,10.442606763240292,-0.9274369328016552,0.2431699190879247,-0.9066655961196308
1.56,0.132707030086192,0.0115872268814035,1.624244864899036,0.0317950953259212,0.1039432049766237,0.0446608838844872,-0.0824493538781358,0.1231115734941427,-0.0707760969226142,0.1326871652832384,0.0110937271920764,1.624565355799943,-0.1059512421574145,0.1402554948012504,-0.0782494894718734,0.152207691134457,0.0776587707982737,-0.0040988403819719,0.1308414921426172,10.442606763240292,-0.9282170425666464,0.2435619180106012,-0.9048833546350622
1.58,0.1311549041139047,0.0139242402741691,1.6229243953334622,0.0327377455960373,0.1037950832441383,0.0445064679885022,-0.0810229042561904,0.1228445225274419,-0.0683486597148238,0.1305821855807961,0.0138947578593686,1.6229807793654392,-0.1073557562280148,0.1406634176745239,-0.0762908249651996,0.1414083284369182,0.0713224810972697,-0.0133525483350355,0.1213718603895214,10.435961586719714,-0.9290223491558216,0.2433722184128925,-0.9032826455682516
1.6,0.1295496493141764,0.0163740969041954,1.6215839094736308,0.0342610724651603,0.1035657362754293,0.044377439420626,-0.0795903056662763,0.1221041971025431,-0.0658269394234665,0.1271037589010952,0.0200664664005412,1.619506962347721,-0.0866523222083406,0.108932202390418,-0.058846730319923,0.1496620666904163,0.0716299294957069,-0.037016271244944,0.1260860145678631,10.43059871391597,-0.9298388517295614,0.2426353440898026,-0.901911820103721
1.62,0.1279735709609757,0.0188418667512183,1.6202945794547037,0.0374351700747678,0.1031778367668872,0.044354597142869,-0.0780830598256279,0.123883258628424,-0.0632607315305809,0.1271037589010952,0.0200664664005412,1.619506962347721,-0.0866523222083406,0.108932202390418,-0.058846730319923,0.1733657469522892,0.0753622920324229,0.0889530762940446,0.1283103946442799,10.427217697265403,-0.9311647299226212,0.2412019527524664,-0.8997462154249593
1.64,0.1265045073728925,0.0211792051248673,1.6191168743480924,0.0416049698058435,0.1026008507433949,0.0443979675095311,-0.0766624958434367,0.1218661820741544,-0.0608403805107525,0.1271037589010952,0.0200664664005412,1.619506962347721,-0.0866523222083406,0.108932202390418,-0.058846730319923,0.1728055186652541,0.0710281991095553,-0.1008538277134762,0.1210175509914215,10.424429465017964,-0.9319605782663216,0.2377752440729491,-0.899414041627556
1.66,0.1249856829719347,0.023572149562521,1.6179275011200998,0.045870463848099,0.1018501878289031,0.0444189890131207,-0.0753295140993459,0.1175109259406315,-0.0582156801675633,0.1262372356790118,0.0211557884244454,1.6189184950445217,-0.0877782057987706,0.1061497383630132,-0.0569463444409428,0.2628409605170296,0.0666490872045441,-0.2177628066761444,0.1312350171594606,10.424429465017964,-0.9330020284631272,0.2342470764637323,-0.8990493064953016
1.68,0.1234913478421265,0.0258624494437331,1.6167915168153746,0.0495226675048072,0.1010213108126937,0.0443836125859404,-0.0742056505645891,0.1118022025709582,-0.0555028524670154,0.1245041892348449,0.0233344324722537,1.6177415604381231,-0.0900299729796306,0.1005848103082037,-0.0531455726829825,0.3209829664058144,0.0561931767378377,-0.2854361684836666,0.1356413850273956,10.440956960169387,-0.9341932147730224,0.2310699648474769,-0.8985900733355086
1.7,0.1220904606854731,0.0279234103395773,1.6157635784811373,0.0522624831826504,0.1002122073365867,0.044290070601812,-0.073344126076312,0.1055820193411763,-0.0528262190107019,0.1227711427906781,0.0255130765200621,1.6165646258317248,-0.0922817401604907,0.0950198822533941,-0.0493448009250222,0.3413109671378072,0.0430762244138571,-0.3110091614890959,0.1338316728156745,10.44811042387846,-0.9354210925946056,0.2285446931167374,-0.8980356023675291
1.72,0.1206312169420472,0.0299616365377106,1.6147378253120956,0.0544429629709308,0.0993776082904104,0.0441368602273792,-0.0726543850068098,0.0986631733792923,-0.0498753430914823,0.1209255079874683,0.02741347416513,1.6155777298132243,-0.0945335073413507,0.0894549541985845,-0.0455440291670619,0.3776699646446155,0.034487053475106,-0.3459422980941991,0.1475437959609776,10.44811042387846,-0.9367988504591164,0.2264171770139146,-0.8972824438417047
1.74,0.1191835477822795,0.031856843080467,1.6137721298764929,0.0559409338839901,0.0985907490499698,0.0439337636473498,-0.072170535530534,0.0912691612235899,-0.0468315235308689,0.1190798731842585,0.0293138718101979,1.614590833794724,-0.0967852745222107,0.083890026143775,-0.0417432574091016,0.4005320324017165,0.0241924738137923,-0.3697006077851186,0.152190978030672,10.456154489702383,-0.9381430264355934,0.2247303299941628,-0.8965695800503036
1.76,0.1177433133316948,0.0335967227784236,1.612868014105781,0.0565835964496992,0.0978877770329006,0.0436730001427974,-0.0718936304785064,0.083215561980176,-0.0437224430319697,0.1171779442015272,0.0310751462538955,1.6136989570701723,-0.0990370417030708,0.0783250980889654,-0.0379424856511412,0.4318666424082522,0.0138452526013813,-0.4026799621706961,0.1554540249449586,10.46161541722995,-0.9393324061265104,0.223625406901013,-0.8960068237940777
1.78,0.1163785791045738,0.0350963763038226,1.6120674038325853,0.056198738586304,0.0973251940722137,0.0433617903406525,-0.0717863627441822,0.0751774896190158,-0.040697607007804,0.1152197210392744,0.0326972974962229,1.61290209963957,-0.1012888088839308,0.0727601700341558,-0.0341417138931809,0.4294524031344038,0.0053633867162068,-0.401903618058011,0.1512418012082881,10.466517698286223,-0.9405708850642632,0.2232525837207365,-0.8953064512641077
1.8,0.1149428757339988,0.0365109842674773,1.6112879860632954,0.0546220911743022,0.0968528310349116,0.0429621849775834,-0.0717996152501607,0.0668188691371705,-0.0373890434490983,0.1127892609673647,0.0388552507847734,1.610032523482195,-0.0743370771606116,0.058832739318966,-0.0272636420847798,0.4494811030800762,-0.0006626252989243,-0.4179310240922634,0.1654281779352819,10.471513018588666,-0.941829391158392,0.2238929582340612,-0.8943263736961612
1.82,0.1134950655832693,0.0377681550986404,1.610559293447732,0.0519674818190342,0.0967839076840424,0.0425149543849182,-0.0729591482593463,0.0596045520782392,-0.0357163466422055,0.1127892609673647,0.0388552507847734,1.610032523482195,-0.0743370771606116,0.058832739318966,-0.0272636420847798,0.3747959512653779,-0.0579766504592765,-0.3607158529465668,0.0836348403446388,10.477533285121352,-0.94205919903249,0.2259354986984438,-0.8934520136913089
1.84,0.1120265016108347,0.0389039541923124,1.6098671449030355,0.0490171625641813,0.097278199851479,0.0420826176201266,-0.0737721903381155,0.0543930884209755,-0.0335705665621463,0.1127892609673647,0.0388552507847734,1.610032523482195,-0.0743370771606116,0.058832739318966,-0.0272636420847798,0.2847137291421346,-0.0406521039384634,-0.2605731828631833,0.1072890040029601,10.36984886015307,-0.9426616241072276,0.2274911986731033,-0.8930729792246165
1.86,0.1106209590803231,0.0398981973334847,1.6092547532110608,0.0464706578146674,0.0980310893511181,0.0417085780141437,-0.0740980397167532,0.0504806661860808,-0.031003797596858,0.1120458901957586,0.039443578177963,1.6097598870613472,-0.0748472200438975,0.0555637892589561,-0.0245768491001749,0.2345289346905026,-0.0162924689318832,-0.1956211117447381,0.1283384482644168,10.401740961278849,-0.9430107891926452,0.2292313918551414,-0.8926258064506981
1.88,0.1091394510589032,0.0408712262383239,1.608667076716036,0.0442153878844065,0.098935035140801,0.0413542842749656,-0.0739990937582781,0.0469871937670562,-0.0278847124429753,0.1105591486525464,0.0406202329643423,1.6092146142196515,-0.0758675058104693,0.0490258891389361,-0.0192032631309653,0.2342158835473975,0.0049472979237533,-0.174673620951227,0.1559542576941353,10.429480854498252,-0.9432739290292064,0.2308598361239575,-0.8920508886562977
1.9,0.1076642719007255,0.0417793686153096,1.6081455607103334,0.0424313441257102,0.0998059037026921,0.0410360056076436,-0.0735086525415419,0.0439137536500835,-0.0244289116115261,0.1090724071093341,0.0417968877507217,1.608669341377956,-0.076887791577041,0.0424879890189162,-0.0138296771617556,0.2325356216063265,0.0245220608368124,-0.153672005848637,0.172790041572461,10.452008921382005,-0.9435735800616488,0.2323446932664736,-0.8912279678880282
1.92,0.1062021285895901,0.0426301096944702,1.60769580910344,0.0411099346805554,0.1005445142431275,0.0407491032093469,-0.0727299710048406,0.0412700537692615,-0.0207202787411255,0.1075346512777933,0.0426466475311,1.6083927478347209,-0.0779080773436128,0.0359500888988963,-0.0084560911925459,0.2310273347618902,0.0389340768350621,-0.1321849940410967,0.1854316435200292,10.46819793807026,-0.9440390820595026,0.2336575583964578,-0.8900317964249798
1.94,0.1048293282020634,0.0433937044969787,1.6073385803390008,0.0403859679571446,0.101071388247639,0.0405107925857313,-0.0718230091573862,0.0391910391930654,-0.0170685692190539,0.1059968954462525,0.0434964073114783,1.6081161542914857,-0.0789283631101846,0.0294121887788764,-0.0030825052233363,0.2149410607257396,0.0453480923727211,-0.1039507288098089,0.1825854761035795,10.480632148148288,-0.9446826113318328,0.2347780751963414,-0.8884827751578189
1.96,0.1034036115134322,0.0441560575193498,1.6070387144132632,0.0402536002575316,0.1014310821418022,0.0403002486015312,-0.070803921086576,0.037126117134791,-0.0131034139602679,0.1044336324705474,0.0441827195888561,1.607973900397481,-0.0799486488767563,0.0228742886588565,0.0022910807458733,0.2292645842094549,0.0509544035405103,-0.1032461029137191,0.1982577629392977,10.485733183446428,-0.9454743744023896,0.2354433249728681,-0.8868222413534612
1.98,0.1019985676023234,0.0448765842998096,1.6068191711355566,0.0407664989170054,0.101605107252517,0.0401308973310504,-0.0697683982484442,0.0349841569678296,-0.0090466961329333,0.102844862350678,0.0447055843632335,1.6079659861527065,-0.0809689346433281,0.0163363885388366,0.007664666715083,0.2351449576099651,0.0517761419065905,-0.1070980083480707,0.2028358913667338,10.49414367780082,-0.9464219029759188,0.2356181636691404,-0.8850954197058102
2.0,0.1006139190079201,0.0455506035995864,1.6066814899437956,0.0418406357269057,0.1016235434566,0.03999703439623,-0.0687657388507587,0.0324888719287493,-0.0049204748969855,0.0985101476899011,0.0466257921482011,1.60636683632891,-0.059092424058209,0.022906428681444,-0.0079377383291251,0.2462593905925758,0.0501329698842756,-0.1247642519540126,0.2063110617973859,10.49414367780082,-0.947433367619,0.2353258905994326,-0.8834984454429127
2.02,0.0992873375567883,0.0461207838936258,1.606580956569834,0.0426115258524619,0.1023503295559543,0.0398847862388452,-0.0706908148338338,0.0279068260285094,-0.0058640078401645,0.0985101476899011,0.0466257921482011,1.60636683632891,-0.059092424058209,0.022906428681444,-0.0079377383291251,0.2529393039218201,-0.0962537991537546,-0.229102295011996,-0.047176647158948,10.496598397272464,-0.9447240952909526,0.2350034741461939,-0.8855643081171929
2.04,0.0978616577602728,0.0466318136237658,1.6064534356390514,0.0427291843444215,0.1043774676603894,0.0397758705804859,-0.0715993226363124,0.023486914076476,-0.0068131101966626,0.0985101476899011,0.0466257921482011,1.60636683632891,-0.059092424058209,0.022906428681444,-0.0079377383291251,0.2305526153289235,-0.0454253901239314,-0.2209955976016707,-0.0474551178249048,10.203597596224428,-0.943012239158506,0.2332489838234218,-0.8893404409056971
2.06,0.0964327997206895,0.0470559732224557,1.6063108091790477,0.0422932358123905,0.10713060079718,0.0396632095721381,-0.0711025195145922,0.0191941974926662,-0.0073928860865614,0.0979192234493191,0.0468548564350155,1.6062874589456186,-0.056957229220162,0.0204908830241669,-0.0077159467683635,0.2180044098933228,0.0248401560860082,-0.214635829190489,-0.0289887944949402,10.223106816561083,-0.940464726083927,0.2321578003389114,-0.8935732869188882
2.08,0.0950285267651859,0.0473968153984288,1.6061603508111728,0.041351963442586,0.1101201078698332,0.0395282787137206,-0.0692599616570867,0.0151579273271237,-0.0076356226240086,0.0967373749681549,0.0473129850086444,1.606128704179036,-0.052686839544068,0.0156597917096127,-0.0072723636468402,0.2221790794275844,0.0921278928752752,-0.2018135082771245,-0.0121368268723609,10.246358502042312,-0.9377171997122846,0.2318038965962544,-0.8974275739821079
2.1,0.0937400457345674,0.0476501605005948,1.606015449672821,0.0400809139992612,0.1128363236239637,0.0393707964732978,-0.0664216538917869,0.0117467571311744,-0.0076140611520339,0.0955555264869907,0.0477711135822733,1.6059699494124535,-0.0484164498679739,0.0108287003950585,-0.006828780525317,0.2218813758146881,0.1419153882649904,-0.1705585097974638,0.0010780735987372,10.267181939701004,-0.934813404570204,0.2321098636199564,-0.9009371672290872
2.12,0.0924511924015235,0.0478530901855681,1.605865544718402,0.0384970341911366,0.115327913661561,0.039175340428021,-0.0625738115332249,0.0087623377323525,-0.0073731797537612,0.0945871974896312,0.0479876875901744,1.6058333738019472,-0.0441460601918799,0.0059976090805043,-0.0063851974037937,0.2437758899709035,0.1923921179280988,-0.1492209699410981,0.0120440699136339,10.28547770390378,-0.93216461891987,0.2329872783123237,-0.9036487033873376
2.14,0.0912465116745264,0.0480038257058192,1.605720963455236,0.0368615515408535,0.1172979461157587,0.0389591752424981,-0.0580770894111565,0.0064846716127993,-0.0071022720167476,0.0936188684922717,0.0482042615980756,1.6056967981914407,-0.0398756705157858,0.0011665177659501,-0.0059416142822704,0.2523968294037881,0.224836106103422,-0.1138833059776587,0.0135453868506824,10.30156397871815,-0.9299198709689068,0.2342435711874014,-0.9054900758468052
2.16,0.0901371664299509,0.0481159879379717,1.6055820121555735,0.0353771469666089,0.118651059536003,0.0387349599637888,-0.0531224873302107,0.0048383126424719,-0.0068112628874713,0.0927572992368146,0.0483000583231129,1.6055713121589723,-0.0356052808396917,-0.0036645735486041,-0.0054980311607472,0.2614539440944212,0.2477301040472879,-0.0823179485163673,0.0145504564638126,10.304295135515533,-0.9282817248627164,0.2355220758767471,-0.9065013876686624
2.18,0.0891771210384576,0.0481977116071302,1.6054558654272533,0.0342649954270049,0.1193544619588886,0.0385269959204022,-0.0482307127431128,0.003822573114984,-0.0064842375426947,0.0920024897232598,0.0482750777652864,1.6054569157045422,-0.0313348911635977,-0.0084956648631583,-0.0050544480392239,0.2503404230982524,0.2445887293548967,-0.0507869763743955,0.0163512672388314,10.30709885237502,-0.927092452258686,0.2368028342429068,-0.9068379350560886
2.2,0.0882665267380938,0.0482672993952704,1.6053304913407789,0.0335628309671539,0.1195409543987655,0.0383274159503043,-0.0431282677424608,0.0031739760076153,-0.0060672258527903,0.086765585401302,0.0483888402628794,1.6051316535501186,-0.0519787056591455,-0.0037048690683614,-0.0201920886024295,0.2580190009567271,0.2551222500326019,-0.032429855368438,0.0208505844952189,10.31548728844882,-0.9264389371405408,0.2378294551066736,-0.9065498737015028
2.22,0.0874896441192302,0.0483088090421066,1.6051877477367764,0.0328216463546233,0.1181058443081746,0.0380772650707859,-0.0349813728594962,0.001218468079957,-0.0082147551863964,0.086765585401302,0.0483888402628794,1.6051316535501186,-0.0519787056591455,-0.0037048690683614,-0.0201920886024295,0.4324574826728844,0.4073447441482278,-0.0977753963829144,-0.107376466680306,10.31548728844882,-0.9282209837857448,0.2380722288040497,-0.9049238268405796
2.24,0.0868989281984898,0.0483215068210273,1.6050089657650366,0.0319116522342294,0.1142183626416282,0.0377512206486569,-0.0278016308129521,0.0002232143822325,-0.0104734467590405,0.086765585401302,0.0483888402628794,1.6051316535501186,-0.0519787056591455,-0.0037048690683614,-0.0201920886024295,0.3796080656350721,0.3589871023272033,-0.0497626848862257,-0.1129345786322042,10.165048165155897,-0.930219972982714,0.2392872252118049,-0.9017283804071892
2.26,0.0863987897741458,0.0483199378336615,1.6047743358633837,0.0310722130660516,0.1080000958547111,0.0373602748500766,-0.0230010918649242,-0.0003391484392966,-0.0128562411848819,0.0862457983447105,0.0483517915721958,1.6049297326640943,-0.052728304242352,-0.0052103575050305,-0.0229336588143765,0.2694398606850531,0.2400269474013963,-0.028118141076458,-0.1191397212920717,10.152415870344155,-0.9335814690545988,0.2406863446632805,-0.8966867409985392
2.28,0.0859578912688896,0.0483105005176194,1.6044920044710735,0.0305531905238262,0.1008747759996877,0.036975336459647,-0.021595709807731,-0.0006025709287052,-0.0152492038656148,0.0852062242315276,0.0482776941908286,1.6045258908920457,-0.0542275014087651,-0.0082213343783688,-0.0284167992382704,0.1393804194102186,0.070269102859663,-0.0131711244704284,-0.1196481340366452,10.14233463518758,-0.9385625910204872,0.2414121323526796,-0.8906243193859378
2.3000000000000003,0.0855121273437931,0.0482975536505144,1.6041608687816369,0.0304946589854036,0.0939319994341445,0.0366367278011846,-0.0231702315194588,-0.0007353690097659,-0.0177338013303844,0.0841666501183447,0.0482035968094613,1.604122049119997,-0.0557266985751781,-0.011232311251707,-0.0338999396621643,0.1472241362088366,-0.0787260855863917,-0.0066399040530352,-0.1242298732384794,10.13427851916913,-0.9436415659910662,0.2413535625323724,-0.8851306151400149
2.32,0.085034932641348,0.0482820629381796,1.6037989328034865,0.0309152243488768,0.0882237323964565,0.0363792734653361,-0.0270557935568231,-0.0009405690680068,-0.0202363706328909,0.0830521161468411,0.0479789505844272,1.6034440503267535,-0.0572258957415912,-0.0142432881250452,-0.0393830800860582,0.2313144641173375,-0.1942781018682143,-0.0102600029120444,-0.1251284651253247,10.117780943172876,-0.9482880895282584,0.2405041743641749,-0.8806831224332728
2.34,0.0844300220376057,0.0482585195398552,1.6033636940241167,0.0318459867120656,0.083843199124786,0.0361933961498583,-0.0333718369288962,-0.0014538254878201,-0.0231729121596913,0.0819375821753376,0.0477543043593931,1.6027660515335105,-0.0587250929080043,-0.0172542649983834,-0.0448662205099522,0.3492102238230257,-0.3158021686036544,-0.0256628209906679,-0.1468270763400187,10.106039951337152,-0.951357234510958,0.2388319230816211,-0.8785687116010229
2.36,0.0836761196849568,0.0482184611574108,1.6028661727922486,0.0331645851230801,0.0819581770665043,0.0361138793712945,-0.0415861048410689,-0.0025550456249102,-0.0264338702489327,0.0807855682746737,0.0474543837125255,1.6019509742296698,-0.0602242900744174,-0.0202652418717217,-0.0503493609338461,0.4453109328970935,-0.4107133956086365,-0.0550610068545059,-0.1630479044620674,10.106039951337152,-0.9526617739083058,0.2362104405386274,-0.8794240740416729
2.38,0.0828111289435179,0.0481534606544001,1.6023307276918948,0.0345916958940833,0.082591153526348,0.0361324120016388,-0.0487660122820029,-0.004229907469786,-0.0297661312097338,0.0795960744448495,0.0470791886438244,1.600998818415232,-0.0617234872408304,-0.0232762187450599,-0.05583250135774,0.4045373782812868,-0.3589953720466988,-0.083743092243786,-0.1666130480400559,10.09533026511508,-0.9525552562061494,0.232602859676765,-0.8829821698904168
2.4,0.0817703694164348,0.0480440538737807,1.6016963805047884,0.036061464489844,0.0850477052099085,0.0362160708496208,-0.0547061114060346,-0.0066326500125626,-0.0335097699803854,0.0803728283294178,0.0479419652809108,1.600842421131408,-0.0488173251763595,-0.0109309596586593,-0.0196316372776058,0.3710551865131269,-0.2970049562015849,-0.1201371271388316,-0.187181938532579,10.078250913561533,-0.950292339587938,0.2289272069370049,-0.8888894388111108
2.42,0.0806336841047283,0.0478619616033748,1.60104572849952,0.0367761646337687,0.0886544603962718,0.0362943224896093,-0.0584436276372015,-0.0113310967463249,-0.0310457789187031,0.0803728283294178,0.0479419652809108,1.600842421131408,-0.0488173251763595,-0.0109309596586593,-0.0196316372776058,0.3244829781370976,-0.1868758115583468,-0.2349223366881163,0.123199553084111,10.064181207109868,-0.9484446299631756,0.2250284003248014,-0.895425919087442
2.44,0.0794426346345865,0.0475863452549473,1.600457315721341,0.0362421397740027,0.0928056085791862,0.0363092577289441,-0.0603195756696305,-0.0158905696259704,-0.0279600441616348,0.0803728283294178,0.0479419652809108,1.600842421131408,-0.0488173251763595,-0.0109309596586593,-0.0196316372776058,0.2908166645481988,-0.0937974016214503,-0.227973643982272,0.1542867378534144,10.45769270656183,-0.9461569795279908,0.2247598753278866,-0.8986635380586236
2.46,0.0782927724078218,0.0472434429127073,1.5999533464364355,0.0346577719148282,0.0967257713838866,0.0362480133461637,-0.0605541448927494,-0.0198613081778643,-0.0252471005590018,0.0798846550776542,0.0478326556843242,1.600646104758632,-0.0488275877552309,-0.0122711700964339,-0.0176047384911802,0.240737670291746,-0.0117284611559451,-0.1985369275946956,0.1356471801316542,10.445102813095218,-0.9433906409143016,0.2256788063711633,-0.9018146837928775
