t,x,y,z,roll,pitch,yaw,v_x,v_y,v_z,ref_x,ref_y,ref_z,ref_v_x,ref_v_y,ref_v_z,a_com,a_x,a_y,a_z,thrust,wind_x,wind_y,wind_z
0.0,2.442930112092277,-1.0604737073494015,2.4306521132713166,0.0333203846166414,0.0997974031358441,0.0423605719460404,-0.0002880919425518,-0.0014706793598186,-0.0001021952099375,2.442914050928756,-1.0604104885053898,2.4306525258100304,-0.1004707154541016,0.1011705024386816,-0.0481899600641782,0.0751055691625792,-0.0144045971275917,-0.0735339679909312,-0.0051097604968766,10.256950874049837,-0.940017950594842,0.249568546961897,-0.8818161682270668
0.02,2.4431067132076665,-1.0607845515807173,2.430588071748721,0.0240477211121592,0.0941521819955889,0.0415514192631727,0.0172104411709909,-0.0247957547415535,-0.0062924848691373,2.4429157074951493,-1.0605472413173926,2.43064700351082,-0.1002880934326679,0.0985293221302975,-0.0391328179008535,1.4904508451758554,0.8749266556771416,-1.1662537690867478,-0.3095144829599888,10.25813458095945,-0.9485093190875632,0.2497004863564171,-0.8802869047839611
0.04,2.4435639661298554,-1.0613099513816868,2.430394660767621,0.0071399958685333,0.0786100191233927,0.0401832125690297,0.0261198821701856,-0.0257298399331768,-0.0126090551941536,2.4429157074951493,-1.0605472413173926,2.43064700351082,-0.1002880934326679,0.0985293221302975,-0.0391328179008535,0.5480641265723797,0.4454720499597346,-0.0467042595811628,-0.3158285162508167,9.982337677018675,-0.9564800630351642,0.2667342259481311,-0.861961793009434
0.06,2.4440613029346885,-1.0617446804298434,2.430092516631928,-0.0093649094548761,0.0587754983996046,0.0391689022911966,0.0248765283442785,-0.0196493867262048,-0.0188438195160179,2.4429157074951493,-1.0605472413173926,2.43064700351082,-0.1002880934326679,0.0985293221302975,-0.0391328179008535,0.4398582899291708,-0.0621676912953594,0.3040226603486002,-0.3117382160932134,9.85439647979092,-0.9710290924902084,0.2824843113810313,-0.8376468339713383
0.08,2.4444565652632733,-1.0620369158739094,2.429643494561073,-0.026065865820847,0.0360352639394979,0.0386013220090515,0.0139131740886831,-0.0095270493540293,-0.0257573897673994,2.4419128265608228,-1.0595619480960896,2.430255675331811,-0.1202880937306911,0.1185293224283207,-0.0469389424390368,0.8222747473177834,-0.5481677127797698,0.5061168686087724,-0.3456785125690791,9.79170096926282,-0.9885721396076428,0.2963585418544882,-0.8105000631396201
0.1,2.4445359925586883,-1.062094038741729,2.4290519892088294,-0.0419442771428016,0.0142784634885326,0.0385025602594954,-0.0057865487679744,0.003658092374938,-0.033071739919105,2.439907064692169,-1.0575913616534838,2.429473018973794,-0.1602880943267376,0.1585293230243671,-0.0625511915154032,1.2403898189519196,-0.9849861428328772,0.659257086448374,-0.3657175075852781,9.776978469109965,-1.0055023468655833,0.307667763159553,-0.784995309099749
0.12,2.4441786313133904,-1.061876977795868,2.4283525369886663,-0.0562957435388711,-0.0036538826049061,0.0387027151113107,-0.0309175049165588,0.0188264451688859,-0.0402126258632908,2.437901302823516,-1.0556207752108775,2.428690362615777,-0.200288094922784,0.1985293236204136,-0.0781634405917696,1.5104934090319695,-1.256547807429221,0.7584176396973921,-0.3570442972092892,9.776978469109965,-1.022352076952669,0.3178132250674307,-0.7599396367191563
0.14,2.4432377186170413,-1.0612881681122468,2.427464706435511,-0.0700031703233061,-0.0186334015440557,0.0390908721483206,-0.0619216008900968,0.0392123048136391,-0.0482090515488206,2.43389554092506,-1.0516501887384695,2.427127093803941,-0.2402880955188305,0.23852932421646,-0.093775689668136,1.8978804390267403,-1.5502047986769016,1.0192929822376589,-0.3998212842764879,9.808333627021966,-1.036850787055382,0.3263088757412666,-0.7381173987391072
0.16,2.4416382259897893,-1.0602566592079627,2.426413755363375,-0.0815823625556318,-0.0291151985808806,0.0395240777481788,-0.0964931699315971,0.0626982877570196,-0.0564740725578576,2.4298897790266043,-1.047679602266061,2.425563824992106,-0.280288096114877,0.2785293248125066,-0.1093879387445025,2.130196794364202,-1.7285784520750145,1.174299147169029,-0.4132510504518544,9.825334593643674,-1.0475481686290913,0.3327097221099386,-0.7224496173411098
0.18,2.439306877767797,-1.058723594674862,2.4251956149507423,-0.0905482298065198,-0.0342285853084211,0.0398169402258167,-0.1346686251405609,0.0887879797273806,-0.0648715280279481,2.4248840171132477,-1.0427090157787515,2.4236102499533616,-0.3202880967109234,0.318529325408553,-0.1250001878208689,2.3497631082154133,-1.9087727604481863,1.3044845985180464,-0.4198727735045239,9.859805793326814,-1.0537167085956294,0.33674844019533,-0.7145220045197778
0.2,2.4363814451922385,-1.0567712672292426,2.4238858131487118,-0.0966501395488913,-0.0337641269975239,0.0398192566807156,-0.1707001935309955,0.1148416490466568,-0.0724547276662718,2.418878255184989,-1.0367384292765411,2.421266368687708,-0.3602880973069698,0.3585293260045994,-0.1406124368972353,2.2553117979713084,-1.8015784195217293,1.302683465963809,-0.3791599819161849,9.908777698627093,-1.0576230404567215,0.3381294685417235,-0.713174418044393
0.22,2.4325914288232067,-1.054179712086175,2.422357004049953,-0.1009091005753671,-0.0288956811973224,0.0395462877236096,-0.2058759660535966,0.1425829813290335,-0.0799222175525323,2.427846435515689,-1.0510291847769098,2.420263076765398,-0.2707001950211116,0.2148416505367729,-0.1194149027036559,2.2708367921123385,-1.758788626130056,1.387066614118839,-0.373374494313023,9.927135038054075,-1.0578979925048706,0.3385226228558279,-0.7170359342313544
0.24,2.4280992419883964,-1.050908865284686,2.4207319873030446,-0.0995984914928311,-0.0200003644669221,0.0392510443965013,-0.2409237819624817,0.1817757981087355,-0.08164483917368,2.427846435515689,-1.0510291847769098,2.420263076765398,-0.2707001950211116,0.2148416505367729,-0.1194149027036559,2.6303011768427,-1.7523907954442572,1.959640838985098,-0.0861310810573855,10.361560584498877,-1.056718425752235,0.3374141932024792,-0.720668955848756
0.26,2.4232353338640134,-1.0471576581107946,2.419172856610345,-0.0928537090066766,-0.0086029934337293,0.0391090027252177,-0.2687406143618728,0.2100656503882432,-0.0822664854176973,2.427846435515689,-1.0510291847769098,2.420263076765398,-0.2707001950211116,0.2148416505367729,-0.1194149027036559,1.9839848479668871,-1.3908416199695517,1.4144926139753835,-0.0310823122008627,10.361560584498877,-1.051523714271816,0.3316731409767902,-0.733474665762637
0.28,2.4176026324493485,-1.0427056878930845,2.417509197852791,-0.0846658490325818,0.0045150685143046,0.0390252532632527,-0.2925958558043147,0.2334318428652258,-0.0841371437830077,2.425139433565477,-1.048880768271542,2.419068927738361,-0.2907001953191349,0.2348416508347961,-0.1288069377111327,1.6722371675904006,-1.192762072122097,1.1683096238491328,-0.0935329182655209,10.24579893893133,-1.044645047454365,0.3259296804118187,-0.7470659722218826
0.3,2.4115442901737025,-1.0378251926838782,2.41578755545686,-0.0770685053707682,0.0173723156378817,0.0390227198895301,-0.3117205882429306,0.2534676120647534,-0.0880505836131719,2.419725429665055,-1.0445839352608066,2.416680629684288,-0.3307001959151813,0.2748416514308425,-0.1475910077260863,1.3986622622792988,-0.9562366219307922,1.0017884599763784,-0.1956719915082103,9.958120447116926,-1.0364437418002714,0.3206598632212447,-0.7616152757655159
0.32,2.40547376583643,-1.032838996730241,2.4140574285879035,-0.0709567894290625,0.0283966517925661,0.0391114187410905,-0.3262308091107059,0.2706028841301575,-0.093902774234555,2.414311425764633,-1.040287102250071,2.414292331630215,-0.3707001965112277,0.314841652026889,-0.1663750777410399,1.1601855384549975,-0.7255110433887685,0.8567636032702025,-0.2926095310691573,9.83437443233015,-1.0292517968982424,0.3166661899508046,-0.7733870052770194
0.34,2.398815795437981,-1.0272510177408616,2.4120972109288616,-0.0657708920802211,0.0381716481730674,0.0393035606013522,-0.3387044170194664,0.2874484506962327,-0.1019327719927635,2.4068974218344086,-1.0339902692095333,2.410964830075394,-0.4107001971072742,0.3548416526229354,-0.1851591477559935,1.122324453077625,-0.6236803954380227,0.842278328303761,-0.4014998879104246,9.83437443233015,-1.02217512445076,0.3132777796521812,-0.7844577588721033
0.36,2.3919306413487678,-1.0213335473720675,2.4099606351139267,-0.0617760668897804,0.0457834574217461,0.0395895753314581,-0.3491777449429576,0.3036067336861503,-0.1114098521021551,2.399483417904184,-1.0276934361689956,2.407637328520573,-0.4507001977033207,0.3948416532189819,-0.2039432177709471,1.0730747345537803,-0.5236663961745602,0.8079141494958808,-0.4738540054695775,9.730893641378316,-1.0163421307254328,0.3107203624251464,-0.7934165488888058
0.38,2.3848454603377456,-1.0150893917446877,2.407621495668212,-0.0585253356919096,0.0513262662523931,0.0399692059572507,-0.3588847120875264,0.3200073497869511,-0.122049137957648,2.3910694139590585,-1.0203966031135567,2.4038402252153785,-0.4907001982993671,0.4348416538150284,-0.2227272877859007,1.091329261894043,-0.4853483572284406,0.8200308050400423,-0.531964292774647,9.66312729456331,-1.0111192657461734,0.308670709416159,-0.8010368562172407
0.4,2.377937520251516,-1.0088550090791355,2.4051945740511704,-0.0557285513357527,0.0550500675378285,0.0404072394951576,-0.3678326721830733,0.3353722298079286,-0.1328950596165189,2.3816554099990315,-1.0120997700432166,2.39957352015981,-0.5307001988954135,0.4748416544110748,-0.2415113578008543,1.0413687442026702,-0.4473980047773468,0.7682440010488734,-0.5422960829435469,9.616063036904052,-1.007080641717726,0.3067196036512155,-0.8071632316859165
0.42,2.3704827075772106,-1.0019825094160646,2.402410355931163,-0.0529742768657461,0.0577296185659393,0.0409261748806731,-0.3772074361900637,0.3510127002796994,-0.14499237863256,2.359545886642362,-0.9920863975887392,2.3985498210703446,-0.4678326736731895,0.4353722312980447,-0.17349792990203,1.0941385242977273,-0.4687382003495166,0.7820235235885376,-0.604865950802054,9.582557557600012,-1.00397091624228,0.3047595045501036,-0.8122325341787567
0.44,2.3628523422900294,-0.9947937789579356,2.399524587494573,-0.050347553934734,0.0593115765776727,0.0414918960430294,-0.385374591397715,0.367042354056495,-0.142215732578993,2.359545886642362,-0.9920863975887392,2.3985498210703446,-0.4678326736731895,0.4353722312980447,-0.17349792990203,0.9101675500925585,-0.4083577603825689,0.801482688839783,0.138832302678353,9.54990247686328,-1.008165543134634,0.3022248559129242,-0.8100256679872447
0.46,2.3554566000046315,-0.9876852057356676,2.3968388293571747,-0.0483577516450546,0.0597406676256061,0.0420426951035276,-0.3928614687519071,0.3806570309085673,-0.1407267577089374,2.359545886642362,-0.9920863975887392,2.3985498210703446,-0.4678326736731895,0.4353722312980447,-0.17349792990203,0.780432259178725,-0.3743438677096006,0.6807338426036147,0.0744487435027807,10.4612358859722,-1.0090804952441803,0.3029515573743737,-0.8065044509205724
0.48,2.3475125782356643,-0.979926731265143,2.3940153352674107,-0.047034913262196,0.0591621510755275,0.0426111705628345,-0.4012294220705824,0.3945251474592244,-0.1418174159034463,2.35486755990563,-0.9877326752757586,2.396814841771324,-0.4878326739712127,0.455372231596068,-0.1816185039591322,0.8116908812833078,-0.4183976659337673,0.6934058275328558,-0.0545329097254479,10.280087914323303,-1.0104220446310657,0.3038329846350645,-0.8028939942873463
0.5,2.339395103849957,-0.9718957446417122,2.3911462086638595,-0.0465911043197834,0.0576845415108168,0.0431536808892714,-0.4101848323000559,0.4079345560190191,-0.1451230513069488,2.345510906432166,-0.9790252306497976,2.393344883173284,-0.5278326745672591,0.4953722321921144,-0.1978596520733366,0.8230109897846782,-0.4477705114736746,0.6704704279897333,-0.1652817701751269,10.121132807150389,-1.0122872852564735,0.3048806051881731,-0.7991233079938763
0.52,2.331090838009319,-0.9635999094277594,2.3881915096119277,-0.0471485449308662,0.0554601874467907,0.0436569327939744,-0.4198928596858555,0.421089684525779,-0.150168930113319,2.3361542529587025,-0.9703177860238368,2.3898749245752438,-0.5678326751633056,0.5353722327881609,-0.214100800187541,0.8555175256553456,-0.4854013692899783,0.6577564253379964,-0.2522939403185098,9.99829019401841,-1.014472731256893,0.3061981377836848,-0.7952909597107389
0.54,2.323012913664369,-0.9554741971306068,2.385279700045807,-0.0486393721563893,0.0528395209452973,0.0440922063005276,-0.4300197172213423,0.4336917793313392,-0.1560796923248747,2.3247975994554366,-0.9596103413680735,2.3855929085714926,-0.6078326757593521,0.5753722333842074,-0.2303419483017454,0.8606729154474547,-0.5063428767743433,0.6301047402780091,-0.2955381105777838,9.843101757789556,-1.0172027390046954,0.3080565720463531,-0.7908096549876468
0.56,2.314291569333152,-0.9466566570951992,2.3820900258653825,-0.0511626887195615,0.0497749687115076,0.0445044560039578,-0.441705475361109,0.4476825778288035,-0.1625919418982122,2.3134409459521703,-0.9489028967123104,2.381310892567742,-0.6478326763553985,0.6153722339802539,-0.2465830964159498,0.9678698006488324,-0.5842879069883317,0.6995399248732131,-0.3256124786668729,9.828983862199491,-1.0205977632903789,0.3104874907189011,-0.7854145294820153
0.58,2.305317001493272,-0.9375305338616544,2.378768483918184,-0.0537451727289563,0.0468681200620124,0.0449133635839901,-0.4552963532580507,0.4641570180980788,-0.1692283640386224,2.301084292434003,-0.937195452041646,2.376622847861136,-0.6878326769514449,0.6553722345763002,-0.2628242445301542,1.1182142493963607,-0.6795438948470872,0.8237220134637652,-0.3318211070205121,9.828983862199491,-1.0237218762049876,0.3132417331232585,-0.7797897839591087
0.6,2.296049068976407,-0.9280604021560196,2.375313131958527,-0.0555410806826439,0.0449568262278086,0.0453288714536701,-0.4708469787813079,0.4817670415892861,-0.1759565912372556,2.2877276389009347,-0.9244880073560804,2.371528774451675,-0.7278326775474914,0.6953722351723467,-0.2790653926443586,1.2218878045486397,-0.7775312761628572,0.8805011745603664,-0.3364113599316598,9.838517674158538,-1.026123969746498,0.3153073023083847,-0.7754198172421795
0.62,2.286946454715753,-0.918730223988312,2.371903658691189,-0.0562192217482854,0.0446340455328929,0.0457118100970404,-0.4863261706330425,0.499287755971441,-0.1825715610468686,2.272506720037341,-0.9039720500765552,2.3665153023966643,-0.570846980271424,0.5817670430794022,-0.2137121513671365,1.214844268235591,-0.7739595925867315,0.8760357191077428,-0.3307484904806507,9.838517674158538,-1.0282437161318514,0.3162685709114695,-0.7725451483576569
0.64,2.277031209286328,-0.9085003566489512,2.3682950007729984,-0.0542751006445687,0.0465029036241604,0.0461718392311787,-0.5040721716714696,0.5223619577851079,-0.1772487148639741,2.272506720037341,-0.9039720500765552,2.3665153023966643,-0.570846980271424,0.5817670430794022,-0.2137121513671365,1.4795878088849923,-0.8873000519213525,1.1537100906833435,0.266142309144729,9.825565329005258,-1.0327161974960668,0.3156636414112183,-0.7674616658519908
0.66,2.266786907903055,-0.8978513305878,2.364799240380248,-0.0495930123044352,0.0505953635411839,0.0467024501346861,-0.5191414664692285,0.5407451459830154,-0.1727422546354098,2.272506720037341,-0.9039720500765552,2.3665153023966643,-0.570846980271424,0.5817670430794022,-0.2137121513671365,1.209683262070162,-0.753464739887949,0.919159409895376,0.2253230114282106,10.620495254355774,-1.0333421880109146,0.3142040640983962,-0.766286682876383
0.68,2.25679983377333,-0.8874341129380049,2.361532114220624,-0.0448236850928123,0.0554506206681997,0.0471897973622857,-0.5311873279472383,0.5548334546492052,-0.1715320340044804,2.266798250234627,-0.8981543796457611,2.364378180882993,-0.5908469805694472,0.6017670433774254,-0.2212632633931127,0.9287731878623094,-0.6022930739004895,0.704415433309491,0.0605110315464743,10.426972318692606,-1.0315650352301828,0.3123265497358108,-0.7686286710396892
0.7000000000000001,2.246062895167233,-0.876201987960912,2.358085641799357,-0.0403825040914298,0.0607643375252087,0.0476649261266295,-0.5417213675812257,0.5677139637530564,-0.1733085474732374,2.2553813106291987,-0.886519038784173,2.36010393785565,-0.6308469811654936,0.6417670439734718,-0.2363654874450651,0.8367041082268648,-0.5267019816993679,0.6440254551925595,-0.0888256734378548,10.215441808925789,-1.0285979263804157,0.3102269687003746,-0.7730299138155869
0.72,2.2351346417306,-0.8647241411193067,2.35457329868636,-0.0368257731157626,0.0656670895428338,0.0481031921686108,-0.5505261032721842,0.5796116359530964,-0.177841435951631,2.24396437102377,-0.874883697922585,2.3558296948283077,-0.6708469817615401,0.6817670445695183,-0.2514677114970174,0.7739913635254543,-0.440236784547926,0.5948836100020005,-0.2266444239196779,10.039498896374424,-1.0250347628156948,0.3083759875353027,-0.7782887861080697
0.74,2.224044584591951,-0.853014292562895,2.350948534510588,-0.0341140096522788,0.0697881972615127,0.0485138861714263,-0.5580436499456479,0.5909603086026117,-0.1844236319898794,2.230547431388539,-0.8612483570311946,2.350800340598367,-0.7108469823575866,0.7217670451655648,-0.2665699355489698,0.7560277501181685,-0.3758773336731857,0.5674336324757667,-0.3291098019124208,9.89635496797655,-1.0216505885072122,0.3068439624649876,-0.7833738623046749
0.76,2.2133790941966907,-0.841682723530987,2.347372753381157,-0.0322406483411763,0.0727909400598414,0.0488838984007964,-0.5643087959115658,0.601426764983836,-0.1916586135741717,2.2171304917533083,-0.8476130161398042,2.3457709863684264,-0.7508469829536331,0.7617670457616113,-0.2816721596009222,0.70912573229184,-0.3132572982958936,0.5233228190612116,-0.3617490792146155,9.788821085807283,-1.0186042541941358,0.3054740160451099,-0.7881588407537284
0.78,2.2020247956753733,-0.829533943173792,2.343452637103559,-0.0306706508138957,0.0750567660495648,0.0492683489053588,-0.5708043601397537,0.6128691060050518,-0.2000080286010807,2.2027135521031767,-0.8329776752335127,2.340364076537188,-0.7908469835496794,0.8017670463576576,-0.2967743836528745,0.7791537941572994,-0.3247782114093933,0.5721170510607942,-0.4174707513454459,9.739228692409595,-1.0158495615222582,0.3043191936275227,-0.7924246970795232
0.8,2.190540293067261,-0.8171546576017766,2.339359095269565,-0.0291688869150831,0.076651572247866,0.0496606849463439,-0.5773318444981109,0.6244009541115864,-0.208930842077461,2.187296612438143,-0.8173423343123201,2.3345796111046497,-0.8308469841457259,0.8417670469537041,-0.3118766077048269,0.7987618123305865,-0.326374217917863,0.5765924053267257,-0.4461406738190177,9.68148032748286,-1.0137169519282316,0.3031958799044487,-0.7959056547959248
0.8200000000000001,2.179508295093647,-0.8051817362338325,2.335300455077943,-0.0276431233406289,0.0777602541325379,0.050043678181529,-0.5836007110915667,0.635228246495413,-0.2178498907168821,2.161673700842356,-0.7859346098961973,2.3289125531656927,-0.677331845988227,0.7244009556017025,-0.2594690541383894,0.7682421124941287,-0.3134433296727912,0.5413646191913313,-0.445952431971057,9.68148032748286,-1.011839777105841,0.3018580564309312,-0.7992246099271034
0.84,2.167756938872579,-0.7923449265139805,2.3309490925288388,-0.0254758700104082,0.0792143311233147,0.0504686969091502,-0.5910646564561631,0.6475739797016923,-0.2162384081843273,2.161673700842356,-0.7859346098961973,2.3289125531656927,-0.677331845988227,0.7244009556017025,-0.2594690541383894,0.7258176161389247,-0.373197268229819,0.6172866603139648,0.0805741266277443,9.66025796606209,-1.0141549970714547,0.3005850379497664,-0.7976505957317389
0.86,2.1558713629643527,-0.7792916743407686,2.326626609700631,-0.02330522079518,0.0811779706596888,0.0508717676843392,-0.597043390124239,0.6572533387650326,-0.2163084153857532,2.161673700842356,-0.7859346098961973,2.3289125531656927,-0.677331845988227,0.7244009556017025,-0.2594690541383894,0.5688588338926961,-0.2989366834037943,0.4839679531670138,-0.0035003600712971,10.342476669492498,-1.0135085650885658,0.3001959251085685,-0.7979208575329567
0.88,2.14387573375274,-0.7660528154921424,2.322264960661708,-0.0218224271666889,0.0830058432918268,0.0512213213317346,-0.6022197713042886,0.6662757767286205,-0.2198445522576621,2.1549003823824733,-0.7786906003401803,2.326317862624309,-0.6973318462862502,0.7444009558997257,-0.269576696550575,0.5493258889421601,-0.2588190590024797,0.4511218981793963,-0.1768068435954436,9.964347285962504,-1.0117482950993446,0.2997785449980402,-0.7998347759812445
0.9,2.13238937185579,-0.7533140048684622,2.318031104757809,-0.0211757604948418,0.0843505948635782,0.0515002858429727,-0.6066434576781592,0.6743024191926817,-0.2256487542889016,2.141353745462709,-0.7642025812281462,2.3211284815415407,-0.7373318468822967,0.7844009564957721,-0.2897919813749464,0.5424130151454817,-0.2211843186935291,0.4013321232030631,-0.2902101015619773,9.964347285962504,-1.0098670499742222,0.2994805081949191,-0.802253993171099
0.92,2.1202108749248385,-0.7397446071191118,2.313435552319063,-0.021522892904335,0.0851952617859207,0.0517254001113721,-0.6110130077993214,0.6823024885513599,-0.2336924313294054,2.127807108542944,-0.7497145621161122,2.315939100458773,-0.7773318474783432,0.8244009570918186,-0.3100072661993177,0.6078544610697083,-0.2184775060581123,0.400003467933907,-0.4021838520251911,9.82631572401715,-1.008041840721477,0.2995427839738269,-0.8048041328829137
0.94,2.1079459110087995,-0.7260158998358284,2.3086620565265283,-0.0231040024285767,0.0853803043099484,0.0518709545027861,-0.615350711829798,0.690316480667337,-0.243255897804317,2.1122604715933773,-0.7332265429742758,2.3097389551347867,-0.8173318480743896,0.8644009576878651,-0.3302225510236891,0.6604915535184991,-0.2168852015238254,0.4006996057988543,-0.4781733237455773,9.72029546021804,-1.0064821361973788,0.3002278513261107,-0.8070314593351912
0.96,2.0962127067876475,-0.7128188994335969,2.3039455062694536,-0.0256812983540994,0.0849703905773776,0.0519435557279607,-0.619596351149952,0.6987610710685475,-0.2527539881221927,2.0967138346438103,-0.7167385238324395,2.3035388098108003,-0.8573318486704361,0.9044009582839116,-0.3504378358480604,0.6699818653657315,-0.2122819660077046,0.4222295200605241,-0.4749045158937828,9.648426864727298,-1.005618594635908,0.301596775465603,-0.8082246253782418
0.98,2.083766829585064,-0.6987254786791647,2.29878319620605,-0.0285827752033992,0.0841053840718746,0.0520165046858511,-0.6248302224301086,0.7101231286165868,-0.2629860664273413,2.0801671976793426,-0.6992505046757019,2.2968332823662045,-0.8973318492664825,0.944400958879958,-0.3706531206724317,0.8080612395494822,-0.2616935640078255,0.5681028774019659,-0.5116039152574331,9.630668406727636,-1.0050154890604006,0.3033922788953149,-0.808717840401127
1.0,2.071208126070562,-0.6843892947792577,2.2934155904157545,-0.0308660290472945,0.0831245702643663,0.0521345528414957,-0.6308012897925998,0.7227710582296534,-0.2732582257465579,2.062620560699973,-0.6807624855040633,2.289622372801,-0.9373318498625288,0.9844009594760044,-0.3908684054968031,0.8676707699696095,-0.29855336812456,0.63239648065333,-0.5136079659608273,9.624972001924109,-1.0047848306849558,0.3047536129338892,-0.8088661545034801
1.02,2.0585237033418777,-0.6697911334289032,2.287841147997232,-0.0321801899802988,0.0822917019972815,0.0523121614936372,-0.6373191528340579,0.7361917513521855,-0.2836673865284994,2.039668061580932,-0.648250741867775,2.2797526791284266,-0.7308012912827159,0.8227710597197695,-0.3147954398171164,0.9095990472465004,-0.3258931520729091,0.6710346561266067,-0.5204580390970742,9.62882798802184,-1.0045769623792231,0.3055453710390262,-0.8092045915805798
1.04,2.0463314606814595,-0.6556245559656549,2.2825040812861723,-0.0310090523235871,0.0826542202494474,0.0526055657785156,-0.6454133931766964,0.7536497387602661,-0.2775566822013695,2.039668061580932,-0.648250741867775,2.2797526791284266,-0.7308012912827159,0.8227710597197695,-0.3147954398171164,1.0095032917711324,-0.4047120171319252,0.8728993704040289,0.305535216356495,9.624760347487609,-1.0093477650680436,0.3056398106127906,-0.8035346342250861
1.06,2.033351514560608,-0.6403915003660792,2.2770031461793026,-0.0270293365063967,0.0845513503114465,0.0530495581290753,-0.6519545015342604,0.7681161054433847,-0.2730297258211409,2.039668061580932,-0.648250741867775,2.2797526791284266,-0.7308012912827159,0.8227710597197695,-0.3147954398171164,0.8254622911198447,-0.327055417878197,0.7233183341559313,0.2263478190114271,10.6386020718719,-1.0104317168040773,0.3050323480419686,-0.8006584397077955
1.08,2.020257691076357,-0.6249134101714459,2.271553838361528,-0.0224037273276063,0.0870323505009906,0.053516587084987,-0.6569999106758037,0.7788624297651118,-0.2722893416628231,2.0323600486681044,-0.6400230312705772,2.276604724730256,-0.750801291580739,0.8427710600177927,-0.3231028826312281,0.594743239842201,-0.2522704570771639,0.5373162160863532,0.037019207915892,10.423296646262315,-1.009303056353185,0.3032183251564495,-0.8016480461575317
1.1,2.0077368372082165,-0.6100319073133896,2.2663547439973177,-0.0184273396888641,0.0893548472031525,0.0539272949129765,-0.660714407181346,0.7871849667080771,-0.2750105408447342,2.01774402284245,-0.6235676100761819,2.2703088159339133,-0.7908012921767855,0.8827710606138391,-0.3397177682594515,0.4755707897998559,-0.1857248252771171,0.4161268471482682,-0.136059959095558,10.192400208256911,-1.0071611938377578,0.3008920660997208,-0.8045981885608235
1.12,1.994489569119268,-0.5942081680200593,2.2607996005498925,-0.0150316314425585,0.0913629394192877,0.0543060616607036,-0.6638190256934532,0.7948689927616566,-0.2804846197864188,2.003127997016796,-0.6071121888817865,2.264012907137571,-0.830801292772832,0.9227710612098856,-0.356332653887675,0.4966096373350009,-0.1552309256053596,0.3842013026789714,-0.2737039470842278,10.000881069608113,-1.0049588786286776,0.2987486833901754,-0.807851855398459
1.14,1.9811855879103355,-0.5782367537154848,2.255111909271793,-0.0124991653901674,0.0926812892817009,0.0546258010976558,-0.6664645888778095,0.8020168116605371,-0.2881006618066508,1.9865119711613397,-0.5886567676575888,2.2568862540598174,-0.8708012933688785,0.962771061805932,-0.3729475395158984,0.5387355929107376,-0.1322781592178135,0.3573909449440249,-0.3808021010115986,9.853695542244168,-1.002890278376418,0.2968704126062032,-0.8110871969167802
1.16,1.967832058267193,-0.5621271278790535,2.249260548021424,-0.0107992641177446,0.0931908486537351,0.0548864065968289,-0.6688566706942576,0.8087522348108493,-0.296655614344206,1.9698959453058824,-0.570201346433391,2.249759600982064,-0.9108012939649248,1.0027710624019786,-0.3895624251441218,0.5573939211862826,-0.119604090822406,0.336771157515614,-0.4277476268777641,9.743661539929237,-1.0015209412152393,0.2953943929294211,-0.8135575666927269
1.18,1.9550971859872064,-0.5466922083374309,2.243539410111496,-0.0096502527524653,0.0930650156491374,0.0550969417153009,-0.6715897506264077,0.81560892271271,-0.3051413054220768,1.9522799194355247,-0.5507459251942922,2.242217575763605,-0.9508012945609712,1.042771062998025,-0.4061773107723452,0.5623407507199237,-0.1366539966075053,0.3428343950930335,-0.4242845538935363,9.704756055000871,-1.000774772364336,0.2942572299097549,-0.8151122268376901
1.2,1.9416311657917087,-0.5303041972908308,2.237339629509536,-0.0086593839514575,0.0925571048485286,0.0552949002576427,-0.6749121478646104,0.8227924810379739,-0.3144053601061211,1.933663893550266,-0.5302905039402922,2.23426017840444,-0.9908012951570176,1.0827710635940713,-0.4227921964005686,0.6092301346983924,-0.1661198619101356,0.3591779162631925,-0.4632027342022171,9.689048043733235,-1.0004818519512628,0.2932360689053996,-0.8161397397072808
1.22,1.928093778102335,-0.5137722752922362,2.230951770275836,-0.0077574934496525,0.0918750587178156,0.0554757990695633,-0.6786893632355083,0.8299896980148861,-0.3239259150275735,1.9078855583984784,-0.4891645732389321,2.22161936150423,-0.7749121493547265,0.92279248252809,-0.3720949448977814,0.6259158373601301,-0.1888607685448962,0.3598608488456112,-0.4760277460726214,9.67198552206628,-1.0005082558992615,0.292309470878887,-0.8167372435417136
1.24,1.915134047926712,-0.4979118911517202,2.224814453425384,-0.0061354284597002,0.0923172466505907,0.0556812664934719,-0.6849519625637517,0.8387860521574746,-0.3216101816172745,1.9078855583984784,-0.4891645732389321,2.22161936150423,-0.7749121493547265,0.92279248252809,-0.3720949448977814,0.5521743786511725,-0.3131299664121678,0.4398177071294251,0.1157866705149529,10.373358266389914,-1.0020980430676796,0.290879052295691,-0.8161743014512676
1.26,1.9013856819122763,-0.4810715522847079,2.218384325756072,-0.0040037635226693,0.0943691324716399,0.0559065394816564,-0.6893796110570968,0.8448395051418772,-0.3217268016528027,1.9078855583984784,-0.4891645732389321,2.22161936150423,-0.7749121493547265,0.92279248252809,-0.3720949448977814,0.3750398793717835,-0.2213824246672546,0.3026726492201315,-0.0058310017764129,10.373358266389914,-1.00165220095095,0.2901857355124233,-0.816434313436533
1.28,1.8875655554388029,-0.4641205092124149,2.21191259529585,-0.0024425221661599,0.096959631464465,0.0560811092461359,-0.6923234477033304,0.8500446216458454,-0.3255996931504497,1.9001364369049316,-0.4799366484136512,2.2178984120552525,-0.7949121496527497,0.9427924828261132,-0.3836328618561135,0.3562257029333215,-0.1471918323116827,0.2602558251984077,-0.1936445748823456,10.15601050573423,-0.9993951292164038,0.2893279781133198,-0.8192331637058737
1.3,1.8736996940183197,-0.4470728550464189,2.205327535893365,-0.0017380596412901,0.0994092579492228,0.0561874924680932,-0.6941086842385066,0.8545943288159115,-0.3327052454631583,1.8846381939178367,-0.4614807987630894,2.210456513157297,-0.8349121502487962,0.9827924834221596,-0.4067086957727776,0.4312069644860719,-0.0892618267588074,0.2274853585033043,-0.3552776156354298,9.945374275813265,-0.9969405159842571,0.2888314637895152,-0.8223083494782377
1.32,1.8605022472024348,-0.4307973019203208,2.1989182137392325,-0.0020981425936096,0.101213317906054,0.0562089102466064,-0.6950520463077413,0.8585308024384931,-0.3416073076317416,1.8691399509307425,-0.4430249491125276,2.203014614259341,-0.8749121508448426,1.022792484018206,-0.4297845296894417,0.4889592708709872,-0.0471681034617366,0.1968236811290824,-0.4451031084291679,9.665905561306316,-0.9944206531164806,0.2887760271293892,-0.8255331718472436
1.34,1.846595583687977,-0.4135854828098106,2.1919721385841595,-0.0037752854436728,0.1023292915185265,0.0561337723965981,-0.6956195452988051,0.8625737020653328,-0.3526067472529431,1.8516417079138452,-0.4225690994321635,2.194418923665552,-0.9149121514408892,1.0627924846142525,-0.4528603636061059,0.5866318361587951,-0.0283749495531893,0.202144981341984,-0.5499719810600739,9.665905561306316,-0.992382148679612,0.2894208639741831,-0.8280843691726534
1.36,1.83267948624784,-0.3962846559480851,2.1847989887584456,-0.006761868284106,0.1025350091040733,0.0559645449998133,-0.6960593338205638,0.8677197528021766,-0.3641761965484356,1.8341434648969488,-0.4021132497517993,2.185823233071764,-0.9549121520369356,1.102792485210299,-0.47593619752277,0.6334970582627321,-0.0219894260879371,0.257302536842191,-0.5784724647746264,9.579487668434922,-0.9906889847700812,0.2907780323073259,-0.8302394401543457
1.38,1.8194456999813025,-0.379724595836749,2.177769708515857,-0.009795825645901,0.1019942998442574,0.0557927457104036,-0.69700244242221,0.8751650781067618,-0.3751634417188508,1.8156452218651504,-0.3806574000565341,2.1766506466300584,-0.994912152632982,1.1427924858063454,-0.4990120314394341,0.6652854258895351,-0.0471554300823073,0.3722662652292596,-0.5493622585207608,9.558179858490805,-0.9899847590760844,0.2927326366956612,-0.8306578478474356
1.4,1.8054907146287344,-0.362126656937308,2.170144565293039,-0.0124247328539366,0.1008679774399175,0.0556562872734101,-0.6985014357925916,0.8841255949584962,-0.3867715319812366,1.7961469788184514,-0.3582015503463676,2.166901164340436,-1.0349121532290284,1.1827924864023918,-0.5220878653560983,0.7370305334827698,-0.0749496685190809,0.4480258425867189,-0.580404513119287,9.564918584594125,-0.9903122358106112,0.2946445943102458,-0.829563109046374
1.42,1.7914994622147669,-0.3443417618759558,2.162287346191045,-0.0142558121610819,0.0993553205680017,0.0555794884749418,-0.700604490949415,0.8937673251314768,-0.3983633042264645,1.7705656428391046,-0.3179203771893832,2.150805988693977,-0.7985014372827077,0.9841255964486124,-0.4408912679374286,0.7611750546136589,-0.1051527578411704,0.4820865086490322,-0.5795886122613947,9.563338140273116,-0.9911193715985654,0.2960501550993928,-0.827999233367018
1.44,1.7774339640055037,-0.3263090766671518,2.1543821206387097,-0.0135704597850646,0.098958470508031,0.0556570565169169,-0.7054787456234849,0.9082374592113912,-0.391546847171857,1.7705656428391046,-0.3179203771893832,2.150805988693977,-0.7985014372827077,0.9841255964486124,-0.4408912679374286,0.8360730017404229,-0.2437127337034939,0.7235067039957133,0.3408228527303741,9.564920469811112,-0.9931388706925,0.293932225801506,-0.8286361999419842
1.46,1.763998213887963,-0.3089396049192228,2.14698328708092,-0.010282452360251,0.1001724675598974,0.0558834974182255,-0.708406484026103,0.9189962714385224,-0.3876529783555324,1.7705656428391046,-0.3179203771893832,2.150805988693977,-0.7985014372827077,0.9841255964486124,-0.4408912679374286,0.5905207596934701,-0.1463869201309031,0.5379406113565688,0.1946934408162293,10.669336167311483,-0.9942800822744824,0.2936762935279917,-0.8253407921885161
1.48,1.7498111858917549,-0.2904766918535399,2.1392335372332614,-0.0059448756250994,0.1020773986682536,0.0561686666208691,-0.7100535425494209,0.9265778161897594,-0.3877194853620656,1.7625806284662775,-0.3080791212248971,2.146397076014603,-0.8185014375807309,1.0041255967466356,-0.451715215128667,0.3879337758437672,-0.0823529261658961,0.3790772375618478,-0.0033253503266605,10.4195689058688,-0.9936615127640608,0.2922131856959933,-0.8248941384282346
1.5,1.7356028409109154,-0.2718865940409299,2.131436659224512,-0.0019890564792038,0.1039215940014443,0.0564208923323311,-0.7106999058116036,0.9321602304192176,-0.3919508484792038,1.7466105997206234,-0.2883966092959248,2.1375792506558544,-0.8585014381767774,1.044125597342682,-0.4733631095111438,0.3517298961029344,-0.0323181631091351,0.2791207114729022,-0.2115681558569088,9.94065836468235,-0.9922083498425798,0.2903864731355545,-0.8261963780335526
1.52,1.72209953683771,-0.2541333377409417,2.123921429760267,0.0010615968667704,0.1052160200912414,0.0566048547019537,-0.7107221292731974,0.9364894736397614,-0.398912207410891,1.7306405709749693,-0.2687140973669526,2.128761425297106,-0.8985014387728238,1.0841255979387283,-0.4950110038936206,0.4098882741694746,-0.0011111730796931,0.2164621610271977,-0.34806794658436,9.94065836468235,-0.9904665993569975,0.2883729341586273,-0.8283588663443976
1.54,1.707888289223451,-0.2353627632857088,2.115844301508756,0.0034454246419444,0.1058596516320296,0.0567305239132021,-0.7104688215199233,0.9404811531631624,-0.4085371449448799,1.7126705421995128,-0.247031585408178,2.118861205219233,-0.9385014393688704,1.124125598534775,-0.5166588982760975,0.521145595703818,0.0126653876637072,0.1995839761700424,-0.4812468766994454,9.774952585190476,-0.988932331201392,0.2865448425927825,-0.8305540143720502
1.56,1.6936836431100477,-0.2165163531268465,2.1075624494435874,0.0049811444718735,0.105641697038674,0.0567831791873181,-0.7100778970375218,0.9440522112545316,-0.4191967899286135,1.6947005134240565,-0.2253490734494034,2.108960985141361,-0.9785014399649168,1.1641255991308217,-0.5383067926585743,0.5624351274194048,0.0195462241200761,0.1785529045684686,-0.5329822491866809,9.649292127050105,-0.9880401041908944,0.2849407465632193,-0.8323579225580183
1.58,1.6794823561394912,-0.1975936512792145,2.099062375624232,0.0058930191202784,0.1046062902302109,0.0567773687852016,-0.7101488617729574,0.9480294526787896,-0.4302737461888953,1.675730484633699,-0.2026665614757277,2.0985195677039266,-1.0185014405609631,1.2041255997268678,-0.559954687041051,0.5884777934057989,-0.0035482367717831,0.1988620712128908,-0.5538478130140884,9.603947131866336,-0.9877226150581278,0.2836552508460641,-0.8334197897251563
1.6,1.6659845563459588,-0.1795418035122815,2.090780155655496,0.0064613636108268,0.1030419735388394,0.0567379650359101,-0.7107311309610599,0.9519279855766178,-0.4409832415017787,1.65576045582844,-0.1789840494871508,2.0875369529069303,-1.0585014411570095,1.2441256003229142,-0.5816025814235278,0.5705937390550659,-0.0291134594051223,0.1949266448914188,-0.5354747656441727,9.586636750807884,-0.9880558952467536,0.2825724069226796,-0.8337102692802999
1.62,1.651758003294613,-0.1604603380206655,2.081839166449971,0.0068570404694072,0.1009407226881922,0.0566697916665512,-0.7119693008551311,0.9559860235943032,-0.452565194491384,1.6304479997979058,-0.1319454042334507,2.0687309935804072,-0.810731132451176,1.051927987066734,-0.5039889720115367,0.616730030671828,-0.0619084947035608,0.2029019008842669,-0.5790976494802619,9.576850379011375,-0.9888672226928727,0.2816317803080793,-0.833414586367477
1.64,1.637466120204531,-0.1412728432286114,2.0728170130778536,0.0080224399550245,0.100031690642527,0.0566534852235758,-0.7170512854430071,0.9623047732571324,-0.4482652030126172,1.6304479997979058,-0.1319454042334507,2.0687309935804072,-0.810731132451176,1.051927987066734,-0.5039889720115367,0.4589201765295874,-0.2540992293938005,0.3159374831414541,0.2149995739383403,9.55878018479234,-0.9903242585330392,0.2781705056778382,-0.8356784123123462
1.66,1.6230872621373131,-0.1219867188548215,2.063877621666629,0.0099678367775136,0.1014169125112995,0.0566992961666417,-0.7203436698802145,0.9660522936060966,-0.4459789520790248,1.6304479997979058,-0.1319454042334507,2.0687309935804072,-0.810731132451176,1.051927987066734,-0.5039889720115367,0.2743658478182859,-0.1646192218603681,0.1873760174482153,0.1143125466796179,10.562936047472247,-0.990668700739366,0.2779443971030798,-0.8343373910822729
1.68,1.609383441385596,-0.1036074238363708,2.055386082436422,0.0115933712971502,0.1036577394505881,0.0567295129905906,-0.7219038757046072,0.968529643971088,-0.447978391502849,1.622340688473394,-0.1214261243627833,2.063691103860292,-0.8307311327491992,1.0719279873647571,-0.5165901181134883,0.1772657965805448,-0.0780102912196378,0.1238675182495652,-0.0999719711912094,10.31749324673092,-0.9890558297303944,0.2772933878481352,-0.835727734378967
1.7,1.5949408793710202,-0.0842188782379556,2.0463704714174025,0.0126097424997278,0.1061519149174213,0.0567082074266754,-0.7222153172105473,0.9702671812349132,-0.4536392752117884,1.6061260658243706,-0.1003875646214486,2.053611324420061,-0.8707311333452457,1.1119279879608035,-0.5417924103173914,0.2964862388077202,-0.0155720752970045,0.0868768631912653,-0.2830441854469706,10.06483822188784,-0.9865200017788982,0.2765989410937868,-0.8386085430820489
1.72,1.580503335011885,-0.0648029051018254,2.0372073207031134,0.0124769070002108,0.1081830706125364,0.0565940896495213,-0.7215662262560613,0.9714150388661824,-0.4623840989882466,1.589911443175347,-0.0793490048801139,2.0435315449798304,-0.910731133941292,1.15192798855685,-0.5669947025212947,0.4421844611985105,0.0324545477243032,0.0573928815634561,-0.4372411888229094,9.863166545483182,-0.9837398707160298,0.2762726054882152,-0.8419961634572009
1.74,1.5660852911457477,-0.0453662090559236,2.027847450181865,0.010924540955362,0.1094132724054104,0.0563643163342921,-0.7203651741473889,0.9723922627273522,-0.4731647769355747,1.5716968204965212,-0.0563104451089769,2.032191650929404,-0.9507311345373384,1.1919279891528964,-0.5921969947251979,0.54456521566887,0.0600526054336192,0.048861193058497,-0.5390338973664061,9.711954634723044,-0.9813932626265864,0.2766305798892637,-0.8449061104171887
1.76,1.5524135396403802,-0.0268785210846985,2.0187494418055145,0.0080617663346335,0.1096801514336458,0.0560356858548741,-0.7189570631173562,0.9740678170355954,-0.4839767317444717,1.5534821978176951,-0.0332718853378399,2.0208517568789786,-0.990731135133385,1.231927989748943,-0.6173992869291011,0.5515628379940116,0.0704055515016344,0.0837777154121588,-0.5405977404448509,9.58306437669944,-0.9794858581038216,0.2777124888270892,-0.8474694464502257
1.78,1.5380459889099831,-0.0073515200765131,2.008949381282038,0.0045930611108275,0.1090630584646805,0.0556513643013137,-0.7179370714390151,0.9786073515320268,-0.4954634988781461,1.5342675751239685,-0.0092333255518018,2.0088818055234547,-1.030731135729431,1.2719279903449894,-0.6426015791330043,0.6196643761977881,0.0509995839170551,0.2269767248215648,-0.5743383566837207,9.579331450259817,-0.9787644834275424,0.2796610814745074,-0.8479717727625521
1.8,1.5236946363562605,0.0122848252728043,1.9989211803906692,0.0015735436354098,0.1076519296677362,0.0552984927987872,-0.7173210194478498,0.9846553317117516,-0.5067798580946699,1.51405295241534,0.0158052342491374,1.996281796862834,-1.0707311363254777,1.3119279909410355,-0.6678038713369074,0.6422958240319747,0.0308025995582661,0.3023990089862483,-0.5658179608261843,9.579331450259817,-0.9790652585873308,0.2814579318634359,-0.8471345745671325
1.82,1.5100672810789502,0.031059012836337,1.9891854399850024,-0.0006205315958525,0.1056721528053111,0.0550136048681082,-0.7172321284275234,0.9910891343641782,-0.5174646168380237,1.487828585383868,0.0615175918583918,1.973582187485936,-0.8173210209379659,1.046503495316488,-0.5646470647277608,0.623630073816886,0.0044445510163193,0.3216901326213273,-0.534237937167692,9.5897773821207,-0.9801618308533584,0.2830132409162247,-0.8452884682405611
1.84,1.4956888423029944,0.0511326828094952,1.9789029214387317,0.0035416092788632,0.1042703260170965,0.0551597413056385,-0.7205053353751522,1.0135008803138532,-0.5091885518087959,1.487828585383868,0.0615175918583918,1.973582187485936,-0.8173210209379659,1.046503495316488,-0.5646470647277608,1.2057088087539904,-0.1636603473814391,1.1205872974837494,0.4138032514613921,9.592369350095396,-0.9826717728276478,0.2777086650961085,-0.8465484828847107
1.86,1.4812585400715934,0.0715168738971597,1.9687926807012628,0.0146683534160323,0.104613708358847,0.0557729163466042,-0.7221380786046862,1.0225832602190537,-0.5025487283430721,1.487828585383868,0.0615175918583918,1.973582187485936,-0.8173210209379659,1.046503495316488,-0.5646470647277608,0.5684248649820707,-0.0816371614766997,0.4541189952600222,0.3319911732861891,10.845788378644102,-0.9851126350804056,0.2729929658848229,-0.8421271336614868
1.88,1.4668098808031274,0.0919881359242626,1.958746657997689,0.0269980822882242,0.105661758667633,0.0564609397323413,-0.7225707277418779,1.0237919957040515,-0.5023790763876581,1.4796553751744883,0.0719826268115567,1.9679357168386584,-0.8373210212359891,1.0588731280374353,-0.576220506054379,0.0647496821340006,-0.0216324568595882,0.0604367742498945,0.0084825977706981,10.54705410014867,-0.984796531808962,0.2653886284720327,-0.8429551593078219
1.9,1.453084127553113,0.1114113316198492,1.9491530950907856,0.0378547894671123,0.1066962779563488,0.0570420954805671,-0.7222352225493529,1.0208059841649146,-0.5074790343569129,1.463308954755729,0.0929126967178865,1.9566427755441036,-0.8773210218320355,1.0836123934793298,-0.5993673887076154,0.295966214010296,0.0167752596262504,-0.1493005769568456,-0.2549978984627388,9.88161846449384,-0.9829995271808172,0.2567655459450215,-0.8470662543209548
1.92,1.4386481610063515,0.1317681895606498,1.938907589390393,0.0476970705983992,0.1074021250017215,0.0575123162847431,-0.7214216658218686,1.0151628635202337,-0.5169879646519419,1.4469625343369696,0.1138427666242163,1.945349834249548,-0.917321022428082,1.1083516589212243,-0.6225142713608518,0.5543609846367693,0.0406778363742144,-0.2821560322340488,-0.4754465147514486,9.88161846449384,-0.9807235203610704,0.2482722599389255,-0.8523944839008487
1.94,1.424230682268207,0.1519930075692887,1.9284365414540732,0.0557428341373309,0.1074621526976381,0.0578050698305758,-0.7204470650741417,1.007795082143683,-0.5297628328094048,1.428616113888408,0.1360097998026407,1.932899548822331,-0.9573210230241284,1.1330909243631189,-0.6456611540140882,0.7389710844658923,0.0487300373863464,-0.3683890688275348,-0.6387434078731491,9.504764882995914,-0.9785610777440396,0.2404024857096915,-0.8578420136549576
1.96,1.4098343388286263,0.1720570102475467,1.9176930576919164,0.0620383393076223,0.1067251384629754,0.057905643764489,-0.7192889900730823,0.9991963276851478,-0.5439831546873253,1.4102696934398462,0.1581768329810653,1.920449263395114,-0.9973210236201748,1.1578301898050134,-0.6688080366673246,0.8329124657758464,0.0579037500529677,-0.4299377229267598,-0.7110160938960219,9.448437039034616,-0.976978390234268,0.2333334893240164,-0.8630021798846951
1.98,1.3961769949676022,0.1909539329285792,1.9072175265490476,0.0666469336130533,0.1052153333735225,0.0578294021843756,-0.7184645993240089,0.9905929110881952,-0.5579846303872684,1.3909232729763834,0.1809623477955371,1.9074203059015664,-1.0373210242162212,1.182569455246908,-0.691954919320561,0.8227085131198902,0.0412195374536739,-0.4301708298476314,-0.7000737849971572,9.448437039034616,-0.9758608495942966,0.2266252339753923,-0.8678184286788932
2.0,1.3818130706907528,0.2106653773249872,1.895899934226054,0.0704346694370764,0.1028534631954705,0.0575953686197165,-0.7180559383888273,0.9811115576905848,-0.5730478021061284,1.3705768524980195,0.2043663442460563,1.8938126763416876,-1.0773210248122675,1.2073087206888025,-0.7151018019737974,0.8901716242418949,0.0204330467590774,-0.4740676698805124,-0.7531585859429979,9.420806863652617,-0.975538868364246,0.2206256864092122,-0.8716426911766206
2.02,1.367450706600497,0.2301814762599452,1.884280162805864,0.0733082593581091,0.0997877966940679,0.0572200781500844,-0.7183039189274525,0.9710829268711216,-0.5881700718686388,1.3459102737713111,0.2597209552095164,1.867247544120748,-0.8180559398789434,0.97215702245214,-0.6211663338100774,0.9073560123109916,-0.012399026931259,-0.5014315409731629,-0.7561134881255205,9.420806863652617,-0.9758941360472924,0.2154093117680559,-0.8745646547970941
2.04,1.353044057791856,0.2496545008879952,1.8725406997082736,0.0810881791384161,0.0973923717944842,0.0572040018330597,-0.7223908732747507,0.9736567331609408,-0.584289861444465,1.3459102737713111,0.2597209552095164,1.867247544120748,-0.8180559398789434,0.97215702245214,-0.6211663338100774,0.3097729313153395,-0.204347717364911,0.128690314490959,0.1940105212086873,10.561363602188068,-0.9769450517863788,0.2043504706457921,-0.8804180582251381
2.06,1.3392859261137169,0.2680593650058817,1.8614526612272797,0.0927283729025437,0.0970785791994248,0.0575999742087935,-0.7253789926676727,0.9630813405906162,-0.5832147688210911,1.3459102737713111,0.2597209552095164,1.867247544120748,-0.8180559398789434,0.97215702245214,-0.6211663338100774,0.5520951224011714,-0.1494059696460992,-0.5287696285162291,0.0537546311686953,10.561363602188068,-0.9782136338668982,0.1942208882869163,-0.8814250912470394
2.08,1.3247591388711526,0.2871604431207784,1.8497553316398645,0.1052205472317704,0.0978142680494,0.0580991763338938,-0.7270399063239742,0.947276335051506,-0.5868153749072463,1.337729714372522,0.2694425254340378,1.8610358807826468,-0.8380559401769666,0.9703661154044512,-0.6307900401508671,0.8147410607865729,-0.0830456828150749,-0.790250276955512,-0.18003030430776,10.301826579767294,-0.976561097347488,0.1822864263632328,-0.8868398950141394
2.1,1.310211598947541,0.305917579448025,1.837939713528384,0.1172309531030709,0.0988037162585475,0.0585654264853458,-0.7276071833306942,0.928943061582264,-0.5945940308789407,1.321368595574943,0.2888856658830806,1.848612554106445,-0.8780559407730131,0.9667843013090732,-0.6500374528324467,0.99616540798496,-0.0283638503359995,-0.9166636734620924,-0.3889327985847179,9.849076335119207,-0.9741129089641344,0.1706052308423404,-0.8931951992035906
2.12,1.2963894559539697,0.3233642420713752,1.8265409542847588,0.1276815691928965,0.0994797264018058,0.0588855006077853,-0.7273755419383207,0.908523029311988,-0.604892794170516,1.305007476777364,0.3083288063321234,1.836189227430244,-0.9180559413690595,0.9632024872136952,-0.6692848655140263,1.143564494234664,0.0115820696186763,-1.0210016135138,-0.5149381645787654,9.849076335119207,-0.9716521989826068,0.1583380454388411,-0.9000978453416275
2.14,1.281849915205479,0.3412812031746657,1.814308086797204,0.1370850249869425,0.0995954463160912,0.0590029682355757,-0.7266600951104869,0.8844112724434269,-0.6179281289353817,1.286646357949983,0.3275928560763974,1.8228035301199632,-0.958055941965106,0.9596206731183172,-0.6885322781956059,1.3709564506980023,0.0357723413916877,-1.2055878434280631,-0.6517667382432868,9.620729000455867,-0.9694815256758724,0.146568127556315,-0.9069773086829784
2.16,1.2673290687507914,0.35869366499739,1.8018055002391349,0.1445170374287808,0.0988754031614509,0.0588296696398107,-0.7255108452793099,0.8583096635718118,-0.6316583684539536,1.2682852391226018,0.3468569058206713,1.8094178328096828,-0.9980559425611524,0.9560388590229394,-0.7077796908771855,1.475749164067684,0.0574624915588517,-1.3050804435807528,-0.6865119759285943,9.620729000455867,-0.968305010609496,0.136296013323661,-0.9127688454496986
2.18,1.253555647284739,0.3747363458346905,1.789675169312417,0.149643958226803,0.0972813154994845,0.0583598969512602,-0.7244808495162641,0.8321505152335215,-0.644478422872307,1.2489241202803194,0.3660314102125607,1.7955509501823628,-1.0380559431571987,0.9524570449275616,-0.7270271035587651,1.457494192395046,0.0514997881522871,-1.307957416914518,-0.6410027209176716,9.616073323129967,-0.9680596568674228,0.1273659274189991,-0.917184108834452
2.2,1.2390752136766237,0.3910814967537241,1.7766480573220909,0.1532504869221757,0.094654384998526,0.0575582984150707,-0.7237158098862578,0.8040416603983465,-0.6574916107108941,1.228563001423136,0.3851163692520657,1.7812028822380033,-1.078055943753245,0.9488752308321836,-0.7462745162403447,1.5492224368233662,0.0382519815003146,-1.40544274175875,-0.6506593919293535,9.64891946337866,-0.9689413620486156,0.1199366936688302,-0.920182356178566
2.22,1.2246045568511232,0.4068556736062805,1.7633689525818037,0.1551286724737982,0.0910639986356614,0.0564519152353527,-0.7235155887659254,0.7750686666274214,-0.669683916870345,1.2028894231823108,0.4312835797736414,1.7437734767865465,-0.823715811376374,0.7420564172864976,-0.6838120867958417,1.5717242013413772,0.0100110560166233,-1.4486496885462552,-0.6096153079725442,9.685437862322942,-0.97123965701971,0.1141089716616953,-0.9214060469379568
2.24,1.2100900316971834,0.4221858619845983,1.7499976667375727,0.1605066310529882,0.08792055749706,0.0556263897274127,-0.7279190498319758,0.7563095933137252,-0.6672861850106242,1.2028894231823108,0.4312835797736414,1.7437734767865465,-0.823715811376374,0.7420564172864976,-0.6838120867958417,0.9708790076780558,-0.2201730533025192,-0.9379536656848098,0.1198865929860404,9.740271388727706,-0.9746576922060852,0.1063561235006762,-0.9214386998161572
2.26,1.1962188168935934,0.4362873426526839,1.7373229038563174,0.1685626895486597,0.0866789502907485,0.0552839316198519,-0.7318953740439174,0.7286909900181705,-0.667105444983596,1.2028894231823108,0.4312835797736414,1.7437734767865465,-0.823715811376374,0.7420564172864976,-0.6838120867958417,1.395198076612301,-0.1988162105970803,-1.3809301647777328,0.0090370013514085,10.51039525995384,-0.977377990181798,0.0970624957153967,-0.921199629961686
2.28,1.1815493902220184,0.4505119052514141,1.723963238834538,0.1768147874763865,0.0865604986323356,0.0550675872867088,-0.7347410449048026,0.6952208863511786,-0.6689393146812876,1.1946522650685472,0.4387041439465064,1.7369353559185878,-0.8437158116743971,0.7296593686641278,-0.6890761820128313,1.68204396508815,-0.1422835430442637,-1.673505183349594,-0.0916934848845807,10.41595622292516,-0.97814365852282,0.0871205470464438,-0.923492632024018
2.3000000000000003,1.1668369628061055,0.4640314794038193,1.7105501352738204,0.1835242180966707,0.0868248656196575,0.0547768431149261,-0.736382589653058,0.6588397585283402,-0.6722146989567395,1.1781779488410196,0.4535452722922364,1.723259114182671,-0.8837158122704436,0.7048652714193884,-0.6996043724468103,1.8282568699270008,-0.0820772374127698,-1.819056391141921,-0.163769213772591,10.335055425320206,-0.9780171964311024,0.0778484009330771,-0.9269393584021652
2.32,1.1521010425481424,0.4768059497077845,1.6970650484507548,0.1882436174065939,0.0869096157520882,0.0542824170961926,-0.7372140372092992,0.6209625368759766,-0.6760463467868512,1.1617036326134922,0.4683864006379663,1.709582872446754,-0.92371581286649,0.6800711741746488,-0.7101325628807893,1.9039805344560792,-0.0415723778120602,-1.8938610826181808,-0.1915823915055847,10.291108926896412,-0.9778555262025934,0.0702586698890298,-0.930291346368249
2.34,1.138091816849062,0.4882318050440374,1.684183497250561,0.1908504469961505,0.0864824732474136,0.0535578020329555,-0.7375105569864253,0.5841844014649731,-0.6796259956418037,1.1432293163561624,0.4819878241214593,1.6953802211891382,-0.9637158134625364,0.6552770769299092,-0.7206607533147683,1.8476559840870672,-0.014825988856304,-1.838906770550175,-0.1789824427476272,10.282116097859216,-0.9780177826555796,0.0636930527903251,-0.9334370773924268
2.36,1.1233431750390228,0.4994999031699994,1.670558242850606,0.1916942554176222,0.085200219074886,0.0524760464243004,-0.7373854052981544,0.5447763333559353,-0.6826319779635005,1.124755000098833,0.4955892476049522,1.6811775699315226,-1.0037158140585831,0.6304829796851698,-0.7311889437487473,1.976137283154936,0.0062575844135437,-1.970403405451887,-0.1502991160848399,10.30003010677865,-0.9789109073937085,0.0586262704855014,-0.935790123551369
2.38,1.1085964896572882,0.5099552549465514,1.6568833992315015,0.1897790333155649,0.0828529329745115,0.0509766203902828,-0.7374260738828521,0.5032853113768688,-0.6846029706710456,1.1052806838266016,0.5085708186573267,1.6667117139130572,-1.0437158146546297,0.6056888824404302,-0.7417171341827264,2.076891530060223,-0.0020334292348822,-2.0745510989533256,-0.0985496353772541,10.357774973692358,-0.9808878370747492,0.0557938905064325,-0.936981783367017
2.4,1.0938429099219058,0.5195835403090577,1.6431864273559638,0.1846276381616279,0.0794610649782367,0.0490508917135121,-0.7381092764201334,0.4628580393434582,-0.6847634819928414,1.0848063675394697,0.5209325372785827,1.6519826531337425,-1.0837158152506758,0.5808947851956907,-0.7522453246167055,2.021668156285025,-0.0341601268640634,-2.021363601670531,-0.0080255660897921,10.526267479563105,-0.9830759351722592,0.0554612095652509,-0.93772982459326
2.42,1.0798044287734854,0.5280118180857488,1.6301921935951391,0.1778948401145817,0.0753249025778977,0.0469448778914447,-0.7397589555894843,0.4270387466447038,-0.6829169493735342,1.0569374461008991,0.5427264422762307,1.6089482532563215,-0.8381092779102495,0.3628580378533421,-0.7069666573438651,1.7952387400531131,-0.0824839584675496,-1.7909646349377195,0.0923266309653614,10.526267479563105,-0.9868026680622624,0.0574679924894594,-0.9363964860260802
2.44,1.064932085437046,0.5363342519601381,1.6166257587628436,0.1751256813160217,0.0714850702125123,0.0451500483217678,-0.7476586905938143,0.4052279791823152,-0.6739678898874901,1.0569374461008991,0.5427264422762307,1.6089482532563215,-0.8381092779102495,0.3628580378533421,-0.7069666573438651,1.2431824646062417,-0.3949867502164972,-1.090538373119429,0.4474529743022037,10.930185705786243,-0.9904011273136556,0.0579046737395086,-0.9334012125315428
2.46,1.0498888140132538,0.5441486971687161,1.6032254137996826,0.1785672225601163,0.0699716896192154,0.0441923821580899,-0.7561301807568499,0.3762263081252272,-0.6667147390695942,1.0569374461008991,0.5427264422762307,1.6089482532563215,-0.8381092779102495,0.3628580378533421,-0.7069666573438651,1.5536016755213424,-0.4235745081517805,-1.4500835528544005,0.3626575408947952,10.930185705786243,-0.9941332838327698,0.0534496267115184,-0.930964304214962
2.48,1.0354524543150694,0.5509614829816633,1.5906086197864056,0.183369843875653,0.0702033313051592,0.0436703817708564,-0.7629081262653375,0.3423201265895519,-0.6617366174088593,1.0485563533217963,0.5463550226547641,1.601878586682883,-0.8581092782082727,0.3428580375553188,-0.7114072924140699,1.746676406003179,-0.3388972754243824,-1.695309076783763,0.2489060830367484,10.789832427425608,-0.9955177670132156,0.0466032155376885,-0.9316702977792568
2.5,1.0201335456062357,0.5574035267990763,1.5774183508885384,0.1878299787885541,0.0713377442393274,0.0432275843136535,-0.7685304533773669,0.3038223724924054,-0.6575558743460866,1.0317941677635916,0.5536121834118309,1.5877392535360058,-0.8981092788043191,0.3028580369592724,-0.7202885625544793,1.956505970624638,-0.2811163556014684,-1.9248877048573252,0.2090371531386303,10.789832427425608,-0.9946301271777088,0.039575297990675,-0.9350377201064226
2.52,1.0047154640465004,0.5630567721829753,1.564304631871803,0.1909183984895445,0.0727144794979701,0.0427210171919033,-0.7729579975588271,0.263741867019744,-0.6539846482316496,1.0150319822053866,0.5608693441688978,1.5735999203891284,-0.9381092794003656,0.2628580363632259,-0.7291698326948888,2.0241070391553304,-0.2213772090730092,-2.0040252736330726,0.1785613057218527,10.754772625930856,-0.9931839250331032,0.0335061225053231,-0.9389992581761464
2.54,0.9892194230698648,0.567895259961436,1.5512592262500164,0.1922170921624176,0.0738659277719934,0.0420328297778576,-0.7764679459409323,0.2225453711199841,-0.6506637647614053,0.9962697966173792,0.5661265048961622,1.5590165237352307,-0.978109279996412,0.2228580357671795,-0.7380511028352983,2.073945080689766,-0.1754974191052583,-2.059824794987991,0.1660441735122142,10.740891450755043,-0.9918368510066564,0.0288561931572975,-0.9428914425186364
2.56,0.97443932711479,0.5717184127925709,1.5389285591106885,0.1913927407036429,0.0744910656386264,0.0411330288081089,-0.7792319029487415,0.1823309607035212,-0.6474045371585466,0.977507611029372,0.5713836656234268,1.544433127081333,-1.0181092805924583,0.182858035171133,-0.7469323729757077,2.022041559941323,-0.138197850390459,-2.0107205208231465,0.1629613801429341,10.744756275308646,-0.9906143204314808,0.0255564134225515,-0.9468794460475114
2.58,0.9588230186467448,0.5749089489634296,1.5260185542232685,0.1876868772153511,0.074651463058168,0.0398834983183312,-0.7823203527752964,0.1396347456612385,-0.6435958294980552,0.9577454254264636,0.5756408263357902,1.529627698673925,-1.058109281188505,0.1428580345750866,-0.7558136431161172,2.148843616524412,-0.1544224913277492,-2.134810752114137,0.190435383024573,10.770295244979934,-0.9895533159319514,0.0247133903577683,-0.9506307424424868
2.6,0.9431413753383526,0.5772707676156107,1.5131957934633626,0.1815326356578905,0.0744638220405567,0.0383975268983318,-0.7857590553221022,0.0995669303116501,-0.6387094288172745,0.9369832398086538,0.5788979870332523,1.5146002385130066,-1.0981092817845512,0.1028580339790402,-0.7646949132565266,2.025544009462183,-0.1719351273402891,-2.0033907674794205,0.2443200340390305,10.801656957474734,-0.9894367889419728,0.0267280564110427,-0.9528105761990546
2.62,0.9273865000638588,0.5788593147177523,1.5004794704841482,0.1739614682963939,0.0740717564723999,0.0367845435276896,-0.7896106446840383,0.0619918730092461,-0.6330397082932914,0.9038534225722475,0.5822491141311932,1.481260322022499,-0.8857590568122183,-0.000433071178466,-0.633662641611191,1.9097548289715067,-0.192579468096804,-1.8787528651201968,0.2834860261991589,10.853308419013956,-0.990737789546298,0.030934868222012,-0.9525392348415876
2.64,0.91233244317539,0.5796988201071952,1.4886024961699416,0.1665733170470656,0.0741956343656068,0.0353370049087145,-0.7946744356957516,0.0283719537876453,-0.6174291753327337,0.9038534225722475,0.5822491141311932,1.481260322022499,-0.8857590568122183,-0.000433071178466,-0.633662641611191,1.8705812513694304,-0.253189550585664,-1.6809959610800402,0.780526648027885,10.853308419013956,-0.9919866191213856,0.0354207542943752,-0.9525929333764304
