t,x,y,z,roll,pitch,yaw,v_x,v_y,v_z,ref_x,ref_y,ref_z,ref_v_x,ref_v_y,ref_v_z,a_com,a_x,a_y,a_z,thrust,wind_x,wind_y,wind_z
0.0,1.6314043392142226,-1.754463262068573,2.3276154261222874,0.0223482312076453,0.0995167188469507,0.0415631840227752,0.0002941072887965,-0.0042437747912137,-0.0005025559063557,1.6314170784272428,-1.754657688078434,2.327597808289366,-0.099617636821372,0.0942346970636335,-0.0385918345142348,0.2141768312334318,0.0147053644398295,-0.2121887395606873,-0.0251277953177857,10.259989360577492,-0.9404922782102212,0.2581112212298327,-0.8791717006788962
0.02,1.6315913076969704,-1.75478287380633,2.3275555496618447,0.0128172909503346,0.0937900351769157,0.0408183487632159,0.0176824460318824,-0.0233182565081243,-0.0054972790985212,1.6314170784272428,-1.754657688078434,2.327597808289366,-0.099617636821372,0.0942346970636335,-0.0385918345142348,1.3144746448480984,0.869416937154293,-0.9537240858455298,-0.2497361596082779,10.259118655205384,-0.9497136794532778,0.2599111332910799,-0.8755241272651633
0.04,1.6320642359114936,-1.7552486952650617,2.327357072432007,-0.0036467178071435,0.0778146678576827,0.0396724032835666,0.0272583442195728,-0.0215242506213042,-0.014207731734841,1.6314170784272428,-1.754657688078434,2.327597808289366,-0.099617636821372,0.0942346970636335,-0.0385918345142348,0.6534299280575713,0.4787949093845219,0.0897002943410061,-0.4355226318159908,10.022154310145652,-0.958100238568253,0.277160654638759,-0.855742430740664
0.06,1.6325823685298095,-1.7555823186724189,2.326997460433274,-0.0196390544114412,0.0570970200823102,0.0389337387072686,0.0258561557060137,-0.0133681389203638,-0.0231566220984548,1.630420902059029,-1.7537153411077977,2.327211889944224,-0.1196176371193952,0.1142346973616568,-0.0461998294878943,0.6094483764966309,-0.0701094256779546,0.4078055850470167,-0.4474445181806867,9.63535896432404,-0.9715038662185824,0.2915436607762574,-0.833027816645286
0.08,1.6329914462872683,-1.7557281304022558,2.3264341594170013,-0.0358122795223467,0.0333366045424996,0.0386814071403828,0.0142988518562852,-0.0012947437792968,-0.0327245007148587,1.6284285493226016,-1.7518306471665248,2.326440053253939,-0.1596176377154416,0.1542346979577032,-0.0614158194352133,0.9629154216824176,-0.5778651924864253,0.6036697570533526,-0.4783939308201984,9.63535896432404,-0.9890558542486814,0.3046721734992984,-0.8061656688333909
0.1,1.633071623838601,-1.7556015071250717,2.32567853763837,-0.0511942786640949,0.0105441023343375,0.0388923423358461,-0.006233581647009,0.0136808536966009,-0.0423888521470786,1.6264361965861742,-1.749945953225252,2.3256682165636544,-0.1996176383114881,0.1942346985537497,-0.0766318093825324,1.3594567241482616,-1.026621675164716,0.7487798737948884,-0.4832175716109929,9.627745358787251,-1.0074126362389944,0.3158730993448688,-0.7789401656994119
0.12,1.632659629791401,-1.755135786759178,2.32472851317266,-0.065466710921329,-0.009079418386871,0.0394046225455741,-0.0340052328369989,0.0322163088730351,-0.0521580916575164,1.6224438438199444,-1.746061259254177,2.324135580376004,-0.2396176389075345,0.2342346991497961,-0.0918477993298514,1.7394436962922708,-1.3885825594994936,0.9267727588217114,-0.4884619755218894,9.657068843461277,-1.023601763235481,0.3247735768628128,-0.7550685703843463
0.14,1.631702904695303,-1.7543097754002024,2.32364248099842,-0.0773266628559642,-0.023703767180432,0.0400224327353747,-0.0651635668181765,0.0534914417940853,-0.0616608737931697,1.6184514910537149,-1.7421765652831025,2.322602944188353,-0.279617639503581,0.2742346997458426,-0.1070637892771704,1.9453636714048197,-1.5579166990588813,1.0637566460525107,-0.4751391067826668,9.701363031742405,-1.038037803580799,0.3320360848829966,-0.7342025996511127
0.16,1.630019414918221,-1.7529753166316526,2.322301314594465,-0.0874927766764128,-0.0342827396733297,0.0406496643609901,-0.1015627232167232,0.0784975443186604,-0.0719383892955924,1.6134591382725838,-1.737291871297126,2.32068990825202,-0.3196176400996274,0.314234700341889,-0.1222797792244895,2.267063670752304,-1.819957819927337,1.2503051262287543,-0.5138757751211327,9.740987847175347,-1.0483066747148206,0.3370232895129442,-0.7203675649016029
0.18,1.6275723765162564,-1.7511216114087544,2.320753028131661,-0.0950901409144913,-0.0391155328329017,0.0410520400896189,-0.1411606158390482,0.1051954923382424,-0.0823149321500727,1.6074667854765516,-1.7314071772962487,2.318396472567003,-0.3596176406956738,0.3542347009379354,-0.1374957691718085,2.443586590544901,-1.9798946311162469,1.334897400979098,-0.5188271427240133,9.780182698446424,-1.054508598404905,0.3396187416112364,-0.7143454581628451
0.2,1.6243325708569638,-1.7487222815727164,2.3190012765427257,-0.1001877009360973,-0.0379753953592158,0.041089589926734,-0.180069723580215,0.1327971808889819,-0.0921905653258411,1.620514345724304,-1.7458618367918424,2.3166372815241574,-0.2411606173291643,0.2051954938283585,-0.1283053619687029,2.435826351922533,-1.945455387058344,1.380084427536974,-0.4937816587884245,9.823863121151136,-1.05755610778256,0.3398997895431311,-0.7148935044555884
0.22,1.620515019843188,-1.7458002929329732,2.3172338607990146,-0.0992035797382291,-0.0313772996499006,0.0409816365586936,-0.2187956999783819,0.1711688603575069,-0.0929911695910385,1.620514345724304,-1.7458618367918424,2.3166372815241574,-0.2411606173291643,0.2051954938283585,-0.1283053619687029,2.7261364604583034,-1.9362988199083428,1.918583973426249,-0.0400302132598673,9.84108748136805,-1.0584875349082423,0.3379884793254782,-0.7172895015756888
0.24,1.6157699882897487,-1.7420504533760053,2.315377315727865,-0.0923627024945878,-0.0195997279888056,0.0408380744303474,-0.2528715562745415,0.2007490649340818,-0.0925113807105689,1.620514345724304,-1.7458618367918424,2.3166372815241574,-0.2411606173291643,0.2051954938283585,-0.1283053619687029,2.256314850856574,-1.7037928148079806,1.4790102288287477,0.0239894440234811,10.478573904832048,-1.0545984156943888,0.3317998832245409,-0.7293248103875282
0.26,1.6104121871764612,-1.7377849666989742,2.313520483042377,-0.0843301161925599,-0.0053839149696218,0.0406480786687877,-0.2806015139329939,0.2241007310439457,-0.0932436529299693,1.6181027395510124,-1.7438098818535588,2.3153542279044705,-0.2611606176271875,0.2251954941263817,-0.1375034479324289,1.812999644545905,-1.386497882922616,1.167583305493196,-0.036613610970021,10.347494239244952,-1.0478024932497525,0.3257710426953323,-0.7436304082815771
0.28,1.604865610569623,-1.7333365863301915,2.3117227049899425,-0.0772140437931751,0.0086437041875664,0.0404895109398562,-0.3015219434363319,0.2430898846680207,-0.0959598576157817,1.6132795272044291,-1.7397059719769916,2.3127881206650964,-0.301160618223234,0.2651954947224282,-0.155899619859881,1.419181184572714,-1.0460214751669,0.9494576812037496,-0.1358102342906203,10.030527149439877,-1.0396426483176051,0.3205375822804687,-0.7586372008363462
0.3,1.5986490059548852,-1.728285615278513,2.3097540017292597,-0.0708549552857713,0.0226006851233907,0.0403999205415302,-0.3187307529237249,0.2611343881769559,-0.1008987163534648,1.608456314857846,-1.7356020621004244,2.3102220134257223,-0.3411606188192804,0.3051954953184747,-0.1742957917873331,1.2709637647157277,-0.8604404743696531,0.9022251754467566,-0.2469429368841535,10.030527149439877,-1.031035935728829,0.3162063866225362,-0.7728241258250457
0.32,1.592130752130395,-1.722886163782448,2.307663606795332,-0.0657648625871143,0.0347847369274919,0.0404180745751808,-0.3320681025594118,0.2780573438481472,-0.1080238252130708,1.6016331024814603,-1.729498152194055,2.306736097589976,-0.3811606194153268,0.3451954959145211,-0.1926919637147852,1.1347229840526067,-0.6668674817843445,0.8461477835595671,-0.3562554429803022,9.895302539421207,-1.0224805865165982,0.3127949964149548,-0.7859884523366888
0.34,1.5853785111311325,-1.7171566116175954,2.305412649917401,-0.0618591118134618,0.0446117530966935,0.0405530067051727,-0.3425303743554158,0.2942849603524765,-0.1167624014311834,1.594809890105075,-1.7233942422876851,2.303250181754229,-0.4211606200113734,0.3851954965105676,-0.2110881356422373,1.0596666726674049,-0.5231135898002004,0.8113808252164623,-0.4369288109056311,9.777235201223448,-1.015136775378159,0.3102479062421399,-0.7969170739496987
0.36,1.578783597909427,-1.7114085040130849,2.303100497822734,-0.0587990219119698,0.0517447575253629,0.0407950049767923,-0.3511987969295173,0.3099660192887058,-0.1262101760097603,1.586986677713788,-1.7162903323664147,2.299304361620296,-0.4611606206074198,0.425195497106614,-0.2294843075696893,1.0127902099797028,-0.4334211287050721,0.7840529468114671,-0.4723887289288415,9.705240592123118,-1.0083938677355155,0.30822028821262,-0.8063808529141459
0.38,1.5716712386640457,-1.7050386470323755,2.3004630270650224,-0.0559094535141064,0.0572297762902758,0.041158077116745,-0.3596030849189814,0.3261530795929048,-0.1370940436227435,1.5781634653076,-1.708186422430243,2.2948986371881768,-0.5011606212034662,0.4651954977026604,-0.2478804794971414,1.0619693405632928,-0.4202143994732094,0.8093530152099515,-0.5441933806491633,9.611121662689584,-1.0029581947938404,0.3063540544904161,-0.814054934023453
0.4,1.5643949555165553,-1.6983484285598929,2.297599231167512,-0.0532024240134954,0.0609793113083373,0.0416107502549851,-0.3676777641042422,0.3419835082504888,-0.1487521758342924,1.553691084418097,-1.6887309930527306,2.293608324883885,-0.4596030864090976,0.4261530810830209,-0.1964714531405086,1.0626793520268636,-0.403733959263039,0.7915214328791997,-0.5829066105774439,9.611121662689584,-0.9989370603824088,0.3046158494392231,-0.8199127894773006
0.42,1.5573493331728634,-1.6916982277596306,2.294781651023888,-0.0507578676027945,0.0629930632609753,0.0421136111847562,-0.373715308999497,0.3571971067775101,-0.1472485799501556,1.553691084418097,-1.6887309930527306,2.293608324883885,-0.4596030864090976,0.4261530810830209,-0.1964714531405086,0.8218368589422045,-0.301877244762741,0.7606799263510655,0.0751797942068394,10.346130267424996,-1.001670507835451,0.3022892714411237,-0.818991141157442
0.44,1.549812060852109,-1.68440804060073,2.29182899841816,-0.0488541431618983,0.0633535619585978,0.0426799450398463,-0.3798027483883491,0.3712018978911475,-0.1483165950374779,1.553691084418097,-1.6887309930527306,2.293608324883885,-0.4596030864090976,0.4261530810830209,-0.1964714531405086,0.7653949122451602,-0.3043719694426017,0.7002395556818669,-0.0534007543661133,10.126733572778903,-1.0018627239793514,0.3028355659458671,-0.8167353174090863
0.46,1.5421472760154644,-1.67684027812716,2.288819808038999,-0.0479267551373749,0.0619463208313772,0.0432567170822818,-0.3864861770665372,0.384933927652913,-0.1526753081529318,1.5490950535540058,-1.6844694622419003,2.29164361035248,-0.4796030867071208,0.4461530813810442,-0.2083469350440616,0.7940957755479982,-0.3341714339094054,0.6866014880882759,-0.2179356557726927,10.126733572778903,-1.002800024055724,0.3036808414259901,-0.8139239201624963
0.48,1.534734015111599,-1.6694004868747816,2.2858542507253854,-0.0479647199287097,0.0591370088006354,0.0438050871233457,-0.3936514155958386,0.3976163558778551,-0.1592539044528237,1.5399029918258238,-1.67594640062024,2.2877141812896697,-0.5196030873031673,0.4861530819770906,-0.2320978988511676,0.7991598058892007,-0.3582619264650699,0.6341214112471072,-0.3289298149945954,9.946507538194057,-1.0048737722956695,0.3047563312241769,-0.8101815397612852
0.5,1.5267713446040874,-1.6613108574955364,2.282579897356666,-0.0490671876559623,0.0548440604635613,0.0443709594920018,-0.4024039027157601,0.4107664598936382,-0.1679089098053916,1.5307109300976418,-1.6674233389985795,2.28378475222686,-0.5596030878992138,0.5261530825731371,-0.2558488626582736,0.9006114368351155,-0.4376243559960746,0.6575052007891519,-0.432750267628397,9.81447731802109,-1.0079765934942722,0.3062399182931765,-0.8054591975299352
0.52,1.5186140458988389,-1.652955187670343,2.2791184865886813,-0.0512798160605724,0.0495733820368189,0.0449144415986675,-0.4131639435636799,0.4242736412289958,-0.1778511323932461,1.5195188683396574,-1.6569002773471169,2.278667774973694,-0.5996030884952602,0.5661530831691836,-0.2795998264653797,0.9963310401939504,-0.5380020423959936,0.6753590667678833,-0.4971111293927271,9.715142481615658,-1.0116208601122083,0.3084562373605277,-0.7997913692598337
0.54,1.5102150518460835,-1.644313045383344,2.27545275999584,-0.0541446568548132,0.0440925164762652,0.0454383509329765,-0.4263419872883169,0.4394411805432778,-0.1882212749367294,1.5083268065816733,-1.646377215695654,2.273550797720529,-0.6396030890913067,0.60615308376523,-0.3033507902724857,1.1305473692319294,-0.6589021862318495,0.7583769657140971,-0.5185071271741643,9.650265451969972,-1.0160493147631977,0.3107662256477634,-0.7934232108665317
0.56,1.5019652873062828,-1.6358002150344142,2.2717762175903435,-0.0565363166214271,0.0394807613770712,0.0459412496705236,-0.4414853894384404,0.4556858075789384,-0.19825272169013,1.4961347448087878,-1.63485415402929,2.2678400463721857,-0.6796030896873531,0.6461530843612764,-0.3271017540795917,1.218442099747041,-0.7571701075061721,0.8122313517830326,-0.5015723376700295,9.63959961171713,-1.0201933596792132,0.3130732133365498,-0.7871856246005586
0.58,1.492945297569379,-1.6264997676625677,2.267696683953177,-0.0582691566103133,0.0362421557592162,0.0464418162458748,-0.4598471258719036,0.4733527066468078,-0.2091815010892059,1.482942683021001,-1.622331092348025,2.261535520928665,-0.7196030902833995,0.6861530849573229,-0.3508527178866977,1.386281813593394,-0.9180868216731586,0.8833449533934667,-0.5464389699537927,9.643914828085144,-1.023285851945793,0.3146001788307943,-0.7828418336532554
0.6,1.4835361022001563,-1.6168375748925974,2.263393343675397,-0.0588978750321952,0.0356393087011006,0.0468652382693868,-0.4798120009739832,0.4917833525134503,-0.2205679639676396,1.469952941275784,-1.6028321323302273,2.2572376088987167,-0.5598471273620197,0.5733527081369238,-0.2738017202602531,1.4730380865622368,-0.9982437551039808,0.9215322933321252,-0.5693231439216864,9.636431711233854,-1.025508091108558,0.3147064006863923,-0.7811099665401309
0.62,1.473710428752963,-1.606747321499897,2.259036625239848,-0.0566442890514086,0.0385252025737741,0.0472797211998764,-0.5010869715071851,0.5155167773242595,-0.2144088438393866,1.469952941275784,-1.6028321323302273,2.2572376088987167,-0.5598471273620197,0.5733527081369238,-0.2738017202602531,1.6231409251765485,-1.0637485266600937,1.18667124054046,0.3079560064126491,9.618652761966588,-1.0310040134016554,0.3129806141138068,-0.7764918874709467
0.64,1.4640165020672076,-1.5967711175992003,2.2549954481151264,-0.0520581927280292,0.0441105258773842,0.0476877802653583,-0.5178584578537181,0.5329558252697626,-0.211278416910832,1.469952941275784,-1.6028321323302273,2.2572376088987167,-0.5598471273620197,0.5733527081369238,-0.2738017202602531,1.2198388420940285,-0.8385743173266513,0.8719523972751553,0.1565213464277307,10.682164634751643,-1.0302929377250645,0.3111314530183396,-0.7773740100166588
0.66,1.4535047199091358,-1.5859538393966874,2.250763245508044,-0.0470290352653676,0.0514615986428195,0.0480740930997137,-0.5321149589000826,0.5478115594801372,-0.2123087431802578,1.4643544700021638,-1.597098605248858,2.2544995916961144,-0.5798471276600429,0.593352708434947,-0.2867257640944625,1.0307791145970069,-0.7128250523182278,0.742786710518728,-0.0515163134712892,10.386534931568349,-1.02641675001998,0.3088092059624662,-0.7827205788363549
0.68,1.4427401536309563,-1.5748596804500758,2.2464651609018502,-0.0425980836854887,0.0591964409500451,0.0484234122662252,-0.5434019451419672,0.5609223548629966,-0.2176339162618595,1.453157527454923,-1.5856315510861194,2.249023557290909,-0.6198471282560893,0.6333527090309935,-0.3125738517628814,0.9050503885761182,-0.5643493120942256,0.655539769142971,-0.2662586540800829,10.100113252846311,-1.020726091935662,0.3062242815990285,-0.7910208603066068
0.7000000000000001,1.431777456339238,-1.563515558657566,2.242018312012248,-0.0390082524093233,0.0664765437629266,0.048751058078205,-0.5522004928187471,0.5730088965431765,-0.2267941620618355,1.4419605849076829,-1.574164496923381,2.243547522885704,-0.6598471288521358,0.67335270962704,-0.3384219394313003,0.8766541993900372,-0.439927383838995,0.6043270840089987,-0.4580122899988006,9.857306310229433,-1.0144435344150216,0.3037264840006944,-0.8003841275823275
0.72,1.4212189944763916,-1.5525205863745382,2.237596205837682,-0.0363612816668586,0.0724788122458077,0.0490536260883909,-0.5587583600149403,0.5839141306429203,-0.238255555236157,1.42876364233064,-1.5606974427308402,2.236779084097078,-0.6998471294481823,0.7133527102230864,-0.3642700270997192,0.8562903806967359,-0.3278933598096611,0.5452617049871877,-0.5730696587160744,9.664783398655343,-1.0075862307207897,0.3010848203664134,-0.8108624506329886
0.74,1.4099851252889208,-1.5407269220368849,2.2326893733679487,-0.0343274014273004,0.0775368629055933,0.0493671736751507,-0.5642662280744406,0.5950037260343933,-0.2519125609841909,1.4155666997535974,-1.5472303885382994,2.230010645308452,-0.7398471300442288,0.7533527108191329,-0.3901181147681381,0.9217233078712892,-0.275393402975016,0.5544797695736514,-0.6828502874016984,9.518167102987718,-1.0013812265547863,0.2987593809816463,-0.8204444042130823
0.76,1.3986467826050772,-1.5287043603091826,2.2274968044864174,-0.0326950097656409,0.0813079518407277,0.0496929701980738,-0.5692982956586367,0.6066582541995843,-0.2667127675303172,1.4013697571616537,-1.532763334330857,2.2225960043281154,-0.7798471306402751,0.7933527114151793,-0.415966202436557,0.974930567698472,-0.2516033792098027,0.5827264082595485,-0.7400103273063147,9.396469928320585,-0.9960215301128073,0.2969173916428016,-0.8284105878469529
0.78,1.3872106312085593,-1.516447719191905,2.2219983695245795,-0.0310710055600299,0.084028543103601,0.0500455135332689,-0.5740888206704199,0.618315971966707,-0.2824005864391928,1.3861728145548085,-1.5172962801085144,2.2145351611560686,-0.8198471312363216,0.8333527120112257,-0.4418142901049758,1.0061798740087196,-0.2395262505891615,0.5828858883561328,-0.7843909454437775,9.361219228479968,-0.9916093933130786,0.295066683430654,-0.8352019373537818
0.8,1.3762583275664335,-1.5045903737431243,2.21647721744575,-0.0294340683569019,0.0858650036877225,0.0504019897009833,-0.5785598412343284,0.6291348540670735,-0.2979973050601212,1.3585061901750382,-1.4855319205935698,2.20787834020262,-0.674088822160536,0.7183159734568231,-0.3487180180678969,0.9750588014639648,-0.2235510281954233,0.5409441050183261,-0.7798359310464187,9.361219228479968,-0.987525479416876,0.2929252777458545,-0.8417927060570577
0.8200000000000001,1.364644350213964,-1.4918743365840512,2.2105324058308944,-0.0272492903190357,0.0874930122348223,0.0508083545770923,-0.582478096285654,0.6416431794887114,-0.2946498128274292,1.3585061901750382,-1.4855319205935698,2.20787834020262,-0.674088822160536,0.7183159734568231,-0.3487180180678969,0.6764181985812576,-0.1959127525662796,0.6254162710818967,0.1673746116345992,9.329988434782535,-0.9913618609717584,0.2908630054056716,-0.8396546880588445
0.84,1.3529641104201506,-1.4789355482043185,2.2046585663606946,-0.0251025178386559,0.0889102578397147,0.0512066451502923,-0.5853636862167142,0.6517114382192902,-0.2932281020785037,1.3585061901750382,-1.4855319205935698,2.20787834020262,-0.674088822160536,0.7183159734568231,-0.3487180180678969,0.528483028511141,-0.1442794965530125,0.5034129365289408,0.0710855374462721,10.539972170812687,-0.9903546374374632,0.2907548478947258,-0.8394774717200664
0.86,1.3412289827206736,-1.4658025442079023,2.1987658118463185,-0.0235737307338563,0.0897358889266524,0.0515650388784481,-0.5880576319574563,0.6611382417939409,-0.2963024090281916,1.3517653019534328,-1.4783487608590016,2.204391160021941,-0.6940888224585592,0.7383159737548463,-0.3619815043936377,0.5137444221351891,-0.1346972870371054,0.4713401787325322,-0.1537153474843927,10.269991323990324,-0.9887841746457748,0.2905726510421988,-0.8404725186065772
0.88,1.3300305039249318,-1.453158240725703,2.193072810069142,-0.0228394857365892,0.0898580622426019,0.0518599319535336,-0.5906809016997098,0.6694623628717041,-0.3027922434266712,1.338283525510222,-1.463982441389865,2.197416799660583,-0.7340888230546057,0.7783159743508927,-0.3885084770451193,0.543807149588837,-0.1311634871126732,0.4162060538881629,-0.3244917199239805,10.020053262981492,-0.987326763894214,0.2903941388161691,-0.8418510117294413
0.9,1.3181865468452365,-1.4396829165385072,2.186920297290609,-0.0230377784032862,0.0892739074291326,0.0521081701050158,-0.5936432371819244,0.6777098566761011,-0.3122346192007037,1.3248017490670114,-1.4496161219207286,2.190442439299225,-0.7740888236506521,0.8183159749469392,-0.4150354496966009,0.6441177024053704,-0.1481167741107292,0.4123746902198466,-0.4721187887016254,9.684690368439078,-0.9864653917694248,0.2905652241726155,-0.8428724250369154
0.92,1.3062809324673224,-1.4260443066142607,2.180555576890234,-0.0244218523512623,0.08790370868573,0.052283961077545,-0.5968538571378399,0.6858811177759842,-0.3237563095163807,1.3093199725939983,-1.43324980242179,2.182141730305293,-0.8140888242466986,0.8583159755429857,-0.4415624223480826,0.7242702123416196,-0.1605309977957769,0.4085630549941543,-0.5760845157838479,9.684690368439078,-0.9863557429209218,0.2913134803143127,-0.8431231152055788
0.94,1.2943081853159577,-1.4122374065614551,2.1739547548774345,-0.0269751327295913,0.0856834162317022,0.052396637575426,-0.6003655577345973,0.694700896541405,-0.3357509561384036,1.2938381961209853,-1.4168834829228512,2.173841021311361,-0.8540888248427451,0.8983159761390321,-0.4680893949995642,0.7648399932983383,-0.1755850298378714,0.4409889382710419,-0.5997323311011465,9.58306840001751,-0.9871959980042386,0.2928092821730195,-0.8422672830369612
0.96,1.2828583604168706,-1.398930497689614,2.1674608829205173,-0.0296424371044828,0.0829030482345344,0.052507661882686,-0.6047884419192573,0.7055187175597363,-0.3472077224270238,1.2773564196330711,-1.3995171634090111,2.164877138001142,-0.8940888254387914,0.9383159767350786,-0.4946163676510458,0.8182980048363028,-0.2211442092329985,0.5408910509165643,-0.5728383144310095,9.561731033466458,-0.9890816423915968,0.2949750850093498,-0.8394983814613415
0.98,1.2707020107485425,-1.384689087982493,2.160388420934352,-0.0319234034557962,0.0796292518734162,0.0526750479380492,-0.6107294687566894,0.7179331936682353,-0.3594340071758899,1.259874643130256,-1.38115084388027,2.155250080374636,-0.934088826034838,0.9783159773311252,-0.5211433403025274,0.9204578421795572,-0.297051341871607,0.6207238054249498,-0.6113142374433084,9.56298476761458,-0.9916160963232762,0.2969256912070404,-0.8358284562757896
1.0,1.2584107542162672,-1.370191395613428,2.1530700370629274,-0.0333825779251524,0.0764587153569554,0.0528969854249101,-0.6182132439331374,0.7310857617956569,-0.3717883950388349,1.240165537310708,-1.3487924282990809,2.142416720575557,-0.7107294702468056,0.8179331951583514,-0.3941484675488148,0.9767648625771798,-0.3741887588223969,0.6576284063710802,-0.617719393147248,9.554476024130054,-0.994191974994283,0.2982648661413412,-0.83228953891779
1.02,1.245930303019509,-1.3553712792452275,2.145751563885732,-0.0322485507432168,0.0751910839322898,0.0532293092945652,-0.6286929094678578,0.7486516230873583,-0.360079120217263,1.240165537310708,-1.3487924282990809,2.142416720575557,-0.7107294702468056,0.8179331951583514,-0.3941484675488148,1.178441756607005,-0.5239832767360231,0.8782930645850728,0.5854637410785957,9.550134420235736,-1.0000883793287925,0.2969166549720189,-0.8274226221755642
1.04,1.2338839619091713,-1.3409824579634095,2.1390219124451013,-0.0284881926616811,0.0765346590656795,0.0536375456750062,-0.6379912847111859,0.7636254128494134,-0.34964105975845,1.240165537310708,-1.3487924282990809,2.142416720575557,-0.7107294702468056,0.8179331951583514,-0.3941484675488148,1.0242402893679268,-0.4649187621664052,0.748689488102755,0.5219030229406479,11.06429216190554,-1.0026897710261389,0.2967182692953201,-0.8219654872843397
1.06,1.22104514156362,-1.325590793184328,2.132097086952701,-0.0237713497781941,0.0793935178440231,0.0540717415515661,-0.6452361178758266,0.7746580243547302,-0.3435443710282435,1.23305824260824,-1.3406130963474974,2.138475235900069,-0.7307294705448287,0.8379331954563746,-0.4010913596233997,0.7269383359057215,-0.362241658232032,0.5516305752658379,0.3048344365103261,10.804095884893286,-1.0026687782688857,0.2954092237395729,-0.8205333564935644
1.08,1.2080804857362937,-1.3100030603055464,2.125251342575757,-0.0194310502534489,0.0828045937795608,0.0544639255702897,-0.6507482546771683,0.7836028295947074,-0.3415005718340022,1.2188436532033038,-1.3242544324443302,2.1305922665490926,-0.7707294711408752,0.877933196052421,-0.4149771437725696,0.5351876027249962,-0.2756068400670886,0.4472402619988602,0.1021899597120651,10.521989091150315,-1.001121594903962,0.2936932491919447,-0.8217378679205449
1.1,1.1950212330832946,-1.2942502631468844,2.118407115934673,-0.0158839337612201,0.0860710882840412,0.0548009044359454,-0.6548724396841756,0.7914041703701276,-0.3430163562053133,1.2046290637983676,-1.3078957685411632,2.1227092971981163,-0.8107294717369217,0.9179331966484676,-0.4288629279217396,0.4476813099922979,-0.2062092503503643,0.3900670387710081,-0.0757892185655556,10.284308818604586,-0.9990135957097482,0.2921087670458209,-0.8240566069374852
1.12,1.1825487294395574,-1.2791468827488588,2.1118520322694745,-0.0132982695880459,0.0886320524483986,0.0550699272666767,-0.657846019662661,0.7982117258271982,-0.3469203013418609,1.1884144743636291,-1.2895371046081938,2.1141320386396814,-0.8507294723329681,0.957933197244514,-0.4427487120709095,0.4196003360899381,-0.1486789989242676,0.340377772853534,-0.1951972568273813,9.95587409511154,-0.9967757348882732,0.2906407831254788,-0.8267812426323213
1.14,1.1693664516361428,-1.2631127614978304,2.104861113446299,-0.0113810988160442,0.0904993459143527,0.055299658023489,-0.6602601839901627,0.8049698345725915,-0.3520089928362038,1.1721998849288908,-1.2711784406752245,2.105554780081247,-0.8907294729290146,0.9979331978405604,-0.4566344962200794,0.4398721528448356,-0.1207082163750872,0.3379054372696644,-0.2544345747171411,9.95587409511154,-0.99512128642626,0.2894501422436349,-0.8290346881745252
1.16,1.1561353777660046,-1.246937058466398,2.097762119793776,-0.0099743567982097,0.0915286312612028,0.0554926809356119,-0.6627709700311999,0.8122387103264767,-0.3576548709682428,1.1549852954792512,-1.251819776727354,2.096630376919083,-0.9307294735250612,1.0379331984366067,-0.4705202803692493,0.4770129483334864,-0.125539302051858,0.3634437876942564,-0.2822939066019492,9.906567390253258,-0.9939594164994012,0.2886098853849415,-0.830540637146486
1.18,1.1435172916506924,-1.2314345184032751,2.090909460380785,-0.0087904959913668,0.091934966780603,0.0556602015725148,-0.6653540551564838,0.8191993408820752,-0.3633933383788125,1.1367707060147103,-1.2314611127645825,2.0873588291531893,-0.9707294741211075,1.077933199032653,-0.4844060645184193,0.4691820401458457,-0.1291542562641967,0.3480315277799295,-0.2869233705284885,9.881685115286928,-0.9934025923454142,0.2878895967743642,-0.8313276177281629
1.2,1.1301797064476062,-1.2149750375156227,2.083574095696083,-0.0075944879049353,0.091934855617008,0.0558246981478987,-0.668304936117346,0.8263308276121517,-0.3698599482232049,1.1102495888928685,-1.1904745513591712,2.072739793461844,-0.7653540566466,0.9191993423721914,-0.3878627493794219,0.5034452410789781,-0.1475440480431078,0.3565743365038232,-0.32333049221962,9.86332898888304,-0.9932066817545192,0.2871233703564058,-0.8317340124587018
1.22,1.1167666879447888,-1.198353105704805,2.0762409702639792,-0.0057103970307227,0.0924316873022325,0.0560207857573747,-0.6726856337525511,0.8351658203787288,-0.3624085142567814,1.1102495888928685,-1.1904745513591712,2.072739793461844,-0.7653540566466,0.9191993423721914,-0.3878627493794219,0.6180037967369831,-0.2190348817602549,0.4417496383288533,0.3725716983211752,9.83931176951046,-0.9953094604859192,0.285200869545801,-0.8310950927100291
1.24,1.1032819670566998,-1.181585548187242,2.069064146562536,-0.0034630499140649,0.0938312467435247,0.0562246108073644,-0.6754693267176608,0.8411938350101927,-0.3558500862872579,1.1102495888928685,-1.1904745513591712,2.072739793461844,-0.7653540566466,0.9191993423721914,-0.3878627493794219,0.4666339152713124,-0.1391846482554859,0.3014007315731981,0.3279213984761775,10.725000284794078,-0.99597134381708,0.2851444533059685,-0.8290707344313444
1.26,1.0904312272621428,-1.165555863196361,2.062336801105636,-0.0018643356601875,0.0952159369713922,0.0563706486390362,-0.6771104785537453,0.8459891413073952,-0.3526077700058526,1.1025960483264023,-1.1812825579354491,2.06886116596805,-0.7853540569446231,0.9391993426702144,-0.3927566315795438,0.3008361543337969,-0.0820575918042243,0.2397653148601242,0.1621158140702655,10.55256478310821,-0.9956242713793526,0.2850932537175527,-0.8284139801735496
1.28,1.0768780318192113,-1.1485911187647282,2.055298923915489,-0.0010232370376707,0.0962630603644527,0.0564562142422303,-0.6781500936855992,0.8503110650892436,-0.3514497740896334,1.0872889671934702,-1.1628985710880055,2.0611039109804614,-0.8253540575406696,0.979199343266261,-0.4025443959797876,0.2296779230817931,-0.0519807565926955,0.2160961890924184,0.0578997958109589,10.374935053005174,-0.9952418254044186,0.2853300999494701,-0.8279965666140531
1.3,1.063308513696343,-1.1315460705076728,2.0482630720836466,-0.0013918104497278,0.0965831747902668,0.0564484961592772,-0.6788605828690344,0.8541484687685834,-0.3521828736897719,1.0719818860605383,-1.1445145842405615,2.053346655992873,-0.8653540581367161,1.0191993438623077,-0.4123321603800313,0.1985440562048664,-0.0355244591717596,0.1918701839669911,-0.0366549800069254,10.241814054061251,-0.9951215979143524,0.2861089563140264,-0.8273414958115634
1.32,1.050405057911303,-1.1152829865859093,2.041554408438005,-0.0030452009930886,0.0960922958569157,0.0563449985867537,-0.6794630891808382,0.8577337246040423,-0.3539495586234198,1.054674804897804,-1.1241305973633156,2.045100012785272,-0.9053540587327624,1.0591993444583538,-0.4221199247802751,0.2021029992122448,-0.0301253155901903,0.1792627917729439,-0.0883342466823949,10.143585149729915,-0.9956245161507412,0.2877083938940483,-0.8258598970518066
1.34,1.0368100187510396,-1.0980822795387384,2.0344551488301126,-0.0061371262538109,0.0946011204478778,0.0561438013662533,-0.6800917505878077,0.8626059246628424,-0.3558799605792269,1.0373677237350698,-1.1037466104860694,2.0368533695776714,-0.945354059328809,1.0991993450544004,-0.4319076891805188,0.2639128657747099,-0.0314330703484744,0.2436100029400034,-0.0965200977903535,10.081179525241168,-0.9968717947738798,0.290077453134372,-0.8234673901011035
1.36,1.023194978132708,-1.080750233811396,2.0273211213756075,-0.0094848207347488,0.0920685455122903,0.0559364719592899,-0.6814870790981302,0.8703517502938035,-0.3573966719065934,1.0190606425574342,-1.082362623593922,2.0283620322600644,-0.9853540599248554,1.1391993456504468,-0.4416954535807626,0.4007654226836929,-0.0697664255161267,0.3872912815480578,-0.0758355663683263,10.100580401020125,-0.9991079632040932,0.2928931372067282,-0.8193309675751366
1.38,1.009540923661187,-1.0632459950081858,2.0201623612512667,-0.0122007273887912,0.0887148786820963,0.0557886498774418,-0.683962562270646,0.8794794062293635,-0.3583892551395128,0.9997535613648976,-1.0599786366868738,2.019626000832452,-1.0253540605209015,1.1791993462464931,-0.4514832179810064,0.4754664585689638,-0.123774158625789,0.4563827967779987,-0.0496291616459726,10.100580401020125,-1.0025049684151113,0.2956939354614082,-0.813477908394098
1.4,0.996510700548952,-1.0464413842820757,2.0133464717616665,-0.0139842320570012,0.0850689580765563,0.0557149847341038,-0.6876182109269723,0.888751784132547,-0.3590075408481262,0.9753427955476548,-1.0192720246967175,2.0022428984942917,-0.7331425185875939,0.9794794077194796,-0.3748072111192177,0.4993071106428908,-0.1827824328163141,0.4636188951591735,-0.0309142854306693,10.125473506680464,-1.0066251146133764,0.2980658133973747,-0.8066621196881835
1.42,0.9825952214937856,-1.0285063255624105,2.006255905868066,-0.0131213647255201,0.084794862305262,0.0557774377247045,-0.703457101781517,0.9037370434303694,-0.3494688825593359,0.9753427955476548,-1.0192720246967175,2.0022428984942917,-0.7331425185875939,0.9794794077194796,-0.3748072111192177,1.1899731737264747,-0.7919445427272354,0.7492629648911231,0.4769329144395179,10.140327912283285,-1.0096921534543892,0.2988826256878868,-0.8016304408544817
1.44,0.9684037365059937,-1.0103064696164448,1.9993602623237872,-0.0088564364819801,0.0906663553340717,0.0559979389255038,-0.714116086826526,0.9147822762944554,-0.3407070486496207,0.9753427955476548,-1.0192720246967175,2.0022428984942917,-0.7331425185875939,0.9794794077194796,-0.3748072111192177,0.8837149776271843,-0.5329492522504531,0.5522616432042993,0.4380916954857566,10.893210965436085,-1.0093076175041185,0.2974296162690223,-0.802127166515532
1.46,0.9547753466999984,-0.9928575519804252,1.9929366353779567,-0.0040657847734498,0.0991390394246376,0.0562554221628756,-0.719476679594768,0.9213541232570732,-0.335899318674317,0.9680113703617788,-1.009477230619523,1.998494826383099,-0.7429785098509836,0.9994794080175028,-0.3780908023151587,0.4874407524059535,-0.2680296384120983,0.3285923481308961,0.2403864987651882,10.68361812531566,-1.004121340004682,0.2949396016121191,-0.8087775447919395
1.48,0.9403607471104338,-0.9743795240555276,1.9862417944090405,0.0004577334143543,0.1094385978838402,0.0565197912908209,-0.721303617281764,0.9262052661183487,-0.333999568464789,0.9533485199900268,-0.9898876424651334,1.9909986821607148,-0.7626504923777627,1.0394794086135493,-0.3846579847070406,0.2760450109641129,-0.0913468843497966,0.2425571430637707,0.0949875104763964,10.442319415375096,-0.9962241835857436,0.2923407313365391,-0.8187534203075827
1.5,0.9259434913683792,-0.955815438569292,1.9795537471423243,0.004044654896244,0.1202107759929702,0.0567523179631666,-0.7200028511231713,0.9301203048763912,-0.3350416476360996,0.938685669618275,-0.9702980543107438,1.9835025379383304,-0.7823224749045419,1.0794794092095956,-0.3912251670989226,0.2127524974917673,0.0650383079296323,0.1957519379021222,-0.0521039585655302,10.102471667784812,-0.9866019206460436,0.2899321478982469,-0.8306374090156201
1.52,0.9115806992660632,-0.9371788922793456,1.9728183759382685,0.0066304518069254,0.1309316626470372,0.05693888606887,-0.7160476741227564,0.9335956334456168,-0.3384736796687395,0.9230392201201842,-0.948708466126552,1.975678034596352,-0.801994457431321,1.119479409805642,-0.3977923494908045,0.3142458338695719,0.1977588500207461,0.1737664284612805,-0.1716016016319932,9.99608561821242,-0.9765590950786754,0.2879633080463708,-0.8427221286620113
1.54,0.898032727887338,-0.9194118259470312,1.9663440802149157,0.0082344326701144,0.1408113056958183,0.0570675032318285,-0.710023592807723,0.936636052337753,-0.3428942481762734,0.9073927706220932,-0.92711887794236,1.9678535312543737,-0.8216664399581003,1.1594794104016886,-0.4043595318826865,0.4033457842211636,0.3012040657516701,0.1520209446068121,-0.2210284253766958,9.99608561821242,-0.9657280443018492,0.2863066021365449,-0.8554119416172551
1.56,0.8839247905648132,-0.9006399386153799,1.959429882885409,0.0092784610498422,0.1505273824451766,0.0571569498326291,-0.7008715459892543,0.9404073567751414,-0.3483538219889434,0.8912545215608331,-0.9045292897432669,1.959864848352598,-0.8413384224848794,1.199479410997735,-0.4109267142745684,0.5652204090947626,0.4576023409234353,0.1885652218694189,-0.2729786906334991,9.950801833877447,-0.955143337202627,0.2851988799199381,-0.8672254404724598
1.58,0.870032168978094,-0.8817885240263962,1.952398964976831,0.0099484145428322,0.1589124957593687,0.0572070295350289,-0.6887348191143444,0.9445296574468736,-0.3545137992258272,0.8746244729364032,-0.8809397015292727,1.9517119858910252,-0.8610104050116586,1.2394794115937813,-0.4174938966664503,0.7110534818550018,0.6068363437454927,0.2061150335866068,-0.3079988618441887,9.92767004729194,-0.945264202237891,0.2844682340861314,-0.8776948499208479
1.6,0.8564083603495243,-0.862851287743503,1.945239849389488,0.0104375417582886,0.1653572664555962,0.0572209219038602,-0.6743323569095085,0.9489326145477536,-0.3611102470484954,0.8355954280223767,-0.8345620411540525,1.9346732750155395,-0.7115793702454737,1.0445296589369897,-0.3586430446374318,0.8220858724474908,0.7201231102417938,0.2201478550440061,-0.3298223911334108,9.913649304410685,-0.9371292185670598,0.2840947450871992,-0.8857516978076921
1.62,0.8437169156957459,-0.8447472756195288,1.93837984181334,0.0119172010796546,0.1706950820439212,0.0572931520401741,-0.6620528814043196,0.956056664702021,-0.3606895605112028,0.8355954280223767,-0.8345620411540525,1.9346732750155395,-0.7115793702454737,1.0445296589369897,-0.3586430446374318,0.7101313020239819,0.6139737752594465,0.3562025077133657,0.0210343268646301,9.912975256555,-0.92998121229533,0.2825977349594407,-0.8933980320443909
1.64,0.8306375263354335,-0.8255791468203522,1.931167716941933,0.0144711706455506,0.1761417079090659,0.0574383111621939,-0.6463868465265893,0.9602523713904446,-0.3606164128689811,0.8355954280223767,-0.8345620411540525,1.9346732750155395,-0.7115793702454737,1.0445296589369897,-0.3586430446374318,0.8109160776293506,0.7833017438865164,0.2097853344211808,0.003657382111083,10.337279367657176,-0.9236943690921956,0.2816667480669679,-0.8986128693065848
1.66,0.8178960617983863,-0.8063451307136934,1.9239463403227448,0.0167215444642922,0.1805500008820795,0.0575483665636514,-0.6285285195839013,0.9630275308988512,-0.3615719764342857,0.828479634319922,-0.8241167445646826,1.931086844569165,-0.7161482804716995,1.0645296592350129,-0.3594688937197527,0.9048956475975176,0.8929163471343982,0.1387579754203338,-0.0477781782652259,10.30436955820096,-0.9179453201208588,0.2809734664811987,-0.9030873948346227
1.68,0.8061385931565597,-0.7880294308949671,1.9170615559581672,0.0182063107037398,0.1832255310716126,0.0575788676775122,-0.610142664663819,0.9649486308499609,-0.3630846841325727,0.8142480469150125,-0.8032261513859428,1.9239139836764163,-0.7252861009241512,1.1045296598310594,-0.3611205918843946,0.9273868808983214,0.9192927460041188,0.0960549975554725,-0.075635384914352,10.261587397098992,-0.9131817841062824,0.28097657116619,-0.905996895870203
1.7,0.794146754537127,-0.7687163273427294,1.9097818892193472,0.0188363001270786,0.1842240346543551,0.0575057230571732,-0.5901118344924132,0.966344598878939,-0.3647929186048384,0.800016459510103,-0.782335558207203,1.916741122783668,-0.734423921376603,1.1445296604271058,-0.3627722900490365,1.0075973266958682,1.001541508570286,0.0697984014489117,-0.085411723613285,10.242293879356112,-0.9100885287884082,0.281743207781378,-0.9069758313675772
1.72,0.7825621616161519,-0.7493796887681882,1.9024710228484252,0.0182089533791721,0.1831411334189079,0.0572986017623482,-0.5694209355740021,0.9673686373211904,-0.3661749991691823,0.785327981082571,-0.7594449649986609,1.9094856769826871,-0.7435617418290547,1.1845296610231522,-0.3644239882136783,1.0381137937016498,1.034544945920557,0.0512019221125648,-0.0691040282171928,10.244264314558675,-0.9090880263931712,0.2833081236923117,-0.9058527029094992
1.74,0.7713993244132503,-0.7300231581158082,1.8951436280611187,0.0160923839652216,0.1794852209596816,0.0569408127448523,-0.5481100121824436,0.9684370058305798,-0.3664561536416287,0.7706395026550389,-0.7365543717901188,1.9022302311817063,-0.7526995622815064,1.2245296616191987,-0.3660756863783202,1.0669769384927057,1.0655461695779245,0.0534184254694758,-0.014057723622321,10.329410698068386,-0.9105337184717468,0.2862861717472646,-0.9016448728482608
1.76,0.7611788977191034,-0.7115939638886801,1.888193543735274,0.0131673281954573,0.1735017549158699,0.0565100890416358,-0.5292850744355573,0.9716271846799204,-0.3650511679862768,0.7557225787161955,-0.7126637785666755,1.8949334929266095,-0.7618373827339581,1.264529662215245,-0.367727384542962,0.957248017700572,0.9412468873443158,0.1595089424670293,0.0702492827675954,10.410339725382984,-0.914459411899443,0.2910834327076264,-0.8933353434751184
1.78,0.7507758613875768,-0.6921080803962869,1.8809250406875475,0.0102260151029555,0.1654115080022304,0.0560677556214273,-0.5123922197323836,0.9767518418983022,-0.3617504425216251,0.7405772092660409,-0.6877731853283311,1.887595462217397,-0.7709752031864098,1.3045296628112917,-0.3693790827076039,0.8979496648218249,0.8446427351586849,0.2562328609190922,0.1650362732325855,10.410339725382984,-0.9213173795230232,0.2966843463877788,-0.880981542168583
1.8,0.7406791361808963,-0.6725086979716177,1.8737408159128757,0.0078955072347393,0.1563557398539643,0.0556849898792451,-0.498458822041294,0.9828060343385236,-0.3567324038347558,0.7251562504009577,-0.6432704883013718,1.862837518561466,-0.5537805823784865,1.040014714296202,-0.3523413827512198,0.7999586389061184,0.6966698845544794,0.3027096220110714,0.2509019343434643,10.490628036061937,-0.9294426395088774,0.3018867717245764,-0.8672053588313784
1.82,0.7308074142366272,-0.6525916916392204,1.8666784762713056,0.0125317832145425,0.1474518062832077,0.0557843718131287,-0.4893680964554662,1.0048579052403457,-0.3496960822535516,0.7251562504009577,-0.6432704883013718,1.862837518561466,-0.5537805823784865,1.040014714296202,-0.3523413827512198,1.243418798456065,0.4545362792913898,1.1025935450911015,0.3518160790602104,10.560364018197106,-0.940432506940978,0.3046007494887879,-0.8491522037695716
1.84,0.7215873143563202,-0.6334122738357901,1.8601040614005324,0.0228162783851227,0.1397137255964477,0.0562078335774851,-0.4817185817553478,1.0119938452359034,-0.3426781916865207,0.7251562504009577,-0.6432704883013718,1.862837518561466,-0.5537805823784865,1.040014714296202,-0.3523413827512198,0.6298561398810604,0.3824757350059188,0.3567969997778863,0.3508945283515419,10.651871403108087,-0.9487959469597922,0.3001880965218138,-0.8379182987338595
1.86,0.7120242370402909,-0.6131672896694443,1.8533158515309232,0.0343300871400829,0.1323068791956556,0.0565988781715091,-0.4751501000471204,1.0119144613542397,-0.3365714827206772,0.7196184445771728,-0.6328703411584098,1.8593141047339536,-0.5620582549077071,1.052667288775782,-0.3504595707971387,0.448450521645087,0.3284240854113718,-0.0039691940831976,0.3053354482921766,10.625784373195527,-0.9555748434786016,0.2941346933297272,-0.8297903137119808
1.88,0.7025764071229077,-0.5929731612896294,1.846633696859451,0.0446419583734297,0.1256759615175219,0.0568230721645277,-0.4701054148665216,1.0075874796921545,-0.3320005398795017,0.7085428329296031,-0.6120700468724857,1.8522672770789292,-0.5786135999661483,1.0779724377349418,-0.3466959468889766,0.4033148191322352,0.2522342590299403,-0.2163490831042502,0.228547142058777,10.529780235454382,-0.9608510914223978,0.2882354030387152,-0.82417313038351
1.9,0.6932139527570972,-0.5728965981045372,1.840029268802277,0.053039828025966,0.119857634929776,0.0568641120368523,-0.4665423891262624,1.000662899139635,-0.3286404645747463,0.6974672212820333,-0.5912697525865617,1.845220449423905,-0.5951689450245894,1.1032775866941016,-0.3429323229808145,0.424072736413543,0.1781512870129592,-0.3462290276259772,0.1680037652377675,10.438759463602764,-0.9653810897457088,0.2825222872994023,-0.8199190539707566
1.92,0.6843718742946684,-0.5539681434153642,1.8338112335501184,0.0591866683523182,0.1152108964284865,0.0567645390882431,-0.464506026559496,0.9925466566695206,-0.3260313791364093,0.6855638423815416,-0.5692042008526796,1.8383618029642887,-0.6117242900830305,1.1285827356532614,-0.3391686990726524,0.4382564636190693,0.1018181283383184,-0.4058121235057166,0.1304542719168494,10.376909471807268,-0.9689819098815056,0.2775716471525379,-0.8170205718147101
1.94,0.6750934702699772,-0.5342183133823543,1.8273176900043144,0.0638823614987283,0.1114463483342193,0.0565626658179349,-0.4635652138572406,0.9831423422912228,-0.3234466344243321,0.6736604634810498,-0.5471386491187975,1.8315031565046724,-0.6282796351414718,1.1538878846124212,-0.3354050751644902,0.4899162241985694,0.0470406351127689,-0.4702157189148848,0.1292372356038629,10.34635168828845,-0.9716397517635142,0.2734147925750115,-0.8154283093144178
1.96,0.6658208558922372,-0.5146578045118247,1.8208767087776496,0.067118756654212,0.1091137300560601,0.0563258880856045,-0.4638281788939151,0.97357773860417,-0.3207628395040159,0.6613432009540969,-0.5244404686609365,1.82473860064276,-0.6448349801999129,1.1791930335715812,-0.3316414512563281,0.4968741024525643,-0.013148251833725,-0.4782301843526515,0.1341897460158087,10.350438282478535,-0.9731299460138766,0.2702358210359317,-0.8150851056133686
1.98,0.6565388465713763,-0.4952913433106625,1.814491057812205,0.0692321776773258,0.1083959199056398,0.0561057622043323,-0.4641756685555424,0.9638154196958648,-0.3179266937442361,0.6486120548006831,-0.5011096594790965,1.818068135378552,-0.6613903252583541,1.204498182530741,-0.327877827348166,0.5085944904909566,-0.0173744830813615,-0.4881159454152461,0.1418072879889875,10.350438282478535,-0.9737190714366996,0.2670040368535571,-0.8165676740853853
2.0,0.6477238001382852,-0.4770766779084062,1.8084780180197384,0.0703462113980602,0.1087622928500674,0.0559002130168388,-0.4636179629023975,0.9541515444468672,-0.3151644176624898,0.6333300631435992,-0.4471005723258693,1.7985947231249937,-0.5190635109425034,0.9478650193135846,-0.2919949442513525,0.5033182133986549,0.0278852826572445,-0.4831937624498794,0.1381138040873142,10.35606659628047,-0.9730958916185736,0.264468772631839,-0.8191678658119647
2.02,0.6384639483595113,-0.457892450082883,1.802221649600814,0.0772906596608437,0.1094408916353693,0.0560997627065372,-0.4621886575398734,0.9613799268746454,-0.3108047406410644,0.6333300631435992,-0.4471005723258693,1.7985947231249937,-0.5190635109425034,0.9478650193135846,-0.2919949442513525,0.4280747892386762,0.0714652681262029,0.3614191213889006,0.2179838510712711,10.361628245997965,-0.9742217191601696,0.2603579152083307,-0.8184791691592871
2.04,0.6292504094168017,-0.4387416314035639,1.796038283764424,0.089605421503032,0.1097222297833132,0.0566249024027954,-0.459242203574167,0.9526880767799564,-0.3078301183467276,0.6333300631435992,-0.4471005723258693,1.7985947231249937,-0.5190635109425034,0.9478650193135846,-0.2919949442513525,0.4823852890442847,0.1473226982853182,-0.4345925047344434,0.1487311147168407,10.374578090919384,-0.9731515402654336,0.2513269343319452,-0.8222822875924125
2.06,0.6205580166486583,-0.4207699609958024,1.7902072802886673,0.1016264239474705,0.1093892612994394,0.0570660429150565,-0.4559763670629448,0.939218082519,-0.3061435380794488,0.6281394280341741,-0.4376219221327334,1.79567477368248,-0.5300410794198955,0.9446749392371284,-0.2868085943527757,0.6981242484440087,0.1632918255611098,-0.6734997130478204,0.0843290133639401,10.337879109863934,-0.9717210717220056,0.2401951745488255,-0.8277794813534752
2.08,0.611477347677585,-0.4021618691023694,1.7840984842959262,0.1138052691959606,0.1082986437199766,0.0573833296761248,-0.4522982664179257,0.921993476016716,-0.3048712443025528,0.6177581578153241,-0.4186646217464617,1.789834874797453,-0.55199621637468,0.9382947790842164,-0.2764358945556223,0.8829414263813624,0.1839050322509583,-0.8612303251141984,0.0636146888448013,10.298391740524494,-0.9705007808082038,0.2281409394252032,-0.8339232626995248
2.1,0.602473471847744,-0.3839488069897434,1.7780092504472835,0.1246443610872853,0.1062670629420464,0.0574498418158495,-0.4483421687418981,0.9002849969523693,-0.3041166811360589,0.607376887596474,-0.39970732136019,1.783994975912426,-0.5739513533294643,0.9319146189313042,-0.2660631947584688,1.103945353812502,0.1978048838013807,-1.0854239532173404,0.037728158324693,10.293339768993974,-0.9696094731141977,0.2159580361899226,-0.8401831317404599
2.12,0.5935503126692109,-0.3662056236093406,1.7719349553258943,0.1332650350970918,0.1030610017029965,0.0571581610654293,-0.4443236832098202,0.875604038385673,-0.3033046103411714,0.5958978605298847,-0.381069028981564,1.7786737120172569,-0.5959064902842487,0.925534458778392,-0.2556904949613153,1.2509570343525058,0.2009242766038921,-1.2340479283348138,0.0406035397443771,10.334174233903468,-0.9699514701717596,0.2053984577998761,-0.8447917971352678
2.14,0.5851447503379336,-0.3498249984043582,1.7661857363154982,0.1392927203790388,0.0987649741896008,0.0565099524493139,-0.4408422852061557,0.8504050542757339,-0.301856804830443,0.5844188334632954,-0.3624307366029378,1.7733524481220873,-0.6178616272390332,0.91915429862548,-0.2453177951641618,1.2739751499046017,0.1740699001832268,-1.2599492054969574,0.0723902755364186,10.394999054091386,-0.9715579860989604,0.1956477038744899,-0.8480278372287243
2.16,0.5763532939473819,-0.3331083120530095,1.760175295897506,0.1435627342668984,0.0930511517523477,0.0554656347207354,-0.4388250635378267,0.8229218894154252,-0.299155953194245,0.5723909279728365,-0.3439519482281346,1.7682905017218469,-0.6398167641938175,0.9127741384725678,-0.2349450953670083,1.3844566926766204,0.1008610834164508,-1.374158243015433,0.1350425818099021,10.394999054091386,-0.9740050004991088,0.1876504785940763,-0.8496065801311389
2.18,0.5675767751912623,-0.3169517867029061,1.754233595133018,0.1458865251121569,0.0868293452021721,0.0541724144226313,-0.4391619956755016,0.794458571793251,-0.2950346243954231,0.5598141440585079,-0.3256326638571541,1.763487872816535,-0.6617719011486018,0.9063939783196556,-0.2245723955698549,1.438105806603057,-0.0168466068837469,-1.4231658811087122,0.2060664399410938,10.57176860859454,-0.9774976074884362,0.181225353591957,-0.8498951205147898
2.2,0.5587707570455172,-0.3013787262056396,1.7483906497888306,0.1461269937536874,0.0807697996475583,0.0527347741273552,-0.4415795679235088,0.7646770602420064,-0.2894153918323747,0.5456186754074872,-0.2772288581132435,1.7394818639132468,-0.4742495923005912,0.7460756934897231,-0.2607470524883796,1.520163527756857,-0.1208786124003602,-1.4890755775622266,0.280961628152418,10.57176860859454,-0.9817380103389296,0.1758296343978264,-0.8496184239019591
2.22,0.550247394971379,-0.2870317718480122,1.7428635119331717,0.1473177777667726,0.0781693115029754,0.0518916564585469,-0.4551938688414838,0.7460367717241332,-0.292837371093926,0.5456186754074872,-0.2772288581132435,1.7394818639132468,-0.4742495923005912,0.7460756934897231,-0.2607470524883796,1.1667470672571014,-0.6807150458987499,-0.9320144258936623,-0.1710989630775622,10.668913638634876,-0.9806598030053306,0.1749300096869084,-0.8492882426796948
2.24,0.541019418988144,-0.2723672364768831,1.7369829440598594,0.1505723639872119,0.0809766843805038,0.0519560047058442,-0.4661889459937189,0.7210866064897482,-0.294922303331922,0.5456186754074872,-0.2772288581132435,1.7394818639132468,-0.4742495923005912,0.7460756934897231,-0.2607470524883796,1.3672503512924672,-0.5497538576117539,-1.247508261719249,-0.1042466118998025,10.247033206419474,-0.977574525502224,0.1618646109586156,-0.8638154678329406
2.26,0.5316220154609885,-0.2582421706156959,1.7310846835175946,0.1536322590541588,0.0871937830496576,0.0525237840433081,-0.4725369528890885,0.6928876591483113,-0.2947994913966351,0.5408761794844813,-0.2697681011783463,1.736874393388363,-0.4812671116256092,0.7363991178290176,-0.2538895381069709,1.4452447072038015,-0.3174003447684814,-1.4099473670718454,0.0061405967643479,10.247033206419474,-0.9735760349941064,0.1525020196541227,-0.8760301445511818
2.28,0.5226201161026283,-0.2453631870700667,1.725500343448696,0.1555998348356132,0.0945767057332694,0.0532298134157453,-0.4744489235218443,0.6645318132536935,-0.2930136648678413,0.5313911876384695,-0.2548465873085518,1.7316594523385953,-0.495302150275645,0.7170459665076064,-0.2401745093441535,1.4238142474448503,-0.0955985316377888,-1.4177922947308907,0.089291326439686,10.380249197947704,-0.9676848396441132,0.1446224461513669,-0.889054914512504
2.3000000000000003,0.5131455632269869,-0.2323970160157144,1.7196743074867569,0.1563472651179907,0.1025436615730759,0.0539090354225066,-0.4726611529157785,0.6337182207099228,-0.2896130964679366,0.5219061957924577,-0.2399250734387573,1.7264445112888278,-0.5093371889256809,0.6976928151861953,-0.2264594805813362,1.55260867142679,0.0893885303032887,-1.5406796271885348,0.1700284199952384,10.4944163748778,-0.96161528124655,0.139272047415943,-0.9004203005456642
2.32,0.5037443010708089,-0.2200619656788029,1.7139328877946018,0.1551216465715766,0.1096597392994614,0.0543021799466529,-0.4675232074174391,0.6016862517300977,-0.2846863842580412,0.5117194520139441,-0.2259712171350335,1.7219153216772012,-0.5233722275757168,0.6783396638647842,-0.2127444518185188,1.640669081402092,0.2568972749169701,-1.6015984489912538,0.2463356104947661,10.604111592253505,-0.9559454564493692,0.1363187634452827,-0.90992375759737
2.34,0.4949325646179879,-0.2089376866179084,1.7085814656962162,0.1517503666775292,0.115012619665243,0.0542775239527413,-0.4603715854491789,0.57162103450301,-0.2787814501669186,0.5015327082354305,-0.2120173608313095,1.7173861320655743,-0.5374072662257526,0.658986512543373,-0.1990294230557014,1.5731586302002196,0.3575810984130095,-1.503260861354383,0.2952467045561319,10.71253645310844,-0.9508450606517148,0.1359677197199441,-0.9176463586729284
2.36,0.4858169080731722,-0.197815228276882,1.703087461909298,0.1467309245003383,0.1188796470441336,0.0538512926148381,-0.4516277952400201,0.5426231304172351,-0.2708156002326826,0.490995088490666,-0.1985473333106209,1.713199818173018,-0.5514423048757885,0.6396333612219619,-0.185314394292884,1.565876011825612,0.4371895104579415,-1.449895204288748,0.3982924967117995,10.795497523369704,-0.9472755110633128,0.1376979354433385,-0.9226905407854205
2.38,0.4768856042539516,-0.1872534815069738,1.6977721498644915,0.1409873750133598,0.1208669511566701,0.0530768855974141,-0.4421371186255844,0.5153905032096503,-0.2610730181479072,0.4801065927796505,-0.1855611345729675,1.7093563799995322,-0.5654773435258243,0.6202802099005508,-0.1715993655300666,1.5220108679849094,0.474533830721785,-1.3616313603792396,0.4871291042387704,10.89024978852558,-0.945561548872086,0.1403594053981201,-0.9252057651651387
2.4,0.4685789007850232,-0.1777088872494527,1.6929181211956212,0.1352250251292656,0.1210894174898166,0.0520765529929055,-0.4328788285286493,0.4909416798614091,-0.2503298320396843,0.4547787483226724,-0.1614839563464913,1.6847184989570962,-0.4303930394455226,0.4913949360964892,-0.2288026685857391,1.413220565223654,0.4629145048467536,-1.222441167412061,0.5371593054111473,10.982768154401128,-0.9455142557344242,0.1437208305155982,-0.9257266571901258
2.42,0.4599085197633489,-0.1681559969365846,1.6878919359121298,0.1283329831619001,0.1227435962006674,0.0511506429221489,-0.4345167614814763,0.4663705213392453,-0.2535169230296641,0.4547787483226724,-0.1614839563464913,1.6847184989570962,-0.4303930394455226,0.4913949360964892,-0.2288026685857391,1.2415536682496546,-0.0818966476413468,-1.2285579261081896,-0.1593545494989912,11.06700260234902,-0.9340187972974472,0.1478929121838302,-0.9352581537297976
2.44,0.4512304266372334,-0.1590580212287374,1.6828063940320466,0.120843917259397,0.1281089748783261,0.0506387755836239,-0.4326795825943255,0.444933929294768,-0.2546144901855143,0.4547787483226724,-0.1614839563464913,1.6847184989570962,-0.4303930394455226,0.4913949360964892,-0.2288026685857391,1.0771575539427116,0.0918589443575396,-1.0718296022238616,-0.0548783577925121,10.357099510772969,-0.9308089645920156,0.1497564610101478,-0.9421749320407056
2.46,0.4426364088128333,-0.1503649650605187,1.6777392607608004,0.1135417640521763,0.1352054990949557,0.050305803551464,-0.426501416547543,0.4256137874408107,-0.2520763362935758,0.4504748179282172,-0.1565700069855264,1.6824304722712389,-0.4280442236095102,0.486595822673857,-0.2223485986733055,1.022105476623882,0.3089083023391226,-0.966007092697868,0.1269076945969255,10.357099510772969,-0.9258803664561536,0.1536726575667801,-0.9481025485416096
2.48,0.4346244249910819,-0.1424476017574277,1.672997384445459,0.1070531903112505,0.1422436694365853,0.0500084524205545,-0.4170214145424453,0.4088361261913842,-0.2472302243496515,0.4418669571393067,-0.1467421082635966,1.677854418899524,-0.4233465919374855,0.4769975958285926,-0.2094404588484382,0.9935355504336606,0.4740001002548843,-0.8388830624713212,0.2423055971962143,10.541613958171183,-0.9193558962808422,0.158117890873265,-0.9546766987032768
2.5,0.4264176613385133,-0.1344429046855427,1.6681244118104346,0.1007886295840035,0.1489916337125398,0.0496203856815221,-0.4040063784035599,0.3925895553315491,-0.2402647508251666,0.4332590963503963,-0.1369142095416668,1.6732783655278094,-0.4186489602654608,0.4673993689833281,-0.196532319023571,1.0975655468130778,0.6507518069442692,-0.8123285429917554,0.3482736762242464,10.689280138852157,-0.912396809711556,0.1623100525542425,-0.9612031754104008
2.52,0.4185001903611916,-0.1267498152480921,1.6634093769171392,0.095123780150011,0.1543453106592938,0.0490993547700477,-0.388442332160179,0.3775588235695423,-0.2316238820289973,0.424886117145087,-0.1275662221620003,1.669347719147338,-0.413951328593436,0.4578011421380636,-0.1836241791987037,1.16493245117487,0.778202312169049,-0.7515365881003433,0.432043439808466,10.811862245581324,-0.906445191219062,0.1660396736224717,-0.966429461299956
2.54,0.4109114268672204,-0.1193454587977673,1.6588750151937344,0.0900138833810086,0.1579142780591265,0.048425985065205,-0.3713434662135654,0.3636429580292044,-0.2222647075895801,0.4165131379397778,-0.1182182347823337,1.6654170727668665,-0.4092536969214113,0.4482029152927992,-0.1707160393738364,1.1975147980134353,0.8549432973306764,-0.6957932770168956,0.4679587219708583,10.915863327487386,-0.9010434906639548,0.1696489545826818,-0.9708319493052108
2.56,0.4040274105593701,-0.1125610442139809,1.6547474231978394,0.0855974013540833,0.159519466968062,0.0476478007469792,-0.3543206482497402,0.3512297362321595,-0.2126891886091634,0.4082575995262692,-0.1091102030737987,1.6618091298820168,-0.4045560652493866,0.4386046884475348,-0.1578078995489692,1.1571030318822983,0.8511408981912633,-0.6206610898522452,0.4787759490208335,10.966206967782457,-0.8973325988324816,0.1731944734193154,-0.9732745056602308
2.58,0.3971327199604118,-0.1056656350984907,1.650607650665716,0.0813536082545206,0.1593464652371032,0.0466997290823879,-0.3361215696005866,0.339009572487598,-0.201748143174624,0.4001195019045612,-0.1002421270363954,1.6585238904927886,-0.3998584335773619,0.4290064616022704,-0.144899759724102,1.2249952457281486,0.90995393245768,-0.6110081872280709,0.5470522717269694,11.016056122314694,-0.8959864708858692,0.1766797086020449,-0.9733074943999172
2.6,0.3906062071368071,-0.0990063103137148,1.6466968484764213,0.0774993673467046,0.1570782313854063,0.0456203696350405,-0.317608848572361,0.3275562930864868,-0.1898666614984526,0.3803266414803825,-0.0887151564741108,1.6405202435069848,-0.3413402314564928,0.3249570547754818,-0.1585361019158121,1.2400282816633867,0.9256360514112772,-0.5726639700555591,0.594074083808574,11.071094844010076,-0.8970277064529352,0.1798961618772684,-0.971038833462436
2.62,0.3847568390511781,-0.0928773166333079,1.6431060666599708,0.0741511052297251,0.1519190952644815,0.0444053175918644,-0.2995829759231181,0.3181639785903468,-0.1886679769043836,0.3803266414803825,-0.0887151564741108,1.6405202435069848,-0.3413402314564928,0.3249570547754818,-0.1585361019158121,1.018067410731217,0.9012936324621468,-0.4696157248070043,0.0599342297034496,11.120890469789629,-0.8974963969704653,0.1826636030008166,-0.969105339578158
2.64,0.3789345485228199,-0.0866142888334939,1.6393711453864206,0.0709531977566037,0.1432571556896712,0.0429427679297633,-0.2841253149335406,0.3086220004993212,-0.1846550162476072,0.3803266414803825,-0.0887151564741108,1.6405202435069848,-0.3413402314564928,0.3249570547754818,-0.1585361019158121,0.9301780506859324,0.7728830494788758,-0.4770989045512763,0.2006480328388168,10.45320169781462,-0.9025566508603802,0.1848036845127681,-0.9635221610205132
