t,x,y,z,roll,pitch,yaw,v_x,v_y,v_z,ref_x,ref_y,ref_z,ref_v_x,ref_v_y,ref_v_z,a_com,a_x,a_y,a_z,thrust,wind_x,wind_y,wind_z
0.0,0.7137794024148815,1.6516911450136889,2.081222760897472,0.021142642364755,0.0994516776426693,0.04147155035615,0.0009402076250648,-0.0036646026420732,-0.0001877292288116,0.7138134210051622,1.6514952434428125,2.081215003902567,-0.0989166065899863,-0.1057781903289595,-0.1002400669056261,0.1893973677606862,0.0470103812532437,-0.1832301321036629,-0.0093864614405805,10.25912594836791,-0.940676214357723,0.2593187907245536,-0.8783464166301093
0.02,0.7139557982874891,1.6518899183575295,2.081120767119932,0.0283260354655136,0.0935722774694543,0.0418291087988364,0.0163493525159034,0.0193181903729992,-0.0105867312815373,0.7138134210051622,1.6514952434428125,2.081215003902567,-0.0989166065899863,-0.1057781903289595,-0.1002400669056261,1.4779967563674814,0.7704572445419307,1.1491396507536276,-0.5199501026362845,10.258297305387714,-0.9531014397606448,0.2579309919929796,-0.8618200505913977
0.04,0.7143948765799182,1.6523264230051415,2.080719563476674,0.0426591424926072,0.0771511765728788,0.0422019849303058,0.0253561667494695,0.0222945930598484,-0.0292727105503627,0.7138134210051622,1.6514952434428125,2.081215003902567,-0.0989166065899863,-0.1057781903289595,-0.1002400669056261,1.047792318194816,0.450340711678303,0.1488201343424582,-0.9342989634412736,9.141318131169555,-0.956284901362746,0.247158309039211,-0.8590506517075167
0.06,0.7148995700038108,1.6527351956220966,2.079917702609237,0.0575030123771032,0.0546058251382142,0.0420044933377189,0.0236036669671024,0.0180300771165461,-0.0499420790609919,0.7128242549392624,1.6504374615395228,2.08021260323351,-0.1189166068880095,-0.1257781906269827,-0.1202400672036493,1.0588674921184256,-0.0876249891183546,-0.2132257971651166,-1.033468425531459,9.141318131169555,-0.9659225764687404,0.2331884663979432,-0.8536282107790076
0.08,0.7152515700230089,1.6530061090554955,2.078767755417758,0.0710914721342965,0.0311921535466194,0.0412869176030758,0.0129208394518837,0.0103930307840026,-0.0701124641026216,0.7108459228074626,1.6483218977329437,2.0782078018953984,-0.1589166074840559,-0.1657781912230292,-0.1602400677996958,1.2034239829886708,-0.5341413757609355,-0.3818523166271731,-1.0085192520814823,9.05568203477469,-0.9803140484140406,0.216483936969799,-0.8461110301277169
0.1,0.715314182071925,1.6531020767975773,2.0771362657505104,0.0847400100149918,0.0072555006395491,0.0401395148335871,-0.0066345751333266,-0.0007294250831356,-0.0920653710786707,0.7088675906756629,1.6462063339263644,2.076203000557286,-0.1989166080801024,-0.2057781918190756,-0.2002400683957422,1.5716658270883874,-0.977770729260522,-0.556122793356917,-1.097645348802459,9.043221576065209,-0.9958312541156268,0.1982649982376349,-0.8395156819571006
0.12,0.7149069903086162,1.6529444475231672,2.0750601288246093,0.0977381118819803,-0.0137761454573142,0.0388288394624897,-0.0331977253639154,-0.0147798648433399,-0.1145277657628043,0.7048892585140608,1.642090770089983,2.072198199189371,-0.2389166086761488,-0.2457781924151221,-0.2402400689917886,1.875883113745196,-1.3281575115294366,-0.7025219880102159,-1.1231197342066783,9.050314077453097,-1.0104198355520493,0.1804568221037109,-0.8343441427711982
0.14,0.71397935988586,1.6525086722314448,2.0726646486106923,0.1095080604598746,-0.0299424015527756,0.0376381887389019,-0.0630156892700509,-0.0306350197484039,-0.1365569488986293,0.7009109263524588,1.6379752062536015,2.068193397821456,-0.2789166092721953,-0.2857781930111686,-0.2802400695878352,2.0160492418359293,-1.490898195306774,-0.7927577452531979,-1.1014591567912513,9.110063869594342,-1.0241229808727976,0.1612438619402967,-0.8316909288429883
0.16,0.7123575985343631,1.6516987649135848,2.069683354376949,0.1213050935624718,-0.042434507334284,0.0366196604530021,-0.0975113954678561,-0.0497976811432349,-0.1604632017093769,0.6959325941759555,1.6328596424023187,2.06318859643864,-0.3189166098682418,-0.325778193607215,-0.3202400701838816,2.3068757342288846,-1.724785309890263,-0.9581330697415492,-1.1953126405373784,9.110063869594342,-1.0348820742203653,0.1417106034177351,-0.8331644521761776
0.18,0.7100136241570685,1.6504795903626075,2.066220206095718,0.1325050701458779,-0.04979248768168,0.0360317957336781,-0.1350374178709352,-0.0714137970954499,-0.1847009999181775,0.6899542619845512,1.626744078536135,2.057183795040922,-0.3589166104642882,-0.3657781942032614,-0.360240070779928,2.4813956195387967,-1.876301120153953,-1.0808057976107486,-1.2118899104400296,9.12752938698577,-1.0413554972609576,0.1253625890316426,-0.8364439512863178
0.2,0.7070744664868374,1.6488894448924525,2.0624791650340737,0.1422922344525238,-0.0514205064714078,0.0360544118844719,-0.1718367455751658,-0.0948687777032237,-0.2077976943620113,0.7032617532635217,1.646908900507835,2.056985156099809,-0.2350374193610513,-0.171413798585566,-0.2847010014082937,2.4686959761310305,-1.839966385211528,-1.1727490303886894,-1.1548347221916888,9.176543505959671,-1.0461628331913655,0.1089878489385039,-0.8420792613264286
0.22,0.703205362855314,1.646530562859395,2.0582457823288047,0.1466530420523137,-0.0469130864510133,0.0365373508506258,-0.2125888870003145,-0.1377714702069546,-0.2127871959737735,0.7032617532635217,1.646908900507835,2.056985156099809,-0.2350374193610513,-0.171413798585566,-0.2847010014082937,2.96912157933066,-2.03760707125744,-2.145134625186546,-0.2494750805881115,9.209325612497196,-1.0521001138431263,0.0958533759684454,-0.8481671035690374
0.24,0.6985707951871519,1.643383631191972,2.0539538560923187,0.1439461623557975,-0.0367574581876884,0.0373430942953946,-0.2480958300709831,-0.1737877579944809,-0.2161412917261469,0.7032617532635217,1.646908900507835,2.056985156099809,-0.2350374193610513,-0.171413798585566,-0.2847010014082937,2.534347031551574,-1.7753471535334298,-1.8008143893763178,-0.1677047876186693,10.603954554717347,-1.051522484880136,0.0964905651446461,-0.8510386721720581
0.26,0.6932870603318351,1.6395886828637856,2.049566346083604,0.137906396806404,-0.0235307296041099,0.0382972254923759,-0.2779143904922876,-0.2030936595056735,-0.2222343134774251,0.7009113790699112,1.6451947625219794,2.054138146085726,-0.2550374196590745,-0.1914137988835892,-0.3047010017063169,2.112526522344898,-1.4909280210652214,-1.4652950755596292,-0.3046510875639091,10.378121653552626,-1.0458714045684956,0.0993578458720823,-0.8600384006145927
0.28,0.6877677527584597,1.63549160657384,2.0452570899684304,0.1314124521671154,-0.0099115682554378,0.0392065471202679,-0.3011978146488823,-0.2264794293625652,-0.2310118124453231,0.6962106306826902,1.641766486550268,2.0484441260575603,-0.295037420255121,-0.2314137994796357,-0.3447010023023633,1.707378517191523,-1.164171207829734,-1.169288492844582,-0.4388749483949017,10.107094581470848,-1.0374054026173216,0.1023758455048312,-0.8726095996021357
0.3,0.6815294793802511,1.6307347797959526,2.0405092831694893,0.1248655282455008,0.0041217477490477,0.0400434496597289,-0.3210521910295635,-0.2478816870872157,-0.243481683523024,0.6915098822954692,1.6383382105785569,2.0427501060293944,-0.3350374208511675,-0.2714138000756821,-0.3847010028984098,1.5872543761733635,-0.9927188190340636,-1.0701128862325242,-0.6234935538850461,9.86291137858916,-1.0273355741200296,0.1052057797506579,-0.8865706486976284
0.32,0.6749372564522217,1.6255750819767878,2.0354742399960357,0.1190674384272535,0.0168123231019511,0.0406747700550268,-0.3370292228948268,-0.2670876203062062,-0.2594289325385177,0.6848091338784458,1.632909934577043,2.0350560859714264,-0.3750374214472139,-0.3114138006717286,-0.4247010034944562,1.4819313152084028,-0.7988515932631612,-0.960296660949525,-0.7973624507746829,9.457969615816182,-1.0175682436260756,0.1077024568464077,-0.8995863462678617
0.34,0.6680579404444317,1.620048144955504,2.0300987211047525,0.1141318451296805,0.0275669654255766,0.0410660964542518,-0.3500568152998559,-0.2847743428382849,-0.2773841284637485,0.6781083854614225,1.6274816585755294,2.0273620659134584,-0.4150374220432604,-0.3514138012677751,-0.4647010040905027,1.4185621051893875,-0.6513796202514577,-0.8843361266039379,-0.897759796261538,9.457969615816182,-1.0084539559289518,0.1088307545053652,-0.912147776336274
0.36,0.6612978066122162,1.6144723344407563,2.0246422549150536,0.1099941437763842,0.0358778855813842,0.0412115878823358,-0.3608790252286132,-0.3012293756232805,-0.2961118418430568,0.6704076370294979,1.6210533825591145,2.018668045840589,-0.4550374226393068,-0.3914138018638215,-0.5047010046865491,1.3588741480678934,-0.5411104964378632,-0.8227516392497802,-0.9363856689654172,9.355676402379686,-0.9994704878918552,0.1090975966915275,-0.9249397977782192
0.38,0.6539708965468757,1.6082731883582029,2.0184981608204997,0.1059805987039032,0.0428171528234648,0.0411531489449885,-0.3712144306320322,-0.3177559364027592,-0.3174020487583509,0.6617068885826722,1.613625106527799,2.0089740257528184,-0.4950374232353532,-0.4314138024598679,-0.5447010052825956,1.4432781493416842,-0.516770270170952,-0.8263280389739336,-1.0645103457647047,9.276881389844675,-0.991710700959568,0.1091568599561329,-0.9361556241521796
0.4,0.6464452229820185,1.601750874555737,2.011912847015787,0.1022213145055238,0.0481415118880112,0.0409135188946525,-0.3808625257501089,-0.3335790906388335,-0.3400803849872272,0.6354101750152741,1.592385391538065,2.002628058382581,-0.4712144321221483,-0.4177559378928753,-0.417402050248467,1.4643811692110889,-0.4824047559038341,-0.7911577118037166,-1.1339168114438136,9.200490593717404,-0.985493065486915,0.1091069124776024,-0.945401577276958
0.42,0.6391575989892767,1.5952516363008415,2.0055060820788646,0.0991528089250568,0.0512195470560058,0.0405014209953207,-0.386019136531781,-0.3499186589050872,-0.3332193604441127,0.6354101750152741,1.592385391538065,2.002628058382581,-0.4712144321221483,-0.4177559378928753,-0.417402050248467,0.922829593779966,-0.2578305390836033,-0.8169784133126828,0.3430512271557218,9.141914633709348,-0.9911319720635604,0.1103192043106238,-0.9415162538599045
0.44,0.631381848323158,1.5880893552290574,1.9988753389911105,0.0968158808224684,0.0518479894802632,0.039862420822597,-0.3914006617517764,-0.3656162013590071,-0.3306458405624387,0.6354101750152741,1.592385391538065,2.002628058382581,-0.4712144321221483,-0.4177559378928753,-0.417402050248467,0.8396378049007752,-0.2690762609997732,-0.7848771226959955,0.1286759940837045,10.459718259369764,-0.9908470596672851,0.1118786434351086,-0.9415644525643636
0.46,0.6234908155333794,1.5806149101784654,1.9922302233809628,0.0952267133616482,0.0498969717264431,0.0390234956932094,-0.3975812112028132,-0.3810682314076926,-0.3342352271905359,0.6306980306940526,1.5882078321591362,1.9984540378800968,-0.4912144324201715,-0.4377559381908986,-0.4374020505464902,0.8512463223241474,-0.3090274725518399,-0.7726015024342753,-0.1794693314048634,10.459718259369764,-0.9922435380901526,0.1120655284026137,-0.9406894651101864
0.48,0.6154632776146076,1.5728379112285875,1.985458471853406,0.0941749962894821,0.0455875232298206,0.0379980243512909,-0.405133166554567,-0.3959121713594823,-0.342739481221092,0.6212737420516096,1.5798527134012788,1.990105996875128,-0.531214433016218,-0.477755938786945,-0.4774020511425367,0.9350092506807776,-0.3775977675876896,-0.7421969975894865,-0.4252127015278051,10.122069511073278,-0.9948718355465592,0.111183833188328,-0.9392005930727332
0.5,0.6076711577818128,1.565179410969165,1.9788340271813132,0.093708240576644,0.0399367015906121,0.0369144380570958,-0.4149918035659715,-0.4095588456383449,-0.3541461185945413,0.6118494534091666,1.571497594643421,1.981757955870158,-0.5712144336122644,-0.5177559393829915,-0.5174020517385831,1.0167790059366066,-0.4929318505702218,-0.6823337139431285,-0.5703318686724662,9.871417903226757,-0.9987265685830128,0.1092467171417236,-0.937124086230519
0.52,0.5992369481201474,1.5568421341740013,1.9715992628308172,0.0939130737071926,0.0333564039649092,0.0357596670069283,-0.4281454442639363,-0.4235045762387164,-0.3688545388014,0.6004251647369213,1.5611424758557615,1.9714099148353863,-0.6112144342083109,-0.5577559399790379,-0.5574020523346296,1.2081383308326314,-0.657682034898241,-0.6972865300185732,-0.7354210103429348,9.689201821600363,-1.0038219478051684,0.1066158150563545,-0.9339395852112268
0.54,0.5905130476521996,1.548225058660052,1.9640581401728456,0.0949254450536244,0.0269062532650096,0.0346638126595093,-0.4437436834852535,-0.437579086928836,-0.3845476090978374,0.5890008760646761,1.5507873570681017,1.9610618738006147,-0.6512144348043574,-0.5977559405750844,-0.597402052930676,1.3111725413734203,-0.77991196106586,-0.7037255345059806,-0.7846535148218675,9.545053296595142,-1.0094896091736378,0.1032014617982054,-0.9303575279566472
0.56,0.5814483717356862,1.5393110189614911,1.9561952161869576,0.0963652161818503,0.0214050234772997,0.0336736996445502,-0.4620181023262368,-0.4530657153505475,-0.4009526012650056,0.5765765873775296,1.5394322382655408,1.949713832750942,-0.6912144354004037,-0.6377559411711308,-0.6374020535267224,1.451648900261956,-0.9137209420491648,-0.7743314210855778,-0.8202496083584088,9.511217061211935,-1.013627261977203,0.0992978769822283,-0.9286596145149492
0.58,0.5724745801189169,1.5305434359464594,1.9484142484994869,0.0975615384387236,0.0179333954731492,0.0328787562953772,-0.481720657291985,-0.4689554748591359,-0.4172705657730732,0.563152298675482,1.5270771194480786,1.937365791686368,-0.7312144359964502,-0.6777559417671772,-0.6774020541227689,1.5057814375812133,-0.9851277482874092,-0.7944879754294198,-0.8158982254033803,9.496054397571244,-1.0161868566077004,0.0951849511229535,-0.9289714024010076
0.6,0.562606503342439,1.5209802718519747,1.9398782624936317,0.0981975288485189,0.0169932969087918,0.0322570466146388,-0.5038399794466418,-0.4864452400991652,-0.4354840432968502,0.5483885472543177,1.5070956622035026,1.9275507202108333,-0.5721858900218968,-0.5689554763492521,-0.5172705672631893,1.678456928433045,-1.105966107732842,-0.8744882620014605,-0.91067387618885,9.479252497129892,-1.0174575373704375,0.0917808644193236,-0.930540675913795
0.62,0.5522734738118666,1.5109939339936165,1.931251993376216,0.0966085095157011,0.0199683752199706,0.0318611371261051,-0.5278709638578853,-0.5110192508615072,-0.4246299139870204,0.5483885472543177,1.5070956622035026,1.9275507202108333,-0.5721858900218968,-0.5689554763492521,-0.5172705672631893,1.8022086032113755,-1.2015492205621758,-1.2287005381171028,0.5427064654914909,9.432982030039057,-1.021226123564278,0.0907141918276904,-0.9292028866144154
0.64,0.5414931350924574,1.5005481731854542,1.9228548257068048,0.0924001277068174,0.0268635425266043,0.0316471736246216,-0.5484399678223798,-0.5315758801473419,-0.4159979676151538,0.5483885472543177,1.5070956622035026,1.9275507202108333,-0.5721858900218968,-0.5689554763492521,-0.5172705672631893,1.5167147308025706,-1.028450198224723,-1.027831464291734,0.4315973185933297,10.896286627816153,-1.017603703180848,0.0942075844688136,-0.9323136504585152
0.66,0.5309065167700474,1.4902870218997286,1.91496603669524,0.0877703785171611,0.0354922734896753,0.0315621297439627,-0.56451468315147,-0.5473399722658968,-0.414767407337946,0.5426666883540988,1.50140610744001,1.9223780145382012,-0.5902789365678791,-0.5889554766472753,-0.5372705675612125,1.1274055967457033,-0.8037357664545108,-0.7882046059277448,0.0615280138603874,10.896286627816153,-1.010771921039317,0.0978732654027285,-0.9394403493583228
0.68,0.5194705583296455,1.479191945219403,1.906628151784848,0.0831032630947879,0.0454680671937878,0.0315251829527887,-0.5778904751267483,-0.5612724500279058,-0.4193540970005351,0.5312229705536609,1.490026997913025,1.9120326031929376,-0.6264650296598439,-0.6289554772433218,-0.577270568157259,0.9925515976709922,-0.6687895987639136,-0.6966238881004505,-0.2293344831294536,10.440769571557212,-1.0030208915634369,0.1012170442020364,-0.9476795324498892
0.7000000000000001,0.5078008883913466,1.4678390872228315,1.898135283910743,0.079027756872709,0.0553512490731139,0.0314827149062402,-0.5881791693791633,-0.5733952280025144,-0.4296971950790978,0.5197792527532229,1.47864788838604,1.9016871918476737,-0.6626511227518086,-0.6689554778393683,-0.6172705687533054,0.9484179631155514,-0.5144347126207482,-0.6061388987304295,-0.5171549039281381,10.073577662788011,-0.9948471985185444,0.1036074287271256,-0.9566256975293964
0.72,0.4959532348216742,1.4562580287163098,1.8893881986436143,0.0756476180696324,0.0644588944326864,0.0313962371778385,-0.5955809580272701,-0.5836807418229164,-0.4437601440081353,0.5065262302981868,1.4652687788292524,1.889341780472608,-0.6988372158437733,-0.7089554784354147,-0.6572705693493519,0.9464998710005696,-0.3700894324053405,-0.5142756910200996,-0.7031474464518711,9.771518492068935,-0.9862116324440756,0.1052314591004552,-0.9663344456712776
0.74,0.4845753438438073,1.445064828239938,1.880779175975243,0.0731402125706396,0.0719708341174149,0.031256778488774,-0.6013057354817873,-0.5936286063492031,-0.4609818106974027,0.4932732078431505,1.451889669272465,1.8769963690975415,-0.7350233089357381,-0.7489554790314612,-0.6972705699453984,1.0347933236802973,-0.2862388727258635,-0.4973932263143354,-0.8610833344633723,9.5359131867026,-0.9782903142829262,0.106011632678326,-0.97545169801057
0.76,0.4725004011542867,1.433085800397059,1.8713612584127317,0.0709559603805439,0.0785694246653569,0.0310331152760588,-0.6058442161239551,-0.6037558422306407,-0.4800287496059657,0.4791155330608153,1.4375105597007765,1.8636509577075744,-0.7712094020277027,-0.7889554796275076,-0.7372705705414447,1.1022075518296686,-0.2269240321083887,-0.5063617940718801,-0.9523469454281508,9.413414673330408,-0.971067368482113,0.1061397472024765,-0.9840508105696196
0.78,0.4603441792700203,1.420905909179455,1.861544742645904,0.0689227077896741,0.08394911929853,0.0307250416604722,-0.6095344386520262,-0.6136695568441825,-0.5006804821847646,0.4640532059511809,1.4221314501141868,1.849305546302706,-0.8073954951196675,-0.828955480223554,-0.7772705711374912,1.1601654389047868,-0.1845111264035526,-0.4956857306770867,-1.032586628939941,9.26258915966264,-0.96505376976335,0.1060688031729109,-0.9913903477596112
0.8,0.4487331072081926,1.4091548354596857,1.8518237124719552,0.067038394697049,0.0880803376126257,0.0303631200431012,-0.6124932162714483,-0.6227326759888767,-0.5215629218781183,0.429867457337419,1.3902224313372458,1.8365107185366656,-0.6088824077849674,-0.7136695583342986,-0.5311809183864562,1.1477922080876293,-0.1479388809711046,-0.4531559572347132,-1.044121984667684,9.26258915966264,-0.9593988316442112,0.105807888629914,-0.9985668101019036
0.8200000000000001,0.4364180449220848,1.3965603884816575,1.841529008609456,0.0645581194056506,0.0938468571067002,0.0300352203449233,-0.6183045606458667,-0.6359817796090861,-0.5048106047261212,0.429867457337419,1.3902224313372458,1.8365107185366656,-0.6088824077849674,-0.7136695583342986,-0.5311809183864562,1.1067413881957993,-0.2905672187209218,-0.6624551810104684,0.8376158575998549,9.200754640296507,-0.9552750654841924,0.1056624636867919,-1.004751282280349
0.84,0.4240252068457099,1.3837218934377573,1.831604246653625,0.0617188353156273,0.102556427795339,0.0298574674569726,-0.6201895061344311,-0.6470673164240996,-0.4889952539623237,0.429867457337419,1.3902224313372458,1.8365107185366656,-0.6088824077849674,-0.7136695583342986,-0.5311809183864562,0.9702673159416276,-0.0942472744282219,-0.5542768407506782,0.790767538189871,11.322892532748485,-0.948678307642388,0.1087464210631006,-1.0096957204237214
0.86,0.4116313484483583,1.3706828677450056,1.821931783652172,0.0591726492503431,0.1126023662606174,0.0297622570987469,-0.61868602595786,-0.6563468873166547,-0.4790403207110175,0.4237786332595694,1.3830857357539028,1.8311989093528007,-0.6087520016115556,-0.7336695586323217,-0.5372810056267945,0.684601315783973,0.0751740088285546,-0.4639785446277522,0.4977466625653098,10.979656862911725,-0.9398740839710824,0.1111319107148662,-1.0170410143991966
0.88,0.3999123305978361,1.3581353994614231,1.8128831649313972,0.057264143395762,0.1225631086174795,0.0297148169135724,-0.6146604480513836,-0.6640992153475636,-0.4739667410472633,0.41160098510387,1.368812344587217,1.820575290985072,-0.6084911892647321,-0.7736695592283682,-0.5494811801074712,0.5050868192310766,0.2012788953238198,-0.3876164015454431,0.2536789831877106,10.979656862911725,-0.9291502747123552,0.1128030192413978,-1.0264139305093938
0.9,0.3876845456188043,1.344777677342479,1.8034266673219332,0.0559353356317086,0.1330108434611371,0.029697376521135,-0.6080350858997053,-0.671317945871634,-0.4721326487391823,0.3994233369481706,1.3545389534205308,1.809951672617343,-0.6082303769179086,-0.8136695598244147,-0.5616813545881478,0.4984209782267368,0.3312681075839152,-0.3609365262035202,0.0917046154040479,10.716268882884831,-0.917575156241445,0.1135517893599968,-1.0367269963253822
0.92,0.3756120272042818,1.3312853366448725,1.7939718325262304,0.05557827732928,0.1431577474837595,0.0297259565612906,-0.5992660186990522,-0.6776934203532738,-0.4734753879695761,0.3872587294098125,1.3382655622240425,1.79871804552558,-0.6079695645710851,-0.8536695604204612,-0.5738815290688245,0.5462283475718995,0.438453360032659,-0.3187737240819943,-0.067136961519687,10.520235148917893,-0.9062027215974277,0.1132330298821765,-1.046930205838035
0.94,0.3637390106589585,1.3176695010206183,1.7844826766303172,0.0564075493725663,0.1528557476613105,0.0298175135574864,-0.5882208692548118,-0.6836764351445541,-0.4754212907153786,0.3750941218714543,1.3219921710275542,1.787484418433817,-0.6077087522242616,-0.8936695610165076,-0.5860817035495012,0.635567324786297,0.5522574722120199,-0.2991507395640136,-0.0972951372901237,10.367258756599767,-0.8944126588884923,0.1116747426942996,-1.057529542654742
0.96,0.3526848974454296,1.3046149255513613,1.7754295524269856,0.0581949486560309,0.1615838143555709,0.0299607732314095,-0.5757206070969201,-0.69023642124047,-0.4774820889999118,0.3629360346417667,1.3047187798161646,1.7759457869800372,-0.6074479398774381,-0.933669561612554,-0.5982818780301777,0.71333172711608,0.6250131078945842,-0.3279993047957952,-0.1030399142266602,10.359524689071804,-0.882866850986903,0.1089984731382599,-1.0678380581285851
0.98,0.3413259644766167,1.2907273548459492,1.7658550849277717,0.0607003278704823,0.1702370745303743,0.0301440714814389,-0.5606095129193117,-0.698369390300265,-0.4799040582585182,0.3507844677207497,1.286445388589874,1.7641021511642403,-0.6071871275306145,-0.9736695622086006,-0.6104820525108544,0.8665395087094505,0.7555547088804182,-0.4066484529897496,-0.1210984629303191,10.371354341731603,-0.8715936738040044,0.1056232748627582,-1.0778059728088762
1.0,0.330290459475108,1.2766569581776586,1.7562293301515308,0.0630839056663659,0.1783069168979745,0.0303039497176979,-0.5435130077248927,-0.7081749966484856,-0.4825917619563118,0.3132954888306511,1.255808885330936,1.7418598820148457,-0.5403551244677355,-0.7983693917903811,-0.4848104774574782,0.9945654288258166,0.8548252597209482,-0.4902803174110293,-0.1343851848896821,10.38200088137637,-0.8604871657720975,0.1022473768693182,-1.0875280314023452
1.02,0.3196538428880815,1.2623129473996055,1.7466611099320777,0.0629148431408476,0.1852618342979936,0.0302255267625623,-0.5210022337095643,-0.7247579593526007,-0.474077173608418,0.3132954888306511,1.255808885330936,1.7418598820148457,-0.5403551244677355,-0.7983693917903811,-0.4848104774574782,1.4613587971040392,1.1255387007664208,-0.8291481352057539,0.4257294173946907,10.394188534533896,-0.8537312387328723,0.1014250311049735,-1.0934190968082516
1.04,0.3099867319914953,1.248411244639317,1.7377305070698452,0.0598456549277419,0.1902382308889739,0.0298373742367053,-0.4978038646945604,-0.7373618571358196,-0.466437086012382,0.3132954888306511,1.255808885330936,1.7418598820148457,-0.5403551244677355,-0.7983693917903811,-0.4848104774574782,1.374221145559573,1.159918450750194,-0.6301948891609455,0.3820043798018008,11.149145911119376,-0.844934070677393,0.1038362387160725,-1.1003531062018568
1.06,0.3002974506834712,1.2335640449548106,1.728475774442514,0.0554867561264596,0.1935005727781923,0.0292211907632296,-0.4724380052155583,-0.7464868612233743,-0.4594884100933361,0.3078919375859738,1.247825191413032,1.737011777240271,-0.5363042467774203,-0.8183693920884043,-0.4857917612972702,1.391920098042896,1.2682929739501052,-0.4562502043777339,0.3474337959522927,11.085502827849268,-0.8382463125423281,0.1075713713346956,-1.1053752434010518
1.08,0.2911228929335333,1.218563518463885,1.7193478756063296,0.0514415226834994,0.1945348318256677,0.0285019027229747,-0.4464873864571852,-0.7532214165080762,-0.4536450646474541,0.2970848350966191,1.2318578035772243,1.7273155676911212,-0.5282024913967898,-0.8583693926844508,-0.4877543289768543,1.3719817189243484,1.297530937918656,-0.3367277642350952,0.2921672722941026,11.017634598929362,-0.8344462717149848,0.110870972335899,-1.1081620857759986
1.1,0.2828907525319362,1.2042015159438817,1.7107785075474566,0.0483286387470666,0.1932830381583648,0.0277630523334739,-0.4214954180035561,-0.7584238515105576,-0.4486817279747346,0.2862777326072644,1.2158904157414168,1.7176193581419716,-0.5201007360161592,-0.8983693932804973,-0.4897168966564383,1.3002870145365937,1.2495984226814527,-0.2601217501240704,0.248166833635971,10.959681053032,-0.8333812807530042,0.1135943183726532,-1.1089187149350073
1.12,0.2747376997292958,1.188983793046344,1.701858285192559,0.045941016181747,0.189296909908757,0.0269345338139258,-0.3953030084451235,-0.76324738623998,-0.4435892960520198,0.2758757178869412,1.1979230278758068,1.7078250202088427,-0.5119989806355287,-0.9383693938765436,-0.4916794643360223,1.355767004918342,1.3096204779216305,-0.2411767364711214,0.2546215961357401,10.92648101427858,-0.8350846340040236,0.1153738245609238,-1.1076880317685287
1.14,0.267091572636899,1.1736739943576888,1.6930470733717995,0.0445095341682394,0.1826473192892803,0.026068827264415,-0.3710896747742078,-0.7676029999741353,-0.4377079040786062,0.265473703166618,1.179955640010197,1.698030682275714,-0.5038972252548982,-0.9783693944725902,-0.4936420320156063,1.264760520815304,1.2106666835457884,-0.2177806867077636,0.294069598670682,10.915710442112868,-0.838693148429322,0.1159072794187825,-1.105446936002035
1.16,0.2598995176776653,1.158272660596482,1.6843651865377238,0.0439423819439955,0.1741992369326884,0.0251980653056543,-0.3497649092708896,-0.7723678868773736,-0.4307267167184715,0.2552742323308106,1.160988252129686,1.6881872801505955,-0.4957954698742677,-1.0183693950686366,-0.4956045996951904,1.146938040969807,1.0662382751659063,-0.2382443451619142,0.349059368006735,10.993416456041814,-0.8443944142725787,0.115645677881394,-1.101583554717033
1.18,0.25343268789576,1.1435495639553055,1.6762560474740134,0.0439898970450811,0.16527653046485,0.0243803104668039,-0.3323462196868934,-0.7772153576033314,-0.4231784705151135,0.2452773053795189,1.1410208642342736,1.6782948138334877,-0.4876937144936373,-1.058369395664683,-0.4975671673747744,0.9796488401579756,0.8709344791998141,-0.2423735362978907,0.3774123101678989,11.030874785387825,-0.8518966605303103,0.1148243618098125,-1.096266329419903
1.2,0.2469515620618384,1.1279486161343593,1.667882611767772,0.0445450905223048,0.1556162306036632,0.0235453292365614,-0.3169969484691465,-0.7826554371909257,-0.4145093433796253,0.2368153769114154,1.104688796075139,1.6550971239482577,-0.3285040607453413,-0.8772153590934475,-0.4037312723774726,0.9224266341104972,0.7674635608873409,-0.2720039793797146,0.4334563567744087,11.056874871126638,-0.8602237833335149,0.1135824464873191,-1.0901407453267449
1.22,0.2407524052739135,1.1121807871917282,1.6597338519301332,0.0438621877102487,0.14631271686902,0.0226436461352545,-0.3039073058406811,-0.7934711617732542,-0.4004936207408561,0.2368153769114154,1.104688796075139,1.6550971239482577,-0.3285040607453413,-0.8772153590934475,-0.4037312723774726,1.1008623023210409,0.6544821314232702,-0.5407862291164245,0.7007861319384634,11.419213425737324,-0.8699643260158234,0.1134433764780444,-1.082772786585259
1.24,0.2347902446558846,1.0962227158517652,1.651880346707455,0.0412357565951805,0.1377823034656342,0.0216688716709311,-0.2931698323653498,-0.8015494500733246,-0.3855496915179633,0.2368153769114154,1.104688796075139,1.6550971239482577,-0.3285040607453413,-0.8772153590934475,-0.4037312723774726,1.0048297108357802,0.5368736737665664,-0.4039144150035201,0.7471964611446391,11.419213425737324,-0.8782891434666531,0.1158134536565483,-1.075423835173214
1.26,0.2293035008499923,1.080941372660862,1.6446942890928156,0.0383903921343255,0.1305349611729333,0.0207911171789109,-0.2850372741503973,-0.8066132761738991,-0.3715963131175047,0.233530336303962,1.0959166424842046,1.651059811224483,-0.3277356289570309,-0.8972153593914707,-0.3998418327499444,0.8462824686279944,0.4066279107476256,-0.2531913050287271,0.6976689200229313,11.414678830174124,-0.8883856753472342,0.1198912380525026,-1.0648121169462856
1.28,0.2236751175163677,1.0647696423088524,1.6374135695101104,0.0359380925896978,0.123895621091844,0.019978906266823,-0.2783895029117836,-0.8104182749478569,-0.3572150276722499,0.2269602550890551,1.0783723353023356,1.6429851857769335,-0.3261987653804101,-0.9372153599875171,-0.392062953494888,0.8146966447222191,0.3323885619306826,-0.1902499386978895,0.71906427226274,11.37367042486585,-0.8975695112604931,0.1235015692392772,-1.054716254293182
1.3,0.2181581185324587,1.048532087700898,1.6304150759028893,0.0344065395655958,0.1184845561844981,0.0193028914507333,-0.2737665970663278,-0.8133506196501008,-0.3433356044393964,0.2203901738741483,1.0608280281204667,1.634910560329384,-0.3246619018037893,-0.9772153605835636,-0.3842840742398316,0.746003172220803,0.2311452922727941,-0.1466172351121952,0.693971161642673,11.294512597729408,-0.905085448350107,0.1260826165409379,-1.046170992659926
1.32,0.2127137635810853,1.0322434613866236,1.6236900421994611,0.0340398550938076,0.1146676980338443,0.0187811753856201,-0.2709871415834773,-0.8155573084650982,-0.3298496502484538,0.2138969358380725,1.0412837209087955,1.6272248788445876,-0.3231250382271685,-1.01721536117961,-0.3765051949847752,0.6972549905658315,0.1389727741425206,-0.1103344407498707,0.6742977095471281,11.26440773003651,-0.9104818224322784,0.1273913269567524,-1.039739730865292
1.34,0.2075798846102861,1.016732839818282,1.6175500766228454,0.0350657906833984,0.1128831169814376,0.0184536286929834,-0.2694825440091633,-0.817232711476994,-0.3171296145464968,0.2074036978019967,1.0217394136971245,1.6195391973597908,-0.3215881746505477,-1.0572153617756566,-0.3687263157297188,0.6458910460982602,0.0752298787157018,-0.0837701505947863,0.6360017850978505,11.26440773003651,-0.914929053803642,0.1274690277378037,-1.034050389365142
1.36,0.202212157415006,1.0003607740819107,1.6113488906914748,0.0375129433657699,0.1127735604134078,0.01827269317285,-0.2672034991116547,-0.8200546365586737,-0.3036507268433044,0.2009488813553364,1.0011951064705518,1.6120479878563707,-0.3200513110739268,-1.097215362371703,-0.3609474364746625,0.697921414857622,0.1139522448754315,-0.1410962540839888,0.6739443851596222,11.250003842848855,-0.918245008549052,0.1263202659537762,-1.0293542339978516
1.38,0.1969018973067089,0.983907436564968,1.605417768489642,0.0405653584382901,0.113805293833042,0.0181844422726338,-0.263808823794241,-0.8252520714142191,-0.2901342786111431,0.1945324864980917,0.9796507992290782,1.6047512503343269,-0.318514447497306,-1.1372153629677493,-0.3531685572196061,0.7436926824989445,0.1697337658706832,-0.2598717427772679,0.6758224116080624,11.243486667129218,-0.919999758777063,0.1246152869936364,-1.026336282050376
1.4,0.1919309746869083,0.9681631111995944,1.6000339164043118,0.0431748349986811,0.1153123619398485,0.0181109607566358,-0.2595478229015171,-0.8316818628741023,-0.2772566845867299,0.1837114561169968,0.942644832994257,1.5909110545590848,-0.2379230481089306,-0.9252520729043352,-0.2553979247071343,0.750551088672491,0.2130500446361954,-0.3214895729941602,0.6438797012206621,11.24101494203842,-0.9210069576647574,0.123096776770169,-1.0239334906748967
1.42,0.1867619425414188,0.9513852382307538,1.594640053853326,0.0432753919993299,0.1182021171359413,0.0179167230123697,-0.2573469943219018,-0.845099607792722,-0.2627133858206075,0.1837114561169968,0.942644832994257,1.5909110545590848,-0.2379230481089306,-0.9252520729043352,-0.2553979247071343,0.9954735859613412,0.1100414289807671,-0.6708872459309845,0.7271649383061185,11.24129548698238,-0.918947141932758,0.123411351322593,-1.0249135515919698
1.44,0.1816591309376311,0.9343757170870716,1.589542643661447,0.0399883111729669,0.1228637628223739,0.0175686114219063,-0.2527492520931745,-0.8546833534230031,-0.2477362744874065,0.1837114561169968,0.942644832994257,1.5909110545590848,-0.2379230481089306,-0.9252520729043352,-0.2553979247071343,0.9182881870562905,0.2298871114363609,-0.4791872815140541,0.7488555666600505,11.349213024491291,-0.9176595614536344,0.12753965303176,-1.0238749312643811
1.46,0.1769208336346843,0.9180851854766998,1.5849740893709874,0.0359117923790341,0.1279285961751074,0.0171941104023573,-0.2460858683308984,-0.859540037529946,-0.2339207880221593,0.1813322256359075,0.9333923122652136,1.5883570753120135,-0.2327458929718686,-0.9452520732023584,-0.2484506539263325,0.804449703134734,0.3331691881138049,-0.2428342053471477,0.6907743232623581,11.340379864024726,-0.9147052278342244,0.1329373112448007,-1.0240267511227714
1.48,0.1720918439747209,0.9008672117878412,1.5804434814374226,0.0321543856583809,0.133185048275771,0.0168303107595213,-0.237018524226253,-0.8621227809330351,-0.219906786515701,0.1765737646737289,0.9148872708071272,1.5832491168178708,-0.2223915826977444,-0.9852520737984048,-0.2345561123647289,0.8445109987757212,0.4533672052322732,-0.129137170154453,0.7007000753229187,11.29559928747949,-0.9114826150616168,0.1377881002176054,-1.0245254854129866
1.5,0.1674642149286176,0.8836130211953296,1.5761862623256426,0.0294992656980462,0.1378016638529386,0.0165237754541613,-0.2261634058468874,-0.8634851330419911,-0.2065319839369789,0.1718153037115503,0.8963822293490403,1.578141158323728,-0.2120372724236203,-1.025252074394451,-0.2206615708031254,0.8639660617156875,0.5427559189682768,-0.0681176054478038,0.6687401289361017,11.260077087065838,-0.9086551859118188,0.1416199346224469,-1.0247699524271658
1.52,0.1630683558129489,0.8663393774865212,1.572193203152229,0.0280559551275569,0.1414210749819086,0.0162796905644579,-0.2139939423375197,-0.864080309202453,-0.1934529506881662,0.1675745582630779,0.8758771878611513,1.5737279269076656,-0.2016829621494961,-1.0652520749904977,-0.2067670292415218,0.8937437936726667,0.6084731754683881,-0.0297588080230948,0.6539516624406355,11.226195250067576,-0.9065920584044176,0.1441471949177242,-1.024654870261424
1.54,0.1591266111795122,0.8499251148696754,1.5686425094282044,0.0280292985758623,0.1437666841634291,0.0161219460454545,-0.2016067787934797,-0.8639344441836113,-0.1809612367526271,0.1633338128146055,0.8553721463732622,1.569314695491603,-0.191328651875372,-1.1052520755865445,-0.1928724876799183,0.8796391508991878,0.6193581772019979,0.0072932509420864,0.6245856967769581,11.213708833519377,-0.9053580978406858,0.1454698735760543,-1.0239127356012376
1.56,0.1552365444466621,0.8326435725086008,1.5651652214660876,0.0294337373022844,0.1450427263909312,0.0160352982754936,-0.188119763483151,-0.8643429566587035,-0.1673997603429848,0.1593519251229862,0.8338671048704721,1.5652488276145808,-0.1809743416012478,-1.1452520761825906,-0.1789779461183147,0.956530327319302,0.6743507655164335,-0.0204256237546107,0.6780738204821113,11.222083565266985,-0.9054895786320708,0.1454416585645565,-1.022118495727297
1.58,0.1516190921120848,0.815343981544808,1.56196519004787,0.0320339025009818,0.1450969464052625,0.0160068107041691,-0.1744512449639506,-0.8658373061563466,-0.1532751719170303,0.15562889518822,0.8113620633527808,1.5615303232765985,-0.1706200313271237,-1.185252076778637,-0.1650834045567112,0.9856032126741452,0.6834259259600212,-0.0747174748821521,0.7062294212977244,11.250922024885767,-0.9069988818271716,0.1444506969248362,-1.0192463421263886
1.6,0.148435119950991,0.7988591978720998,1.5591926606900977,0.0348753312989514,0.1440702434746467,0.0159766503075882,-0.1614892509314043,-0.86938214637042,-0.1392652434576252,0.1428965298638872,0.7720521162369907,1.5543014314520185,-0.1456176768677897,-0.9658373076464628,-0.1115645083301754,0.97064060918644,0.6480997016273166,-0.1772420107036709,0.7004964229702578,11.28218646033656,-0.9099704309105636,0.1430414199990819,-1.0150443770395978
1.62,0.1453436758400537,0.7813577917167358,1.556517993652641,0.0355184160443407,0.1417364427298129,0.0157426697317367,-0.1484567045230466,-0.879880592980473,-0.1291327025436464,0.1428965298638872,0.7720521162369907,1.5543014314520185,-0.1456176768677897,-0.9658373076464628,-0.1115645083301754,0.978178195018151,0.6516273204178857,-0.5249223305026529,0.5066270456989416,11.318544320084584,-0.9142331565762358,0.1441192595150095,-1.009032188872287
1.64,0.1425051699126339,0.7636837134235341,1.5540516816823355,0.0331494552548712,0.1380169000403083,0.0152690091226964,-0.1361854887715973,-0.8868215415366949,-0.1178786951039196,0.1428965298638872,0.7720521162369907,1.5543014314520185,-0.1456176768677897,-0.9658373076464628,-0.1115645083301754,0.9019592373441268,0.6135607875724647,-0.3470474278110924,0.5627003719863355,11.013803096167068,-0.9187852169917666,0.1469942345264563,-1.0035428952892234
1.66,0.1400237408854524,0.7467964559406747,1.551928100505743,0.0298603887859304,0.1333860182409411,0.014741558605354,-0.1257953194837301,-0.8902187066273706,-0.1061645058052113,0.1414403530952093,0.762393743160526,1.5531857863687166,-0.1398509632485575,-0.985837307944486,-0.1032223756128044,0.8011219935344089,0.5195084643933603,-0.1698582545337834,0.5857094649354189,11.101328205434584,-0.924181932274767,0.1509350539221727,-0.996829657182586
1.68,0.1376046389720094,0.7289809000430502,1.5499414163024103,0.0268577684702023,0.1277695735021464,0.0142344916866043,-0.116930059391429,-0.8913127448675217,-0.0930792029543069,0.1385279995578535,0.7430769970075968,1.5509544962021131,-0.1283175360100932,-1.0258373085405323,-0.0865381101780624,0.7921724983785795,0.4432630046150548,-0.0547019120075542,0.6542651425452163,11.140903132869424,-0.9305915791166196,0.1548590686542797,-0.9887918727810096
1.7,0.1353360248063986,0.7111560132359176,1.5482213630296973,0.0249153081767311,0.1221108370635269,0.0138346690050403,-0.110565635454394,-0.8913271808947779,-0.0795545625686951,0.1356156460204977,0.7237602508546676,1.5487232060355096,-0.1167841087716288,-1.0658373091365787,-0.0698538447433205,0.7473653691624158,0.3182211968517492,-0.0007218013628129,0.676232019280592,11.169578342505702,-0.937382490934276,0.1579173689891153,-0.9803070827526554
1.72,0.1331682869303174,0.6933407777109527,1.5467762316334364,0.0243698156464303,0.1171695937295408,0.0135746897541554,-0.1066699637135802,-0.8904586261161294,-0.0656191042060209,0.1332799638450652,0.702443504671936,1.5473261291406433,-0.1052506815331645,-1.105837309732625,-0.0531695793085785,0.7247890132540534,0.1947835870406873,0.0434277389324277,0.696772918133709,11.182650223409835,-0.9430417361749815,0.1596309900089581,-0.973126738493558
1.74,0.131158852797306,0.6764378068794428,1.545664096229698,0.0254797471784587,0.1138671682359127,0.0134875217852659,-0.1051216496169618,-0.8891049544108552,-0.0521347515874177,0.1309442816696326,0.6811267584892043,1.5459290522457767,-0.0937172542947001,-1.1458373103286716,-0.0364853138738365,0.6820144228135474,0.0774157048309222,0.0676835852637058,0.6742176309301607,11.200860664478569,-0.947853917559597,0.159953097581636,-0.966838294906597
1.76,0.1290610378230837,0.6586609926856477,1.5447746450960866,0.0283072157614588,0.1124951175222317,0.0135709097260088,-0.1045894473121932,-0.8889580064458316,-0.0374958662041708,0.1288969351751616,0.6588100122915717,1.5449490819867788,-0.0821838270562358,-1.185837310924718,-0.0198010484390945,0.7324646719492116,0.0266101152384297,0.007347398251184,0.7319442691623469,11.21515211006772,-0.9520625222728348,0.1589474647163296,-0.9612032576922253
1.78,0.1269824274545634,0.6408563877733828,1.5441833731129908,0.0318201727317491,0.113059642955988,0.0137635333834925,-0.1030832618751507,-0.8916305107935744,-0.0223597155475115,0.1271379243616523,0.6354932660790378,1.5443862183636496,-0.0706503998177714,-1.2258373115207644,-0.0031167830043526,0.7721948114960185,0.0753092718521267,-0.1336252173871399,0.7568075328329612,11.233160400602172,-0.9547689085729834,0.1573650708517696,-0.9571839156198788
1.8,0.124949073514908,0.6229774505187589,1.5438999498016708,0.0350161057136032,0.1148237526537983,0.0139837268367711,-0.1001743115094557,-0.8960344912021332,-0.0067338343594738,0.1218282643608059,0.5962748622337041,1.5430653873356153,-0.0808764785804729,-0.9124498693212348,-0.0133830073812103,0.8246593214347955,0.145447518284747,-0.2201990204279413,0.7812940594018878,11.253296033407423,-0.9560460090635666,0.1561017378978206,-0.9546811336672736
1.82,0.1230829864764468,0.6055990414519413,1.5438033068464088,0.0275791041145576,0.1167725813280032,0.0134853136910683,-0.0964458424215969,-0.9264239388657868,-0.0039552231138472,0.1218282643608059,0.5962748622337041,1.5430653873356153,-0.0808764785804729,-0.9124498693212348,-0.0133830073812103,1.5371570280028124,0.1864234543929428,-1.519472383182674,0.1389305622813297,11.277309116729157,-0.957470192276002,0.164649405827608,-0.9496490359677424
1.84,0.121196089602351,0.5869945118563534,1.5437549610061032,0.0108479229012684,0.1185564804351751,0.0123448603808307,-0.0924218489733918,-0.931400281867449,-0.0009929395113478,0.1218282643608059,0.5962748622337041,1.5430653873356153,-0.0808764785804729,-0.9124498693212348,-0.0133830073812103,0.3526033078511456,0.2011996724102516,-0.2488171500831193,0.1481141801249687,10.54357919487029,-0.954684533528792,0.1789307964248043,-0.9501978760105896
1.86,0.1193890458660038,0.5683996379540084,1.5437483011319648,-0.0067360904475938,0.1200920574390941,0.0111586744623491,-0.0884749605299578,-0.92736959800717,6.513620467742034e-05,0.1210194995750012,0.5871503635404918,1.5429315572618032,-0.0764351219215374,-0.9166137410267668,-0.01158766574795,0.2869837320618903,0.1973444221716996,0.2015341930139469,0.0529037858012638,10.361670059654898,-0.9531965829390576,0.1948720831661669,-0.9479558519615192
1.88,0.1176600138756418,0.5499603288337243,1.5437416866785174,-0.0229108702730932,0.1214477613312991,0.0100940608500844,-0.0845968598358072,-0.916913765552447,-0.000792056574618,0.1194019700033917,0.5689013661540671,1.5426638971141788,-0.0675524086036663,-0.924941484437831,-0.0079969824814295,0.5592380458626051,0.1939050347075338,0.5227916227361573,-0.0428596389647725,10.361670059654898,-0.9516906498323394,0.208871135020427,-0.9459285622644532
1.9,0.1160893343307774,0.5326879388666872,1.5437061902895846,-0.0357364254418843,0.1226281921617707,0.0092861619601032,-0.0809003438319684,-0.902344478020396,-0.0029041371318228,0.1177844404317823,0.5506523687676423,1.5423962369665547,-0.0586696952857952,-0.9332692278488952,-0.004406299214909,0.7589289394243908,0.1848258001919379,0.7284643766025445,-0.1056040278602411,10.272118347224932,-0.9499894469187076,0.2212988566133608,-0.9442629968593612
1.92,0.114513271797443,0.5148295206621433,1.5436192446557513,-0.0462164888263985,0.1238046885692689,0.0086756082059724,-0.0768671280617891,-0.8846949158035601,-0.0056890474327232,0.1166110465260664,0.5319869842106644,1.5423081109822565,-0.0497869819679241,-0.9415969712599592,-0.0008156159483885,0.91587335543574,0.2016607885089623,0.8824781108418001,-0.1392455150450192,10.215681894490444,-0.9482624534214168,0.2310022547144882,-0.9431784289413891
1.94,0.1130200244380105,0.4973407225701854,1.5434714266487557,-0.0537523164151422,0.1249321596750118,0.0083006355271012,-0.0726255435947047,-0.8655425919402786,-0.0089523707527393,0.1154376526203505,0.5133215996536865,1.5422199849979583,-0.040904268650053,-0.9499247146710234,0.0027750673181319,0.9942985306817994,0.2120792233542216,0.9576161931640736,-0.163166166000807,10.201965195549748,-0.94645259504914,0.2382110391145177,-0.9426705452185364
1.96,0.1116157754639321,0.4802428936465783,1.5432586386663438,-0.0586775517326567,0.1259642507761096,0.0081406288904517,-0.0679883802995624,-0.8458193780145553,-0.0121351786991482,0.1144863265475813,0.4944480215114319,1.5422216260953232,-0.0320215553321819,-0.9582524580820876,0.0063657505846524,1.0254739360527203,0.2318581647571142,0.9861606962861648,-0.1591403973204431,10.187771365360277,-0.9443873760567268,0.2429730737832757,-0.9430375488049996
1.98,0.1103715502850478,0.4643657188261467,1.543001839665983,-0.0614503108388424,0.1267861445853687,0.0081560025160802,-0.0632076553190465,-0.826929187038573,-0.0147130318870272,0.113757068307759,0.4753662497839008,1.5423130342743512,-0.0231388420143108,-0.9665802014931516,0.0099564338511729,0.982776644902939,0.2390362490257959,0.9445095487991162,-0.1288926593939509,10.202098464441406,-0.9422555369231086,0.2463000017278759,-0.943781773282511
2.0,0.1091632230633815,0.4480393569160262,1.5426848143450538,-0.0627263491552937,0.1274385437309242,0.0083251856346766,-0.0578687002755678,-0.8069046205218252,-0.0168140861827957,0.1072111675190955,0.4230192594742181,1.5422661880716315,-0.0435022405470128,-0.8024231359452331,0.003108326629785,1.0415158835727258,0.2669477521739349,1.0012283258373889,-0.1050527147884262,10.234128290305309,-0.9401504919472478,0.2481989249225911,-0.9448452214680472
2.02,0.1080806114078938,0.4320005085044793,1.542314151757073,-0.0659865509068664,0.1272603262951092,0.0084351901051841,-0.0507216727147978,-0.7965249232191688,-0.0203468608920385,0.1072111675190955,0.4230192594742181,1.5422661880716315,-0.0435022405470128,-0.8024231359452331,0.003108326629785,0.654405486291651,0.3573513780385021,0.518984865132821,-0.1766387354621382,10.274673718937263,-0.9399777380431646,0.252188729420169,-0.9429546210543048
2.04,0.1071371478092371,0.4162482878531039,1.5418745108142138,-0.0716761234696293,0.1257511750566442,0.0085013535926161,-0.0440890672627999,-0.7789089462291627,-0.0233881087714757,0.1072111675190955,0.4230192594742181,1.5422661880716315,-0.0435022405470128,-0.8024231359452331,0.003108326629785,0.953366782852324,0.3316302725998941,0.8807988495003027,-0.1520623939718603,10.14136636848525,-0.9389174019400686,0.2573977132732492,-0.9425483748025214
2.06,0.1063557701584561,0.4016523951194019,1.541408447805689,-0.0767573255328624,0.1234231659364998,0.0086935837324402,-0.0385877773086067,-0.7585709332427474,-0.0255076696890533,0.1067761451136253,0.4149950281147657,1.5422972713379297,-0.0395611575926061,-0.7975219257265651,0.0066725983331475,1.058762841573868,0.2750644977096581,1.0169006493207675,-0.1059780458788794,10.213110729601794,-0.9391074043673154,0.2630189371679337,-0.940273714389117
2.08,0.1056349217500135,0.3867243762623426,1.5408824575696658,-0.0809688744902137,0.1204040716814445,0.0090644868262524,-0.0339046677971847,-0.7354993282403813,-0.0269165727371991,0.1059061003026851,0.3989465653958611,1.5423594378705252,-0.0316789916837926,-0.7877195052892291,0.0138011417398724,1.179211049685602,0.2341554755711013,1.1535802501183023,-0.0704451524072885,10.268972743151608,-0.9401054022632852,0.2678156236081095,-0.9371751511314086
2.1,0.1049937103570252,0.3722711895739208,1.5403389645709389,-0.0837481390269344,0.1172653178612608,0.009586353232668,-0.0305470327557095,-0.7113825691479335,-0.0273254973760437,0.1050360554917448,0.3828981026769564,1.542421604403121,-0.0237968257749791,-0.7779170848518931,0.0209296851465973,1.217640137268767,0.167881752073761,1.2058379546223907,-0.0204462319422314,10.324376794781529,-0.9410742380773702,0.2712939069605909,-0.9344333013633438
2.12,0.1044337004861502,0.3589932308287398,1.5398246893510243,-0.0850577758177976,0.1146435620478735,0.0101754967479923,-0.0286360432457278,-0.6878039278188682,-0.026759352870942,0.1045601189762452,0.3673397609799186,1.5428401981060529,-0.0159146598661657,-0.7681146644145572,0.0280582285533223,1.1831364327842988,0.0955494754990812,1.1789320664532643,0.0283072252550854,10.382556948287856,-0.9418816839458076,0.2738105452956119,-0.9320252105090072
2.14,0.1038709482119476,0.3455040225184478,1.5393039381130849,-0.0849153453552745,0.1127708098031456,0.0108501146704149,-0.0278123061444937,-0.6625152906219368,-0.0252883110803491,0.1040841824607457,0.3517814192828807,1.5432587918089848,-0.0080324939573522,-0.7583122439772212,0.0351867719600472,1.267238807446769,0.0411868550617075,1.264431859846571,0.0735520895296465,10.444185212685625,-0.942268268240364,0.2749814432345293,-0.9304079840272724
2.16,0.1033203347839743,0.3325294792408081,1.538823009350893,-0.0827816426632291,0.1121098414740554,0.0115778461270776,-0.0271388157914382,-0.6365437435867075,-0.0228452696984084,0.1038053000929664,0.3364681380967762,1.5438555990970848,-0.0001503280485387,-0.7485098235398853,0.0423153153667721,1.3047445112479508,0.0336745176527755,1.2985773517614652,0.1221520690970347,10.55223653714438,-0.9427345582656876,0.2746888243412922,-0.928849738014599
2.18,0.1028162897883956,0.3206735556764272,1.538422445034614,-0.0789279605296447,0.1123312050034664,0.0123378118080707,-0.025856833992694,-0.6134078971229284,-0.0193837247080271,0.1037234718729075,0.3213999174216052,1.544630619970353,0.0077318378602747,-0.7387074031025492,0.0494438587734971,1.1714234531631849,0.0640990899372095,1.1567923231889543,0.1730772495190624,10.55223653714438,-0.942545881242584,0.2728504250633561,-0.92819488931482
2.2,0.1023204173864885,0.3086374702114954,1.5380845619034569,-0.0741193620854799,0.1131074923182914,0.013158508962724,-0.0237202884799846,-0.5916604320689706,-0.0145218310417789,0.1015234480887609,0.2900031608202808,1.537453258799213,-0.0201555440148157,-0.5739957301996439,-0.001790545809931,1.119324654672296,0.1068272756354715,1.087373252697893,0.2430946833124128,10.60692500676214,-0.9420098057193708,0.2704429942541229,-0.9279150572876014
2.22,0.1018955126857036,0.2969490186936186,1.537770229066121,-0.0712214329911082,0.1132024439830186,0.0139065422232381,-0.0189446618030407,-0.5774830029106907,-0.0176650452944789,0.1015234480887609,0.2900031608202808,1.537453258799213,-0.0201555440148157,-0.5739957301996439,-0.001790545809931,0.7643394264558767,0.2387813338471918,0.7088714579139954,-0.1571607126350001,10.663831004655547,-0.9423433876028952,0.2705429325096198,-0.9249531129994234
2.24,0.101566025554433,0.2855701569589489,1.5373918736655867,-0.0708801037535668,0.1115483764766494,0.0146133382413956,-0.0143911862788453,-0.5608630965400053,-0.0199787635094252,0.1015234480887609,0.2900031608202808,1.537453258799213,-0.0201555440148157,-0.5739957301996439,-0.001790545809931,0.8693513661028661,0.2276737762097694,0.8309953185342667,-0.1156859107473168,10.11037681154994,-0.941709191679386,0.2709516402533927,-0.9253712067239092
2.26,0.1013297001901939,0.2750844278689427,1.5370060483929129,-0.0717617698282665,0.1086555694022524,0.0153095717188794,-0.0108395369854182,-0.5436801980978782,-0.0205182447489366,0.1013218926486128,0.2842632035182844,1.5374353533411134,-0.01901528601924,-0.566113296814987,0.0017280899696881,0.8777204161686999,0.1775824646713548,0.8591449221063585,-0.0269740619755712,10.227139893570891,-0.9428066729170584,0.2727126163064253,-0.9233591323370676
2.28,0.1011407074075254,0.2644115543777021,1.5366022873131138,-0.0734010899889452,0.1045997462282223,0.0160864413801804,-0.0084088444712299,-0.5244755435166115,-0.0197621895187858,0.1009187817683165,0.2727832889142915,1.5373995424249147,-0.0167347700280887,-0.5503484300456731,0.0087653615289265,0.9686313065291344,0.1215346257094181,0.9602327290633316,0.0378027615075391,10.328283126884344,-0.945130446145398,0.2752702287472522,-0.919632794276368
2.3000000000000003,0.1009815053076283,0.2541385946662827,1.5362263174937898,-0.0752231928098561,0.1000467707263115,0.0169118475830644,-0.0077884091903935,-0.5038515449450419,-0.0178601286591503,0.1005156708880201,0.2613033743102986,1.537363731508716,-0.0144542540369373,-0.5345835632763594,0.015802633088165,1.036040651388218,0.0310217640418204,1.03119992857848,0.0951030429817777,10.406304392283346,-0.9479586035731788,0.2779904427663119,-0.9151509213181344
2.32,0.1008219649018763,0.2447750570341534,1.535912553645036,-0.0765788573841927,0.0958839961310953,0.0177318222606967,-0.0091540459783787,-0.4829514246454535,-0.015246193043203,0.1002265858072814,0.2506117030447715,1.5376797841704797,-0.012173738045786,-0.5188186965070456,0.0228399046474034,1.0553585312327305,-0.0682818393992603,1.0450060149794187,0.1306967807973638,10.46939545559144,-0.9507104987474114,0.2805263539722258,-0.9107549354578812
2.34,0.1006050638211348,0.235356232611048,1.5356400768517615,-0.0771521429728344,0.0924052632148839,0.0186028015386669,-0.0126074445185721,-0.4601189965796016,-0.0121102069305502,0.0999375007265426,0.2399200317792442,1.5379958368322428,-0.0098932220546347,-0.5030538297377317,0.0298771762066418,1.1652039969018992,-0.1726699270096689,1.1416214032925975,0.1567993056326382,10.52355193112453,-0.952885542847015,0.2823858863266386,-0.9070461049875576
2.36,0.1002987809833095,0.2264071303185228,1.5354340720123882,-0.0762617670579132,0.090640859364769,0.0194540457658883,-0.0178176636315932,-0.4362118993644437,-0.0086183316917444,0.0997054285455827,0.2296224821829499,1.5384878212829871,-0.0076127060634833,-0.4872889629684179,0.0369144477658803,1.2358083115354963,-0.2605109556510572,1.195354860757894,0.1745937619402917,10.552488630484731,-0.9541817645083132,0.2830314567745942,-0.9045958862622676
2.38,0.0999108891974447,0.2183517113265046,1.5353081887223932,-0.0736151607888534,0.0907829553934626,0.0202541953715582,-0.0225268622096458,-0.4133082458133194,-0.00476427534275,0.0995303692644015,0.2197190542558884,1.5391557375227125,-0.005332190072332,-0.4715240961991041,0.0439517193251187,1.1849131271729216,-0.2354599289026321,1.145182677556214,0.1927028174497204,10.579601626719525,-0.9553346796779552,0.2823133973814786,-0.902331645544857
2.4,0.0994187554730442,0.2103171721425452,1.5352635659284244,-0.0694150991647805,0.0923075223326942,0.0210986743294421,-0.0262647553909727,-0.3917460493211969,0.0001632566560805,0.0987845460869624,0.1976862990358386,1.5350699749552557,-0.0146325594913045,-0.3895016142482254,0.0122003204221253,1.1215845204435204,-0.1868946590663427,1.0781098246061245,0.2463765999415306,10.603418034153036,-0.955493070689064,0.2805386315657717,-0.9012383812079374
2.42,0.0988583289710418,0.2027215561683058,1.535252790532292,-0.0636496332328596,0.0947048897590442,0.0220000884969699,-0.0294577305702337,-0.3697302172799888,-0.0017822322880501,0.0987845460869624,0.1976862990358386,1.5350699749552557,-0.0146325594913045,-0.3895016142482254,0.0122003204221253,1.11655371365846,-0.1596487589630492,1.100791602060408,-0.0972744472065347,10.191667830494223,-0.9522994362393662,0.2779793040575585,-0.90373148871066
2.44,0.0982482877338605,0.195518778820358,1.5352078676948098,-0.0568847984443121,0.0975250698292006,0.0229561441139543,-0.0312536181177765,-0.3518954349076394,-0.0024755269068851,0.0987845460869624,0.1976862990358386,1.5350699749552557,-0.0146325594913045,-0.3895016142482254,0.0122003204221253,0.8969187975800661,-0.0897943773771404,0.8917391186174684,-0.0346647309417513,10.191667830494223,-0.9497179373454188,0.2734222311640496,-0.9072939700220968
2.46,0.0976489657510705,0.1889807337111027,1.5351724593239415,-0.0506930650283262,0.1002581826050596,0.0238565121077306,-0.0316797256412531,-0.3372400422730097,-0.001230239318831,0.0986382204920494,0.1937912828933563,1.535191978159477,-0.0130536989476362,-0.3847402879352066,0.0155932395751004,0.7357187677259639,-0.0213053761738326,0.7327696317314863,0.0622643794027058,10.299319763644236,-0.9473216175864172,0.269265995774209,-0.910198458716136
2.48,0.0970209225417305,0.182382557975105,1.5351745688087663,-0.0448253708877947,0.1029344801783008,0.024779058660644,-0.0310375527329457,-0.323354872023015,0.0014270884778688,0.0983455693022233,0.1860012506083918,1.5354359845679193,-0.0098959778602997,-0.375217635309169,0.0223790778810506,0.7075869733372255,0.0321086454153712,0.6942585124997319,0.1328663898349959,10.399903626537707,-0.9451762909007524,0.2658522572652374,-0.9123510018097788
2.5,0.0964156715757431,0.176050143361316,1.535241392248803,-0.0397169107984461,0.105224578455207,0.0256724758690186,-0.029485589262221,-0.3105636065408107,0.0051581286447771,0.0980529181123972,0.1782112183234273,1.535679990976362,-0.0067382567729631,-0.3656949826831314,0.0291649161870007,0.6707192482286806,0.0775981735362371,0.6395632741102164,0.1865520083454118,10.47614926147162,-0.943530881852622,0.2633306801959427,-0.9136049376663834
2.52,0.0958491913769037,0.1699639085973405,1.535392211703495,-0.0353476763664587,0.1070090806059908,0.0265368758001614,-0.0272569807203162,-0.2986296948362963,0.0097287929238024,0.0979181529769379,0.1708973186697647,1.5362632893001018,-0.0035805356856266,-0.3561723300570938,0.0359507544929509,0.6486060371206772,0.1114304270952409,0.5966955852257205,0.2285332139512686,10.534550215937088,-0.9422464743043693,0.261408347229569,-0.9140988577639256
2.54,0.0953561198488115,0.1643967155192597,1.5356229852713466,-0.0317941708486862,0.1082084179572782,0.0273330185864002,-0.0247849230243007,-0.2879304307974714,0.0143319224588794,0.0977833878414787,0.1635834190161021,1.5368465876238415,-0.0004228145982901,-0.3466496774310562,0.0427365927989011,0.5953446937313258,0.1236028848007728,0.5349632019412437,0.2301564767538492,10.578145192038392,-0.941376875565417,0.260114376181018,-0.913891241951491
2.56,0.0948896723882009,0.1587521759428576,1.5359623746900164,-0.0285478559404548,0.1089720943059711,0.0281488074702253,-0.0220120968648256,-0.2770922659067169,0.0193758213755276,0.0977275657332028,0.1565075856780904,1.537599531905231,0.0027349064890464,-0.3371270248050186,0.0495224311048512,0.6135863822462521,0.1386413079737526,0.5419082445377255,0.2521949458324086,10.591262114705389,-0.9410496532957532,0.259322062737693,-0.9129111067209144
2.58,0.0944795305732887,0.1533196928668878,1.536404685064766,-0.0256885653168336,0.109265945968702,0.0289452564050852,-0.019188640107097,-0.2666999514285275,0.0246075469893058,0.0977506866521104,0.1496698186557296,1.5385221221442682,0.0058926275763829,-0.3276043721789811,0.0563082694108014,0.5986298129357841,0.1411728378864336,0.5196157239094723,0.2615862806889109,10.60913562580663,-0.9411982049568284,0.25887967474046,-0.9113268367458428
2.6,0.0941248535313353,0.14809047619962,1.536953397403695,-0.023127641520457,0.1091688764394954,0.0297236544929942,-0.016467594487994,-0.2567527041409898,0.0300086535495888,0.0935200985679338,0.1399846952954615,1.5376350624142312,-0.0190595530211449,-0.250706350717301,0.0340236894678911,0.582073384411701,0.1360522809551499,0.4973623643768826,0.2700553280141494,10.60913562580663,-0.9416957222050174,0.2586866933529824,-0.9094078805148958
2.62,0.0938517215846742,0.1433041717578829,1.5375196797255657,-0.0208639789777157,0.1081134984651228,0.0304647528595127,-0.0125315118257921,-0.247622467398344,0.0293324276509176,0.0935200985679338,0.1399846952954615,1.5376350624142312,-0.0190595530211449,-0.250706350717301,0.0340236894678911,0.4982751528183992,0.196804133110094,0.456511837132291,-0.0338112949335587,10.615741417494064,-0.9425125907958388,0.2586142417271005,-0.9070537397814074
2.64,0.0936400487609217,0.1384465681796955,1.5381031727000785,-0.0186678645487276,0.1053663721437462,0.0312534068502162,-0.0089688079969635,-0.2386350103459277,0.0291199076068665,0.0935200985679338,0.1399846952954615,1.5376350624142312,-0.0190595530211449,-0.250706350717301,0.0340236894678911,0.4835090681934018,0.1781351914414283,0.4493728526208149,-0.0106260022025558,10.2395001424984,-0.9440144390039908,0.2580160019375236,-0.904891936621858
