t,x,y,z,roll,pitch,yaw,v_x,v_y,v_z,ref_x,ref_y,ref_z,ref_v_x,ref_v_y,ref_v_z,a_com,a_x,a_y,a_z,thrust,wind_x,wind_y,wind_z
0.0,0.8489241835119635,-1.4059364291511187,2.9817657946207663,0.0284159498971176,0.0995848086747346,0.0420456534113395,-0.0003183382054568,0.0079374702749933,-0.0004411478569519,0.8489155347196227,-1.4056862986164087,2.981753075662363,-0.1002977572770409,0.1082507693993473,-0.1004277303027321,0.3978045531763992,-0.0159169102728419,0.3968735137496678,-0.0220573928475956,10.254344474238678,-0.9407892844007664,0.2551784882150276,-0.8778796514927696
0.02,0.8490846329011061,-1.4060871060031914,2.981647547304378,0.0207932063438322,0.0943698289842827,0.0413927984666206,0.015666803306002,-0.017493645532385,-0.0117212481882369,0.8489155347196227,-1.4056862986164087,2.981753075662363,-0.1002977572770409,0.1082507693993473,-0.1004277303027321,1.6042966245628576,0.7992570755729441,-1.271555790368918,-0.5640050165642497,10.254344474238678,-0.9462489052275196,0.2543626184586964,-0.8796020392205408
0.04,0.8495130808215513,-1.4064692194706403,2.981234433321013,0.0043232007620415,0.0792595849586331,0.0401153559448398,0.0249517133286217,-0.0184915484774637,-0.0292025644552038,0.8489155347196227,-1.4056862986164087,2.981753075662363,-0.1002977572770409,0.1082507693993473,-0.1004277303027321,0.99096138022839,0.4642455011309849,-0.0498951472539366,-0.8740658133483453,9.660400934734298,-0.9520542039169948,0.2698148424638128,-0.8653652986948351
0.06,0.8500103025774596,-1.406774785036799,2.9804469609812427,-0.0128455738927188,0.0581280535301256,0.0391375409153516,0.0232484082246398,-0.0116519417225035,-0.0487125050456935,0.8479125571468522,-1.4046037909224152,2.980748798359336,-0.1202977575750641,0.1282507696973705,-0.1204277306007553,1.0372068871302726,-0.0851652551990961,0.3419803377480099,-0.975497029524488,9.230164547871937,-0.9621157439825004,0.282532040325308,-0.8497265959443074
0.08,0.8503521216939386,-1.406902306083207,2.97932803113568,-0.0285565186379539,0.0362170822733498,0.0386871875227412,0.0122561379331365,-0.0018286568628387,-0.0681079879099368,0.8459066020013114,-1.4024387755344283,2.978740243753281,-0.1602977581711106,0.168250770293417,-0.1604277311968018,1.2181047647192933,-0.549613514575165,0.4911642429832374,-0.969774143212162,9.076310665660912,-0.9762945966437452,0.2938008845077722,-0.8313305711429232
0.1,0.8504011139526925,-1.406806347644625,2.9777427496673594,-0.0443066756524344,0.0140222116459382,0.0386716892815067,-0.0072813253414438,0.0112204076754027,-0.0894800446266801,0.8439006468557706,-1.4002737601464412,2.9767316891472264,-0.200297758767157,0.2082507708894634,-0.2004277317928482,1.5880454691478938,-0.9768731637290178,0.6524532269120772,-1.068602835837165,9.076310665660912,-0.9916869705728296,0.3032519307505659,-0.812918975777848
0.12,0.8499871710593547,-1.4064223419226554,2.975723101187918,-0.0592756562573809,-0.0053645046056186,0.0389753109438526,-0.0333884604373492,0.0268262358799376,-0.1114707877135084,0.8398946916804275,-1.396108744728652,2.9727231345113694,-0.2402977593632035,0.2482507714855099,-0.2404277323888947,1.876644051476065,-1.3053567547952707,0.7802914102267433,-1.099537154341416,9.056814517634391,-1.0060151168005884,0.3110359599069997,-0.7971187001423374
0.14,0.8489965938538293,-1.4057005402314755,2.973255962206266,-0.0735070873722872,-0.020703004760715,0.0394055286405079,-0.0642379681228388,0.0448676602092866,-0.1341825356143196,0.8358887365050843,-1.3919437293108627,2.9687145798755123,-0.28029775995925,0.2882507720815564,-0.2804277329849411,2.117196618750083,-1.5424753842744796,0.9020712164674536,-1.1355873950405615,9.07449415816427,-1.0172797078734404,0.3171964543037042,-0.7861219692080453
0.16,0.8474482108856134,-1.404635663626526,2.9704835586777185,-0.0856477796622357,-0.0309554856274607,0.03980612097313,-0.0970073063213206,0.0660496116213202,-0.1565117831914678,0.8308827813148401,-1.3867787138781724,2.963706025224754,-0.3202977605552964,0.3282507726776028,-0.3204277335809876,2.247832227363627,-1.6384669099240918,1.059097570601676,-1.1164623788574106,9.084045231338678,-1.025825485059085,0.3227616159144318,-0.778886569616884
0.18,0.8451204834073166,-1.403052041310446,2.967098430150122,-0.0962777619439554,-0.0366501667277364,0.0400701893604367,-0.1340617224423645,0.0909015165720279,-0.1808478470252301,0.8248768261096946,-1.3806136984305808,2.957697470559095,-0.3602977611513428,0.3682507732736492,-0.360427734177034,2.541107502975542,-1.852720806052191,1.242595247535388,-1.216803191688115,9.101419858274769,-1.030086514622958,0.3267166544580396,-0.7781846829804762
0.2,0.8420413948960342,-1.4009490219158345,2.963223440265236,-0.1044052518979179,-0.0366949394145062,0.040015278224114,-0.1712424714068765,0.1175927212467031,-0.205306958393615,0.8384173972851984,-1.3985069654818447,2.958056037798861,-0.2340617239324806,0.1909015180621441,-0.2808478485153463,2.594743065063723,-1.8590374482256005,1.334560233733758,-1.2229555684192417,9.111455110830777,-1.0315226017343695,0.328200383584813,-0.7829189903908742
0.22,0.8383977112779049,-1.398290337235759,2.959296032557755,-0.10563228056685,-0.0312676862167259,0.0398478395092178,-0.2094206884129587,0.1582146146819424,-0.2064545562147123,0.8384173972851984,-1.3985069654818447,2.958056037798861,-0.2340617239324806,0.1909015180621441,-0.2808478485153463,2.7879344777031765,-1.908910850304113,2.0310946717619647,-0.057379891054865,9.121816806155492,-1.0347318846725888,0.3261055004016033,-0.7842070741656694
0.24,0.8338403390151967,-1.3947704488453967,2.9551499621763893,-0.100252805846047,-0.0205603287782551,0.0396354769463391,-0.2435153557085959,0.1903274243011291,-0.2081037733217903,0.8384173972851984,-1.3985069654818447,2.958056037798861,-0.2340617239324806,0.1909015180621441,-0.2808478485153463,2.3432876459712526,-1.7047333647818574,1.6056404809593348,-0.0824608553538996,10.615626849283217,-1.0321294288726557,0.3219494944256387,-0.7895755082690143
0.26,0.8286659138294743,-1.3906915473185562,2.9509348101490493,-0.0929773447477362,-0.007079502724313,0.0393528155360616,-0.2716118433233694,0.2156185260888693,-0.21345026115667,0.8360767800458736,-1.3965979503012234,2.9552475593137078,-0.2540617242305038,0.2109015183601673,-0.3008478488133695,1.9089508755422908,-1.4048243807386742,1.2645550893870094,-0.2673243917439852,10.314243170302689,-1.0259892864084883,0.3168937963132416,-0.7993556402623248
0.28,0.8232837076620347,-1.3863879605977802,2.946789439022,-0.0861343184740044,0.0066468483498599,0.0390849198675646,-0.2931513916688694,0.2361255889102103,-0.2226003965849131,0.831395545567224,-1.3927799199399804,2.9496306023434005,-0.2940617248265502,0.2509015189562137,-0.3408478494094159,1.5558090715458528,-1.076977417274999,1.0253531410670491,-0.4575067714121583,10.00524337713614,-1.017604576504472,0.3119038390963947,-0.8122994868768731
0.3,0.8172262853341634,-1.381462410955874,2.9422010505256617,-0.0797629281187396,0.0207303842709794,0.0388675104483904,-0.3111135159827052,0.2554102669233651,-0.2359570655417592,0.8267143110885743,-1.3889618895787377,2.9440136453730936,-0.3340617254225967,0.2909015195522602,-0.3808478500054624,1.4772756357223304,-0.8981062156917935,0.9642339006577404,-0.6678334478423045,9.50846665923109,-1.007295819372313,0.3069857952291395,-0.8277189378685208
0.32,0.8108520654289443,-1.3761664896274288,2.937307280251822,-0.0744598361951612,0.0334834796525095,0.0387558157147721,-0.3251970437833502,0.2733149049926013,-0.2529345252732956,0.8200330765801224,-1.383143859187692,2.9363966883729846,-0.3740617260186431,0.3309015201483066,-0.4208478506015088,1.4205245146052767,-0.704176390032249,0.8952319034618128,-0.848872986576818,9.50846665923109,-0.9962603271489904,0.3028271043475168,-0.8433413029183896
0.34,0.8042307096314295,-1.3705235340152893,2.9320478510548518,-0.0702277941535865,0.0442689327247355,0.0387669231169636,-0.3362088371579335,0.2902870609106464,-0.2722032008502676,0.8133518420716704,-1.377325828796647,2.928779731372875,-0.4140617266146896,0.3709015207443531,-0.4608478511975553,1.396956986024933,-0.550589668729165,0.8486077959022537,-0.9634337788485992,9.219299098554984,-0.9863794113753448,0.2993300326075057,-0.8572994354497129
0.36,0.7977530530499761,-1.364845557327095,2.9266778428443425,-0.06681662256786,0.0525732400161257,0.0389009102998842,-0.3450974841516672,0.3065269741298632,-0.2921267485026763,0.8056706075483173,-1.3705077983907006,2.920162774357865,-0.454061727210736,0.4109015213403995,-0.5008478517936017,1.3598626564884246,-0.4444323496866825,0.8119956609608403,-0.9961773826204334,9.219299098554984,-0.9766390277317272,0.2960738162625992,-0.87081981340668
0.38,0.7907634664573878,-1.3585396249547708,2.920600314057756,-0.0635493814129106,0.0594542995211477,0.0391626875616275,-0.353367325190827,0.3231590984223532,-0.3146671661270651,0.7969893730100631,-1.362689767969853,2.9105458173279533,-0.4940617278067825,0.4509015219364459,-0.5408478523896482,1.4603837303733416,-0.4134920519579893,0.8316062146244974,-1.1270208812194398,9.146116334533872,-0.967924359661608,0.2930073561901026,-0.8829039930876383
0.4,0.7836163329482214,-1.3519056236292195,2.9140578295381494,-0.0604766041085895,0.0646780094703536,0.0395273838634314,-0.3609305766559234,0.3393307281909773,-0.3385160371161795,0.7730951001978464,-1.342381670033653,2.904866955751402,-0.4533673266809431,0.4231590999124693,-0.4146671676171812,1.4895410614960898,-0.3781625732548227,0.8085814884312092,-1.192443549455721,9.073144854974087,-0.9608705381762294,0.2900612515829908,-0.8928920033508478
0.42,0.7763591684299359,-1.3449409831673662,2.9073418821366093,-0.0577386452969155,0.0679489725017785,0.0399902063092765,-0.3646192310596935,0.3563830167042678,-0.3318953830592987,0.7730951001978464,-1.342381670033653,2.904866955751402,-0.4533673266809431,0.4231590999124693,-0.4146671676171812,0.9330323882264796,-0.1844327201885043,0.8526144256645246,0.3310327028440391,10.76664607557086,-0.9669253923041904,0.287394474135828,-0.8880290263500663
0.44,0.7693998962828117,-1.3380253688524464,2.9010536125743216,-0.0558750509306862,0.0689512253737635,0.0404968055304793,-0.3679397409124452,0.370977067885002,-0.330461354447544,0.7730951001978464,-1.342381670033653,2.904866955751402,-0.4533673266809431,0.4231590999124693,-0.4146671676171812,0.7517788132280693,-0.1660254926375864,0.7297025590367101,0.0717014305877339,10.76664607557086,-0.9650732564185268,0.2876234566861859,-0.8881517052780461
0.46,0.7619988377595566,-1.3304483986451263,2.8944043345215817,-0.0547727752816545,0.0679135071232756,0.0410794440168942,-0.3721100510691109,0.3859871423198053,-0.3347984049318354,0.768561426931037,-1.3381500790345284,2.90072028407523,-0.4733673269789663,0.4431591002104925,-0.4346671679152044,0.8085539998114138,-0.2085155078332817,0.7505037217401617,-0.2168525242145697,10.355304569817235,-0.964594272492152,0.2880436297564619,-0.8874462679221937
0.48,0.7545053582448833,-1.3225754240480767,2.887616410380073,-0.0545006362543529,0.0648578818591747,0.0417067660549458,-0.3771736542659308,0.4005917633956055,-0.3439561499058701,0.7594940803974182,-1.329686897036279,2.892426940722886,-0.5133673275750127,0.4831591008065389,-0.4746671685112508,0.8983308509563868,-0.2531801598409988,0.7302310537900092,-0.4578872487017354,9.760249134398691,-0.965752480860511,0.2886790056074846,-0.8854612700001698
0.5,0.7472802389670405,-1.3148290268588243,2.880959487358058,-0.055046160382992,0.0602369497944308,0.0423361689602449,-0.3833802135094512,0.414156550228648,-0.3562928708199321,0.7504267338637993,-1.3212237150380295,2.884133597370543,-0.5533673281710592,0.5231591014025854,-0.5146671691072973,0.9678836479410474,-0.3103279621760157,0.6782393416521287,-0.6168360457031008,9.760249134398691,-0.9684324619131892,0.2897481914203444,-0.8820177089929492
0.52,0.7395209215385894,-1.306398769656726,2.873671124528003,-0.056536076735708,0.0542040176704609,0.0430016493868644,-0.3925073455297576,0.4282259626012378,-0.372014585407909,0.7393593873003781,-1.310760533009978,2.8738402539883974,-0.5933673287671056,0.5631591019986318,-0.5546671697033437,1.1493750617312517,-0.4563566010153203,0.703470618629487,-0.7860857293988416,9.568130425122945,-0.9723370131626864,0.2912563852888029,-0.8774743155808259
0.54,0.731551733858887,-1.2976827238089386,2.866056531564624,-0.0589317513648526,0.0478155553787939,0.0436352971405138,-0.4041645616409473,0.4429100478347489,-0.3886843499481625,0.728292040736957,-1.3002973509819262,2.863546910606251,-0.6333673293631521,0.6031591025946783,-0.5946671702993902,1.254386400232693,-0.5828608055594875,0.7342042616755556,-0.8334882270126742,9.419317378346932,-0.9777242636951092,0.2933311376970314,-0.8711924206159932
0.56,0.7233197867067729,-1.2886474375683472,2.858102178904479,-0.0613650794695082,0.0418902473449582,0.0442545064592558,-0.4185162978251569,0.4597625298316344,-0.4059006678054435,0.7162246941586345,-1.2888341689389733,2.852253567209204,-0.6733673299591985,0.6431591031907247,-0.6346671708954366,1.4021234623950145,-0.7175868092104798,0.8426240998442747,-0.8608158928640502,9.36868392145061,-0.9828451528504694,0.2953502854956822,-0.8650688935182739
0.58,0.7152102768211256,-1.2797413965820228,2.850221353589637,-0.0630493682725707,0.0374180265663725,0.0448249219445142,-0.4344617620126458,0.4766587840978757,-0.4227844905428133,0.703157347565411,-1.2763709868811193,2.839960223797256,-0.7133673305552449,0.6831591037867711,-0.674667171491483,1.4359706704968735,-0.7972732093744439,0.8448127133120653,-0.844191136868494,9.36868392145061,-0.9872883743484058,0.2969105444184763,-0.8598652606238708
0.6,0.7063248588249103,-1.270016905800066,2.84157009517874,-0.0639507816923656,0.0347508340121192,0.0453587793061113,-0.4533381825169411,0.494809824355908,-0.4414890294932496,0.6934871887204933,-1.255908457377129,2.829082129062496,-0.534461763502762,0.5766587855879919,-0.5227844920329294,1.6090675023535177,-0.943821025214764,0.9075520129016162,-0.9352269475218112,9.35054290862172,-0.9901272406287528,0.2976785601692788,-0.8568250405282726
0.62,0.6970207145376471,-1.2598619514218683,2.8328538863354824,-0.0622845137179464,0.0359721592523972,0.045817538700174,-0.4753435318288559,0.5190631571877613,-0.4290546490856851,0.6934871887204933,-1.255908457377129,2.829082129062496,-0.534461763502762,0.5766587855879919,-0.5227844920329294,1.7514803509546342,-1.1002674655957445,1.2126666415926637,0.6217190203782225,9.309987605471632,-1.0008243441768294,0.2966688979028211,-0.8445303633514059
0.64,0.6878051443670966,-1.2498012230231053,2.824777111882412,-0.0581948429424837,0.0407014407775643,0.0462045651710393,-0.493140420007188,0.5381381192634189,-0.421757398244731,0.6934871887204933,-1.255908457377129,2.829082129062496,-0.534461763502762,0.5766587855879919,-0.5227844920329294,1.3544678630883389,-0.8898444089166013,0.953748103782881,0.3648625420477058,10.732409129562257,-1.0002748012390017,0.29545006248145,-0.8432926140787361
0.66,0.6777763428740141,-1.2388634431784564,2.8163598459614696,-0.0533364556118694,0.0478293696800507,0.0465394325498864,-0.5084246410177329,0.554505450196286,-0.420640349901402,0.6881425710854657,-1.2501418695212492,2.8238542841421665,-0.5544617638007852,0.5966587858860151,-0.5427844923309526,1.121098491175625,-0.7642110505272443,0.8183665466433565,0.055852417166452,10.732409129562257,-0.9962640666382504,0.2932364069188332,-0.8472685337990007
0.68,0.6674756080182097,-1.227621221133278,2.8078978758259194,-0.0487873594282853,0.0559110273709256,0.0468238807229419,-0.52059822580894,0.5688834993367029,-0.425867078686009,0.6774533358154105,-1.2386086938094891,2.8133985943015083,-0.5944617643968316,0.6366587864820615,-0.5827844929269991,0.9775519903575344,-0.6086792395603557,0.7189024570208424,-0.261336439230353,10.296330898785529,-0.9900058424454026,0.29063294150261,-0.8547381060520783
0.7000000000000001,0.6569608897779475,-1.2161062431543703,2.799269254746402,-0.0448487250308204,0.063999475919296,0.0470863815196812,-0.5300839916773895,0.5819912971488272,-0.4367205833510816,0.6667641005453552,-1.2270755180977295,2.8029429044608496,-0.6344617649928781,0.676658787078108,-0.6227844935230455,0.9741569189680463,-0.4742882934224757,0.6553898906062172,-0.5426752332536311,9.932739655787373,-0.9832572517214768,0.2882141171236395,-0.8630566453921626
0.72,0.6468179243894323,-1.2049326182793905,2.790829610599518,-0.0417265442552857,0.0710909088351839,0.0473331511879524,-0.5370425178904734,0.5936343833158342,-0.4511317649088587,0.6540748652454976,-1.213542342356167,2.7904872145903887,-0.6744617655889246,0.7166587876741545,-0.662784494119092,0.989526018406968,-0.3479263106541952,0.5821543083503466,-0.7205590778888549,9.64459506003368,-0.9760207966341156,0.2857954566463835,-0.8721814487956001
0.74,0.636017206866521,-1.1929384326294417,2.7816259828302163,-0.0391142485327815,0.0775141762776579,0.047596780609601,-0.5425933740732872,0.6052678926930801,-0.4685860946526766,0.6413856299456401,-1.200009166614605,2.778031524719928,-0.714461766184971,0.7566587882702009,-0.7027844947151385,1.084901114847196,-0.2775428091406906,0.5816754688622972,-0.8727164871908916,9.419853907576908,-0.9692699432696016,0.2835459913618914,-0.8809779364774616
0.76,0.6251154943923516,-1.1807064225649833,2.7720542715385696,-0.0368758304316457,0.0827504894128617,0.0478818529575572,-0.5472624015222421,0.6172915215795235,-0.4877856336475245,0.6276963946308813,-1.1854759908581418,2.7645758348345657,-0.7544617667810174,0.7966587888662473,-0.7427844953111848,1.1564922897848224,-0.233451372447746,0.6011814443221686,-0.9599769497423972,9.305813483089878,-0.9630556281634068,0.2814896974613496,-0.889067647085659
0.78,0.6141273640941372,-1.1682347500421035,2.762081686209295,-0.0346519431144278,0.0869216029631377,0.0482023695998608,-0.5513098213574543,0.6291547669697686,-0.5085182152871692,0.6130071593012215,-1.1699428150867774,2.7501201449343022,-0.7944617673770639,0.8366587894622938,-0.7827844959072313,1.2113609494656954,-0.2023709917606087,0.593162269512254,-1.0366290819822348,9.227874858475843,-0.9578108019932804,0.2794210940819518,-0.8960925791839864
0.8,0.6036176852439727,-1.1561705238302535,2.752210972455005,-0.0324690603083071,0.0900388878484119,0.0485360649008692,-0.5547688679771097,0.6400553404926764,-0.5294728237061319,0.5865618730262644,-1.1367770116936151,2.7366557754449365,-0.6513098228475704,0.7291547684598847,-0.6085182167772853,1.193611243912073,-0.1729523309827674,0.5450286761453926,-1.0477304209481342,9.097672800732653,-0.9529925064288072,0.2771091445446003,-0.9027515343002424
0.8200000000000001,0.5925089287141815,-1.1432376053037268,2.74169021235939,-0.0299428630351925,0.0927165704370295,0.0489154772201849,-0.5557446459158087,0.6525273764514351,-0.5198972154835968,0.5865618730262644,-1.1367770116936151,2.7366557754449365,-0.6513098228475704,0.7291547684598847,-0.6085182167772853,0.7877120291923048,-0.0487888969349536,0.6236017979379338,0.4787804111267557,9.097672800732653,-0.9568387243754308,0.2738063813042498,-0.9017792308387828
0.84,0.58139407214528,-1.1300775887447123,2.7313661476281994,-0.0276498105311592,0.0947584304561828,0.0492883289630415,-0.5557441019986671,0.6629455794938507,-0.5135116473115067,0.5865618730262644,-1.1367770116936151,2.7366557754449365,-0.6513098228475704,0.7291547684598847,-0.6085182167772853,0.6109714310204154,2.7195857082995545e-05,0.5209101521207793,0.3192784086045064,10.60691970940843,-0.9547433481098272,0.2738611215070468,-0.9020118450702792
0.86,0.5708359118408692,-1.117388550986074,2.7216022885248785,-0.0260439802841941,0.0957862835798196,0.0496174762954731,-0.555741957867768,0.6723140250323857,-0.5145513055494922,0.5800487747977887,-1.1294854640090162,2.730570593277164,-0.6713098231455936,0.7491547687579079,-0.6285182170753085,0.4712978507738097,0.0001072065449525,0.4684222769267498,-0.0519829118992787,10.60691970940843,-0.952540795103203,0.2737163316762983,-0.9031037803124708
0.88,0.5597191956906796,-1.1038458423493134,2.7112484824570693,-0.0249912361876229,0.0958309324398367,0.0499341842430514,-0.5560264088137905,0.681494179607706,-0.5210091887961043,0.5670225783408372,-1.1149023686398185,2.718400228941618,-0.7113098237416401,0.7891547693539543,-0.668518217671355,0.5613831276284029,-0.0142225473011237,0.4590077287660143,-0.3228941623306003,10.203707137754463,-0.9511515221152472,0.2736086679149913,-0.9039101261658634
0.9,0.5485933195364073,-1.090125715477521,2.700714031821478,-0.0247932898189114,0.0947345269356118,0.050207524574296,-0.5566433634057931,0.6901552879966915,-0.5320881904261402,0.5539963818838859,-1.1003192732706208,2.706229864606072,-0.7513098243376866,0.8291547699500008,-0.7085182182674015,0.7038105366728444,-0.0308477296001308,0.4330554194492741,-0.5539500815017973,9.664799535863494,-0.950947490079696,0.2739172344089449,-0.9036710836308168
0.92,0.5380089472393217,-1.0769338933261727,2.690469945830226,-0.025522470393586,0.0925215570484732,0.0504234594463402,-0.5575664974106315,0.6981269944879247,-0.5456720341164977,0.5389701853971322,-1.0837361778716208,2.692059500240724,-0.791309824933733,0.8691547705460473,-0.7485182188634479,0.7888616643260778,-0.0461567002419172,0.3985853245616622,-0.6791921845178739,9.664799535863494,-0.9517855516123176,0.2747073972414554,-0.90255794170582
0.94,0.5268442136268523,-1.0628847029127408,2.679395108587724,-0.0273949061194262,0.0888076829981894,0.0506057994050274,-0.5589766684818384,0.7064835064661681,-0.5611352856650104,0.5239439889103784,-1.0671530824726208,2.677889135875376,-0.8313098255297795,0.9091547711420938,-0.7885182194594944,0.8816632340995825,-0.0705085535603444,0.4178255989121693,-0.7731625774256345,9.431816937091751,-0.9541209605529088,0.2761861000846884,-0.8999575699383849
0.96,0.5156367289232248,-1.048649939760452,2.668005596155788,-0.0300011434038847,0.0837472530064604,0.0507793321797236,-0.5619768301011087,0.7167585823484308,-0.577051973496045,0.5079177924087235,-1.0495699870587196,2.662718771495127,-0.8713098261258259,0.94915477173814,-0.8285182200555408,0.9590608761160644,-0.1500080809635151,0.5137537941131365,-0.7958343915517307,9.41167321778994,-0.9572766304609602,0.2783489885912119,-0.8961400112890708
0.98,0.504342663498294,-1.0341896839171882,2.6562940828178987,-0.0323105208070444,0.078030351816877,0.0510025198207089,-0.5674636943766441,0.728593711374877,-0.5932868143844305,0.4908915958921674,-1.0309868916299172,2.6465484070999765,-0.9113098267218724,0.9891547723341866,-0.8685182206515872,1.0413284992282372,-0.2743432137767732,0.5917564513223117,-0.811742044419278,9.41167321778994,-0.9615596364244784,0.28034681661979,-0.8909295718687034
1.0,0.4934899896517448,-1.0202261697297783,2.644863810517708,-0.0338625000015427,0.0726711983013816,0.0512627048648812,-0.5747331956351538,0.7404815476471537,-0.6090726604702619,0.4759694787794618,-0.9977599983484444,2.626629742098677,-0.6513861923047867,0.8285937128649932,-0.6932868158745467,1.052804868469801,-0.3634750629254835,0.5943918136138315,-0.7892923042915667,9.397177049560923,-0.9666898362031516,0.2819868339707909,-0.884757578117184
1.02,0.4818302291484161,-1.0052335135017625,2.6328016835616985,-0.0333447459065576,0.0703789543185747,0.0515695756081364,-0.5909133000283039,0.7577980795385237,-0.5947064019785183,0.4759694787794618,-0.9977599983484444,2.626629742098677,-0.6513861923047867,0.8285937128649932,-0.6932868158745467,1.38568343965141,-0.8090052196575048,0.8658265945685029,0.7183129245871778,9.376286181298385,-0.9728832265019974,0.2789721012355592,-0.8825925729117912
1.04,0.4698569978298348,-0.98991714182922,2.6210355194902504,-0.0300593368031264,0.0741903261852418,0.0518572916377745,-0.6048696930235493,0.772563300042676,-0.5830705675070353,0.4759694787794618,-0.9977599983484444,2.626629742098677,-0.6513861923047867,0.8285937128649932,-0.6932868158745467,1.1706678497995564,-0.6978196497622713,0.7382610252076149,0.5817917235741488,11.45813286349403,-0.9740087693859348,0.2790141634204234,-0.8784126198889561
1.06,0.4582641557554375,-0.975127493375453,2.609993121531518,-0.0258981863201116,0.0813611867292221,0.0521032792897654,-0.6142302840259435,0.7833179989629625,-0.5798136992083452,0.4694556168564139,-0.9894740612197944,2.619696873939932,-0.6681706918904152,0.8485937131630163,-0.7132868161725698,0.7312513314434478,-0.4680295501197085,0.5377349460143233,0.1628434149345048,10.958739052105557,-0.9695349452511316,0.277484581184583,-0.8818955124709906
1.08,0.4459121391053099,-0.9593639438372894,2.5983691157980444,-0.021664729183243,0.0907670580274726,0.0523256605272652,-0.6200809689331364,0.792477071775619,-0.5830665807185414,0.4564278930103182,-0.9729021869624946,2.605831137622441,-0.7017396910616722,0.8885937137590628,-0.7532868167686163,0.5672309203273699,-0.2925342453596435,0.4579536406328244,-0.1626440755098102,10.449611408321289,-0.9618899401695542,0.2752703086995945,-0.8896679350694797
1.1,0.4334808631226388,-0.94342940088585,2.5866147723745545,-0.0180068212828748,0.1006519972468402,0.0525218123543692,-0.6224749741676397,0.8005773787548319,-0.5924661857899652,0.4434001691642225,-0.9563303127051948,2.59196540130495,-0.7353086902329292,0.9285937143551092,-0.7932868173646628,0.6318599720647194,-0.1197002617251696,0.4050153489606467,-0.4699802535711894,9.71179500978269,-0.9525089146171766,0.2732498066286292,-0.8992697286005567
1.12,0.4210333409772097,-0.9273407077231932,2.574613910144547,-0.0150302692509226,0.1099781692364954,0.0526990906106173,-0.6220169402364415,0.8080213733646743,-0.6071587166220646,0.4286939953595639,-0.9377584384180926,2.5760996649576566,-0.7688776894041862,0.9685937149511558,-0.8332868179607092,0.823852706928975,0.0229016965599127,0.3721997304921176,-0.7346265416049658,9.71179500978269,-0.9429106112373852,0.271327900460959,-0.9093936193341696
1.14,0.409240539553306,-0.911922459476024,2.562915084338669,-0.0128143140409818,0.1177013217909359,0.0528513918200081,-0.6193246331801692,0.8147098888957761,-0.6235825310817706,0.4139878215549053,-0.9191865641309904,2.560233928610363,-0.8024466885754433,1.0085937155472022,-0.8732868185567557,0.896836716885932,0.1346153528136162,0.3344257765550917,-0.8211907229853044,9.457841714215649,-0.9334101990098213,0.2692799174927892,-0.9197802478027708
1.16,0.3968966168748504,-0.8955499071950328,2.550244230696657,-0.0108267793480858,0.1243608084675524,0.053008935728987,-0.6151623653545377,0.8221531379318717,-0.6427341657777179,0.3984424227709653,-0.899614689828987,2.543368192248169,-0.8360156877467003,1.0485937161432486,-0.913286819152802,1.0482265275128229,0.2081133912815724,0.3721624518047806,-0.9575817347973636,9.3407274001911,-0.9246543601286809,0.267363724824649,-0.9292951454690072
1.18,0.3846469125080896,-0.8790279689935935,2.537173791612485,-0.0088796127208749,0.1295008116051329,0.05317811444443,-0.6100087570328436,0.8295799061784568,-0.6634223957919202,0.3820577990077439,-0.8790428155120825,2.525502455871073,-0.8695846869179573,1.088593716739295,-0.9532868197488484,1.128848336184337,0.2576804160847046,0.3713384123292529,-1.034411500710114,9.254670632354646,-0.916990593259428,0.265342258617935,-0.9377062911223876
1.2,0.3725078707023019,-0.8623599435439009,2.5236745362639192,-0.0068518615546867,0.1331625487692405,0.0533607154855476,-0.6042162392140444,0.8367267117256144,-0.6854775688237824,0.3541464746564474,-0.8375489736846706,2.5040026718228896,-0.6701442780275069,0.9295799076685728,-0.7634223972820363,1.194843870214192,0.2896258909399596,0.3573402773578815,-1.102758651593111,9.188683936469715,-0.9107614012689214,0.263251763940618,-0.9446872518734802
1.22,0.3610747573579151,-0.8463814268330444,2.510747955065924,-0.0043530777896573,0.1370935650872901,0.0535656579029957,-0.5990716308750202,0.8444344613039608,-0.6741123656223031,0.3541464746564474,-0.8375489736846706,2.5040026718228896,-0.6701442780275069,0.9295799076685728,-0.7634223972820363,0.7332193436062826,0.2572304169512096,0.3853874789173206,0.5682601600739634,9.131193312286086,-0.9060148071643068,0.2550384423695037,-0.9581351168371688
1.24,0.3491721372913481,-0.8294350894210347,2.4973454469556184,-0.0016491149508698,0.1427514059407438,0.0537774125591447,-0.5912142198452028,0.8498752251805671,-0.667197823595654,0.3541464746564474,-0.8375489736846706,2.5040026718228896,-0.6701442780275069,0.9295799076685728,-0.7634223972820363,0.589812917565343,0.3928705514908703,0.2720381938303151,0.3457271013324547,11.173080511602166,-0.9003520580214656,0.2554031221707016,-0.9603115916309762
1.26,0.3374514465772779,-0.8123875582621867,2.484002073248539,0.0004775788129523,0.1486622130349247,0.053947297892397,-0.5811174896770909,0.8547086117822267,-0.667802077799021,0.3474450318761723,-0.8282531746079849,2.4963684478500694,-0.6821713822264395,0.949579907966596,-0.7834223975800595,0.5605147394829395,0.5048365084055983,0.2416693300829775,-0.030212710168348,10.280259772230238,-0.8939269105026654,0.255696178647259,-0.9638635016275664
1.28,0.3259512739447932,-0.7952483059822034,2.470574827582406,0.0019229926383665,0.1537785265039686,0.0540651566317459,-0.5694128293382691,0.8590944205433697,-0.6748783853017178,0.3340421463156222,-0.8096615764546135,2.4810999999044285,-0.7062255906243048,0.9895799085626426,-0.823422398176106,0.718172193852613,0.5852330169410891,0.2192904380571514,-0.3538153751348416,9.9549257036133,-0.8870697902856338,0.2556575056973944,-0.9686754557077546
1.3,0.3152533476817594,-0.7788889310212389,2.4576432774199914,0.0025307814272741,0.1573652062630583,0.0541137474928724,-0.5573588947907927,0.8628236360573488,-0.6859822050238286,0.320639260755072,-0.791069978301242,2.465831551958788,-0.7302797990221701,1.029579909158689,-0.8634223987721524,0.8403856240525567,0.6026967273738193,0.1864607756989544,-0.555190986105536,9.717726945232243,-0.8807516057168578,0.2557233515497525,-0.9735189586920822
1.32,0.3042435502652891,-0.7615962827331308,2.4437680487139968,0.0021256405710193,0.159556586083993,0.0540773789183411,-0.5443629248308766,0.8663353498889995,-0.7011061305604237,0.3060336647746287,-0.7704783801180682,2.4485631039833446,-0.7543340074200354,1.0695799097547354,-0.9034223993681988,1.0123740574398927,0.6497984979958071,0.175585691582536,-0.756196276829757,9.717726945232243,-0.8754849091449103,0.2563679039494947,-0.9775881132333254
1.34,0.2934987529420219,-0.7442348403172292,2.4295739851031333,0.0004084488537599,0.159965330165215,0.0539355589317611,-0.5309170177956871,0.8698030097657484,-0.7175262437125483,0.2914280687941852,-0.7498867819348944,2.4312946560079016,-0.7783882158179007,1.109579910350782,-0.9434223999642454,1.0752176488371377,0.6722953517594721,0.1733829938374453,-0.8210056576062275,9.535535790305405,-0.8722083024187616,0.2575788023802135,-0.9802818918607116
1.36,0.2835412756719272,-0.7276623484881686,2.4157825664792534,-0.0021424043821605,0.158555908840218,0.0537316113130657,-0.5180351602769706,0.8746930693251757,-0.7333711037832079,0.2762211176037952,-0.7282951837368196,2.4130262080175573,-0.802442424215766,1.1495799109468283,-0.9834224005602918,1.049898240647687,0.6440928759358255,0.2445029779713614,-0.792243003532983,9.488356916738669,-0.8711869934692545,0.2598455663659337,-0.9806205414708764
1.38,0.2733214584928235,-0.7100963417702953,2.400937332890348,-0.0048910702990711,0.1549845421579427,0.053520168046183,-0.5047445823947034,0.8816526300679438,-0.7503153717872387,0.2604128112034585,-0.7057035855238435,2.393757760012312,-0.8264966326136313,1.189579911542875,-1.0234224011563382,1.1315732017520028,0.6645288941133587,0.3479780371384078,-0.8472134002015408,9.478098387210594,-0.8732464316000166,0.262554568536453,-0.9777367070458206
1.4,0.2633561256401845,-0.6923788481120121,2.385753435875627,-0.0071502074918131,0.1492214052186134,0.0533619302256374,-0.4929013999630373,0.8895804131525616,-0.7671852458304751,0.2480842293730883,-0.6660137102668982,2.363421564300986,-0.5324655850926481,0.98165263155806,-0.8503153732773548,1.104200349779352,0.592159121583305,0.3963891542308917,-0.8434937021618183,9.459604713172666,-0.8765348976815089,0.2647340475137915,-0.9738441459176826
1.42,0.2540116745393356,-0.6753436291362628,2.3713180313715783,-0.0069044403247103,0.1460262623420853,0.0533630567791794,-0.4909647883989658,0.9023472693284,-0.7514837712897396,0.2480842293730883,-0.6660137102668982,2.363421564300986,-0.5324655850926481,0.98165263155806,-0.8503153732773548,1.0164637028910637,0.0968305782035772,0.6383428087919252,0.7850737270367725,9.45566710689218,-0.8733360061346572,0.2585769475295637,-0.9848975570456628
1.44,0.2442367496578023,-0.6571843892481337,2.356417790412931,-0.0036003526969624,0.1482371760407186,0.0535283127565562,-0.4860224227057364,0.912490479630118,-0.7398025839124749,0.2480842293730883,-0.6660137102668982,2.363421564300986,-0.5324655850926481,0.98165263155806,-0.8503153732773548,0.8120373027349984,0.2471182846614683,0.507160515085886,0.5840593688632378,11.572533058498266,-0.8746332492163112,0.2595670093768057,-0.979015981642828
1.46,0.2345968361002109,-0.6388625920212333,2.3416695058480768,0.0008796239600145,0.1535589352591569,0.0537654209739283,-0.4778515511336629,0.9189716274823788,-0.7359473777620976,0.2427595735221618,-0.6561971839513175,2.354918410568213,-0.538009785632237,1.0016526318560832,-0.870315373575378,0.5559474664752342,0.4085435786036762,0.3240573926130474,0.1927603075188633,10.558736957122164,-0.8703253867206993,0.2582477012241621,-0.9803412943084132
1.48,0.2256120736960205,-0.6213598701131976,2.327658743438018,0.0049677108111587,0.1600472374607058,0.0539919929594602,-0.4680363054990534,0.9231557267992452,-0.7390559991946748,0.2321102618203089,-0.6365641313201563,2.3379121031026657,-0.5490981867114149,1.0416526324521296,-0.9103153741714244,0.5556736028735724,0.4907622817304724,0.2092049658433126,-0.1554310716288587,10.558736957122164,-0.862641375823935,0.256177455550303,-0.98550470482211
1.5,0.2163752309273053,-0.6028623509031393,2.3127938058427904,0.0086379406861427,0.16752583842741,0.0542047470419436,-0.455934598322421,0.9264673344897478,-0.7475235756172608,0.2214609501184559,-0.6169310786889951,2.320905795637118,-0.5601865877905927,1.0816526330481762,-0.950315374767471,0.7568320694795653,0.6050853588316224,0.165580384525138,-0.4233788211292999,10.17955282438288,-0.8545910688935886,0.2543045819429691,-0.9912594081299272
1.52,0.2074062154731822,-0.5843051154916516,2.297708056471805,0.011515727023266,0.174844705547345,0.0543726034958265,-0.4414492714079229,0.9292626110753632,-0.7606375990927414,0.2102572183626441,-0.5952980260280316,2.3018994881417694,-0.5712749888697706,1.1216526336442223,-0.9903153753635174,0.9869344946923138,0.7242663457249027,0.1397638292807757,-0.6557011737740315,9.891695031585186,-0.8463814285910453,0.2524754685058333,-0.9977260392823516
1.54,0.1987517669084504,-0.5656950603032194,2.282336837040703,0.0136436422908118,0.1811589246086926,0.0544817138471891,-0.4247189365929434,0.9317761139131764,-0.7758437479450396,0.1990534866068322,-0.573664973367068,2.28289318064642,-0.5823633899489484,1.161652634240269,-1.030315375959564,1.1373750068197153,0.8365167407489743,0.1256751418906521,-0.7603074426149103,9.58399476158229,-0.8387141400897367,0.2506439265847282,-1.004395301533111
1.56,0.190855524106491,-0.5479623068900361,2.2674401646416467,0.0152870632077431,0.1857437214163354,0.0545386070451896,-0.4073718725791281,0.934676020348878,-0.791473994955324,0.1875725448240409,-0.5510319206912034,2.262886873136169,-0.5934517910281263,1.2016526348363157,-1.0703153765556104,1.176472172256672,0.8673532006907653,0.1449953217850796,-0.7815123505142185,9.58399476158229,-0.8319416362272551,0.2490710600350953,-1.0101413212172137
1.58,0.1829079478769184,-0.529236899865334,2.251426810598042,0.0168894845043854,0.1888785958431297,0.0545584631312353,-0.3883696103862181,0.9376673791486804,-0.80909017632339,0.1758143930142702,-0.5273988680004376,2.2418805656110177,-0.6045401921073041,1.2416526354323618,-1.1103153771516567,1.304189443591162,0.9501131096455034,0.149567939990125,-0.8808090684032988,9.48005768006078,-0.8267022847430429,0.2476831800558011,-1.0144240266399396
1.6,0.1753468880523458,-0.5104529007717581,2.2350504317913966,0.0184536097012281,0.19016328430529,0.0545356459340577,-0.368855155605543,0.9405066108465592,-0.8276555991048762,0.1634894673576074,-0.4823535309078999,2.2109723017818723,-0.3996561391672745,1.0376673806387966,-0.909090177813506,1.3542065066641231,0.9757227390337548,0.1419615848939348,-0.9282711390743104,9.48005768006078,-0.8231448700638822,0.2462137374012327,-1.01741569286233
1.62,0.1681799689012904,-0.4915927950720527,2.2186400842845693,0.0210057637089753,0.1916175010000995,0.0545748568506816,-0.3483827865365998,0.9446188797026892,-0.8124940425511474,0.1634894673576074,-0.4823535309078999,2.2109723017818723,-0.3996561391672745,1.0376673806387966,-0.909090177813506,1.290253315798911,1.0236184534471586,0.2056134428065015,0.7580778276864375,11.52398678055124,-0.805772487048954,0.2348972193596787,-1.0426076766136128
1.64,0.1617674812305856,-0.4736366813867698,2.203297746536923,0.0238131120309336,0.1942130887248732,0.0546556770942337,-0.3275216819926642,0.9453940954563718,-0.8033496460624314,0.1634894673576074,-0.4823535309078999,2.2109723017818723,-0.3996561391672745,1.0376673806387966,-0.909090177813506,1.1395247138616735,1.043055227196782,0.0387607876841278,0.4572198244358005,11.52398678055124,-0.8049835042430684,0.236679409803476,-1.0378559872648492
1.66,0.1554601647092801,-0.4547318570659382,2.1872682230570453,0.0261758956248528,0.196969813861938,0.0546929465310871,-0.3043028070040326,0.9451939678429996,-0.8003742821242256,0.1594929059659347,-0.4719768571015119,2.201881400003737,-0.4019134449234858,1.0576673809368198,-0.9290901781115292,1.1704795997411814,1.1609437494315782,-0.0100063806686145,0.1487681969102927,11.044358538451888,-0.8038644794124911,0.2381531171383612,-1.0344037919992086
1.68,0.1496259012356212,-0.4358361197118308,2.171237170639674,0.0276638383303186,0.1987608039133406,0.0546352815165609,-0.2803819974497353,0.9445083425771964,-0.8030850289423528,0.1514997831825892,-0.4512235094887359,2.1836995964474677,-0.4064280564359083,1.0976673815328664,-0.9690901787075756,1.2041837069671473,1.196040477714866,-0.0342812632901534,-0.1355373409063609,10.635398654221715,-0.8024550656521627,0.2395589667025618,-1.032114133100506
1.7,0.1442742769145287,-0.4169603360422824,2.155101084660791,0.0279884531870665,0.1988938945051503,0.0544405169739897,-0.2561403190461652,0.9432886587992206,-0.8103429358625646,0.1435066603992437,-0.43047016187596,2.165517792891197,-0.4109426679483309,1.1376673821289127,-1.0090901793036222,1.2667120955477906,1.2120839201785027,-0.0609841888987883,-0.3628953460105888,10.320479619405887,-0.8019974335121616,0.2411618712306262,-1.0299422251660002
1.72,0.1396418865823861,-0.3990545678614867,2.139607430837617,0.0269240660702543,0.1969545185341362,0.0540949463171603,-0.2328327359736365,0.9417901621231534,-0.820169890740414,0.1352878070402771,-0.4077168142333818,2.1453359893051247,-0.4154572794607534,1.177667382724959,-1.0490901798996686,1.2669431352100022,1.1653791536264348,-0.0749248338033636,-0.4913477438924729,9.919513557589198,-0.8031595214558074,0.2434834506853105,-1.026928378957038
1.74,0.1352441664923191,-0.3802366399085754,2.123086398754796,0.0240851384751651,0.1921523880913693,0.0535409101259363,-0.2085291686088411,0.940435119841492,-0.831387328380691,0.1270689536813105,-0.3849634665908035,2.1251541857190523,-0.419971890973176,1.2176673833210057,-1.0890901804957152,1.3400843569097984,1.2151783682397692,-0.0677521140830694,-0.560871882013847,9.919513557589198,-0.8057912565722082,0.2468947895706356,-1.0230255406437534
1.76,0.1313096321369943,-0.3614155191427424,2.106342626115439,0.020263388565422,0.1846830401207066,0.052877821384927,-0.1866037248258408,0.9419264641979816,-0.8423595710623235,0.1187372350345333,-0.3612101189333241,2.1039723821180787,-0.4244865024855986,1.257667383917052,-1.1290901810917615,1.2281483038865662,1.096272189150016,0.0745672178244782,-0.5486121340816275,9.858860870554963,-0.8109869118813856,0.2511901653902659,-1.0168736110855852
1.78,0.1277837544128983,-0.3425448384861556,2.089382003666997,0.0165489412926711,0.1752528569085122,0.0522202790779051,-0.1675682854065795,0.9450458738430888,-0.853084405792299,0.1102926510999456,-0.3364567712609435,2.081790578502204,-0.4290011139980211,1.2976673845130984,-1.169090181687808,1.1035179545476883,0.9517719709630652,0.1559704822553687,-0.536241736498777,9.858860870554963,-0.8183081950843994,0.2553493845456895,-1.0088290632879138
1.8,0.1247567660824271,-0.3245507438644933,2.07307057881372,0.0134418670805557,0.165100304786448,0.0516440004877495,-0.1524004987232693,0.9488355446788768,-0.8633178481840627,0.1194053401425693,-0.2952925447940011,2.046727783377382,-0.1750362891862292,1.045045875333205,-0.9530844072824152,0.9342733822329078,0.7583893341655101,0.1894835417893869,-0.5116721195881802,9.815038948750043,-0.8277187743290713,0.2593578097874112,-0.9988486639560588
1.82,0.1218237085331607,-0.3054655979297222,2.056007561728844,0.0129060702122633,0.1561373011053947,0.0512765344378685,-0.1417066643639992,0.958730978842288,-0.8408009029952476,0.1194053401425693,-0.2952925447940011,2.046727783377382,-0.1750362891862292,1.045045875333205,-0.9530844072824152,1.3409796150781124,0.5346917179635063,0.494771708170566,1.1258472594407545,9.815038948750043,-0.8233391554385484,0.2502812071839785,-1.0147519488736223
1.84,0.1190828201085133,-0.2862194953654726,2.0393981743791607,0.0158306322526024,0.1516690922433528,0.0511952745364389,-0.1328518200437774,0.9650094334946694,-0.8218056124663579,0.1194053401425693,-0.2952925447940011,2.046727783377382,-0.1750362891862292,1.045045875333205,-0.9530844072824152,1.0939016443838776,0.4427422160110883,0.3139227326190708,0.9497645264444854,12.091916196974124,-0.8319934724295197,0.2536841954807595,-1.0001321960999048
1.86,0.1165231622042589,-0.2668903936246266,2.023072879340594,0.0199932515731593,0.1506022871502065,0.0512332598984794,-0.123258118658031,0.9674068350577284,-0.811644746227387,0.117654977250707,-0.2848420860406691,2.037196939304557,-0.1765298899421592,1.0650458756312282,-0.9730844075804383,0.7089249665156501,0.4796850692873181,0.1198700781529449,0.5080433119485417,11.528825926688114,-0.8370413899017277,0.2547287874132072,-0.9902319186831908
1.88,0.1142818682288975,-0.2485071478818008,2.0076839582322807,0.0236551009911532,0.1512347368252438,0.05127089646088,-0.1130340285905614,0.9676813749136692,-0.8087344084770932,0.1141542514669824,-0.263941168534005,2.018135251158909,-0.1795170914540191,1.1050458762272748,-1.013084408176485,0.5316894198237747,0.5112045033734823,0.0137269927970529,0.1455168875146906,10.971832286336394,-0.8386799963815065,0.2547255882147939,-0.9849217669067848
1.9,0.1121417427056704,-0.2291612941055428,1.9914894593295565,0.0267064955500435,0.1525559400891318,0.0512648665932134,-0.101473501429716,0.9670429709101008,-0.8111051346155076,0.1106535256832578,-0.2430402510273409,1.999073563013261,-0.182504292965879,1.1450458768233212,-1.0530844087725313,0.5909181210873821,0.5780263580422683,-0.0319202001784202,-0.118536306920719,10.544480221190495,-0.8384834861452242,0.2543547482016457,-0.9824648896891364
1.92,0.1102391397471785,-0.20983264820646,1.9751984894778316,0.0288204245472314,0.1538389394780887,0.0511890139364361,-0.0893772632810108,0.9660323763203068,-0.8180440719221221,0.1070034398239402,-0.2201393334908744,1.9780118748378104,-0.1854914944777388,1.1850458774193675,-1.0930844093685776,0.6990871364147668,0.6048119074352605,-0.0505297294897066,-0.3469468653307272,10.220317600205815,-0.8379044748602166,0.2539814352428033,-0.981320924099113
1.94,0.1085833748399636,-0.1905286586499683,1.958740982513972,0.0299485001757993,0.1546266277939831,0.0510268263434336,-0.0768313688520526,0.9645095064165966,-0.8273398385820928,0.1033533539646227,-0.197238415954408,1.95695018666236,-0.1884786959895988,1.225045878015414,-1.1330844099646242,0.7844263470250317,0.6272947214479123,-0.07614349518551,-0.4647883329985336,9.9722610028075,-0.8366182413906922,0.2532537936219998,-0.9819713149258548
1.96,0.1072461135880652,-0.1722158727847137,1.9429209968319008,0.0301002359104632,0.1546460201773896,0.0507841047850109,-0.064664704537642,0.9632892055713802,-0.8374476673407202,0.0996285880675086,-0.1733374984030404,1.934888498472008,-0.1914658975014586,1.2650458786114605,-1.1730844105606706,0.7932292495018722,0.6083332157205273,-0.0610150422608202,-0.5053914379313684,9.79382760374756,-0.8356741481551274,0.2529435162558875,-0.9827049394494398
1.98,0.1060874382505603,-0.1529628540302517,1.9260477434572127,0.0294109321194094,0.1537526284408535,0.0504407966774283,-0.0518959716789841,0.9621317773997856,-0.8493999183013041,0.095829142132598,-0.1484365808367717,1.911826810266755,-0.1944530990133186,1.3050458792075068,-1.213084411156717,0.8764081266923408,0.6384366429328964,-0.0578714085797293,-0.5976125480291972,9.79382760374756,-0.8357370283523493,0.2533421572150988,-0.982488086954851
2.0,0.1051849457718232,-0.1337297769740119,1.9089233842981392,0.0278798594691857,0.1516586836795279,0.050006111198433,-0.0390593788849886,0.9613009339276084,-0.8624718064271584,0.1034926396666111,-0.1048562651602624,1.883577747542148,-0.0580944645114659,1.0621317788899018,-0.9493999197914202,0.9169823807044576,0.6418296396997755,-0.041542173608855,-0.6535944062927124,9.71797243097808,-0.8369643418383044,0.2543428901225877,-0.9812910496766536
2.02,0.1045811865627985,-0.1154260941397196,1.8927571520350013,0.0274642965030243,0.149413931865002,0.0496614661672651,-0.0252238061091061,0.964797610270059,-0.8385715163169387,0.1034926396666111,-0.1048562651602624,1.883577747542148,-0.0580944645114659,1.0621317788899018,-0.9493999197914202,1.3918276535128689,0.6917786387941219,0.1748338171225216,1.1950145055109829,9.656662642574702,-0.8250218469961829,0.2420799878671176,-1.0070622918138288
2.04,0.1042182533461088,-0.0961171790022376,1.876198976051284,0.0286823847212293,0.1480444037603683,0.0494373713848302,-0.0117940590671722,0.965871128567242,-0.8189893302088154,0.1034926396666111,-0.1048562651602624,1.883577747542148,-0.0580944645114659,1.0621317788899018,-0.9493999197914202,1.1884575717267931,0.6714873520966955,0.0536759148591525,0.9791093054061673,12.106695076469803,-0.8307015544130208,0.2477440850044368,-0.9936128266961456
2.06,0.1041217798006638,-0.0768018771512858,1.8599449441609075,0.0303848384146843,0.1471199764033683,0.0492538210959172,0.0014213338324257,0.9656337645219782,-0.8077140379505543,0.1029116950214965,-0.0942349473713634,1.8740837483442336,-0.0593341630779623,1.082131779187925,-0.9693999200894434,0.8686702002053668,0.6607696449799029,-0.0118682022631877,0.5637646129130536,11.5271608081448,-0.8351256115881969,0.2518022298925611,-0.9829287740070112
2.08,0.1042858053389986,-0.0575038445561566,1.8438355041442795,0.0318410625341457,0.145933378066011,0.0490399214852287,0.0142287433059686,0.9643127591072864,-0.8037387436252763,0.1017498057312672,-0.0729923117935653,1.855095749948405,-0.0618135602109551,1.1221317797839716,-1.00939992068549,0.6737539567624596,0.6403704736771441,-0.0660502707345855,0.1987647162638994,11.000001544464794,-0.8385584643317868,0.2545527412944359,-0.9748725440907215
2.1,0.1046747475954409,-0.0392040109071531,1.8285526059592772,0.0324822815033353,0.1441445129516642,0.0487607428367356,0.0259953312978954,0.9622138432610036,-0.8051565402323954,0.1005879164410378,-0.0517496762157673,1.836107751552577,-0.0642929573439478,1.162131780380018,-1.0493999212815364,0.60180600678435,0.5883293995963369,-0.1049457923141428,-0.0708898303559524,10.26988496361082,-0.8416572877042631,0.2565136980744373,-0.9687996484613096
2.12,0.1053203690214514,-0.0199905463853326,1.8123935797641255,0.0318891530670508,0.1411802938697695,0.0483443282910936,0.037841684503062,0.9593917085546612,-0.8108383973666015,0.0993020572941589,-0.0285070406081669,1.8151197531269463,-0.0667723544769406,1.2021317809760643,-1.0893999218775827,0.6719077858155716,0.5923176602583332,-0.1411067353171202,-0.2840928567103051,10.26988496361082,-0.8450176088591593,0.2584901735079076,-0.9636065152117906
2.14,0.1061985769674632,-0.0008381079055355,1.7960963137608197,0.029523782719568,0.1367334965778492,0.0477681852117025,0.049220069670496,0.9563005186712812,-0.818551702954676,0.0980161981472799,-0.0052644050005666,1.7941317547013156,-0.0692517516099333,1.242131781572111,-1.1293999224736293,0.7044824110803173,0.5689192583716987,-0.1545594941689987,-0.3856652794037296,10.02067840529071,-0.8486116539123612,0.2605681385883087,-0.959480755024139
2.16,0.1072894884956619,0.0182779647318716,1.7796353744068198,0.0258763877107081,0.1306909545561282,0.0470825597105662,0.0584770103004181,0.955759967541128,-0.826686884476525,0.0966683540720761,0.0189782306219348,1.7721437562607836,-0.071731148742926,1.2821317821681573,-1.1693999230696757,0.6167745206792474,0.4628470314961056,-0.0270275565076638,-0.40675907609245,9.921019877018807,-0.8535698397483786,0.2639204729894426,-0.9537000662621318
2.18,0.1084797637728376,0.0364495256603262,1.763830849712085,0.0222879390261635,0.1239842534953956,0.0464325103187816,0.0656540199603353,0.9570718096267816,-0.8360693563148972,0.0952585250685476,0.0442208662593375,1.7491557578053505,-0.0742105458759188,1.3221317827642036,-1.209399923665722,0.5942667227644555,0.358850482995858,0.0655921042826745,-0.4691235919186076,9.861124605999976,-0.8598573838695711,0.2675289370421175,-0.9464536840171762
2.2,0.1098460546191464,0.0556145893596028,1.7470004640985288,0.0187727345101505,0.1164501880774797,0.0457955635759585,0.0703568555452187,0.9593881428247988,-0.8465316351091626,0.1117624647708543,0.0843031161416652,1.72202738189634,0.0369857523079429,0.9696708624881144,-0.8985023718700406,0.5851096896984752,0.2351417792441697,0.1158166599008636,-0.5231139397132711,9.79822003243953,-0.8668126286677763,0.2707772602976386,-0.9387111430530064
2.22,0.1113441503525663,0.075126184279291,1.7303998791022803,0.0253488080330934,0.1081193818640297,0.0458446642007752,0.0789997875386563,0.985366593518528,-0.8129656456543851,0.1117624647708543,0.0843031161416652,1.72202738189634,0.0369857523079429,0.9696708624881144,-0.8985023718700406,2.1657884372486307,0.4321465996718808,1.298922534686464,1.6782994727388756,9.725977450319988,-0.8663393797345643,0.2542348486791433,-0.9554346365021548
2.24,0.1129882882102755,0.0948761631157703,1.7144180562996307,0.0397491755942284,0.098896244842048,0.0462804547157688,0.0846152399853433,0.9875008134501222,-0.7869869277094117,0.1117624647708543,0.0843031161416652,1.72202738189634,0.0369857523079429,0.9696708624881144,-0.8985023718700406,1.3332122739476835,0.2807726223343527,0.1067109965797064,1.2989358972486709,12.574960331197872,-0.880132218054022,0.2525655138743465,-0.931493621884354
2.26,0.1146185397569424,0.1135971239183839,1.6996204136292772,0.054033659906483,0.0898508092012064,0.0465580927255962,0.086445642663753,0.9826573282630356,-0.7719308020471501,0.1121323222939338,0.0939998247665464,1.7130423581776395,0.0312520987774644,0.972190673060381,-0.9109889749810692,0.7960788947718486,0.0915201339204849,-0.2421742593543274,0.7528062831130777,11.15717308289186,-0.8926330013466346,0.2468783406936257,-0.9135516886630594
2.28,0.1163373247103092,0.1331646813373942,1.684276472586565,0.0685458118649185,0.0804683457624711,0.0466451228572019,0.0850499946369965,0.9739906647007116,-0.7635883481799447,0.1128720373400926,0.1133932420163087,1.6950723107402388,0.0197847917165075,0.977230294204914,-0.9359621812031266,0.6055068687545042,-0.0697824013378256,-0.4333331781161964,0.4171226933602723,11.15717308289186,-0.9031155273754476,0.2384990969518712,-0.901413080317614
2.3000000000000003,0.1179945047105196,0.1525291608483692,1.669023390841187,0.0823572375001402,0.0716386588626187,0.0465530476338898,0.080573806708807,0.9625451244037349,-0.7621231052785928,0.1136117523862515,0.132786659266071,1.677102263302838,0.0083174846555505,0.9822699153494472,-0.960935387425184,0.6188367874855123,-0.2238093964094772,-0.5722770148488487,0.0732621450675929,10.690592731100878,-0.9114724553752604,0.2290229014656513,-0.8937428691862885
2.32,0.1194612179692593,0.1706893211868965,1.6545114324877426,0.0948357555342322,0.0640719232150294,0.0463491267063786,0.0739584346766843,0.9493444447078372,-0.7655395036182966,0.1137781020793625,0.1524320575730599,1.6578835555543343,-0.0031498224054064,0.9873095364939805,-0.9859085936472411,0.7577810850974753,-0.3307686016061316,-0.6600339847948777,-0.1708199169851876,10.054819875977046,-0.9183149164820288,0.2173742989985971,-0.8899649183812577
2.34,0.1208505591072291,0.189508464186481,1.6391417838964506,0.1073276090952884,0.0571814730796981,0.0460651374937251,0.0652221213502379,0.9329653010278264,-0.7713583515024569,0.1139444517724735,0.1720774558800489,1.6386648478058308,-0.0146171294663633,0.9923491576385136,-1.0108817998692987,0.9727005049439388,-0.4368156663223231,-0.818957184000535,-0.2909423942080158,9.952845884904493,-0.9229924490957132,0.2038088018170625,-0.8908521772383619
2.36,0.1220454448110135,0.2079741952021098,1.623636257496956,0.1191952960572638,0.0516522723058178,0.0457759954770952,0.0545712486692446,0.9141445466033132,-0.7790089200288027,0.1138241187890606,0.1918488447156512,1.6188218099017757,-0.0260844365273203,0.9973887787830468,-1.035855006091356,1.146944947186741,-0.5325436340496665,-0.9410377212256626,-0.3825284263172912,9.952845884904493,-0.9258595692906127,0.1896083116531422,-0.8944661922365764
2.38,0.1229637630503726,0.2251462007581446,1.6087460729643053,0.1299248412386863,0.0481882659804014,0.0456000195149135,0.0425981350267041,0.8941398840900436,-0.7880398364467942,0.1134171031291238,0.2117462240798668,1.5983544418421691,-0.0375517435882772,1.00242839992758,-1.0608282123134134,1.2500994199620192,-0.5986556821270236,-1.00023312566348,-0.4515458208995737,9.813937017556782,-0.9268213439307568,0.1757548573663019,-0.9002347244837655
2.4,0.1236718366854276,0.2427847843861558,1.5928694245999229,0.140529976555966,0.0469713280870948,0.0456318910522029,0.0290318926085421,0.8706046372505507,-0.7992429857028359,0.1250936698017078,0.2698531949626468,1.5693440811419657,-0.0048282414650809,0.8128640410061851,-0.8057370794667327,1.46923562643756,-0.6783121209081,-1.1767623419746465,-0.5601574628020856,9.813937017556782,-0.9260680459163224,0.1600836531892274,-0.9095775579201943
2.42,0.1241634617934867,0.2598999995426697,1.577023619812582,0.1506218533103576,0.0470706426687441,0.0457804168842353,0.0209988988893459,0.8415453005245102,-0.7834646010014965,0.1250936698017078,0.2698531949626468,1.5693440811419657,-0.0048282414650809,0.8128640410061851,-0.8057370794667327,1.7014196005347384,-0.4016496859598069,-1.4529668363020276,0.7889192350669705,9.746329990481172,-0.9176474250490658,0.1310278274070966,-0.9404348162131468
2.44,0.1245026890547863,0.2764051815373722,1.561504481234422,0.1603162843641141,0.0471040552537684,0.0458653199952912,0.0132955515732485,0.8102225077826748,-0.7696788756576954,0.1250936698017078,0.2698531949626468,1.5693440811419657,-0.0048282414650809,0.8128640410061851,-0.8057370794667327,1.7539278265332912,-0.3851673658048696,-1.566139637091768,0.6892862671900535,11.539668500960031,-0.917050627339067,0.1210720413660615,-0.9435711084006606
2.46,0.1246824032645462,0.2914892491623361,1.5469781751916498,0.1690890088606027,0.0470554579007451,0.0458771964423033,0.0060023413887007,0.7789260147626008,-0.7601260373108252,0.125045387387057,0.2779818353727087,1.5612867103472985,-0.0143135167634379,0.7966088723894135,-0.8092765280707204,1.6762443964357994,-0.364660509227393,-1.564824651003699,0.4776419173435131,11.042796657497092,-0.9156343624020143,0.1086725702285006,-0.949757528195605
2.48,0.1247224255459999,0.3067075005917767,1.531858065492709,0.1778698841685502,0.0468680926224381,0.0458064225606853,-0.0016287479875302,0.7443298686957555,-0.7525343600504433,0.1249488225577554,0.2942391161928324,1.5451719687579637,-0.0332840673601519,0.76409853515587,-0.8163554252786958,1.8116017852803112,-0.3815544688115491,-1.7298073033422678,0.3795838630190951,11.042796657497092,-0.9139736945138748,0.0956899239885548,-0.956847878546613
2.5,0.12460949294818,0.3212167360863408,1.5168655989785405,0.1862054175119747,0.0465155499387344,0.0456437715151254,-0.0093061244304214,0.7081032022475933,-0.7471488250743836,0.1248522577284538,0.3104963970129561,1.5290572271686291,-0.0522546179568659,0.7315881979223267,-0.8234343224866711,1.8710407918927252,-0.3838688221445603,-1.8113333224081096,0.2692767488029823,10.82666292475733,-0.9123014645653226,0.0817411280947053,-0.9649910263434808
2.52,0.1243423560613073,0.3349837480352853,1.5019653044713732,0.1941174652079372,0.0460101937577436,0.0453895493398121,-0.0170502615508446,0.6702006444294298,-0.7432131465734213,0.1238071653693164,0.3251281609714026,1.5125885407188957,-0.0712251685535799,0.6990778606887833,-0.8305132196946465,1.9442640729605605,-0.3872068560211578,-1.8951278909081717,0.1967839250481162,10.82666292475733,-0.910663815042106,0.0678815304486974,-0.9734014359330566
2.54,0.1239451162678329,0.3473424643574658,1.4878827905964924,0.2012609944453653,0.0453979659893641,0.0450634825508562,-0.024405152149334,0.6324381562031607,-0.7394099615920818,0.1227620730101791,0.3397599249298492,1.4961198542691625,-0.090195719150294,0.6665675234552398,-0.8375921169026219,1.9329796615310977,-0.3677445299244714,-1.8881244113134577,0.1901592490669734,10.775107419241976,-0.9086292229501052,0.0525240484722801,-0.9832803019433464
2.56,0.1233736721836156,0.3595577968855076,1.4731385398709125,0.2084080236595902,0.0446835875398999,0.0446442959441795,-0.0323686484636155,0.5908826059131008,-0.7352507927443811,0.121242716886124,0.3535789304574571,1.4794741953892296,-0.109166269747008,0.6340571862216965,-0.8446710141105973,2.125782043720001,-0.3981748157140755,-2.077777514502993,0.2079584423850367,10.81738243330892,-0.9064901505880328,0.0369816410244366,-0.9934154651815345
2.58,0.1226415127448992,0.370896453571184,1.458473453386232,0.2143193410078226,0.0440371906262899,0.0441158088470804,-0.0404696595766442,0.545486142090963,-0.7314126088788921,0.1192490969971509,0.3665851775542265,1.4626515640790974,-0.128136820343722,0.6015468489881531,-0.8517499113185727,2.3136534766432617,-0.4050505556514361,-2.26982319110689,0.1919091932744476,10.907661512449522,-0.9041441133836946,0.022317106810922,-1.0039157610380678
2.6,0.1217466531981344,0.381292966974774,1.4438834158210463,0.2178935710022982,0.0435607634895655,0.0434263454876445,-0.0486366215305205,0.4972735213814507,-0.7276278392476395,0.120618029766067,0.3981707606757321,1.4219028229422874,-0.0974613671102422,0.4454861406008469,-0.7169737767001803,2.4522849265516697,-0.4083480976938128,-2.410631035475616,0.1892384815626313,10.907661512449522,-0.9020991055627956,0.0095393978703696,-1.0138174211257454
2.62,0.1207578093203752,0.3902879819443451,1.43016250280879,0.2199008475164768,0.0429353467338312,0.0426093997587475,-0.0551491290086438,0.4520359365842607,-0.7168772191824303,0.120618029766067,0.3981707606757321,1.4219028229422874,-0.0974613671102422,0.4454861406008469,-0.7169737767001803,2.347566646403273,-0.3256253739061638,-2.261879239859499,0.5375310032604608,10.958954284889842,-0.9009168496696428,-0.0017675367561666,-1.0228609626835978
2.64,0.1195836319671442,0.3988033472544523,1.4159490792129237,0.2207257955581859,0.0417451554898636,0.0415150562618725,-0.0619988782775647,0.4020745429149481,-0.7049849220499852,0.120618029766067,0.3981707606757321,1.4219028229422874,-0.0974613671102422,0.4454861406008469,-0.7169737767001803,2.5906015968851115,-0.3424874634460451,-2.4980696834656317,0.5946148566222553,11.427309201105343,-0.9015160465174464,-0.0096082679213597,-1.0282179092169177
