t,x,y,z,roll,pitch,yaw,v_x,v_y,v_z,ref_x,ref_y,ref_z,ref_v_x,ref_v_y,ref_v_z,a_com,a_x,a_y,a_z,thrust,wind_x,wind_y,wind_z
0.0,1.8513740591898773,-1.855045426332448,3.006440985691465,0.0262778328940121,0.0996488314638491,0.0418374347938751,0.00041267399208,-0.0068575594762561,-0.0005417354961358,1.8513854469755575,-1.8552633919892485,3.0064228967795645,-0.0996199448920632,0.0929929350168042,-0.1005738479691138,0.344564577190922,0.0206336996040012,-0.3428779738128084,-0.0270867748067901,10.26064146837598,-0.9400905898202264,0.2545169592733534,-0.8810533522391338
0.02,1.8515447924001271,-1.8554134551771009,3.006319662144303,0.0161724385832758,0.0943337851951837,0.0410334997483652,0.0160071930946849,-0.0256425798804495,-0.0119224452080164,1.8513854469755575,-1.8552633919892485,3.0064228967795645,-0.0996199448920632,0.0929929350168042,-0.1005738479691138,1.3468357093327727,0.7797259551302465,-0.9392510202096672,-0.5690354855940332,10.260664291829926,-0.946319467537198,0.2574177705235051,-0.8793180644125058
0.04,1.8519773942226785,-1.8559293503634904,3.005900330469948,-0.0005300039474949,0.0791783309318913,0.0398180444707026,0.0250611547246319,-0.0242582360296537,-0.0296230629662711,1.8513854469755575,-1.8552633919892485,3.0064228967795645,-0.0996199448920632,0.0929929350168042,-0.1005738479691138,0.9964969870973364,0.4526980814973489,0.069217192539786,-0.8850308879127321,9.627029453275554,-0.9519043487085372,0.2728829180879666,-0.8654680603011331
0.06,1.8524749809025656,-1.856337679849594,3.00510128029418,-0.0175250628553659,0.0580644295553653,0.0389591885311281,0.0232079737981207,-0.0162935182256642,-0.0493463336755307,1.850389247526637,-1.85433346263908,3.005417158299873,-0.1196199451900864,0.1129929353148274,-0.120573848267137,1.0675654742383636,-0.0926590463255584,0.3982358901994748,-0.986163535462984,9.218867949777175,-0.9619185929629492,0.2854981074556179,-0.849922222962514
0.08,1.852815062296368,-1.856544869028197,3.0039686961443715,-0.0330200150491924,0.0362097393853761,0.038628060705626,0.0121258982568034,-0.0056343998125895,-0.0689075582319149,1.848396848628796,-1.852473603938744,3.003405681340491,-0.1596199457861328,0.1529929359108739,-0.1605738488631835,1.24405658009664,-0.5541037770658648,0.5329559206537368,-0.9780612278192088,9.107201166795676,-0.9760311466289936,0.2967214200498379,-0.8315133782250789
0.1,1.8528608743298367,-1.8565164998358317,3.0023661220320177,-0.0485460753097662,0.0141004619143599,0.0387264568263922,-0.0074596432606856,0.0082181782819867,-0.0903979577695018,1.8464044497309544,-1.850613745238408,3.001394204381109,-0.1996199463821793,0.1929929365069203,-0.2005738494592299,1.6103762205496743,-0.9792770758744572,0.6926289047288149,-1.074519976879345,9.055723429337831,-0.9912932275891014,0.3061030126533474,-0.8132113892575686
0.12,1.852440448241288,-1.8561846151515256,3.000326777519408,-0.0633027208153188,-0.0050976328518082,0.03911905146297,-0.033674241072875,0.0245779557585422,-0.1125105494207264,1.842412050803311,-1.8467538865082695,2.9973827273919245,-0.2396199469782257,0.2329929371029668,-0.2405738500552764,1.8998777375604068,-1.3107298906094678,0.8179888738277742,-1.1056295825612266,9.0730636917192,-1.004822134971162,0.3135281596895009,-0.7981370667254817
0.14,1.8514449423464088,-1.8554928294671509,2.9978367853651444,-0.0770990621575034,-0.0202883560279915,0.0396318330772515,-0.0644432661656279,0.0439059650518236,-0.1354152982302676,1.8384196518756677,-1.8428940277781316,2.99337125040274,-0.2796199475742723,0.2729929376990133,-0.2805738506513229,2.147633794684172,-1.5384512546376474,0.9664004646640734,-1.14523744047706,9.080334954914631,-1.016731500808289,0.3199338442562451,-0.7862838201087593
0.16,1.8498934870028272,-1.8544319834488048,2.995038540743348,-0.0884424082491403,-0.0304313160556524,0.0401138640414189,-0.0971255923997457,0.0663398696803725,-0.1579763399082658,1.8334272529331228,-1.838034169033092,2.988359773398654,-0.3196199481703187,0.3129929382950597,-0.3205738512473693,2.280578395140421,-1.6341163117058888,1.1216952314274435,-1.1280520838999122,9.080334954914631,-1.025100090100976,0.3250611601333109,-0.779286835902761
0.18,1.847564690921468,-1.852836609255213,2.9916221371950606,-0.0980408550215988,-0.036033342566466,0.0404536035211454,-0.1340503388375316,0.0916851773664398,-0.1824918588027134,1.8274348539756768,-1.8321743102731511,2.982348296379667,-0.3596199487663651,0.3529929388911061,-0.3605738518434157,2.552857314784856,-1.846237321889293,1.267265384303362,-1.225775944722382,9.096696920467366,-1.0291887932598187,0.3283276257547177,-0.7790929839854528
0.2,1.844487864216085,-1.8507172977645232,2.9877127340182428,-0.1051940989449294,-0.0360205374283985,0.0404577410162112,-0.1710398509579415,0.1184254811789456,-0.2070948702599724,1.840862173979592,-1.848252350386891,2.982497544254925,-0.2340503403276477,0.1916851788565559,-0.2824918602928296,2.5925740238501787,-1.849475606020498,1.3370151906252896,-1.230150572862948,9.106619060539288,-1.030477428840228,0.3291792171520075,-0.7842872293719887
0.22,1.8408504496200424,-1.8480540437150648,2.983750364098327,-0.1059243160478887,-0.0305782341584415,0.0403160216926886,-0.208986135487886,0.1581136516345205,-0.2083599904592539,1.840862173979592,-1.848252350386891,2.982497544254925,-0.2340503403276477,0.1916851788565559,-0.2824918602928296,2.746211896802986,-1.897314226497221,1.9844085227787476,-0.0632560099640744,10.60106949868714,-1.0336013330980232,0.3266748679717572,-0.7859015329322591
0.24,1.83630414342693,-1.8445418692973328,2.979564214570547,-0.1004427685128076,-0.0198931138227411,0.0401049539405335,-0.2428615549366762,0.189768069529827,-0.2102090752431717,1.840862173979592,-1.848252350386891,2.982497544254925,-0.2340503403276477,0.1916851788565559,-0.2824918602928296,2.320002871582431,-1.6937709724395094,1.5827208947653255,-0.0924542391958882,10.60106949868714,-1.0310312380539304,0.3224520014785956,-0.7911902878906986
0.26,1.8311445905019696,-1.84047577725502,2.975304787594967,-0.0932378347835719,-0.0064594805992572,0.039812862623795,-0.2707934782166292,0.2149402575201276,-0.2157634369230552,1.8385216705763152,-1.8463354985983256,2.9796726256519968,-0.2540503406256709,0.2116851791545791,-0.3024918605908528,1.9004488417260628,-1.39659616399765,1.2586093995150305,-0.2777180839941787,10.300193400561511,-1.0248581385194768,0.3174238419054831,-0.8009824636360066
0.28,1.8254861086821907,-1.8359486046831828,2.970888073476455,-0.0861654539260205,0.007932715093934,0.0395183667847518,-0.2932228490837315,0.2365138348142277,-0.2255915691389286,1.8338406637697624,-1.8425017950211944,2.97402278844614,-0.2940503412217173,0.2516851797506255,-0.3424918611868992,1.6317843742443554,-1.121468543355114,1.0786788647050058,-0.4914066107936696,9.994910313116634,-1.0164604267334283,0.3124890869203413,-0.8138995938254108
0.3,1.8197418653908817,-1.831270794105538,2.9664740560796488,-0.0802163602275029,0.0212374570958971,0.0393011174084163,-0.3100794176689427,0.2549354964057713,-0.2385691596825565,1.8291596569632087,-1.8386680914440632,2.9683729512402834,-0.3340503418177638,0.291685180346672,-0.3824918617829457,1.4070531054115707,-0.8428284292605615,0.9210830795771756,-0.648879527181391,9.505302542103893,-1.0061551873893564,0.3076304113985306,-0.8292290541927968
0.32,1.8133894121268528,-1.8259839137891285,2.961526924650306,-0.0749784874528955,0.0339407193431849,0.0391759215759216,-0.3240601018814985,0.2728882560681678,-0.2556551881726248,1.822478650126854,-1.8328343878371296,2.9607231140046246,-0.3740503424138102,0.3316851809427184,-0.4224918623789921,1.4227556713209812,-0.6990342106277914,0.8976379831198256,-0.8543014245034175,9.505302542103893,-0.9951170393108536,0.3034980828212765,-0.8448215225888787
0.34,1.8067903790670317,-1.820347276651176,2.9562135211780936,-0.0707884963424777,0.0447178168360217,0.0391721476891018,-0.335034334524017,0.2899953076360966,-0.2749481631966292,1.8157976432904988,-1.8270006842301965,2.953073276768966,-0.4140503430098567,0.3716851815387649,-0.4624918629750386,1.4011636955730349,-0.5487116321259256,0.8553525783964427,-0.96464875120022,9.21533754814118,-0.984710329085679,0.2998562047736924,-0.8594611674103237
0.36,1.7999918040046905,-1.8143665316881576,2.950494263676705,-0.0672624005779118,0.0533854564121323,0.0393023356561524,-0.3442755427663046,0.3072044672144951,-0.2960427389370365,1.8081166364392425,-1.8201669806083616,2.9444234395184057,-0.4540503436059032,0.4116851821348113,-0.502491863571085,1.4374771553314227,-0.462060412114379,0.8604579789199235,-1.0547287870203648,9.142348792420307,-0.9754606335609056,0.2968099392981107,-0.8722444418829173
0.38,1.7933728397594495,-1.8083685123417943,2.944656407219658,-0.0641682347061508,0.0598475089391837,0.0395450527551241,-0.3520127402861112,0.3232376663376936,-0.3174363176304089,1.799435629573085,-1.812333276971626,2.9347736022529443,-0.4940503442019496,0.4516851827308578,-0.5424918641671315,1.3915934292153664,-0.386859875990328,0.8016599561599252,-1.069678934668622,9.142348792420307,-0.9667965040648112,0.2937452424910964,-0.8842392622733859
0.4,1.786253711050775,-1.8017322949615089,2.9380580166524504,-0.0610870047087563,0.0650387982386642,0.039902180633182,-0.3594912286134841,0.3394727710322806,-0.3413520375468392,1.775772202745144,-1.79220662902491,2.928784591338138,-0.4520127417762273,0.4232376678278097,-0.4174363191205251,1.4928731285912984,-0.3739244163686456,0.8117552347293472,-1.1957859958215105,9.080872872170405,-0.9598002558894604,0.290822375612125,-0.8940872826560623
0.42,1.7790217376963595,-1.794764648298343,2.931252308644453,-0.0583279573710169,0.0683573312667054,0.0403546365868251,-0.363325907557227,0.3565860803735927,-0.3365821350407519,1.775772202745144,-1.79220662902491,2.928784591338138,-0.4520127417762273,0.4232376678278097,-0.4174363191205251,0.908738258700772,-0.1917339471871448,0.8556654670656083,0.238495125304361,9.015170740625765,-0.9653476913381178,0.2879631582167743,-0.8899590103674204
0.44,1.7717212762137815,-1.7874717692999174,2.924540733528194,-0.0563652752383408,0.0694084923367666,0.0408802481406347,-0.3667531877661535,0.3721161768621827,-0.3349986420035981,1.775772202745144,-1.79220662902491,2.928784591338138,-0.4520127417762273,0.4232376678278097,-0.4174363191205251,0.7991207617971892,-0.1713640104463287,0.776504824429497,0.0791746518576913,10.754885133896096,-0.9635831387507277,0.2881618525367611,-0.8900991882395596
0.46,1.7647154560112084,-1.7802569213145754,2.9181356248163914,-0.0552552629391839,0.0684370657069721,0.0414307176931359,-0.3706577887933995,0.3866286130675275,-0.3392896533005432,1.771252075327382,-1.7879742523466318,2.9246102281469324,-0.4720127420742505,0.443237668125833,-0.4374363194185482,0.7814561595935581,-0.1952300513622967,0.7256218102672435,-0.2145505648472545,10.026228648970571,-0.963021966580216,0.2885199500115427,-0.8894795831895108
0.48,1.7572523377318825,-1.7723701990637966,2.911258749776987,-0.0548462807606416,0.0654693279014894,0.0420563366877129,-0.3755888164599445,0.4013129256208228,-0.3483664794437869,1.762211820491857,-1.7795094989900757,2.916261501764522,-0.512012742670297,0.4832376687218794,-0.4774363200145947,0.8976815162486214,-0.2465513833272509,0.7342156276647638,-0.4538413071621838,10.026228648970571,-0.9644300156427132,0.2891198524894555,-0.8871609680154662
0.5,1.749677018606579,-1.764193061001661,2.9041607743569915,-0.0552946719693428,0.0606481233122105,0.0427185495274686,-0.3819851656413353,0.4157050999034203,-0.3611157613881275,1.7531715656563327,-1.7710447456335194,2.9079127753821115,-0.5520127432663434,0.5232376693179259,-0.5174363206106412,1.0131536822309188,-0.3198174590695379,0.719608714129874,-0.6374640972170303,9.766771081276602,-0.967108655717539,0.2901067732949065,-0.883748068028537
0.52,1.7419459500742502,-1.7557299149618255,2.8967749991278264,-0.0566275642476993,0.054630222053884,0.0433865339734959,-0.3910704441708041,0.4299726519194967,-0.3768081440414741,1.742131310791006,-1.760579992247161,2.897564048969899,-0.5920127438623899,0.5632376699139724,-0.5574363212066876,1.153642275391864,-0.4542639264734444,0.713377600803819,-0.7846191326673302,9.573758983216068,-0.9707639997924836,0.2914218348368891,-0.8795163617958316
0.54,1.734408708796914,-1.7474233083586317,2.8894590132592075,-0.058685293802238,0.048603333129474,0.0439919459244717,-0.4020257101784198,0.4438280725082147,-0.392506419171829,1.7310910559256791,-1.7501152388608023,2.8872153225576858,-0.6320127444584364,0.6032376705100189,-0.5974363218027341,1.1815523423194292,-0.5477633003807852,0.6927710294359013,-0.7849137565177466,9.431101913995008,-0.9760500674893632,0.2932759147892982,-0.8734693305865311
0.56,1.7262238455766534,-1.7383745540670863,2.881428430208095,-0.06107355009334,0.0426451253948716,0.0446047987834865,-0.4160201699273762,0.4603224297517491,-0.4097483314165284,1.719050801045451,-1.7386504854595426,2.875866596130572,-0.6720127450544827,0.6432376711060652,-0.6374363223987805,1.383105439216775,-0.6997229874478178,0.8247178621767215,-0.8620956122349699,9.364843246439705,-0.9814504679778024,0.2953537064809062,-0.8670538892853236
0.58,1.7177335940506595,-1.7289825006456354,2.873046718638597,-0.0629139864905904,0.0378156735271148,0.0451972189357263,-0.4324547793386001,0.4779054885444349,-0.4275715129496673,1.706010546150322,-1.7261857320433818,2.8635178696885566,-0.7120127456505292,0.6832376717021117,-0.6774363229948269,1.4974362615565264,-0.8217304705611966,0.8791529396342868,-0.8911590766569416,9.364843246439705,-0.9859284114348784,0.2969314541131416,-0.8618406492634713
0.6,1.708887932012652,-1.719230743888709,2.8643002218468663,-0.0638085738512126,0.0350616008214159,0.0457267788363343,-0.4513115458326011,0.4962009639844245,-0.4461715288234787,1.6961108550837296,-1.7050872262184136,2.8516681429911137,-0.5324547808287163,0.577905490034551,-0.5275715144397835,1.6095516881189138,-0.942838324700046,0.9147737719994804,-0.9300007936905746,9.34653287308356,-0.9887653736840264,0.2977073467960892,-0.8587292082539827
0.62,1.6996241090698074,-1.709049569316497,2.855489287828173,-0.0621483205099046,0.0362300688916141,0.0461786079629352,-0.4733353487787025,0.5203107466412754,-0.4338544406095959,1.6961108550837296,-1.7050872262184136,2.8516681429911137,-0.5324547808287163,0.577905490034551,-0.5275715144397835,1.7450216173717374,-1.1011901473050727,1.2054891328425466,0.6158544106941444,11.20240788211322,-0.9994876766256,0.296693317224573,-0.8464700237643749
0.64,1.6904467152472713,-1.6989658543753687,2.847320291997673,-0.058100009291914,0.0409562419127588,0.0465539221582635,-0.4911252734901905,0.5393266030260474,-0.4266589039555345,1.6961108550837296,-1.7050872262184136,2.8516681429911137,-0.5324547808287163,0.577905490034551,-0.5275715144397835,1.3507960273729571,-0.8894962355743996,0.9507928192385996,0.3597768327030681,11.20240788211322,-0.9989471789463517,0.2954830163137434,-0.8452112698507891
0.66,1.6804586045686252,-1.6880046408842049,2.838804099827236,-0.0532916177241948,0.048108214006326,0.0468743989455672,-0.5063682281658384,0.5556660615347379,-0.425625198166456,1.6907863072754423,-1.699308171318068,2.846392427846716,-0.5524547811267395,0.5979054903325742,-0.5475715147378066,1.118474540679677,-0.7621477337823923,0.8169729254345226,0.0516852894539232,10.728593157154137,-0.99488766540813,0.2932676782004965,-0.8492454548638663
0.68,1.6701995419764817,-1.676738987496102,2.8302418613659746,-0.0487836626419119,0.056229582085772,0.0471440931363642,-0.518486837368196,0.5700637718486905,-0.4309031803142485,1.6801372116588682,-1.687750061517377,2.8358409975579204,-0.592454781722786,0.6379054909286207,-0.5875715153338531,0.9772561675891104,-0.6059304601178817,0.7198855156976325,-0.2638991073896257,10.293896203561417,-0.9885769298194332,0.2906713628502186,-0.8567473710560015
0.7000000000000001,1.659727856631483,-1.665200178876217,2.8215121715137497,-0.0448723784513939,0.064365274787954,0.0473923671540221,-0.5278932225330584,0.5831908462423847,-0.4417890151814021,1.669488116042294,-1.676191951716686,2.8252895672691247,-0.6324547823188325,0.6779054915246672,-0.6275715159298996,0.973783298226896,-0.4703192582431181,0.6563537196847102,-0.5442917433576777,9.644708552480552,-0.9819032912055196,0.2883031839436105,-0.8648745392895181
0.72,1.6496274662651875,-1.654003551039832,2.8129760504131065,-0.0417685222133931,0.0714993881727717,0.0476262788119209,-0.5347552947012264,0.5948537624191376,-0.4562173666465234,1.6568390203959171,-1.6626338418861928,2.812738136950527,-0.6724547829148789,0.7179054921207136,-0.667571516525946,0.9890512805059416,-0.3431036084084016,0.5831458088376429,-0.721417573256064,9.644708552480552,-0.9746000046143034,0.2858808304420012,-0.8740491141528982
0.74,1.6388737143866654,-1.641984748827605,2.8036705720913777,-0.0391701622464305,0.0779590571883552,0.047877177889522,-0.5401889812912645,0.606508483949022,-0.4736844764783938,1.6441899247495406,-1.6490757320556997,2.8001867066319286,-0.7124547835109254,0.7579054927167601,-0.7075715171219925,1.0845015096537864,-0.2716843295019033,0.5827360764942224,-0.8733554915935221,9.4207627519163,-0.9678190667161496,0.2836339376969782,-0.8828438952390375
0.76,1.6280213974404556,-1.6297276132457803,2.793996786529874,-0.0369393874384711,0.0832197274251678,0.0481505302226943,-0.544733445210698,0.6185605412433139,-0.4928940149197588,1.6305408290882628,-1.634517622210305,2.786635276298429,-0.7524547841069718,0.7979054933128065,-0.7475715177180389,1.1564067239408102,-0.2272231959716764,0.6026028647145965,-0.9604769220682484,9.307046011380407,-0.9616044219804049,0.281574015108451,-0.8909081818436121
0.78,1.6170852296412996,-1.6172302506022311,2.783921964261981,-0.0347162606951107,0.0874013610393025,0.0484604285820941,-0.5486501566446589,0.6304511159746488,-0.5136330828889926,1.6158917334120837,-1.6189595123500091,2.772083845950029,-0.7924547847030182,0.8379054939088529,-0.7875715183140853,1.211234221910522,-0.1958355716980442,0.5945287365667407,-1.0369533984616874,9.229197131906403,-0.9563229552896244,0.2794934627453438,-0.897956394505199
0.8,1.6066273519379095,-1.6051411319021756,2.7739540607472,-0.0325292194727144,0.0905152736763617,0.0487849303899319,-0.5519839443227372,0.6413761408155298,-0.534588085908933,1.5896527218090668,-1.5857076948034987,2.758240310117531,-0.648650158134775,0.7304511174647649,-0.6136330843791087,1.193296337485046,-0.1666893839039174,0.5462512420440546,-1.0477501509970233,9.099503025955528,-0.951522292884286,0.2771948041020355,-0.904539172490993
0.8200000000000001,1.5955753520901352,-1.592181791989331,2.7633301886592063,-0.0300016433263899,0.0931892962091644,0.0491545294652841,-0.5528597571318734,0.6538498943355406,-0.5250975604817959,1.5896527218090668,-1.5857076948034987,2.758240310117531,-0.648650158134775,0.7304511174647649,-0.6136330843791087,0.7849070770444183,-0.0437906404568089,0.6236876760005394,0.4745262713568565,9.099503025955528,-0.955176140559582,0.2738086901456937,-0.903865879844263
0.84,1.584519405290959,-1.578995282356996,2.7529012215957325,-0.027714220511124,0.0952353244997448,0.0495169114493389,-0.5527424108731864,0.6642740801047654,-0.5187964293075289,1.5896527218090668,-1.5857076948034987,2.758240310117531,-0.648650158134775,0.7304511174647649,-0.6136330843791087,0.6090600815417464,0.0058673129343489,0.5212092884612385,0.3150565587133502,11.05065037892564,-0.9529889377963446,0.2738278256542814,-0.904141106343314
0.86,1.573466846825518,-1.565606491648358,2.7425164902568278,-0.0260379932333655,0.0962951288049798,0.049852816177854,-0.5526315526922362,0.6741783836905885,-0.5199613340124182,1.583166220227719,-1.578403183628851,2.75210397927374,-0.6686501584327982,0.7504511177627881,-0.6336330846771319,0.4986595081513644,0.0055429090475123,0.495215179291153,-0.058245235244464,10.604647344965995,-0.9508257606651708,0.2736891553590639,-0.905244985645026
0.88,1.5629663773135969,-1.5527090413152251,2.7325759986087395,-0.025006783579503,0.0963111411815647,0.0501469137746226,-0.5527926150022286,0.6830122440035858,-0.5263348126877133,1.5701932170650237,-1.5637941612795558,2.739831317586158,-0.7086501590288447,0.7904511183588345,-0.6736330852731783,0.5447115280625427,-0.0080531154996232,0.4416930156498688,-0.318673933764757,10.203480628681064,-0.9494473788938989,0.2735481164866246,-0.906021850104162
0.9,1.5519062542487052,-1.538958046117113,2.721938843681356,-0.0247025923896117,0.0952350096059718,0.0504171701047979,-0.55328221056564,0.6916741969194544,-0.5372276375300494,1.557220213902328,-1.5491851389302604,2.727558655898576,-0.7486501596248911,0.830451118954881,-0.7136330858692248,0.6962807716328431,-0.0244797781705663,0.4330976457934288,-0.5446412421168056,9.900922413017724,-0.9492932674390844,0.2738113479987505,-0.9057059643172548
0.92,1.5408332336952268,-1.5250377322918145,2.711044730990281,-0.0254110029013288,0.0928672181341726,0.0506390018234215,-0.5541077128922259,0.7000408751988029,-0.5516173266246165,1.5422472107098304,-1.5325761165511629,2.713285994181191,-0.7886501602209376,0.8704511195509275,-0.7536330864652713,0.833285532935173,-0.0412751163292979,0.4183339139674225,-0.719484454728353,9.665215378543508,-0.9500844793673152,0.2745161147084887,-0.9046635405317364
0.94,1.5297392437500994,-1.5109495804416433,2.699851051003989,-0.0272207168967705,0.0890487295955139,0.0508173738103042,-0.5553960636438646,0.7084883432681868,-0.5670176112094409,1.5272742075173324,-1.515967094172065,2.6990133324638066,-0.8286501608169841,0.910451120146974,-0.7936330870613177,0.8806082127372112,-0.0644175375819344,0.422373403469195,-0.7700142292412226,9.491307912861885,-0.9524771794000998,0.2759587719547911,-0.901943672608156
0.96,1.5191621382677425,-1.4973934742686177,2.688927753575926,-0.0295832954420161,0.0841741939770586,0.0509804348516053,-0.5581670107827111,0.7181636888401398,-0.5820271268525419,1.5113012043099334,-1.4983580717780662,2.683740670731521,-0.8686501614130304,0.9504511207430204,-0.8336330876573641,0.9035707219463852,-0.1385473569423256,0.4837672785976521,-0.7504757821550467,9.440846369734572,-0.9556498026128036,0.2780371993173526,-0.898118340051965
0.98,1.5079462048402748,-1.4829087834465349,2.677116181857036,-0.0318912611240736,0.0783944188863787,0.0511925957325281,-0.5634935670359968,0.7297302653419662,-0.5983539254400989,1.494328201087633,-1.4797490493691663,2.667468008984334,-0.9086501620090768,0.9904511213390668,-0.8736330882534106,1.0352804518712224,-0.2663278126642854,0.5783288250913177,-0.8163399293778517,9.42056138443877,-0.9603138975340596,0.2801785721981785,-0.8924085800584604
1.0,1.4965995976419042,-1.4681838678200152,2.6649738745945664,-0.0335892664983196,0.0726616601621814,0.051452476511594,-0.5710403660145168,0.7420594292014745,-0.6150626311235385,1.479771526488475,-1.4464222701794365,2.647198485585031,-0.663493568526113,0.8297302668320823,-0.698353926930215,1.1046982641343788,-0.3773399489259976,0.6164581929754165,-0.8354352841719814,9.39110349470593,-0.9655162819649596,0.2818031224201234,-0.8862307822464964
1.02,1.485042405088273,-1.453155189965094,2.652827167498161,-0.0330522545974971,0.0694360350133934,0.0517804935408454,-0.5842905291442891,0.7594806229961475,-0.5987222568423094,1.479771526488475,-1.4464222701794365,2.647198485585031,-0.663493568526113,0.8297302668320823,-0.698353926930215,1.365716522423107,-0.662508156488617,0.8710596897336498,0.8170187140614571,9.371479388757509,-0.9726751129175236,0.278772627758935,-0.8830998765107907
1.04,1.473817152039331,-1.43858092422492,2.641559559793041,-0.0301068072728384,0.0704808925977639,0.0521131328534046,-0.5961326199875521,0.7735007028243631,-0.5882007057779226,1.479771526488475,-1.4464222701794365,2.647198485585031,-0.663493568526113,0.8297302668320823,-0.698353926930215,1.057710724548694,-0.5921045421631466,0.7010039914107813,0.5260775532193396,11.438159778574118,-0.9756714269269544,0.2790507424893441,-0.8766633495982665
1.06,1.461787949895559,-1.4229881391080297,2.6298439183498705,-0.0259375525860447,0.0743189734250463,0.0524490088500169,-0.6058357723965127,0.7848069037345268,-0.5842260119520096,1.473136590803214,-1.4381249675111154,2.6402149463157287,-0.6834935688241361,0.8497302671301055,-0.7183539272282382,0.7710050854278682,-0.485157620448029,0.5653100455081828,0.1987346912956489,10.927905815889972,-0.974466269033654,0.2776878262746635,-0.8763061169103061
1.08,1.449591333343012,-1.407193991299564,2.618135563908136,-0.0218921593401541,0.07958466166541,0.0527418343280453,-0.6131009857066936,0.7940316393176139,-0.5870813191562647,1.4598667194326915,-1.421530362174474,2.626247867777124,-0.7234935694201826,0.8897302677261519,-0.7583539278242847,0.6042181937242844,-0.3632606655090464,0.4612367791543559,-0.1427653602127543,10.456450301650875,-0.9707308138318612,0.2758495731195857,-0.879529789795607
1.1,1.4372723004486485,-1.3912291460630353,2.606303307078141,-0.0183998801597145,0.0852609726209676,0.0529924009320239,-0.6182824913366793,0.8020970286421443,-0.5959827678188324,1.4465968480621694,-1.4049357568378322,2.61228078923852,-0.7634935700162291,0.9297302683221984,-0.7983539284203311,0.6540915338126444,-0.259075281499288,0.403269466226519,-0.445072433128385,10.062125327202011,-0.965892932253822,0.2741213110254594,-0.8843521646444641
1.12,1.4248685000832304,-1.375110713816645,2.594244307587749,-0.0155592344081458,0.0906463768523363,0.0532058568436871,-0.6217632528380188,0.8094738602293299,-0.6094780141543964,1.4313269766618448,-1.3863411514713884,2.5963137106701133,-0.8034935706122756,0.9697302689182448,-0.8383539290163776,0.7884399446889715,-0.1740380750669734,0.3688415793592803,-0.6747623167781991,9.509235673755938,-0.9604977915735422,0.2723212974167911,-0.890198653617715
1.14,1.4130349290047826,-1.359666036494638,2.5825150381475064,-0.0134718913296576,0.0950605663385349,0.0533757992066754,-0.6237001796686739,0.8160488701390768,-0.6245142536336221,1.4160571052615205,-1.3677465461049445,2.580346632101707,-0.843493571208322,1.0097302695142911,-0.8783539296124241,0.8262429100107421,-0.0968463415327525,0.3287504954873455,-0.7518119739612861,9.509235673755938,-0.955277836728218,0.2704446573509053,-0.8964540839983834
1.16,1.4005450816781089,-1.3432682098636333,2.569842015085422,-0.0116273448296292,0.0988213033066365,0.0535368831446726,-0.6251610956395242,0.8233532004754481,-0.6420797220011643,1.3997872338462944,-1.3481519407235991,2.563379553518399,-0.8834935718043684,1.0497302701103377,-0.9183539302084704,0.953982699145854,-0.0730457985425148,0.3652165168185672,-0.8782734183771068,9.39677134471458,-0.9504290646664618,0.2687029061662222,-0.9023353306434924
1.18,1.388030483354026,-1.3267238455946526,2.5568017666797638,-0.0098317325778726,0.1017468306427845,0.0536965906395987,-0.6262167656954789,0.8306362515371851,-0.6611299524212321,1.3825173624161675,-1.3275573353273529,2.54541247492019,-0.9234935724004149,1.089730270706384,-0.9583539308045168,1.0211128134204674,-0.0527835027977374,0.3641525530868494,-0.9525115210033908,9.309298782315636,-0.946152855326408,0.2668523077938022,-0.9077195400541458
1.2,1.3754977892537898,-1.3100363286321273,2.54336500254138,-0.0079659582795443,0.1039230606811469,0.0538591844455073,-0.6270141774690986,0.8376391911003983,-0.6815966701360908,1.356719645069252,-1.2851920330177933,2.523745269058702,-0.726216767185595,0.9306362530273012,-0.7611299539113482,1.082316453356453,-0.0398705886809847,0.3501469781606592,-1.0233358857429375,9.23907927624441,-0.942562128543178,0.2649263368642588,-0.9124419642718432
1.22,1.3635932872558911,-1.294043286390583,2.530531695866338,-0.0057430548274577,0.1059554637894774,0.0540356119423742,-0.6258757617756996,0.8451304438448971,-0.668240177532056,1.356719645069252,-1.2851920330177933,2.523745269058702,-0.726216767185595,0.9306362530273012,-0.7611299539113482,0.767806539198799,0.0569207846699504,0.37456263722494,0.667824630201741,11.237367063710735,-0.9436541668525268,0.2578573160371399,-0.9195385518108004
1.24,1.3511007754152493,-1.277083780851979,2.5172661844387543,-0.0034587596688996,0.1082351241682858,0.0542061999510747,-0.623412922146034,0.8505298463095382,-0.6594785761469436,1.356719645069252,-1.2851920330177933,2.523745269058702,-0.726216767185595,0.9306362530273012,-0.7611299539113482,0.5291143185745092,0.1231419814832768,0.269970123232055,0.4380800692556197,11.237367063710735,-0.9418779276567426,0.2583381579174963,-0.918502133252964
1.26,1.3386641449589407,-1.260023459179913,2.5040959231020867,-0.0018185140363619,0.1099705491912434,0.0543229559936401,-0.6204182299125388,0.8553130478127179,-0.6582892111033123,1.349457477397396,-1.2758856704875203,2.516133969519589,-0.7462167674836182,0.9506362533253244,-0.7811299542093714,0.2883651652002596,0.1497346116747622,0.2391600751589839,0.0594682521815659,10.74862071741336,-0.9394181543949636,0.2589178098684617,-0.9185448284785428
1.28,1.326289368425409,-1.2428742008436389,2.490878501264377,-0.0010003975796499,0.110742774845239,0.0543725343755749,-0.6173358397982713,0.8594902195576042,-0.663478995334892,1.334933142053684,-1.2572729454269742,2.500911370441361,-0.7862167680796647,0.9906362539213708,-0.8211299548054178,0.3670277679316762,0.1541195057133737,0.2088585872443149,-0.2594892115789837,10.314931830918797,-0.937915562888306,0.2594985733176687,-0.9184113244042664
1.3,1.3139749602205817,-1.2256464101177316,2.4775090227061085,-0.0012346018530642,0.1103622401072275,0.0543388569117219,-0.6143726731619398,0.8632190225122341,-0.6731960664948438,1.3204088067099722,-1.2386602203664283,2.4856887713631344,-0.8262167686757111,1.0306362545174172,-0.8611299554014643,0.5410771662080478,0.148158331816578,0.186440147731498,-0.4858535579975898,9.74190494612776,-0.9370975449764885,0.2602695107959226,-0.9182010829868668
1.32,1.3023302158866097,-1.2092128779140765,2.464595603908365,-0.0026358664329571,0.1087214000049291,0.0542193619425971,-0.6116379522994041,0.8665938225270874,-0.6856105863891092,1.303884471336458,-1.21804749527608,2.468466172255105,-0.8662167692717576,1.0706362551134636,-0.9011299559975108,0.6576250404701641,0.1367360431267839,0.168740000742662,-0.6207259947132726,9.74190494612776,-0.9376284682264224,0.2616964685685767,-0.9168906234238616
1.34,1.2901276880191757,-1.1918418436834743,2.450735297838347,-0.005464065163911,0.1053414254108653,0.054004605003809,-0.6088793320578023,0.8707224673672787,-0.6997985661575594,1.287360135962944,-1.1974347701857315,2.451243573147076,-0.906216769867804,1.1106362557095102,-0.9411299565935572,0.7515890894693814,0.1379310120800891,0.2064322420095632,-0.7093989884225105,9.563103647569733,-0.9398233814591256,0.2638512489993505,-0.9141694545726076
1.36,1.2779686500920255,-1.1743574591092998,2.4365880013410437,-0.008756793258715,0.1001509847045115,0.053779189932916,-0.607492465308945,0.87754599611977,-0.7142112690668829,1.2698358005745285,-1.1758220450804822,2.4330209740241453,-0.9462167704638504,1.1506362563055563,-0.9811299571896036,0.8003279783432302,0.0693433374428675,0.3411764376245685,-0.7206351454661752,9.502861145891984,-0.9434673908769796,0.2664596920458965,-0.9097036686041364
1.38,1.2658101512422266,-1.1567208956060322,2.422151607069645,-0.0116086599846346,0.0937949792691798,0.0536112549609012,-0.608695469246215,0.885623907102356,-0.7286896554028859,1.2513114651712118,-1.1532093199603315,2.413798374886314,-0.9862167710598968,1.190636256901603,-1.02112995778565,0.8311491069751362,-0.0601501968635009,0.4038955491292961,-0.7239193168001479,9.49123925940694,-0.948381407621248,0.2686716916898379,-0.9039175675343656
1.4,1.2542133367715051,-1.1398106829241557,2.408166898875905,-0.0136919780470088,0.0874039794774012,0.053512989409791,-0.612124998202578,0.8938228856900461,-0.7426461978684201,1.235375377779916,-1.1124397002509143,2.385717124299501,-0.7086954707363311,0.985623908592472,-0.828689656893002,0.8272998191952459,-0.1714764478181529,0.4099489293845071,-0.6978271232767119,9.4677916781975,-0.9543291492537214,0.2704457467572956,-0.8971283605051092
1.42,1.2418787296944087,-1.1217930131110143,2.393462774644468,-0.0137278527657443,0.0827400191858917,0.0535348227866391,-0.621373472903341,0.9070671443155414,-0.7254113908544361,1.235375377779916,-1.1124397002509143,2.385717124299501,-0.7086954707363311,0.985623908592472,-0.828689656893002,1.181083447135439,-0.4624237350381477,0.6622129312747638,0.8617403506992027,9.4677916781975,-0.9586787190641378,0.2642453220773723,-0.901745033512824
1.44,1.2293492510259505,-1.103535289823332,2.3791107775579508,-0.0110086932182114,0.0824946219970032,0.0536752830439231,-0.6305970571075475,0.9178249818141172,-0.7111284152376107,1.235375377779916,-1.1124397002509143,2.385717124299501,-0.7086954707363311,0.985623908592472,-0.828689656893002,1.0059932476024414,-0.4611792102103274,0.5378918749287975,0.7141487808412672,11.600656483591592,-0.9637755961005248,0.265783046295204,-0.8915973943759188
1.46,1.21666029931564,-1.0850946390148255,2.364954003463131,-0.0070181788748701,0.0851137559251308,0.0538632815632442,-0.6375007320124934,0.9254179045957404,-0.7052126922436672,1.2282884230725526,-1.1025834611649896,2.3774302277305708,-0.7286954710343543,1.0056239088904952,-0.8486896571910252,0.5922604623430907,-0.3451837452472905,0.3796461390811523,0.2957861496971747,11.09244514803595,-0.964275663164011,0.2655561280012624,-0.8879082431282488
1.48,1.2044992388388889,-1.067459639075277,2.35154738713872,-0.0033036722869629,0.0889529697842002,0.0540262665803881,-0.6420788087765984,0.930566767549768,-0.7062903800094129,1.214114513657826,-1.0828709829931402,2.3608564345927108,-0.7686954716304008,1.0456239094865418,-0.8886896577870717,0.3486796075835034,-0.2289038382052521,0.2574431477013805,-0.0538843882872841,10.584094314896902,-0.9617626950429872,0.2641374263147549,-0.8889979814514232
1.5,1.1916234329458335,-1.0488035674403562,2.3373557490265777,2.4020332512044138e-05,0.0934369590014908,0.054158269835189,-0.6451289487537681,0.934855830841269,-0.7130727002319937,1.1999406042430991,-1.0631585048212908,2.3442826414548508,-0.8086954722264472,1.0856239100825882,-0.928689658383118,0.4292414396364193,-0.152506998858487,0.2144531645750513,-0.339116011129037,10.171906529017178,-0.9578570904819298,0.2623252640477652,-0.8925972638208638
1.52,1.1787020609876628,-1.0300687370196675,2.32297166944895,0.002596997680297,0.0976716588831645,0.054238638859237,-0.646809819695061,0.9385806987228716,-0.7249828226747363,1.1837666947985703,-1.041446026619639,2.3257088482871886,-0.8486954728224937,1.1256239106786343,-0.9686896589791646,0.629585150034928,-0.0840435470646439,0.1862433940801322,-0.5955061221371349,9.590940176064578,-0.953637505622224,0.2605650490277514,-0.897137347270399
1.54,1.165760020007294,-1.0112630638655484,2.3083228503671,0.0044477706259795,0.1012135232363403,0.0542644751463529,-0.6473272774176755,0.9419645819328798,-0.7393067241219304,1.167592785354041,-1.0197335484179872,2.307135055119526,-0.8886954734185402,1.1656239112746811,-1.008689659575211,0.7363636682078315,-0.0258728861307233,0.1691941605004077,-0.7161950723597044,9.590940176064578,-0.949468361167961,0.2586061022321936,-0.9023220491546984
1.56,1.1534593176011865,-0.9933288890161298,2.294125558287698,0.0058329380332655,0.1038182092495827,0.0542546975505706,-0.6474703823720128,0.9456385549565652,-0.754433346841833,1.1504188758946112,-0.9970210702014344,2.2875612619369625,-0.9286954740145864,1.2056239118707277,-1.0486896601712574,0.7783528629692934,-0.0071552477168668,0.1836986511842719,-0.7563311359951308,9.474166910423264,-0.9456978627536776,0.2567905050463139,-0.9071729442409416
1.58,1.1405104504035315,-0.9743760753948276,2.2788551124096035,0.0071429634429413,0.1058375273115316,0.0542229718567369,-0.6474195106405142,0.9494056319897176,-0.7718898035207162,1.13224496642028,-0.9733085919699804,2.266987468739498,-0.968695474610633,1.2456239124667738,-1.0886896607673038,0.8929184412482672,0.0025435865749323,0.1883538516576133,-0.872822833944159,9.39669647116716,-0.942479656848654,0.2549340452825445,-0.91158108179051
1.6,1.1275637468085429,-0.9553487807921974,2.263219872479601,0.0083917163448339,0.1071900279732643,0.0541740487776324,-0.6472852452358957,0.95306717408999,-0.7907625883351486,1.108139474871506,-0.9269057937953418,2.2402606222335675,-0.7474195121306303,1.0494056334798336,-0.8718898050108324,0.9612581916462568,0.0067132702309236,0.1830771050136237,-0.9436392407216164,9.31655309359121,-0.9397557195712648,0.2529442772592568,-0.9156646396007384
1.62,1.1146299671983753,-0.936231925837432,2.2475272900894256,0.0103472651307557,0.1087520447853845,0.0541671484026248,-0.6458038246251426,0.958031731862894,-0.7758485285354834,1.108139474871506,-0.9269057937953418,2.2402606222335675,-0.7474195121306303,1.0494056334798336,-0.8718898050108324,0.7894153225876347,0.0740710305376535,0.2482278886452027,0.7457029899832601,9.251114558661357,-0.9398571484544342,0.2444393705603949,-0.9256056623946696
1.64,1.102386611870786,-0.9180085673801835,2.2328947470952984,0.0125207849405323,0.1107714763302373,0.0541798853305793,-0.6430071172952152,0.9600773456300836,-0.7653567124405478,1.108139474871506,-0.9269057937953418,2.2402606222335675,-0.7474195121306303,1.0494056334798336,-0.8718898050108324,0.5524588503765109,0.1398353664963714,0.1022806883594851,0.5245908047467773,10.904716224759795,-0.9387070298758098,0.2452169554958525,-0.9234035358015598
1.66,1.0895649687859348,-0.8987947398542214,2.217632716918923,0.0142331456761525,0.1126377977012374,0.0541422251773866,-0.6393254980110458,0.961311770638565,-0.7617303908830364,1.1006652797501997,-0.9164117374605434,2.231541724183459,-0.7674195124286535,1.0694056337778568,-0.8918898053088555,0.2656517160381437,0.1840809642084717,0.0617212504240627,0.1813160778755707,10.904716224759795,-0.9370805982373036,0.245872780496441,-0.922347847190212
1.68,1.076820934322689,-0.8795635255285059,2.202367963405985,0.0150081551228739,0.1136797480999178,0.0540192507533708,-0.6353741658326955,0.9619020555677052,-0.764891286499882,1.085716889507587,-0.8954236247909467,2.2141039280832424,-0.8074195130246999,1.1094056343739034,-0.931889805904902,0.2547190775238018,0.1975666089175154,0.029514246457013,-0.1580447808422813,10.449333850773655,-0.9355344355842486,0.2464213085979509,-0.9221806740742888
1.7,1.0641559059638388,-0.8603258500386899,2.186988330657615,0.0145323101570115,0.1136156400428685,0.0537849477182367,-0.6314552551909882,0.9620190187166492,-0.7728981862057436,1.0707684992649744,-0.8744355121213501,2.196666131983026,-0.8474195136207464,1.1494056349699495,-0.9718898065009484,0.4457633449926735,0.195945532085362,0.0058481574472024,-0.4003449852930774,10.093536689664688,-0.9345581472557192,0.247207002113465,-0.9221358985990112
1.72,1.0521962410742272,-0.8420498107184601,2.172194917602924,0.0126469012208218,0.1123014928773355,0.0534410684498797,-0.6277527159998632,0.9619714033196556,-0.7838859176810038,1.0538201089925594,-0.8514473994219511,2.177228335853007,-0.8874195142167929,1.189405635565996,-1.0118898070969948,0.5797441389532801,0.1851269595562532,-0.0023807698496858,-0.549386573763011,9.641899831170122,-0.9347411433642168,0.2487617096347064,-0.921279019198044
1.74,1.039683192436034,-0.8228027353088249,2.15638432656875,0.0091779331728287,0.1092493746027625,0.0529607390826311,-0.6238630100678705,0.9632586450160654,-0.7966231765087343,1.0368717187201446,-0.8284592867225521,2.157790539722988,-0.9274195148128394,1.229405636162043,-1.0518898076930414,0.6690003099157592,0.1944852965996335,0.0643620848204906,-0.6368629413865234,9.641899831170122,-0.9364486439898831,0.2510960391011638,-0.9192220817786354
1.76,1.0272395121959743,-0.8034969972595272,2.1403162078799824,0.0053522992216495,0.1042517869092472,0.0524557431547102,-0.6210201543320599,0.9672724940524692,-0.8095304418772684,1.0189233284328283,-0.804471174008252,2.137352743578068,-0.9674195154088856,1.269405636758089,-1.0918898082890878,0.6906343318200876,0.1421427867905278,0.2006924518201891,-0.6453632684267074,9.578495851234038,-0.9396371067957466,0.2536239931213121,-0.9155369992656424
1.78,1.0154476080431047,-0.7850683774717951,2.124812318828618,0.0020938957043762,0.0981756937407739,0.0520176357983666,-0.6206478399787356,0.9722838545608864,-0.8217985082083218,0.9999749381306112,-0.7794830612790506,2.1159149474182466,-1.0074195160049322,1.3094056373541354,-1.131889808885134,0.6628683949815027,0.0186157176662149,0.2505680254208664,-0.6134033165526687,9.562889538136004,-0.9446167196710328,0.2560261031412574,-0.9099703793508396
1.8,1.003016593531845,-0.7655613632397801,2.1082368864927385,-0.0007692246678449,0.0911466979550886,0.051618644159649,-0.6227209492636472,0.9780835778543224,-0.8351099380668153,0.984415216044168,-0.7364541847437508,2.083722393418202,-0.7206478414688517,1.0722838560510026,-0.921798509698438,0.7333633772987378,-0.1036554642455778,0.2899861646718016,-0.665571492924677,9.533630156800427,-0.950668427885683,0.2580151219986399,-0.9032752459814364
1.82,0.990485270989238,-0.7458806914652046,2.0917103834236883,-0.0012398808526383,0.085975072341094,0.051397800147709,-0.6304992105949488,0.9890925649435164,-0.8151947586932979,0.984415216044168,-0.7364541847437508,2.083722393418202,-0.7206478414688517,1.0722838560510026,-0.921798509698438,1.2024074970111338,-0.388913066565083,0.5504493544596922,0.9957589686758694,9.533630156800427,-0.9553874241627482,0.2517237175002718,-0.9076083665144632
1.84,0.97778481032007,-0.7260096680948459,2.0755824613577367,0.0012914193442004,0.085106720533496,0.0513727196670914,-0.6386216449988464,0.9972336573585,-0.7987476601253513,0.984415216044168,-0.7364541847437508,2.083722393418202,-0.7206478414688517,1.0722838560510026,-0.921798509698438,1.003442048225351,-0.4061217201948797,0.4070546207491754,0.8223549283973342,11.768669044598028,-0.9606590528050486,0.2532555335325807,-0.8976529609724523
1.86,0.9655901682890544,-0.7070109812777856,2.060487448746401,0.0049547398168508,0.0869079589667583,0.0514325462310942,-0.6443515921133427,1.0019624864139849,-0.7909965392206977,0.9772087376294796,-0.7257313461832408,2.0745044083212174,-0.7406478417668749,1.0922838563490258,-0.9417985099964612,0.5368286352493707,-0.2864973557248129,0.2364414527742497,0.3875560452326787,11.24154954693222,-0.9619652547296316,0.2530301749929529,-0.8929790449141567
1.88,0.9526571657002212,-0.6869423310922893,2.0446864943174945,0.0086983541019613,0.0902067109050555,0.0514947486141585,-0.6484667463382899,1.0046879215716888,-0.7898180589295354,0.9627957808001024,-0.7042856690622208,2.056068438127249,-0.7806478423629214,1.1322838569450724,-0.9817985105925076,0.2537287276335096,-0.2057577112473618,0.1362717578851979,0.0589240145581149,10.279462314044396,-0.9601102245481432,0.2516257755888113,-0.8933395937554481
1.9,0.9396586230520234,-0.6668308681118638,2.028842319070544,0.0117963438580093,0.0939746299338743,0.0515193872664443,-0.6510725013313678,1.0064246771861418,-0.7949070010776049,0.9483828239707254,-0.6828399919412007,2.03763246793328,-0.8206478429589679,1.1722838575411187,-1.021798511188554,0.2987624948629053,-0.1302877496538956,0.0868377807226483,-0.2544471074034771,10.279462314044396,-0.9567791854592126,0.2498716536714218,-0.8962469080388713
1.92,0.9266210476254312,-0.646691121138115,2.012837755087876,0.0141029600491391,0.0975464355155519,0.0514889407735043,-0.6525196549336582,1.0076569899639858,-0.8052771132817639,0.931969867111546,-0.6593943147903784,2.017196497709509,-0.8606478435550143,1.212283858137165,-1.0617985117846005,0.5271434232206303,-0.0723576801145153,0.0616156388921984,-0.5185056102079477,9.935621575422374,-0.9531119048442672,0.2481697243670711,-0.9001519383626655
1.94,0.914218735109833,-0.6275394356108389,1.9974168053206347,0.0155443546158692,0.1003719629013937,0.0513995838497149,-0.6529367260944949,1.0083958118638208,-0.8174610241094744,0.9155569102523666,-0.6359486376395559,1.9967605274857376,-0.9006478441510608,1.2522838587332117,-1.101798512380647,0.6106707157103561,-0.0208535580418389,0.0369410949917492,-0.6091955413855266,9.671412654675803,-0.94948358936109,0.246199233855559,-0.9048902435257562
1.96,0.9011579035180632,-0.6073598256283933,1.9809167282947613,0.0164312440954295,0.1026307779297804,0.0512480045664892,-0.6531312701069172,1.0095293931533706,-0.8319849642183806,0.8981439533782861,-0.6115029604738325,1.9753245572470657,-0.9406478447471072,1.292283859329258,-1.1417985129766934,0.7284704698885913,-0.0097272006211124,0.0566790644774939,-0.7261970054453115,9.551328237304917,-0.9461545551131246,0.2445090588052138,-0.9094376731835804
1.98,0.8880946685786453,-0.5871561715333096,1.9641108482170744,0.0168875527180976,0.1042351678963367,0.0510519890066016,-0.6531978993982914,1.0107683656571294,-0.8479368946226986,0.8797309964893045,-0.5860572832932077,1.952888586993492,-0.9806478453431536,1.3322838599253044,-1.1817985135727398,0.8000055874050869,-0.0033314645687121,0.0619486251879353,-0.7975965202158986,9.463401891747708,-0.943341344111786,0.2430190404624163,-0.9135267411276056
2.0,0.8750306052431587,-0.5669269379290909,1.9469712753327555,0.0170176861227342,0.105260916430356,0.0508194936562466,-0.6532389441553293,1.0120749742974071,-0.8652245089170918,0.8554347736087307,-0.5366177532504531,1.9217140034859392,-0.7531979008884075,1.1107683671472457,-0.912098515656844,0.8668484856112922,-0.0020522378518961,0.0653304320138881,-0.8643807147196592,9.3312798089446,-0.9410921717083304,0.2417674418282799,-0.917001844895438
2.02,0.8626415426592566,-0.5476636079804014,1.9307355244472564,0.0177797609338054,0.1062777311467498,0.050639386901102,-0.6507311283332402,1.015209759963709,-0.8429303168694579,0.8554347736087307,-0.5366177532504531,1.9217140034859392,-0.7531979008884075,1.1107683671472457,-0.912098515656844,1.1326374314271523,0.1253907911044571,0.1567392833151104,1.1147096023816971,9.3312798089446,-0.941999792236728,0.2333663068322976,-0.9267052630226208
2.04,0.849664200171324,-0.5273436787543362,1.91408351812024,0.0193901174409118,0.1075450098160032,0.0505040793342393,-0.6471299961589166,1.0165880582750946,-0.8238920697232514,0.8554347736087307,-0.5366177532504531,1.9217140034859392,-0.7531979008884075,1.1107683671472457,-0.912098515656844,0.9712398179288106,0.1800566087161781,0.0689149155692625,0.951912357310325,11.844098342325196,-0.9420341778282172,0.234797664695191,-0.9230176661337726
2.06,0.8367647671566703,-0.5070109410442463,1.8977359114965853,0.020924402633179,0.1083361264619288,0.0503488343595351,-0.6430591997418609,1.0166558497169156,-0.8121083524195839,0.8479027945998466,-0.5255100695789807,1.912593018329371,-0.7731979011864307,1.1307683674452689,-0.9249308398636732,0.6233617983191021,0.2035398208527883,0.0033895720910503,0.5891858651833726,11.36445631197057,-0.942373639113502,0.23602613162238,-0.9193768345983486
2.08,0.8239485002301551,-0.4866889899984687,1.8815545801672493,0.0217163976906761,0.1081468768660921,0.050116105165974,-0.6389148138839599,1.01569409605991,-0.8065743600033054,0.8328388365820785,-0.5032947022360358,1.894351048016234,-0.8131979017824772,1.1707683680413152,-0.9505954882773312,0.3490199718474631,0.20721929289505,-0.048087682850284,0.2766996208139249,10.920332901367146,-0.942645197147244,0.236928432552304,-0.9168696046626283
2.1,0.8112146023888922,-0.4663938203347214,1.865436606516847,0.0212775146793121,0.1066438207533152,0.0497658561614071,-0.6348031019020147,1.014078163444531,-0.8054763995158541,0.8177748785643103,-0.4810793348930908,1.876109077703097,-0.8531979023785237,1.2107683686373616,-0.9762601366909892,0.227612229855519,0.2055855990972577,-0.0807966307689422,0.0548980243725627,10.325475980467672,-0.943869349179952,0.2381029644580928,-0.914014038029932
2.12,0.7991933062008055,-0.4471463290196402,1.8501142217635445,0.019354540346771,0.1036000338942511,0.0492971596928459,-0.6309404895834333,1.0122854217258337,-0.8074348675913244,0.8007109205167399,-0.4568639675203436,1.8565838749692771,-0.8931979029745701,1.250768369233408,-1.0019247851046476,0.2343570672939652,0.1931306159290713,-0.0896370859348683,-0.0979234037735143,10.325475980467672,-0.9465377475655552,0.2401063453046833,-0.9099789769652352
2.14,0.7866143435991546,-0.4269117879644784,1.8339387790099837,0.0157470697874389,0.0982951854378213,0.0486706534485258,-0.6275235626083293,1.0118073037864177,-0.8099933731452876,0.7836469624691693,-0.4326486001475964,1.8370586722354576,-0.9331979035706166,1.2907683698294543,-1.0275894335183056,0.2147669515244687,0.1708463487551992,-0.0239058969708105,-0.1279252776981598,10.14665926366706,-0.9506872473941912,0.2428366015465954,-0.9048034602769948
2.16,0.7740745142650636,-0.4066541717407749,1.8177158247723693,0.0117002034631754,0.0912567592720382,0.0480194138723021,-0.6269931176074451,1.0140549417562534,-0.8121378478568835,0.7655830044066977,-0.4074332327599479,1.8168918532912963,-0.973197904166663,1.330768370425501,-1.0532540819319638,0.1575755384814327,0.0265222500442086,0.1123818984917979,-0.1072237355797922,10.13320149100946,-0.9568056043789568,0.2459866624008304,-0.8973373938066029
2.18,0.7615138274768678,-0.3863350904112204,1.8014544633281864,0.0080010673754594,0.083415155149071,0.0474219638024162,-0.6293904709409224,1.0176796511400594,-0.813875001826309,0.746519046329325,-0.3812178653573984,1.7960834181367935,-1.013197904762709,1.3707683710215472,-1.0789187303456218,0.2340060097309281,-0.1198676666738618,0.1812354691902995,-0.0868576984712765,10.13320149100946,-0.9639154809183066,0.2488437725630889,-0.8886791180069814
2.2,0.7495102733134976,-0.3669566351231436,1.785974997514171,0.0050235103993834,0.0758805759787079,0.0469250452843016,-0.6342049855684113,1.021874808528875,-0.8154425023249754,0.7300443039298217,-0.3354511078542174,1.7607607132368708,-0.7293904724310385,1.1176796526301755,-0.8502524988436926,0.3287702633624181,-0.240725731374447,0.2097578694407742,-0.0783750249333192,10.147289564060884,-0.9719009927513018,0.2514566305391717,-0.8789200281751093
2.22,0.7367123429002751,-0.3464129078829113,1.7699107787031747,0.0043686893405917,0.0701602435341636,0.0466069783726469,-0.6455625605486133,1.031618271773538,-0.7895087851100643,0.7300443039298217,-0.3354511078542174,1.7607607132368708,-0.7293904724310385,1.1176796526301755,-0.8502524988436926,1.4970698664507844,-0.5678787490100978,0.4871731622331565,1.2966858607455556,10.145802261710742,-0.9784984834741612,0.2467272072074265,-0.8788896397267452
2.24,0.7236739328737936,-0.3257058244638079,1.7543817556305517,0.0068057087693126,0.0689220507114294,0.046521254814898,-0.6572183048480377,1.0383956289218306,-0.7650383280019308,0.7300443039298217,-0.3354511078542174,1.7607607132368708,-0.7293904724310385,1.1176796526301755,-0.8502524988436926,1.396954022301803,-0.5827872149712199,0.3388678574146264,1.2235228554066724,12.091592378757923,-0.9848617962764452,0.2482610908340724,-0.8675566156046932
2.26,0.7104266602700807,-0.304898112557063,1.7392737291680656,0.0105758562768927,0.0707339598783348,0.0465457599034444,-0.666592184495097,1.0417729136608251,-0.746945806073962,0.7227503992055113,-0.3242743113279156,1.7522581882484338,-0.7493904727290617,1.1376796529281987,-0.8575279982471693,1.032733050647447,-0.468693982352969,0.1688642369497284,0.904626096398442,11.28372794231018,-0.9869305409811306,0.2481396313836197,-0.8623081107507854
2.28,0.6976897357650481,-0.2850943586844383,1.7252029332713903,0.0139528682220686,0.0739902603044332,0.0465754683857277,-0.6734755599386921,1.0427926233741938,-0.7350762189674254,0.7081625897568905,-0.3019207182753121,1.73525313827156,-0.7893904733251081,1.1776796535242453,-0.8720789970541227,0.6879457890646009,-0.3441687721797537,0.050985485668431,0.5934793553268314,11.28372794231018,-0.9862256902816746,0.247168986503034,-0.8613312078879936
2.3000000000000003,0.6841615863988266,-0.2642388612056903,1.7105907022878122,0.0167371435849943,0.078042947093678,0.0465701690397428,-0.6788313298637506,1.042862991712712,-0.7269661794330528,0.6935747803082697,-0.2795671252227086,1.7182480882946862,-0.8293904739211546,1.2176796541202917,-0.8866299958610762,0.4859577256364837,-0.2677884962529242,0.0035184169259183,0.4055019767186307,10.928914037422146,-0.9842546332577344,0.2463284920312629,-0.8622470169674693
2.32,0.6705431321079768,-0.2433871431314831,1.6960992471301286,0.0185767537323826,0.0820237011723222,0.0465053203614704,-0.6826646526163838,1.042465530742338,-0.7227394315724495,0.6769869708298466,-0.2552135321403028,1.7005154883774647,-0.8693904745172011,1.257679654716338,-0.9011809946680296,0.2859970980007495,-0.1916661376316575,-0.0198730485187037,0.2113373930301643,10.654176496984292,-0.981659986471123,0.2455650715314536,-0.8644870775809455
2.34,0.6575480268863305,-0.2235914399180321,1.6823888960388238,0.019288549840183,0.08527600274401,0.0463659479274816,-0.6850580839975238,1.0414899656489678,-0.7206558180762148,0.6603991613514235,-0.2308599390578969,1.6827828884602432,-0.9093904751132476,1.2976796553123846,-0.915731993474983,0.1659946251337636,-0.1196715690570005,-0.0487782546685133,0.1041806748117324,10.434215010031949,-0.9793184897947964,0.2450094718300986,-0.8670732125684323
2.36,0.643825126638207,-0.2027687977532535,1.6679888376888186,0.0189797752571297,0.0879843146579478,0.0461335886792626,-0.6870975306308941,1.0408874101028889,-0.7195067285571993,0.6428113518580992,-0.2055063459605899,1.664686513572848,-0.949390475709294,1.337679655908431,-0.9302829922819364,0.120859654963799,-0.101972331668515,-0.0301277773039565,0.0574544759507744,10.33774626858758,-0.9771023920342524,0.2450299633794745,-0.8695229771464247
2.38,0.6300649442205827,-0.1819535442398644,1.653602867566321,0.0177771446073711,0.0900141816531902,0.0458271161139542,-0.6888243543450642,1.0407268930246605,-0.7191811610029889,0.6242235423498739,-0.1791527528483818,1.6462263637152788,-0.9893904763053404,1.377679656504477,-0.94483399108889,0.088228114914942,-0.086341185708505,-0.0080258539114086,0.0162783777105213,10.281675979183092,-0.9754389868055002,0.2457158475500736,-0.8712007786643177
2.4,0.6162724125129028,-0.1611350423671768,1.6392157764906743,0.0158457709351072,0.0914258423808574,0.0454606351969354,-0.6903746066499784,1.0411884633408974,-0.7195432758025646,0.5956237265033295,-0.1299171995886314,1.6176438095161716,-0.7888243558351803,1.1407268945147766,-0.7066065674664331,0.0828772660896027,-0.0775126152457117,0.0230785158118473,-0.0181057399787853,10.239301250265273,-0.9743609344842056,0.2469175052796734,-0.8720657845688948
2.42,0.6031515444533492,-0.1413078544813299,1.6257476191566338,0.0147039567498391,0.0925071105408289,0.0451586015740405,-0.6905577386115346,1.0456190427471614,-0.6969242524863619,0.5956237265033295,-0.1299171995886314,1.6176438095161716,-0.7888243558351803,1.1407268945147766,-0.7066065674664331,1.1524797036927323,-0.0091565980778085,0.2215289703132006,1.1309511658101346,10.204811296573098,-0.9754825072258844,0.243440084774637,-0.8767610909520489
2.44,0.5893483379896874,-0.1203605207256667,1.6120644670708766,0.0149745972196313,0.0934408127195049,0.0449417971088485,-0.6897701408031607,1.0488151044083336,-0.6728488630333724,0.5956237265033295,-0.1299171995886314,1.6176438095161716,-0.7888243558351803,1.1407268945147766,-0.7066065674664331,1.2149686186923585,0.0393798904186948,0.1598030830586072,1.203769472649474,11.837718168245374,-0.9770251280068084,0.2458414459430404,-0.8715691235056553
2.46,0.5755670999129838,-0.0993622610934704,1.598823714202892,0.0158261984982994,0.0936908048373652,0.0447565307004977,-0.6885131406391284,1.050905134405566,-0.6524067515828995,0.5877354829449777,-0.1185099306434836,1.6105777438415072,-0.8088243561332035,1.1607268948127998,-0.704091648759122,1.0293544036861948,0.0628500082016148,0.10450149986162,1.022105572523646,11.645098799089284,-0.9789118095885684,0.2477572654170214,-0.8661325820558589
2.48,0.5618122953994743,-0.0783324244591926,1.5859609597827276,0.016693035552199,0.0929599038493667,0.0445575862847887,-0.6871674506321468,1.0520754543708732,-0.6348712548194321,0.5719589958282741,-0.0956953927531881,1.5964456124921786,-0.8488243567292499,1.2007268954088464,-0.6990618113444996,0.8812975904279778,0.0672845003490796,0.0585159982653626,0.876774838173372,11.416717443607013,-0.9814011096572448,0.249370158572424,-0.8604468869126032
2.5,0.5487698081787459,-0.0583403413950215,1.5740446515896012,0.0170984859364105,0.0911165989305265,0.0443212548985695,-0.6859086813838088,1.0524263762351274,-0.6203333174923906,0.5561825087115705,-0.0728808548628926,1.58231348114285,-0.8888243573252964,1.2407268960048927,-0.6940319739298774,0.7298274931453976,0.0629384624169004,0.0175460932127058,0.7268968663520725,11.231899498875464,-0.9849897742048336,0.2509472403330112,-0.8538655195909732
2.52,0.5350646946509036,-0.0372952605513666,1.5617850526959909,0.0166682353296501,0.0876507547286201,0.0439904441904296,-0.6847935716822846,1.0521814598094257,-0.6064353649512304,0.5384060215650646,-0.0480663169427947,1.5684328416642523,-0.9288243579213428,1.280726896600939,-0.6890021365152551,0.6972383712518152,0.0557554850762087,-0.012245821285084,0.694897627058011,11.089914746286013,-0.98987243739733,0.2528464267789158,-0.8460309146481656
2.54,0.521376583596232,-0.0162591319599884,1.5498020814724247,0.0149693310274156,0.0823029783216496,0.0435517755420562,-0.6844091256466213,1.0516642807392629,-0.5925213191668435,0.5206295344185585,-0.0232517790226968,1.5545522021856548,-0.9688243585173894,1.3207268971969857,-0.6839722991006327,0.6964480293513785,0.0192223017831671,-0.0258589535081399,0.6957022892193465,10.994023128680965,-0.9957951558369872,0.2552080524617509,-0.8371589705879366
2.56,0.5083530584413821,0.0037297299583218,1.5386825446542822,0.0124129546888672,0.0758927278326386,0.0430719409608365,-0.6868178905044645,1.0527041757920652,-0.5786283216774534,0.5018530472571515,0.0025627589123021,1.540797308642423,-1.0088243591134358,1.360726897793032,-0.6789424616860105,0.7069280534492585,-0.1204382428921624,0.0519947526401165,0.6946498744695051,10.993389974352796,-1.0031575649129378,0.2583206016551864,-0.8262560720176075
2.58,0.4945632779480874,0.0248122054630238,1.5272710483039682,0.0096144670368683,0.0686834260355918,0.0425848940983377,-0.6922976277515196,1.0555210821629677,-0.5632019280570726,0.4820765600808432,0.0293772968622023,1.5271681610345564,-1.0488243597094822,1.4007268983890784,-0.6739126242713881,0.8305662254301562,-0.2739868623527541,0.1408453185451241,0.7713196810190392,11.027366294811143,-1.0116952014081195,0.2615757853496505,-0.813764616296437
2.6,0.4806334618859357,0.0459633596604675,1.516175125194844,0.0072073809453066,0.0617609974485597,0.0421590543534518,-0.7005550173172034,1.059359355942849,-0.5471397457196117,0.4599483965605114,0.0775882595711722,1.4991109519011143,-0.7922976292416357,1.060113574873767,-0.5216048783737401,0.923188130191551,-0.4128694782841891,0.1919136889940609,0.8031091168730464,11.098331739734022,-1.0207776630048997,0.2651398438046548,-0.7997342787005753
2.62,0.466457738835548,0.0674833698731174,1.5054822309907128,0.0146301692664213,0.0572373612905287,0.0424373662209018,-0.7164160792560309,1.086325142359486,-0.5228648745997156,0.4599483965605114,0.0775882595711722,1.4991109519011143,-0.7922976292416357,1.060113574873767,-0.5216048783737401,1.9798966455238087,-0.7930530969413763,1.3482893208318525,1.2137435559948009,11.098331739734022,-1.0287935696316073,0.2631272549375283,-0.7878989449370949
2.64,0.4526972131733329,0.0881764902880877,1.4957610342972143,0.0288382611687115,0.0568214910897302,0.0432142232410444,-0.7307497879557807,1.0898880757047047,-0.501633608428666,0.4599483965605114,0.0775882595711722,1.4991109519011143,-0.7922976292416357,1.060113574873767,-0.5216048783737401,1.2931708726399154,-0.7166854349874907,0.1781466672609366,1.0615633085524825,11.71419893813345,-1.0352022236914198,0.2564059228612022,-0.7791831233206119
