t,x,y,z,roll,pitch,yaw,v_x,v_y,v_z,ref_x,ref_y,ref_z,ref_v_x,ref_v_y,ref_v_z,a_com,a_x,a_y,a_z,thrust,wind_x,wind_y,wind_z
0.0,-0.9815561672022448,2.468630471103852,2.857433983197333,0.0329507604795082,0.0996963145392326,0.0423192365972655,0.0011239284057569,0.0019023003428865,-0.0010193349420586,-0.9815276657799789,2.468770318973936,2.8574060518373896,-0.0536567297816969,-0.0960528489507415,-0.1009536825056683,0.1216655803824095,0.0561964202878484,0.0951150171443289,-0.0509667471029304,10.256316449314,-0.9398798444704513,0.2503879571457132,-0.8811456813553066
0.02,-0.9814632334057466,2.468881567400702,2.857327367754626,0.0408693338629468,0.0968581974930976,0.0427479997587429,0.0083881194202512,0.0194512059443863,-0.0102313756866658,-0.9815276657799789,2.468770318973936,2.8574060518373896,-0.0536567297816969,-0.0960528489507415,-0.1009536825056683,1.0554551785671844,0.363209550724716,0.8774452800749902,-0.4606020372303611,10.257266778957272,-0.9461496555191634,0.2482208137192521,-0.8712913138865844
0.04,-0.9812332465556414,2.469282853107475,2.8569510734205497,0.0548377535594807,0.0881513903399815,0.0432509800481624,0.0133184896455065,0.019048106293686,-0.0269088163562984,-0.9815276657799789,2.468770318973936,2.8574060518373896,-0.0536567297816969,-0.0960528489507415,-0.1009536825056683,0.8697816783187509,0.2465185112627633,-0.0201549825350189,-0.833872033481629,9.299118142947007,-0.9448130005068748,0.2359887664506765,-0.8762971838471155
0.06,-0.9809832978598112,2.469587453246608,2.856261983263215,0.0684424745553294,0.0766612800341609,0.0433981847291552,0.0122605465170272,0.0127196462504128,-0.0448049737880695,-0.9820642330777958,2.4678097904844285,2.856396515012333,-0.0645870273054339,-0.1160528492487647,-0.1209536828036915,0.9505802188731072,-0.0528971564239658,-0.3164230021636573,-0.8948078715885557,9.299118142947007,-0.947416447881942,0.220184514821311,-0.8804668211098083
0.08,-0.9807995831375904,2.4697411506846105,2.8551558361980893,0.08221676127191,0.0634649517322428,0.0432177586390718,0.0057505797655188,0.0026465385449634,-0.0649574478224604,-0.9831373676734296,2.4658887335054134,2.85437744136222,-0.0864476223529078,-0.1560528498448112,-0.1609536833997379,1.1725712938432882,-0.3254983375754178,-0.5036553852724724,-1.0076237017195455,9.209371850349273,-0.9522382733006224,0.2027598710756217,-0.8844952337054115
0.1,-0.9807969924961826,2.4696624151065536,2.853636277599645,0.095320717537894,0.0508397727828016,0.0428135174948325,-0.0054133538795749,-0.0103257958578303,-0.0860646527319266,-0.9842105022690636,2.4639676765263987,2.8523583677121063,-0.1083082174003817,-0.1960528504408576,-0.2009536839957844,1.3587024815795394,-0.5581966822546938,-0.6486167201396879,-1.05536024547331,9.145253131222034,-0.9574790406367616,0.1852597036016969,-0.8890412752167143
0.12,-0.9810381494219246,2.469321904217202,2.8517938193895103,0.1071666131970887,0.040486304713136,0.0423586930199299,-0.0194085161996137,-0.025118782297789,-0.1068698679123354,-0.9863766666170714,2.4600466195175814,2.8483392940321903,-0.1301688124478556,-0.2360528510369041,-0.2409536845918309,1.4556390305293303,-0.6997581160019378,-0.7396493219979365,-1.0402607590204394,9.145253131222034,-0.9632920842493372,0.1668600038925413,-0.8938159925201591
0.14,-0.9816026233535302,2.468634926039648,2.849416398320761,0.1190339912175532,0.0318505311981262,0.0419205285443548,-0.0363246997516706,-0.043075987460978,-0.1298658390989545,-0.988542830965079,2.456125562508765,2.844320220352275,-0.1520294074953295,-0.2760528516329505,-0.2809536851878774,1.686292659990811,-0.845809177602843,-0.8978602581594464,-1.149798559330955,9.139527004959746,-0.967690745070369,0.14789257777611,-0.9009281280525824
0.16,-0.9825287753920956,2.4675637139727176,2.8465703376964657,0.1303155583751942,0.0259576420485422,0.0416428046269364,-0.0555441408872566,-0.0634118056396876,-0.1536684193092609,-0.9912555101892734,2.451204505485046,2.839301146657458,-0.1738900025428034,-0.316052852228997,-0.3209536857839238,1.8367738314976807,-0.9609720567793024,-1.0167909089354834,-1.1901290105153228,9.113042444827444,-0.9690880937740944,0.1293596961321071,-0.911200856029873
0.18,-0.9838630832516048,2.4660543482659354,2.8432403425492296,0.1408089853433553,0.0236739819859404,0.0416999587996144,-0.0766984883380193,-0.0865800826090286,-0.1781604289866369,-0.9945147042896548,2.4452834484464265,2.83328207294774,-0.1957505975902773,-0.3560528528250434,-0.3609536863799702,1.9900590517823624,-1.0577173725381364,-1.1584138484670483,-1.2246004838687998,9.117364323491074,-0.9695690483179508,0.1120364796657103,-0.9209535379246389
0.2,-0.98551412894347,2.464149895143031,2.8396175564482675,0.1492340167578346,0.0248650257329375,0.0420847848664523,-0.0956526950183344,-0.112276670176233,-0.2018919391949805,-0.9876980076685056,2.461725344135484,2.8343323210998976,-0.1405035841894407,-0.1865800840991447,-0.2781604304767531,1.9891965339351307,-0.9477103340157512,-1.2848293783602187,-1.1865755104171771,9.126966245991298,-0.9681636560178069,0.0959589684134829,-0.9323691492748472
0.22,-0.9875956883771212,2.461441374949505,2.8355212039310254,0.1519688332060107,0.0283754147139174,0.0423838498150789,-0.1112728765752859,-0.1554997002384966,-0.204999965591905,-0.9876980076685056,2.461725344135484,2.8343323210998976,-0.1405035841894407,-0.1865800840991447,-0.2781604304767531,2.3031935588001784,-0.7810090778475769,-2.1611515031131803,-0.1554013198462267,10.605490540293433,-0.97201423888574,0.0835526614940472,-0.9402245027456028
0.24,-0.9899653262445254,2.4579390014220897,2.831389420745608,0.1476907383585616,0.0328666487342802,0.0423185890480886,-0.1248043295618359,-0.1910181537140785,-0.2079005170635238,-0.9876980076685056,2.461725344135484,2.8343323210998976,-0.1405035841894407,-0.1865800840991447,-0.2781604304767531,1.905960359021012,-0.6765726493275004,-1.775922673779097,-0.1450275735809386,10.605490540293433,-0.9713464421238674,0.0856545370478345,-0.9421079397924574
0.26,-0.9924538123125504,2.4540306832807186,2.8273790192585624,0.1411916206223256,0.0373041857533773,0.0420793581502286,-0.1363831511913018,-0.2180881479684716,-0.2140207597359783,-0.9891030435104,2.4598595432944927,2.83155071679513,-0.153264603359725,-0.206580084397168,-0.2981604307747763,1.5035882661400302,-0.5789410814732915,-1.3534997127196535,-0.3060121336227253,10.357888941519375,-0.9686924634253768,0.0894596095593826,-0.9464272696744828
0.28,-0.9952989197275924,2.449412291606157,2.8229974369230613,0.1339567611089994,0.0417045014410463,0.041725692458324,-0.1474376730907977,-0.2421299771857587,-0.2239878716027406,-0.9919131151941888,2.4561279416125097,2.825987508185595,-0.1787866417002935,-0.2465800849932144,-0.3381604313708227,1.4138204673014425,-0.5527260949747953,-1.2020914608643545,-0.4983555933381151,10.09165646969086,-0.965225027680556,0.0929911669728252,-0.9521583751848122
0.3,-0.9983555775511798,2.4443442071160693,2.8183797565215367,0.1272069426601985,0.045554967776475,0.0412997822916203,-0.157629712249014,-0.2634185749376641,-0.2374375488788383,-0.9947231868779776,2.452396339930526,2.82042429957606,-0.2043086800408621,-0.2865800855892609,-0.3781604319668692,1.3582855694553193,-0.5096019579108171,-1.0644298875952696,-0.6724838638048832,9.658879416281708,-0.961767382821595,0.0960730368645409,-0.9579038519936772
0.32,-1.0016093384292717,2.438872986024559,2.8134586707426275,0.1212767329643712,0.0487256535069691,0.0408192645057003,-0.1672292042799343,-0.2827355764477806,-0.2540160084096638,-0.998809360478795,2.4466647382187414,2.812861090936723,-0.2298307183814306,-0.3265800861853073,-0.4181604325629156,1.360277650894077,-0.4799746015460168,-0.9658500755058224,-0.8289229765412756,9.658879416281708,-0.958574432864532,0.0981782183533587,-0.963475008997582
0.34,-1.0048738788147362,2.4333306409044,2.808461862961039,0.1164831088427543,0.0510868355325091,0.0403251162010032,-0.1759350796287198,-0.2998377864978156,-0.2711639328025965,-1.0028955340796122,2.440933136506956,2.8052978822973853,-0.2553527567219992,-0.3665800867813538,-0.4581604331589621,1.2867878274698648,-0.4352937674392751,-0.8551105025017519,-0.8573962196466334,9.49824623323184,-0.9554107418345902,0.0990948575120894,-0.9698094793293932
0.36,-1.008488693464583,2.427147095608725,2.802836416442423,0.1120685865653176,0.0530048711155961,0.0397695963337853,-0.1850860697201274,-0.3175736656288314,-0.2905447661240424,-1.0076197586389437,2.4342015347802697,2.796734673643147,-0.2808747950625677,-0.4065800873774002,-0.4981604337550085,1.390969741256715,-0.4575495045703759,-0.886793956550791,-0.9690416660722956,9.424293368942015,-0.9521784822957252,0.0991063196045615,-0.9766293971891084
0.38,-1.0122870404156417,2.420613761169532,2.796811400811088,0.1079922751416404,0.0545560009172339,0.0391859283948164,-0.1942798404638779,-0.3347908653262519,-0.3110339492337905,-1.0129820341567892,2.4264699330386823,2.787171464974007,-0.3063968334031363,-0.4465800879734466,-0.538160434351055,1.414888697401927,-0.4596885371875275,-0.8608599848710263,-1.024459155487406,9.359594801068852,-0.949012124780288,0.098771448633081,-0.983490561500723
0.4,-1.0162696924234158,2.4137428019255687,2.7903658602932198,0.1041082302016718,0.0559242227953912,0.0385871499372437,-0.2035041264838308,-0.3513470334498774,-0.3325374538195942,-1.0220010324388356,2.4038742179032195,2.7812597033493978,-0.254998663688184,-0.4347908668163681,-0.4110339507239066,1.4331738074875393,-0.4612143009976463,-0.8278084061812713,-1.0751752292901873,9.308979994402762,-0.9461984210927054,0.0985950995053912,-0.9895214157761982
0.42,-1.020213174856417,2.406901061180072,2.784112720833801,0.1009907191116785,0.0573041328937853,0.0380591253915745,-0.2110573241896366,-0.3682113050177888,-0.3246164377757359,-1.0220010324388356,2.4038742179032195,2.7812597033493978,-0.254998663688184,-0.4347908668163681,-0.4110339507239066,1.0052324933396208,-0.3776598852902865,-0.8432135783955713,0.3960508021929182,9.26099115062516,-0.9541567640588572,0.0997660080145594,-0.9836296825231344
0.44,-1.02451276158244,2.3993647902271023,2.777667909016121,0.098664879086681,0.0588203377841154,0.0375690591008954,-0.2184771819383246,-0.3846810412380791,-0.3206930304255319,-1.0220010324388356,2.4038742179032195,2.7812597033493978,-0.254998663688184,-0.4347908668163681,-0.4110339507239066,0.9242559513094076,-0.3709928874344029,-0.8234868110145149,0.1961703675102011,11.015956859699145,-0.9541444212900548,0.1019749767559685,-0.9828696498571414
0.46,-1.0289596698027557,2.391501450129618,2.771229125098945,0.0970648641060165,0.060161330504464,0.0371054313192551,-0.2258309284190487,-0.4008904562886887,-0.3233552471179232,-1.0245510190757174,2.399526309235056,2.7771493638421587,-0.2671424283330452,-0.4547908671143912,-0.4310339510219299,0.8998751598179286,-0.3676873240362033,-0.8104707525304788,-0.133110834619568,10.25484971424521,-0.9531549943742216,0.1026020346082638,-0.984161275789106
0.48,-1.0335537644809312,2.3833195785575696,2.764684898782982,0.0959011365402824,0.0612756342137997,0.036644102636168,-0.2332084679227048,-0.4165017155027341,-0.3309246641542481,-1.029650992349481,2.3908304918987286,2.7689286848276806,-0.2914299576227677,-0.4947908677104377,-0.4710339516179763,0.9426499584229698,-0.3688769751828052,-0.7805629607022718,-0.3784708518162455,9.9862155480796,-0.952006574912309,0.1023607640526653,-0.9861628521029658
0.5,-1.0380554761102148,2.375263879370959,2.7582901266054014,0.0952096226214292,0.0621184192247441,0.0362088146585095,-0.2402878124388638,-0.4307114789172505,-0.341827585383159,-1.0347509656232448,2.382134674562401,2.7607080058132025,-0.3157174869124901,-0.5347908683064841,-0.5110339522140228,0.9629488387225396,-0.3539672258079482,-0.7104881707258204,-0.545146061445545,9.9862155480796,-0.9504595020101728,0.1012262872663129,-0.9891876355795176
0.52,-1.042940100701303,2.366499315021155,2.7513032937054867,0.0950489476101403,0.0627884617048092,0.0357641089257493,-0.2478095430442099,-0.4450240668815428,-0.3564286408965581,-1.0410653153614946,2.371438857196272,2.750487326768922,-0.3400050162022126,-0.5747908689025306,-0.5510339528100693,1.0892858068940927,-0.3760865302673083,-0.7156293982146122,-0.7300527756699537,9.77590379067442,-0.9488261930572224,0.0992489894151688,-0.9927005434832707
0.54,-1.0479755176858694,2.3574506571392604,2.7440059405958768,0.0955854442836042,0.0632553428271611,0.0353427129675661,-0.2553613005655024,-0.4591987631935953,-0.372575217594147,-1.0473796650997445,2.3607430398301417,2.7402666477246416,-0.364292545491935,-0.6147908694985771,-0.5910339534061158,1.1387086943665985,-0.3775878760646209,-0.7087348156026269,-0.807328834879445,9.602683483560211,-0.9475986953886986,0.0965617772316197,-0.9960320262081832
0.56,-1.0531648554581603,2.3481058960549057,2.73637435180945,0.0964634282999907,0.0636554484393658,0.0349320478766257,-0.2631749557953257,-0.4744972672506651,-0.3897732107328108,-1.0543012030702372,2.349047222449111,2.72904596866546,-0.3885800747816574,-0.6547908700946234,-0.6310339540021621,1.2153892405647797,-0.3906827614911679,-0.7649252028534892,-0.8598996569331885,9.537648331164746,-0.9462139238751828,0.0931784706753537,-0.9999020406209108
0.58,-1.058241075152384,2.3389358010333416,2.728796192471254,0.0971066931963977,0.0641352478245771,0.0345319872161814,-0.2707396518015105,-0.489899149162914,-0.4070608298938379,-1.0618299292729731,2.336351405053179,2.716825289591377,-0.4128676040713799,-0.6947908706906699,-0.6710339545982086,1.2178919988668562,-0.3782348003092378,-0.7700940956124475,-0.8643809580513584,9.493560847135086,-0.9447233550622032,0.0898574154545395,-1.0039632586109428
0.6,-1.0637397644205704,2.3289620375202738,2.720452961924668,0.0972154246522014,0.0648289834532007,0.0340836241612306,-0.2786979325658251,-0.5065880153327736,-0.426399396308562,-1.0717780577424594,2.314440843575196,2.7084431509765623,-0.3256546627306181,-0.5898991506530302,-0.5070608313839541,1.337752441350638,-0.3979140382157325,-0.8344433084929798,-0.9669283207362016,9.450008590663856,-0.9429324834355496,0.0869707563609987,-1.008365994839678
0.62,-1.0693921949847247,2.3185801845045453,2.712038370737824,0.0952168751837475,0.0663226080177465,0.0335605464618112,-0.2859326403312535,-0.530071023915733,-0.4139975077234963,-1.0717780577424594,2.314440843575196,2.7084431509765623,-0.3256546627306181,-0.5898991506530302,-0.5070608313839541,1.3762262977385613,-0.3617353882714197,-1.1741504291479687,0.6200944292532817,9.393479852495147,-0.9497980131815396,0.086646443329977,-1.003804259913372
0.64,-1.07488671209774,2.308322326257346,2.7042472231816426,0.0913934775675217,0.0686191809378666,0.0330074964486036,-0.2919668845095339,-0.5480887784091643,-0.4067830221017476,-1.0717780577424594,2.314440843575196,2.7084431509765623,-0.3256546627306181,-0.5898991506530302,-0.5070608313839541,1.016243551732423,-0.3017122089140206,-0.900887724671562,0.3607242810874378,11.33232965570278,-0.948667666402816,0.0904067236813458,-1.003958597991778
0.66,-1.0807864080205445,2.297192605546816,2.696130795769616,0.087060962518336,0.0713996596407976,0.0324295236092136,-0.2976011311096588,-0.5637961619290354,-0.4055250002765596,-1.0750346043697656,2.3085418520686654,2.703372542662722,-0.3366376649164397,-0.6098991509510534,-0.5270608316819773,0.8367336056117067,-0.2817123300062452,-0.7853691759935555,0.0629010912593985,10.877840705837116,-0.946341125843404,0.0939327788077848,-1.0058449957690343
0.68,-1.0867924711718988,2.285771293209951,2.6879773156688223,0.0830133524078878,0.0741862373506096,0.0318643971490098,-0.3026648636260537,-0.5775049768856639,-0.4101215351856422,-1.081547697624378,2.296743869055605,2.693231326035044,-0.3586036692880827,-0.6498991515470999,-0.5670608322780237,0.7659979237620255,-0.2531866258197457,-0.6854407478314284,-0.2298267454541314,10.142056150269129,-0.9430718150798018,0.0966278266358119,-1.0092988053757288
0.7000000000000001,-1.092894979925773,2.274092590778031,2.6796760118436773,0.0794926061380503,0.076746766378833,0.0313114511605795,-0.3072916438913511,-0.589756172540974,-0.419768609316521,-1.0880607908789903,2.284945886042544,2.6830901094073645,-0.3805696736597258,-0.6898991521431463,-0.6070608328740702,0.8132726017374258,-0.2313390132648696,-0.6125597827655038,-0.4823537065439393,10.142056150269129,-0.939501339316592,0.0982971620939991,-1.013572436525219
0.72,-1.0987747718700858,2.262781153388996,2.671574475637479,0.0767095634252883,0.0788568612023391,0.0307963673319316,-0.3113838236768122,-0.6004157976221111,-0.4325513040705415,-1.0956721843521848,2.2711479029996813,2.670948892749883,-0.4025356780313689,-0.7298991527391928,-0.6470608334701167,0.8569872044572833,-0.2046089892730529,-0.5329812540568524,-0.639134737701022,9.88187221620683,-0.9356493979118246,0.0991550827576607,-1.018636233686336
0.74,-1.1050443399790215,2.250663078421282,2.6627645849675066,0.0744183658877374,0.0806719912016713,0.0302660629581266,-0.3153445169266375,-0.6109306655437919,-0.4478567055429903,-1.1032835778253791,2.2573499199568183,2.658807676092401,-0.424501682403012,-0.7698991533352393,-0.6870608340661631,0.9493482667894368,-0.1980346624912643,-0.5257433960840441,-0.7652700736224399,9.67963744816916,-0.932188554645927,0.0991676068468189,-1.0236796032608748
0.76,-1.1113926713234918,2.2383299605353386,2.6536331449296786,0.0724907310016498,0.0821207993689482,0.0297337755925945,-0.3192831613158143,-0.6218094756020243,-0.4645764089006949,-1.111444121407865,2.2425519368990545,2.645666459420019,-0.446467686774655,-0.8098991539312856,-0.7270608346622095,1.0166242032790829,-0.1969322194588424,-0.5439405029116162,-0.8359851678852337,9.584660752679156,-0.9288832697205,0.0987219666879621,-1.0287617178855888
0.78,-1.1178198665529544,2.225780244019953,2.6441540510508763,0.0705976537121809,0.0833478364052582,0.0291887528833117,-0.3232255926054503,-0.6325365883375887,-0.4825477137135888,-1.1201538150996415,2.226753953826389,2.631525242732735,-0.468433691146298,-0.8498991545273321,-0.767060835258256,1.0648726552890646,-0.1971215644817975,-0.5363556367782241,-0.8985652406446942,9.459802179332655,-0.9260427287016316,0.0983517455553408,-1.0332270673788757
0.8,-1.1239989418943406,2.213662511446921,2.6348034789834998,0.0687460045175408,0.0844062883285128,0.0286612674114276,-0.3269836360731799,-0.6423859587767885,-0.5008181243591837,-1.133981146183227,2.1941534146030737,2.620026665365197,-0.3727670622688319,-0.7325365898277049,-0.582547715203705,1.054681105728876,-0.187902173386481,-0.4924685219599878,-0.9135205322797436,9.459802179332655,-0.923808923723552,0.098425707946423,-1.0367348732946549
0.8200000000000001,-1.130565460732926,2.200675846423179,2.6248852486808323,0.0663387775552306,0.0858542217382092,0.0280986543804155,-0.3292612404242685,-0.6555481170831994,-0.4884205022930906,-1.133981146183227,2.1941534146030737,2.620026665365197,-0.3727670622688319,-0.7325365898277049,-0.582547715203705,0.9112229773178412,-0.1138802175544295,-0.6581079153205438,0.6198811033046536,9.39915932796157,-0.929096165060469,0.0984936367342762,-1.0338022581629078
0.84,-1.1371684130170427,2.187452647987832,2.6152213085112974,0.0638637461051762,0.0878144883821054,0.0275667784885703,-0.3308602623350467,-0.6661222494644723,-0.4791146588832011,-1.133981146183227,2.1941534146030737,2.620026665365197,-0.3727670622688319,-0.7325365898277049,-0.582547715203705,0.7088156817135501,-0.0799510955389104,-0.5287066190636458,0.4652921704944773,11.414997560031225,-0.9277970995046896,0.1010970576653865,-1.0338074194053757
0.86,-1.1437996493531069,2.174031305137245,2.605660356454956,0.0618608616733237,0.0898399273115515,0.027073515285077,-0.3321354656086652,-0.6755779857783438,-0.4774188247332906,-1.1377088168059153,2.1868280487047964,2.61420118821316,-0.3826753562015081,-0.752536590125728,-0.6025477155017281,0.4845434606165851,-0.0637601636809231,-0.4727868156935766,0.0847917074955212,10.950609299720782,-0.9255464429859072,0.1028887544711089,-1.035296014210267
0.88,-1.1501205777192234,2.1611144436503764,2.596553053552737,0.0604353773058627,0.091569015484993,0.0266283013114503,-0.3331486019237775,-0.6836990236842002,-0.4813223117444355,-1.145164158051292,2.1721773169082423,2.602550233909086,-0.4024919440668608,-0.7925365907217745,-0.6425477160977746,0.4533621971104677,-0.0506568157556175,-0.4060518952928194,-0.1951743505572423,10.52504784082339,-0.922989103747827,0.1037891730258084,-1.037616848125047
0.9,-1.1567938768331532,2.1473604384480383,2.5868406915812288,0.0596253614077563,0.0930359661049471,0.0261896007953281,-0.3341350623610664,-0.6913174170644604,-0.4899123750160786,-1.1526194992966683,2.1575265851116883,2.590899279605012,-0.4223085319322134,-0.832536591317821,-0.6825477166938211,0.5761992036213697,-0.0493230218644419,-0.3809196690130079,-0.4295031635821567,10.19903059715125,-0.9203896105543024,0.1037071257413728,-1.0404264888660728
0.92,-1.1634872436935055,2.133462069439236,2.5769128838962363,0.0598051057265254,0.0940700571826256,0.0257976005322882,-0.3351721337591196,-0.6982747269070666,-0.502430935338597,-1.1610656699353128,2.140875853285332,2.577248325271136,-0.4421251197975661,-0.8725365919138675,-0.7225477172898676,0.7179728927320571,-0.0518535699026628,-0.3478654921303115,-0.6259280161259151,9.942656047342098,-0.9179224690403148,0.1023994466014909,-1.043549647221432
0.94,-1.1702009850797968,2.1194270861656177,2.5667178125065275,0.0611603720025198,0.0946696528234525,0.0254642091391385,-0.3361806704480532,-0.7050384196302176,-0.516456726743229,-1.169511840573957,2.124225121458976,2.563597370937259,-0.4619417076629187,-0.912536592509914,-0.762547717885914,0.780204316240913,-0.050426834446679,-0.3381846361575513,-0.7012895702316002,9.746134224145862,-0.916135652267648,0.0998929892082192,-1.0463647051375815
0.96,-1.1765997986390584,2.105956405975179,2.556762998309287,0.0633187594331401,0.0949254696630085,0.0251897104627447,-0.3373445008515596,-0.7126509612972453,-0.530720673953365,-1.1784534259092352,2.106574389617718,2.548946416588481,-0.4817582955282714,-0.9525365931059604,-0.8025477184819604,0.8105021311722516,-0.0581915201753185,-0.3806270833513814,-0.7131973605068009,9.62824037586961,-0.9149504386318924,0.0963333734983217,-1.0487853564795309
0.98,-1.1833614068141305,2.0916030623680277,2.545980589842581,0.0658382446310504,0.0950067974804976,0.0249051637304942,-0.3387700120931068,-0.722346324824422,-0.5468212488365017,-1.1878904259411471,2.0879236577615594,2.5332954622248027,-0.501574883393624,-0.9925365937020068,-0.8425477190780069,0.9424179908503716,-0.0712755620773636,-0.4847681763588352,-0.8050287441568382,9.62824037586961,-0.9140038176123086,0.0924276752576755,-1.051097749268424
1.0,-1.1901535921150137,2.0770418483333346,2.534866300579744,0.0679540725969672,0.0950031351284564,0.024585484237461,-0.3403869783066884,-0.733198585902211,-0.5638314750325787,-1.200299907418786,2.055485746126806,2.5186395274007563,-0.3728275547748009,-0.8223463263145381,-0.6468212503266179,1.012094295851505,-0.0808483106790769,-0.5426130538894514,-0.8505113098038475,9.5750226216187,-0.9131831611637824,0.0889689290676812,-1.0533072035015063
1.02,-1.1966444882641345,2.062935085800892,2.524296374824258,0.0679328111990721,0.0961978882472328,0.0242220121726569,-0.3424168443984241,-0.7504513973196448,-0.5478819392989697,-1.200299907418786,2.055485746126806,2.5186395274007563,-0.3728275547748009,-0.8223463263145381,-0.6468212503266179,1.1791602396129046,-0.101493304586786,-0.8626405708716922,0.7974767866804511,11.653460939363868,-0.916522134792788,0.0859080076171817,-1.053323717251745
1.04,-1.2035031402687857,2.047761160114616,2.513470580550414,0.0652795305511077,0.0993827713705401,0.0237874626918712,-0.3431174933553468,-0.7657691849784473,-0.5359635087060688,-1.200299907418786,2.055485746126806,2.5186395274007563,-0.3728275547748009,-0.8223463263145381,-0.6468212503266179,0.9710490661119968,-0.0350324478461339,-0.7658893829401214,0.5959215296450437,11.157485016848112,-0.9139723374640336,0.088836510956831,-1.0544010247755244
1.06,-1.210360188494372,2.032317343317505,2.502804370785412,0.061215693043636,0.1035599141817053,0.0233148853216847,-0.3423905325517479,-0.7774594510973778,-0.5315464781038057,-1.2040281829665338,2.047262282863661,2.5121713148974902,-0.3796390633111397,-0.8423463266125613,-0.666821250624641,0.6259012567544354,0.0363480401799426,-0.5845133059465268,0.220851530113153,11.157485016848112,-0.909821454353534,0.0928637903054309,-1.057117734559059
1.08,-1.217189721657824,2.0166739312366238,2.4921509932318924,0.0570988131154616,0.1079501933295444,0.0228440021777711,-0.3404792007430258,-0.7862818932338267,-0.5339883948938272,-1.2114847340620298,2.03081535633737,2.4992348898909578,-0.3932620803838173,-0.8823463272086077,-0.7068212512206875,0.4675778869434772,0.095566590436108,-0.4411221068224447,-0.122095839501074,10.692092705572575,-0.9049561389912678,0.0964162232607648,-1.060903440588016
1.1,-1.2236327213655676,2.001667140024196,2.481934281454403,0.0536662456499762,0.1118541295476086,0.0224090677745056,-0.3377726609600229,-0.7930416681188942,-0.5413379381781243,-1.218941285157526,2.0143684298110798,2.4862984648844253,-0.4068850974564949,-0.9223463278046542,-0.746821251816734,0.5172902970806689,0.1353269891501446,-0.3379887442533758,-0.3674771642148522,10.316954893501132,-0.8992099433268368,0.0993277731101197,-1.0659065389328912
1.12,-1.2303521010716552,1.9857436756244664,2.470986776956799,0.0507709553936644,0.1153973830619552,0.0219686398726767,-0.3342763804673599,-0.799054163179208,-0.5532241968756995,-1.227078987106656,1.9959215032549864,2.4713620398480907,-0.4205081145291725,-0.9623463284007008,-0.7868212524127804,0.6885804600033232,0.1748140246331492,-0.300624753015688,-0.5943129348787601,10.02556275216284,-0.8937509237946587,0.101314460510949,-1.0709694689612317
1.14,-1.2369944035755995,1.9697074300184696,2.459774856991383,0.0486863480800464,0.1181789673425097,0.0215477538867273,-0.3301441884558663,-0.8044738651441304,-0.5673772254083387,-1.2352166890557856,1.9774745766988933,2.456425614811756,-0.4341311316018502,-1.0023463289967471,-0.8268212530088269,0.785424084259796,0.2066096005746781,-0.2709850982461237,-0.7076514266319611,9.794967829544476,-0.8892496883744349,0.1022308277591622,-1.075534568744014
1.16,-1.2432250319116,1.954367183436084,2.4488479359487165,0.0471257631983422,0.1200953259009698,0.0211461527760369,-0.3259465258864715,-0.8100105174805589,-0.5821226928165286,-1.2436949664317325,1.958027650127899,2.44048918976052,-0.4477541486745278,-1.0423463295927935,-0.8668212536048733,0.8150210108134768,0.2098831284697427,-0.2768326168214208,-0.7372733704094969,9.696126951374026,-0.8851129011743829,0.1026031133563946,-1.0800668339014992
1.18,-1.249696875142878,1.938107440121088,2.437029710357238,0.0456735136865404,0.1214296869707913,0.0207108047900982,-0.3214859042301085,-0.8156387076953996,-0.5989888953910665,-1.2525138192344965,1.9375807235420035,2.4235527646943837,-0.4613771657472054,-1.08234633018884,-0.9068212542009196,0.9165730466539352,0.2230310828181481,-0.2814095107420367,-0.8433101287268929,9.631617306856242,-0.8815444131762871,0.1027364026733479,-1.0842163099838815
1.2,-1.2560799537789389,1.9217374564567256,2.4248613244898363,0.0443659914295569,0.1221596682642541,0.0202655365884011,-0.3170796603498285,-0.8210397383445079,-0.6170560689407815,-1.2657711703543837,1.897325504736318,2.4070802655876844,-0.3425329804404881,-0.9156387091855156,-0.6989888968811826,0.9682572970040472,0.2203121940139996,-0.2700515324554176,-0.9033586774857494,9.502282725044097,-0.8787083349167568,0.1026906120413224,-1.087778249072127
1.22,-1.2623633273660269,1.9052216691512147,2.412678692929928,0.0423961009897603,0.1233715024663933,0.0198030346433428,-0.3112202755159972,-0.8297223660205008,-0.6002774700957154,-1.2657711703543837,1.897325504736318,2.4070802655876844,-0.3425329804404881,-0.9156387091855156,-0.6989888968811826,0.988991649603904,0.2929692416915652,-0.4341313837996408,0.8389299422533025,9.502282725044097,-0.8814409075099945,0.1018008556088029,-1.0881280773313036
1.24,-1.268216252831214,1.8894030270235247,2.4013812811078235,0.0402778208095171,0.1254727420936524,0.0193931665863324,-0.3050457078820207,-0.8350515938010832,-0.5898675392557416,-1.2657711703543837,1.897325504736318,2.4070802655876844,-0.3425329804404881,-0.9156387091855156,-0.6989888968811826,0.661234856720588,0.3087283816988251,-0.2664613890291212,0.5204965419986884,11.649627038782455,-0.8779845273187132,0.1045474433346194,-1.0898149776643065
1.26,-1.274242708625681,1.872656898687632,2.38963184484417,0.0385633181963249,0.128002302027037,0.0190163100813935,-0.2978631155538662,-0.8393567043139238,-0.5859465364181654,-1.2691965001587884,1.8881691176444628,2.4000903766188726,-0.346742395682564,-0.9356387094835388,-0.7189888971792058,0.4623252976328372,0.3591296164077273,-0.2152555256420329,0.1960501418788118,11.135581046422883,-0.8736725087899294,0.1064431811038199,-1.0926781192484225
1.28,-1.2801201798355002,1.8558360778773777,2.3778893549137314,0.037681966349052,0.130299419368695,0.0186953083648205,-0.2902276500691008,-0.8426499385819555,-0.5884797390900387,-1.276047159767598,1.8698563434607525,2.386110598681249,-0.3551612261667159,-0.9756387100795854,-0.7589888977752522,0.4346344466616963,0.3817732742382701,-0.1646617134015815,-0.1266601335936645,10.354479771875958,-0.8693592546010712,0.107142072802646,-1.096072448987707
1.3,-1.2858420540904996,1.8389579139597585,2.3660459933113933,0.0379368715409414,0.1320405138621361,0.0184402690821489,-0.2823693899837296,-0.8451776880380352,-0.5957317211599418,-1.2828978193764078,1.851543569277042,2.3721308207436254,-0.3635800566508677,-1.0156387106756315,-0.7989888983712987,0.5493928758735511,0.392913004268558,-0.1263874728039848,-0.3625991034951537,10.354479771875958,-0.8650450632051159,0.1064403524787538,-1.0999879286219532
1.32,-1.291131788978808,1.8228809385918296,2.354625759592843,0.0395080119331952,0.1330384434661485,0.0182725742594146,-0.2748896688821002,-0.8472064468321903,-0.6060375013752479,-1.2901694205094252,1.8312307950635296,2.356151042776199,-0.3719988871350195,-1.055638711271678,-0.8389888989673452,0.6447309435904579,0.3739860550814683,-0.1014379397077547,-0.5152890107653074,10.097881558687732,-0.8612341233329279,0.1040356837724051,-1.103947367641318
1.34,-1.2965465104875933,1.8059109445177517,2.342377644922647,0.0426601337911451,0.1333678609352601,0.0181764724391171,-0.2670281834997583,-0.8501916506951555,-0.618303675237119,-1.2974410216424426,1.8109180208500169,2.3401712648087734,-0.3804177176191714,-1.0956387118677249,-0.8789888995633917,0.7435950102876708,0.3930742691170968,-0.1492601931482595,-0.6133086930935561,9.906368398818811,-0.8584305816264122,0.0998219074928692,-1.1074789427746052
1.36,-1.301804425550121,1.7888473635224988,2.32987461712543,0.0462770480153895,0.1329812474585072,0.0180825133268952,-0.2592392890880792,-0.8560695008956344,-0.6313870483558582,-1.3049230935375635,1.789605246621603,2.3231914868264463,-0.3888365481033232,-1.135638712463771,-0.918988900159438,0.8160739110210911,0.3894447205839563,-0.2938925100239464,-0.6541686559369597,9.836570151447631,-0.8564414487079921,0.0949098356543609,-1.110636007846052
1.38,-1.3069083641980053,1.771648650023939,2.317102897261833,0.0494944400383639,0.1319161791443927,0.0179264377228641,-0.2516126909468104,-0.8634138511888376,-0.6451289519512956,-1.3126156361947887,1.767292472378288,2.305211708829218,-0.397255378587475,-1.1756387130598174,-0.9589889007554844,0.8673874492750817,0.3813299070634379,-0.3672175146601619,-0.6870951797718683,9.806777898053952,-0.8553983844402825,0.0905480836840972,-1.112989634109926
1.4,-1.311618028956082,1.7551655459372693,2.304708055668905,0.0519456426590337,0.1302458842763182,0.0176994947095556,-0.2445905655689185,-0.8711447696781343,-0.658894939157389,-1.3194889987453458,1.728477957464497,2.2848464496642684,-0.2633552744228174,-0.9634138526789536,-0.7451289534414117,0.8639730164613182,0.3511062688945951,-0.3865459244648317,-0.6882993603046672,9.777012281896532,-0.8555364485616253,0.0867400972783543,-1.114232046616836
1.42,-1.3164335561258742,1.7375833668701304,2.291688819017048,0.0522033537577,0.1290174205727501,0.0173253229798344,-0.2372225275131287,-0.8862141456877177,-0.6406212621978197,-1.3194889987453458,1.728477957464497,2.2848464496642684,-0.2633552744228174,-0.9634138526789536,-0.7451289534414117,1.2402634273940245,0.3684019027894891,-0.7534688004791734,0.9136838479784636,9.739267698909316,-0.8610169698393276,0.0835022636155625,-1.1127951904049531
1.44,-1.3211002363643454,1.719723985170222,2.2790341363036086,0.0494126914091456,0.1294605928534214,0.0168330919697165,-0.2296474543873856,-0.8986005938860714,-0.6259290161569592,-1.3194889987453458,1.728477957464497,2.2848464496642684,-0.2633552744228174,-0.9634138526789536,-0.7451289534414117,1.0327970826305082,0.3787536562871563,-0.6193224099176831,0.7346123020430251,11.936935955875924,-0.8591457592351496,0.0865586124520028,-1.1134417165241766
1.46,-1.3253882791657363,1.7025653927017956,2.267211025495014,0.0454010706227056,0.1306430559527419,0.0163168262893909,-0.222035921012684,-0.9066409404585772,-0.6193169159112756,-1.322122551489574,1.7188438189377075,2.277395160129854,-0.2657037911180188,-0.9834138529769768,-0.7651289537394349,0.6447916000134696,0.3805766687350803,-0.4020173286252926,0.3306050122841797,11.426640919127747,-0.8560544123448651,0.0911045311319541,-1.1151467611330368
1.48,-1.3297427306261471,1.6843721887820244,2.254837404889918,0.0412217592235873,0.132061586408706,0.0157925800079372,-0.2137926530836433,-0.9122329891795156,-0.6186802421384059,-1.3273896569780304,1.6995755418841283,2.262492581061026,-0.2704008245084216,-1.0234138535730235,-0.8051289543354814,0.4990687040387334,0.4121633964520352,-0.2796024360469218,0.0318336886434844,10.937330576727618,-0.8524439893018536,0.0953790782123496,-1.11759906084449
1.5,-1.333931263250164,1.66608515113026,2.2424167703045885,0.0376630317931127,0.1332677065513012,0.0153119063378354,-0.205486943703918,-0.9162604696024226,-0.6236401786146815,-1.332656762466487,1.6803072648305497,2.2475900019921977,-0.2750978578988244,-1.06341385416907,-0.8451289549315278,0.5239426893898896,0.415285468986265,-0.2013740211453452,-0.2479968238137786,10.546994987194012,-0.8487215856054837,0.0987490516738948,-1.1205588530474522
1.52,-1.337954579554586,1.6477294652364347,2.2298451561031016,0.0349220544714497,0.1340241134913688,0.0148817576280735,-0.1972998014684155,-0.9193040408015604,-0.6332594604307874,-1.338158719624463,1.659038987747168,2.230687422893568,-0.2797948912892272,-1.1034138547651162,-0.8851289555275743,0.6496599231256224,0.4093571117751257,-0.1521785599568836,-0.480964090805297,9.997760630560151,-0.8458296198409213,0.101122119690566,-1.1229783180821622
1.54,-1.3416254100792002,1.6302408930567929,2.217703983983152,0.033093137012093,0.1342405194592745,0.0145202504463629,-0.1895673462443197,-0.921640467480394,-0.6442772604337414,-1.3436606767824395,1.6377707106637869,2.213784843794937,-0.2844919246796299,-1.1434138553611628,-0.9251289561236208,0.683084310907713,0.3866227612047884,-0.1168213339416857,-0.5508900001477024,9.897106192692265,-0.8440768952830365,0.1027409792346978,-1.1245820232729715
1.56,-1.345333122993054,1.6117794583701683,2.2046829975763007,0.0317417241053529,0.1339436786870821,0.0141738856686914,-0.1816724270951831,-0.9243805943590244,-0.6573032999812892,-1.3492800597751762,1.6155024335655042,2.195882264681405,-0.2891889580700328,-1.1834138559572092,-0.9651289567196673,0.7738148195412711,0.3947459574568296,-0.1370063439315283,-0.6513019773773887,9.897106192692265,-0.8427924331365995,0.1036140783392254,-1.126069242828587
1.58,-1.3488858789105966,1.5932637317544047,2.191388055701713,0.0307705648678167,0.1331450906894565,0.0138499125192999,-0.1740485288719227,-0.9270406056282848,-0.671587758644516,-1.355016868602673,1.5922341564523206,2.176979685552972,-0.2938859914604356,-1.2234138565532555,-1.0051289573157136,0.8204347069887091,0.38119491116302,-0.1330005634630093,-0.7142229331613403,9.818904536346963,-0.8421175161732286,0.1040398364324527,-1.1272050052545637
1.6,-1.352288965233422,1.5746963851408928,2.177793718791168,0.0301241536201613,0.1318176986436002,0.0135438431748022,-0.1667022391566456,-0.9295523859652334,-0.6871245102280678,-1.3575883053541928,1.5469117014729905,2.157808667769487,-0.1700719235050072,-1.0270406071184008,-0.7715877601346322,0.868429131839301,0.3673144857638546,-0.1255890168474327,-0.7768375791775861,9.752382929898886,-0.8420577799146333,0.1041033847861779,-1.127918662230394
1.62,-1.3553912416371885,1.556971993277777,2.1649194448410443,0.0288697553507939,0.1315316233267879,0.0132477812445344,-0.159901898047706,-0.9356394940591588,-0.6672744883841416,-1.3575883053541928,1.5469117014729905,2.157808667769487,-0.1700719235050072,-1.0270406071184008,-0.7715877601346322,1.0923837367763805,0.3400170554469797,-0.3043554046962715,0.9925010921963072,9.68786195352368,-0.8433953565476654,0.1011252132476734,-1.1318567465345348
1.64,-1.3585084310781677,1.5382187805218357,2.151742182786952,0.0268398009276633,0.1332805342622395,0.0129559578862864,-0.1519919419452977,-0.9392421774696956,-0.6519896256431121,-1.3575883053541928,1.5469117014729905,2.157808667769487,-0.1700719235050072,-1.0270406071184008,-0.7715877601346322,0.8791668816423519,0.3954978051204164,-0.1801341705268411,0.7642431370514735,11.999583975910356,-0.8399707340758762,0.1041156282209157,-1.1331804165371504
1.66,-1.3614556680305276,1.5194136781434695,2.138785808681687,0.0251141370458722,0.1361261581012402,0.0127228199876207,-0.1429961403772542,-0.9411567680887166,-0.6447427689160002,-1.3592890245892428,1.5366412954018065,2.1500927901681406,-0.1692766024316241,-1.047040607416424,-0.7915877604326553,0.5854635674261539,0.4497900784021735,-0.0957295309510497,0.3623428363555947,11.440574676213146,-0.8348093988779394,0.1065362421564824,-1.1362100997356257
1.68,-1.364213255787177,1.5005840197143827,2.125897916202007,0.0241769217688138,0.1392019151100147,0.0125580462888726,-0.1331313070569986,-0.9418633018621848,-0.6443881844371508,-1.362690463059343,1.5161004832594385,2.134661034965448,-0.167685960284858,-1.0870406080124706,-0.8315877610287018,0.4948228384030948,0.4932416660127822,-0.0353266886734093,0.0177292239424697,10.950151909230954,-0.8303414591318996,0.1081078145072017,-1.1386541810264834
1.7,-1.3666435080171606,1.4826918047951545,2.1136127656691084,0.0244008487531062,0.1418349985499333,0.0124805243867886,-0.1231623464945887,-0.9416735038535852,-0.6488032036997892,-1.3660919015294433,1.4955596711170704,2.1192292797627554,-0.1660953181380918,-1.127040608608517,-0.8715877616247483,0.5452260839973172,0.4984480281204954,0.0094899004299764,-0.220750963131916,10.57507274636373,-0.8259636542545131,0.1083626826852394,-1.141296156812465
1.72,-1.3689933941938728,1.4638668449231664,2.1005519988195647,0.0261897184279308,0.1440155457738283,0.012502646919179,-0.1123610188978293,-0.9410050208816928,-0.65721300541729,-1.3694138078922051,1.4730188589449,2.1017975245302605,-0.1645046759913256,-1.167040609204563,-0.9115877622207949,0.6852742375573191,0.5400663798379689,0.0334241485946296,-0.4204900858750415,10.083475330965484,-0.8217258091393289,0.1066131844063489,-1.1444410059440318
1.74,-1.3711223045115004,1.4450486167448315,2.0873029867055086,0.0296854661103742,0.1454136300209226,0.0126323196637364,-0.1011251012505709,-0.9414948245027616,-0.667272824853011,-1.372735714254967,1.4504780467727296,2.084365769297765,-0.1629140338445594,-1.20704060980061,-0.9515877628168412,0.7544629216245377,0.5617958823629171,-0.0244901810534436,-0.5029909717860492,10.083475330965484,-0.8178354072724606,0.1025259760677543,-1.148179104561761
1.76,-1.37302293914173,1.426184561500873,2.073844424372542,0.0336427624301625,0.1459400238634416,0.0127734394451557,-0.0895966601076972,-0.9449608512828658,-0.678085157127452,-1.3760178545640598,1.426937234585658,2.065934014050369,-0.1613233916977932,-1.2470406103966565,-0.9915877634128876,0.8090501004851629,0.5764220571436842,-0.1733013390052107,-0.5406166137220503,10.015073381926411,-0.815033690113778,0.09793430938877,-1.1513749827016333
1.78,-1.3746143278051024,1.4081831578764297,2.06085155943583,0.0370752262094561,0.1455950191209732,0.0128569277782666,-0.0785784129036137,-0.9496901284634618,-0.6890434392920641,-1.3792602288194833,1.4023964223836856,2.046502258788072,-0.159732749551027,-1.2870406109927026,-1.031587764008934,0.8121757539173066,0.5509123602041782,-0.2364638590298007,-0.5479141082306072,9.984436725148043,-0.8131312897819337,0.0932974095650728,-1.1541129100930214
1.8,-1.376065061846844,1.389129226422022,2.0469400559217,0.0401397347845497,0.1442911009076831,0.0128689085735266,-0.0671350858580955,-0.9554108366115834,-0.7015727545377941,-1.378543248450283,1.3606986514532566,2.0263993874712267,-0.0659826336411306,-1.049690129953578,-0.7890434407821802,0.8953490605813398,0.5721663522759095,-0.2860354074060822,-0.6264657622864989,9.950528933151872,-0.8124271493490534,0.0892487800736769,-1.1559352569818468
1.82,-1.3772684527412486,1.3698734636806882,2.0331413931978863,0.0405154232222335,0.1430067533367192,0.0126930969985936,-0.0537930466063391,-0.9688080963676954,-0.677617671233928,-1.378543248450283,1.3606986514532566,2.0263993874712267,-0.0659826336411306,-1.049690129953578,-0.7890434407821802,1.5258953080595894,0.6671019625878176,-0.6698629878055973,1.1977541651933044,9.89543145825428,-0.8126091535975581,0.0834491866845277,-1.162344456721768
1.84,-1.3781689272840416,1.3513653006540849,2.020439305531659,0.0379466411489664,0.1426268382931033,0.0123635439216475,-0.0416076098335609,-0.9784531717495206,-0.6607275190023336,-1.378543248450283,1.3606986514532566,2.0263993874712267,-0.0659826336411306,-1.049690129953578,-0.7890434407821802,1.147594866308339,0.609271838638914,-0.482253769091262,0.8445076115797201,12.268842684993617,-0.810981170169022,0.087179359514832,-1.162461342486988
1.86,-1.378869118790702,1.3317276312973925,2.007338583759995,0.0338486353444103,0.1425586029117466,0.0119449458667784,-0.0290825467294832,-0.9844762924565515,-0.6505677586410209,-1.3792030747866943,1.350201750153721,2.018508953063405,-0.0634634777886339,-1.069690130251601,-0.8090434410802034,0.8607786001811006,0.6262531552038816,-0.3011560353515519,0.507988018065636,11.687224818205324,-0.810009510264935,0.0927772676617136,-1.161484002287746
1.88,-1.3793235551888303,1.3120022950589971,1.9943657417946208,0.0298534343055362,0.1423831888827424,0.0115447554290751,-0.0170466021013436,-0.9877532358401688,-0.6475054893336789,-1.380522727459517,1.3292079475546492,2.002728084247761,-0.0584251660836407,-1.1096901308476477,-0.8490434416762499,0.6422223414475812,0.6017972314069822,-0.163847169180864,0.1531134653670995,11.173268488902975,-0.8086859868974781,0.0977692233197601,-1.161209018461242
1.9,-1.379544077323953,1.292229920825757,1.981386791589011,0.0265557112048699,0.1418427661593087,0.0111979086873625,-0.0056763840393669,-0.9894940489411796,-0.6505146674526363,-1.3818423801323396,1.3082141449555778,1.9869472154321175,-0.0533868543786474,-1.149690131443694,-0.8890434422722964,0.5944902059352267,0.568510903098835,-0.0870406550505298,-0.15045890594787,10.748498490719612,-0.8077666511578528,0.1019870927666221,-1.161014351609823
1.92,-1.379549380876137,1.2734229546167248,1.9689582089431017,0.0242184330532724,0.1409050522795546,0.0109271416246305,0.0044943697071478,-0.9903067782219832,-0.6575991314023654,-1.3829101172199123,1.285220342326704,1.969166346586672,-0.0483485426736542,-1.1896901320397404,-0.9290434428683428,0.6210764649202448,0.5085376873257407,-0.0406364640401779,-0.3542231974864529,10.418845445002262,-0.8077785156809968,0.1052590402580602,-1.1601952434043974
1.94,-1.3793511776433278,1.2536157124050245,1.955708080098972,0.0226717031173863,0.1394206813929313,0.0107082041455702,0.0147333620304775,-0.9905012098247106,-0.6671253403878881,-1.3839778543074854,1.26222653969783,1.9513854777412256,-0.0433102309686609,-1.229690132635787,-0.9690434434643892,0.6993272214800395,0.5119496161664844,-0.0097215801363736,-0.476310449276135,10.052592173818994,-0.8076765889254716,0.1068963684881106,-1.160460606111832
1.96,-1.378950881617024,1.233801352384445,1.9422496665357305,0.0219508486974755,0.1373068402918293,0.0105452352610807,0.0247093292518117,-0.9909744421123176,-0.6782283969450436,-1.3849196336024336,1.238232737054055,1.9326046088808788,-0.0382719192636677,-1.269690133231833,-1.0090434440604357,0.7466956135376748,0.4987983610667103,-0.0236616143803547,-0.5551528278577744,9.972292700685102,-0.8081346480984738,0.1073827027553196,-1.1607838475230277
1.98,-1.3783553190337758,1.2139767423771564,1.928555448937837,0.0218457709022216,0.1344032118120998,0.0104181291759969,0.034251781668889,-0.991494404744906,-0.6906303285383815,-1.385735455104757,1.2132389343953789,1.9128237400056305,-0.0332336075586744,-1.3096901338278797,-1.049043444656482,0.7828420442804932,0.4771226208538623,-0.0259981316294177,-0.6200965796668956,9.972292700685102,-0.8092971171721672,0.107126878661499,-1.1607997453614665
2.0,-1.377618997058951,1.195132930248208,1.9153044627276397,0.0222645624827,0.1308160819820025,0.0103221671590408,0.0426729151971899,-0.9920707734565012,-0.7035809054427281,-1.3766427299503314,1.164402022139911,1.8940239325109176,0.0666200579371328,-1.091494406235022,-0.7906303300284976,0.7729248555787565,0.4210566764150467,-0.0288184355797527,-0.6475288452173322,9.899451573761326,-0.8114429351755965,0.1060322167743503,-1.1605486607164963
2.02,-1.376698623315224,1.175239863577874,1.9014330791214,0.0221075214807637,0.1282092240514805,0.010211119974099,0.0487868074243354,-0.9970037957837388,-0.6810502974941433,-1.3766427299503314,1.164402022139911,1.8940239325109176,0.0666200579371328,-1.091494406235022,-0.7906303300284976,1.1930451395263832,0.3056946113572753,-0.2466511163618845,1.1265303974292429,9.829273376959463,-0.8110040513457057,0.1002034730021892,-1.1691959794013231
2.04,-1.3756671628576211,1.155268381286718,1.8880078490595893,0.0209966718907564,0.1292171011417618,0.0101219756190598,0.0545389121206163,-0.9998772947907306,-0.6628112890429415,-1.3766427299503314,1.164402022139911,1.8940239325109176,0.0666200579371328,-1.091494406235022,-0.7906303300284976,0.9669606174286104,0.287605234814042,-0.1436749503495926,0.9119504225600872,12.321417844326788,-0.8107648588872277,0.1032743977367658,-1.1666027934726169
2.06,-1.3745639906763158,1.1362573347872678,1.8755137950590133,0.0198752442659235,0.1323432929571665,0.0100847596162047,0.0615584247951097,-1.0012099266418255,-0.6532545903348941,-1.37597652937096,1.1534870780775608,1.8861176292106328,0.0730937131907815,-1.1114944065330452,-0.8106303303265208,0.5966153619257614,0.350975633724673,-0.0666315925547555,0.4778349354023714,11.712458843204333,-0.8083135207182451,0.1067529663673475,-1.1651009089662094
2.08,-1.3732415243719418,1.1162312770858192,1.862493931762754,0.0191549067828439,0.1367571393495621,0.0101054735275712,0.0705090246458291,-1.001386726586057,-0.6495242674808234,-1.3746441282122177,1.1316571899528602,1.8703050226100628,0.0860410236980791,-1.1514944071290918,-0.8506303309225672,0.4849221703108141,0.4475299925359686,-0.0088399972115627,0.1865161427035355,11.18518235407464,-0.8038560958392258,0.1093350503645388,-1.1656776275697796
2.1,-1.3717243647740318,1.096211550103254,1.849490445125514,0.0193799274077842,0.1414846666451613,0.0102053073381736,0.080891354001833,-1.000684944965158,-0.651234548901448,-1.3733117270534747,1.10982730182816,1.8544924160094929,0.0989883342053766,-1.191494407725138,-0.8906303315186137,0.5272815254626952,0.5191164678001972,0.0350890810449477,-0.0855140710312341,10.787872616120694,-0.7984165162881324,0.1103415584258758,-1.1679430847255396
2.12,-1.3699865157493436,1.0762130570827313,1.836403443080289,0.0209763184859356,0.1459142595699325,0.010405633949177,0.0924473243151282,-0.9994403132845472,-0.6573795346639235,-1.3713319603693672,1.0859974136736572,1.8366798093791208,0.1119356447126741,-1.2314944083211845,-0.9306303321146602,0.6573629285318078,0.577798515664759,0.062231584030542,-0.3072492881237731,10.255493895302608,-0.7920929368930874,0.109279159746368,-1.1718768022450183
2.14,-1.3681097587724833,1.0572343547102538,1.823840546969056,0.0239210800328468,0.1494952678634098,0.010694948087186,0.1045420299650368,-0.998898662661458,-0.664740067171501,-1.3693521936852595,1.0621675255191545,1.818867202748748,0.1248829552199716,-1.271494408917231,-0.9706303327107066,0.7084361808775154,0.6047352824954271,0.0270825311544653,-0.3680266253788755,10.255493895302608,-0.7856571001188897,0.105742026468345,-1.1771351928761835
2.16,-1.3658755583529911,1.037236742555374,1.810454182339715,0.0275825772556978,0.1523533559885793,0.0110293622455249,0.1182388448297425,-1.0010148269063794,-0.6735639566666357,-1.3670487442384698,1.0373376373497505,1.8000545961034748,0.1378302657272691,-1.3114944095132774,-1.010630333306753,0.8214954570353034,0.684840743235287,-0.1058082122460779,-0.4411944747567342,10.181945278124658,-0.7800139219660485,0.1013054902474129,-1.182180547362031
2.18,-1.3633598196321586,1.017179023208727,1.7968813612141807,0.0310129867723555,0.1540907004288809,0.011324930919669,0.1325963719472442,-1.00465045938663,-0.6833161712783047,-1.3644216120289974,1.0115077491654454,1.7802419894433,0.1507775762345666,-1.3514944101093238,-1.0506303339027994,0.8866539605354775,0.7178763558750862,-0.1817816240125225,-0.4876107305834487,10.133397506170695,-0.7757290487585153,0.0971966788887976,-1.1863553614008826
2.2,-1.3605535126526516,0.997038048170944,1.7831021810052046,0.0339087424251369,0.1546006362868887,0.0115479311623769,0.1471793174481911,-1.009172279702906,-0.6941112578636638,-1.3567300010347965,0.9669465002393955,1.7627155526502656,0.1805466173872505,-1.104650460876746,-0.7833161727684208,0.934937234312652,0.7291472750473454,-0.2260910158138118,-0.5397543292679552,10.093249988901334,-0.7724561505591441,0.0933543165964915,-1.1899863111467646
2.22,-1.3575868404316251,0.9777433191470072,1.7701525142306358,0.0342313381540405,0.1547534019955051,0.0115798040148513,0.164455932652054,-1.0206620136703044,-0.6684395324861374,-1.3567300010347965,0.9669465002393955,1.7627155526502656,0.1805466173872505,-1.104650460876746,-0.7833161727684208,1.6504036653218064,0.8638307601931405,-0.5744866983699137,1.2835862688763189,10.044686219998766,-0.7663185964450666,0.0862708033799335,-1.2032569134671294
2.24,-1.3541118404486931,0.95723443287003,1.7570152310962817,0.0315121357840689,0.1552185882505965,0.0114146948431661,0.1820964671851853,-1.0292969495847435,-0.6471282083036735,-1.3567300010347965,0.9669465002393955,1.7627155526502656,0.1805466173872505,-1.104650460876746,-0.7833161727684208,1.4490713537220516,0.8820267266565692,-0.4317467957219545,1.0655662091231977,11.952723919071104,-0.7678961377403456,0.0927400973139651,-1.1974397134943977
2.26,-1.350290356731669,0.93659654199994,1.7442063069909974,0.0274183342179277,0.1555874543085164,0.0111592949230136,0.1991343213143457,-1.0337732553398589,-0.6347757789758401,-1.354924534860924,0.955899995630628,1.7548823909225817,0.1901366664752517,-1.1246504611747692,-0.803316173066444,1.075765189108365,0.8518927064580184,-0.2238152877557686,0.6176214663916657,11.390746580134874,-0.7688362929075521,0.0997379481190019,-1.193005818077808
2.28,-1.346135835754997,0.915902729559064,1.7315681011518955,0.0235178798995653,0.1555092042285926,0.0109166171983553,0.2153927322947101,-1.0354721444721824,-0.6296436263028299,-1.351313602513179,0.9338069864130932,1.739216067467213,0.2093167646512543,-1.1646504617708158,-0.8433161736624905,0.8566813044380156,0.8129205490182214,-0.0849444566161761,0.256607633650513,11.390746580134874,-0.76912899658511,0.1058845404603932,-1.1902938393390616
2.3000000000000003,-1.3418963326922764,0.8962278249700789,1.7196005230532625,0.0205238199476436,0.154902301459722,0.0107354816180252,0.22998083420968,-1.0356784369703946,-0.6303443715046179,-1.347702670165434,0.9117139771955582,1.7235497440118446,0.2284968628272567,-1.204650462366862,-0.8833161742585369,0.7303189678390419,0.7294050957484907,-0.0103146249106123,-0.0350372600893988,10.945782628072266,-0.7691236480855759,0.1105782509644574,-1.1887938047495643
2.32,-1.3371442317067137,0.875521639316203,1.7069427287534644,0.0182874320019626,0.1537097521899405,0.0106106177157332,0.2443838317236733,-1.0351062120750107,-0.6355982139164392,-1.343132732908889,0.887620967948221,1.7058834205266735,0.2476769610032592,-1.2446504629629085,-0.9233161748545834,0.7670994700937549,0.720149875699666,0.0286112447691944,-0.2626921205910681,10.598803549690274,-0.7691229650446496,0.1137241925631777,-1.1881469873838375
2.34,-1.33236851256509,0.8558686491586799,1.6947936428329051,0.0171584115898267,0.1520223247900133,0.0105626211377168,0.2575460346175726,-1.0338507369497676,-0.6429691811163489,-1.3385627956523438,0.8635279587008837,1.6882170970415031,0.2668570591792618,-1.284650463558955,-0.96331617545063,0.756886649823507,0.6581101446949663,0.0627737562621577,-0.3685483599954853,10.327408865116922,-0.7692775278636168,0.1150707235721272,-1.1883210750787647
2.36,-1.3270746541802172,0.8352035253570268,1.681837367941958,0.0169524213582041,0.1495320272692129,0.0105771732074092,0.2710747246104251,-1.032781207259941,-0.6523363460597801,-1.3335133559413983,0.8384349494386453,1.6695507735414312,0.2860371573552643,-1.3246504641550014,-1.0033161760466762,0.824489426490076,0.6764344996426253,0.0534764844913326,-0.4683582471715575,10.204538592126482,-0.7700540060991408,0.1151622684290459,-1.1885620606932696
2.38,-1.3215145679336453,0.8145580192305514,1.6686783381177075,0.017611771566185,0.146091231252103,0.0106406828582141,0.2841589838708316,-1.0318780330787665,-0.6631481574345276,-1.3279844137760533,0.8123419401615057,1.649884450026458,0.3052172555312668,-1.3646504647510478,-1.0433161766427226,0.8498659147156592,0.6542129630203258,0.0451587090587235,-0.5405905687373758,10.110320263956964,-0.7717830148004138,0.1141385540781292,-1.1885126274625004
2.4,-1.315699943875502,0.7939275543299673,1.6552874985829131,0.0190664469988561,0.1415010428667299,0.0107381955941353,0.2964998092202122,-1.0312909663884946,-0.6753755651442022,-1.3073066187401037,0.7629641175766131,1.6355209302459812,0.3682687893951809,-1.1318780345688826,-0.763006396727626,0.8691232894436641,0.617041267469029,0.0293533345135932,-0.6113703854837282,10.02850401183241,-0.7745434807333879,0.1122282033238368,-1.1879929529311086
2.42,-1.3099964129142152,0.7742848367835059,1.6427011847612425,0.0197879115908392,0.1389742458552278,0.0108170090170375,0.3033184064067468,-1.0359057932147944,-0.6488684328599164,-1.3073066187401037,0.7629641175766131,1.6355209302459812,0.3682687893951809,-1.1318780345688826,-0.763006396727626,1.3878201938341836,0.3409298593267301,-0.2307413413149883,1.3253566142142903,9.950012570593572,-0.7691255959824197,0.1055344839566053,-1.2012175428036924
2.44,-1.3038564898952925,0.7535362259257192,1.6299575571516824,0.0193933941660717,0.141254993283671,0.0109199853202827,0.3108579919420513,-1.0386557484676446,-0.6274533305619009,-1.3073066187401037,0.7629641175766131,1.6355209302459812,0.3682687893951809,-1.1318780345688826,-0.763006396727626,1.1434751969012256,0.3769792767652241,-0.1374977626425133,1.0707551149007732,12.659648386513254,-0.7709895285584603,0.1091962970796459,-1.1948103443062246
2.46,-1.2975347410386897,0.7327479701053012,1.6175516230233091,0.01868751974211,0.1467278140538238,0.0110662045145832,0.3213196794397558,-1.0400458951852234,-0.6145587802518356,-1.303623930846152,0.7516453372309243,1.627890866278705,0.3850907505000507,-1.1518780348669058,-0.7829780445862458,0.8331399055603244,0.5230843748852271,-0.0695073358789377,0.6447275155032628,11.946871796164489,-0.7673353324132944,0.1125130805011478,-1.1932952291817989
2.48,-1.2909780266919175,0.711944008656913,1.6053308937105624,0.0181909276672972,0.1537690217276165,0.0112581218619622,0.3341280684808045,-1.0403336456461,-0.6084378904570943,-1.2962585550582482,0.7290077765395466,1.6126307383441525,0.4187346727097904,-1.1918780354629523,-0.8229213403034851,0.7099347188896284,0.640419452052432,-0.0143875230438239,0.3060444897370673,10.98384637237723,-0.7606690814389719,0.1149468701375819,-1.1949301744000334
2.5,-1.2844929748991591,0.6921848504797701,1.5937790172134787,0.0183594990047041,0.1610481418555649,0.011499470177079,0.3481154562816093,-1.0397204130539348,-0.6078594543076128,-1.2888931792703446,0.706370215848169,1.5973706104096,0.4523785949195301,-1.2318780360589987,-0.8628646360207245,0.7006383876173646,0.6993693900402415,0.0306616296082529,0.0289218074740749,10.98384637237723,-0.7513772095085308,0.1160866587771835,-1.199336154887667
2.52,-1.2773566518217916,0.671404518731409,1.5815911521025825,0.0195997973523976,0.1686457355452973,0.0118356948417595,0.3649745756230156,-1.0384863028487348,-0.6111531171197957,-1.279845607371954,0.681732655126989,1.5801133176891855,0.4860225171292697,-1.271878036655045,-0.9028079317379638,0.8611056086315957,0.8429559670703163,0.0617055102600017,-0.1646831406091453,10.688473150808932,-0.7411577324084717,0.1157854683673885,-1.2048342696631131
2.54,-1.2698586800740417,0.6506494174662931,1.569317832352388,0.0222321675805325,0.1755516539373143,0.0122718647670746,0.3841168142000091,-1.037449640700091,-0.6160845590670333,-1.2707980354735635,0.6570950944058089,1.5628560249687709,0.5196664393390095,-1.3118780372510916,-0.9427512274552032,0.989721028659014,0.9571119288496744,0.0518331074321865,-0.2465720973618801,10.470116076701744,-0.7305920957937557,0.1132733321300224,-1.211601769249814
2.56,-1.2619514924030282,0.6298875165293449,1.5569350808018638,0.0255436798589585,0.1811304980235027,0.0127452043245734,0.4056062361334925,-1.0389256214157472,-0.6219664590262812,-1.2609093655199295,0.6314575336697278,1.5446001498554254,0.5533103615487491,-1.351878037847138,-0.9826945231724428,1.1164346389722817,1.0744710966741704,-0.0737990357828066,-0.2940949979623963,10.410629087502455,-0.7217279737276271,0.1099986384954762,-1.2174999634966606
2.58,-1.2540262602748111,0.6101207595799277,1.545054322997412,0.0285168720977898,0.1847810246598046,0.0131536110928347,0.4274356597033458,-1.041682744247298,-0.6283532000527199,-1.250179597511052,0.6048199729187456,1.525345692349149,0.5869542837584888,-1.3918780384431844,-1.022637818889682,1.1455521819619567,1.0914711784926645,-0.1378561415775414,-0.3193370513219329,10.384744790090735,-0.7142532965661169,0.1066591038589065,-1.2226274934868435
2.6,-1.2452304722932392,0.5892494393033547,1.5324061238458282,0.0312299203809307,0.1867557556217653,0.0135067576549224,0.4508772283117454,-1.0452819268795697,-0.6361769566147487,-1.2326544772896435,0.5580366223675628,1.513636662994776,0.5124549874034839,-1.141682745737414,-0.6849846533880051,1.2486717154486997,1.1720784304199787,-0.1799591316135829,-0.3911878281014413,10.355888865882662,-0.7088641143687053,0.1036855710471982,-1.2266170799496436
2.62,-1.2358399765938997,0.5682245365278031,1.5199927440120742,0.0314262218697064,0.1853564123041766,0.0135776344331229,0.487410558639556,-1.0564693048601734,-0.6026112423334544,-1.2326544772896435,0.5580366223675628,1.513636662994776,0.5124549874034839,-1.141682745737414,-0.6849846533880051,2.5428816459556813,1.826666516390532,-0.5593688990301882,1.6782857140647145,10.301392033502452,-0.7089645558835143,0.0984926581348909,-1.2329637822388209
2.64,-1.2257181087798064,0.5470001666512047,1.5082743634005344,0.0280696817077754,0.1787949678366915,0.0132527418984348,0.5219649819186604,-1.0647475076814403,-0.5709890800213168,-1.2326544772896435,0.5580366223675628,1.513636662994776,0.5124549874034839,-1.141682745737414,-0.6849846533880051,2.378286126287539,1.7277211639552148,-0.413910141063345,1.581108115606883,13.390210072938316,-0.717952117152458,0.1071305648422424,-1.2211625615514392
