t,x,y,z,roll,pitch,yaw,v_x,v_y,v_z,ref_x,ref_y,ref_z,ref_v_x,ref_v_y,ref_v_z,a_com,a_x,a_y,a_z,thrust,wind_x,wind_y,wind_z
0.0,2.0630005386941077,-0.2767706509340323,2.855039351288588,0.0252402247896095,0.0996236663927291,0.041744615348751,0.0002315948651452,-0.0072505852638738,-0.0004353426285936,2.063007261884605,-0.2770109278593969,2.855024569507263,-0.0997723717990281,0.0921744596349502,-0.100478043901455,0.3633667088993487,0.0115797432572641,-0.3625292631936941,-0.021767131429684,10.260932337977463,-0.9401979535126638,0.2552867423077909,-0.880776481944166
0.02,2.0631667064676225,-0.2771460990212831,2.854919460132397,0.0152454543962031,0.0943305067377803,0.0409557952597615,0.0157371180520554,-0.0259858019695527,-0.0118950662528901,2.063007261884605,-0.2770109278593969,2.855024569507263,-0.0997723717990281,0.0921744596349502,-0.100478043901455,1.3442050251485236,0.7752761593455098,-0.936760835283944,-0.5729861812148236,9.627081223775804,-0.9463183185865196,0.2573162609796647,-0.879640561997697
0.04,2.06356845455688,-0.2776430113088297,2.854528971529346,-0.0005425531566989,0.0801713816476859,0.0398142943176059,0.0245472861483947,-0.0247488504737484,-0.0288272294135067,2.063007261884605,-0.2770109278593969,2.855024569507263,-0.0997723717990281,0.0921744596349502,-0.100478043901455,0.9563567067084175,0.4405084048169633,0.0618475747902169,-0.8466081580308291,9.627081223775804,-0.9514802078792604,0.2728168210164919,-0.8660776795056528
0.06,2.0640618182595074,-0.2780619565911821,2.853744535262295,-0.0175147595355132,0.0593069117880306,0.0389526686681991,0.0232433027792798,-0.0168421117371884,-0.0487631739295829,2.0620095381666146,-0.2760891832630474,2.854019789068248,-0.1197723720970513,0.1121744599329734,-0.1204780441994782,1.0743123077383194,-0.0651991684557458,0.3953369368279967,-0.9967972258038088,9.21135531076925,-0.9617771711665896,0.2860853280022509,-0.8499744872761715
0.08,2.064420842789414,-0.2782850938420659,2.8525516949700247,-0.0338023410962833,0.0363128566279364,0.038613965064727,0.01196491684317,-0.005548704419111,-0.0695772024932356,2.0600140907306344,-0.2742456940703484,2.852010228190219,-0.1597723726930978,0.1521744605290199,-0.1604780447955247,1.3114560831613808,-0.5639192968054902,0.5646703659038715,-1.0407014281826368,9.091629943316548,-0.9758258818691904,0.2972438493984181,-0.831713929627678
0.1,2.0644603764034537,-0.2782536789399645,2.850934506130708,-0.0492887188598115,0.014272276177258,0.0387302474997784,-0.0077781891767741,0.0084350651711767,-0.0911477635046168,2.0580186432946537,-0.2724022048776494,2.85000066731219,-0.1997723732891442,0.1921744611250663,-0.2004780453915711,1.6206674162322234,-0.9871553009972064,0.6991884795143904,-1.0785280505690615,9.057868049865649,-0.9901670132308866,0.3061685027904208,-0.8145229992881764
0.12,2.064067824789799,-0.2779409576609389,2.8489937313525613,-0.0632896360316684,-0.0039686441348417,0.039110889173668,-0.0326110507421608,0.024044863959839,-0.1121097700514628,2.054023195828871,-0.2685587156551481,2.845991106404359,-0.2397723738851906,0.2321744617211128,-0.2404780459876176,1.8025971195875945,-1.2416430782693382,0.7804899394331135,-1.0481003273422966,9.05529111680471,-1.0044824259911358,0.3139689788284105,-0.7986221743854913
0.14,2.0631003441530327,-0.2772651938122336,2.846511189418281,-0.077261941336048,-0.0193650809607928,0.0396248890685793,-0.0629012819909176,0.042962853089653,-0.135107437821176,2.050027748363088,-0.2647152264326468,2.841981545496527,-0.2797723744812371,0.2721744623171593,-0.2804780465836641,2.1238415340280388,-1.514511562437841,0.9458994564906996,-1.14988338848566,9.069405198902132,-1.0163917337179422,0.3204446054294277,-0.7868034262426233
0.16,2.0614835750927534,-0.2761561444389049,2.843558268757569,-0.0894528004393246,-0.030186149106735,0.0401332533243723,-0.0970224027972327,0.0665325639357644,-0.1590189117887959,2.045032300882404,-0.2598717371952443,2.836971984573794,-0.3197723750772835,0.3121744629132057,-0.3204780471797105,2.393502006345836,-1.706056040315753,1.178485542305572,-1.1955736983809986,9.069405198902132,-1.024384666251749,0.3255313380490331,-0.7799565220024377
0.18,2.059287638617008,-0.2746420334147015,2.840304260710304,-0.098697037047002,-0.0356178189241094,0.0404637004626731,-0.1322913631412444,0.0911202835648227,-0.182288675271359,2.0390368533868184,-0.2540282479429406,2.830962423636161,-0.35977237567333,0.3521744635092521,-0.360478047775757,2.4443493064817248,-1.7634480172005855,1.2293859814529164,-1.1634881741281522,9.08545957643264,-1.0285200623394235,0.3290662653589372,-0.779441853317206
0.2,2.0562486371070534,-0.272536124911883,2.8363981245827743,-0.1061019160114655,-0.0358792651634416,0.0404799407982865,-0.1691609675089812,0.1178550829248483,-0.2070115294730041,2.052673070459946,-0.2700860192364603,2.831189826946736,-0.2322913646313605,0.1911202850549389,-0.2822886767614752,2.5910117439573965,-1.8434802183868395,1.3367399680012797,-1.236142710082254,9.114318921954236,-1.0300792553102611,0.3300652262551124,-0.784673759226341
0.22,2.052443719431843,-0.269738366991378,2.832204336302255,-0.1073417213277879,-0.0303891204373612,0.0403185583075014,-0.2087909454133906,0.1590010639100959,-0.2096534134649553,2.052673070459946,-0.2700860192364603,2.831189826946736,-0.2322913646313605,0.1911202850549389,-0.2822886767614752,2.859417095742268,-1.9814988952204693,2.057299049262378,-0.1320941995975599,9.107804013491204,-1.033169840243604,0.3277515565718293,-0.7861828452273332
0.24,2.047898881734652,-0.2661998745548775,2.8279885623727883,-0.1019050898492305,-0.0196795618201529,0.0400890893306263,-0.2428390363457511,0.1913177818389096,-0.21164032018144,2.052673070459946,-0.2700860192364603,2.831189826946736,-0.2322913646313605,0.1911202850549389,-0.2822886767614752,2.3492501740602303,-1.7024045466180262,1.615835896440683,-0.0993453358242343,10.59898773680834,-1.0307354325328004,0.3238478406999659,-0.7910904466820083
0.26,2.0430098225695503,-0.2623149336802667,2.823914675492928,-0.0950072868594428,-0.0068567079510769,0.0397915218448884,-0.2695508600745819,0.2157074327799686,-0.216994060245427,2.050350156813632,-0.2681748163859109,2.8283669401791216,-0.2522913649293838,0.2111202853529621,-0.3022886770594984,1.8282772851919729,-1.3355911864415395,1.2194825470529538,-0.2676870031993517,10.008777239560004,-1.024705906959383,0.3187773061056905,-0.8007109414803393
0.28,2.03737412658826,-0.2577682079026919,2.819479827251446,-0.0878573124821946,0.0076396439059499,0.0394714431772219,-0.2921290225943319,0.2376214731288334,-0.2263898540085391,2.0457043295210053,-0.2643524106848122,2.822721166643892,-0.2922913655254302,0.2511202859490085,-0.3422886776555448,1.6418583431731042,-1.128908125987499,1.0957020174432397,-0.4697896881556029,10.008777239560004,-1.01594971239905,0.3135342420975814,-0.8141993208216628
0.3,2.0313400344125903,-0.2528086187685469,2.814811909750118,-0.0815636510998597,0.0217397394714187,0.0392191484177502,-0.3098750465190758,0.2573675443625373,-0.2399405703106081,2.041058502228378,-0.2605300049837134,2.8170753931086625,-0.3322913661214767,0.291120286545055,-0.3822886782515913,1.490344428817756,-0.8873011962371946,0.9873035616851932,-0.6775358151034513,9.741178597236283,-1.0054835864814582,0.3087110180381163,-0.8296555469242511
0.32,2.0249936633129,-0.2474696559313724,2.80983599156915,-0.0762789264581836,0.0344882955526012,0.039080302097122,-0.3237319643298592,0.2757072389149148,-0.2570159710857362,2.034412674905949,-0.2547075992528123,2.809429619543631,-0.3722913667175231,0.3311202871411014,-0.4222886788476377,1.431719140684159,-0.6928458905391677,0.916984727618872,-0.8537700387564073,9.326701997216333,-0.9949265802006017,0.30476952687317,-0.8445152909077043
0.34,2.018738088793266,-0.2420672371480036,2.8047721955828333,-0.0721923613808423,0.0447952592550996,0.0390688181170274,-0.3340350967183046,0.2922236733569471,-0.2752068630865754,2.027766847583519,-0.2488851935219112,2.801783845978598,-0.4122913673135696,0.3711202877371479,-0.4622886794436842,1.332155861262094,-0.5151566194222745,0.8258217221016162,-0.9095446000419588,9.326701997216333,-0.9844563052853144,0.3010596963741263,-0.8592099409063287
0.36,2.0119593312409,-0.2360399309630486,2.799049998306426,-0.0685484950126077,0.0536019544292258,0.0391899959533091,-0.3432391673906043,0.3096153682068486,-0.2961587500668762,2.0201210202461883,-0.2420627877761089,2.7931380723986656,-0.452291367909616,0.4111202883331943,-0.5022886800397306,1.437156510899276,-0.4602035336149807,0.8695847424950748,-1.047594349015038,9.22840858348536,-0.9745967091507206,0.2977778688498119,-0.8728250180709914
0.38,2.005009808432592,-0.2296672805495398,2.7928914148701205,-0.0652133410120429,0.06046247639858,0.0394431831681924,-0.3512742126470953,0.3267029535959375,-0.3186743824922832,2.0114751928939563,-0.2342403820154055,2.783492298803832,-0.4922913685056624,0.4511202889292408,-0.5422886806357771,1.4692695721167932,-0.4017522628245507,0.8543792694544472,-1.1257816212703524,9.082187240901476,-0.9662827820539068,0.2948321122720715,-0.8842950963494908
0.4,1.9982657896863012,-0.2233014967332466,2.786611560318707,-0.0621767377594028,0.0654252306627299,0.0397868043636009,-0.358249365279897,0.3424400584227264,-0.3412513626280359,1.987446097800237,-0.2133321328697429,2.7769576957455064,-0.4512742141372114,0.414737248141588,-0.4186743839823993,1.4195327176842316,-0.348757631640087,0.7868552413394431,-1.128849006787633,9.082187240901476,-0.9592754083050647,0.2918439821420843,-0.8941410201600607
0.42,1.9910597200037488,-0.2162408638241091,2.779804497757852,-0.0582706614305378,0.0687573043059587,0.0403196489623306,-0.3619647800940792,0.3623483828997547,-0.3368169916507279,1.987446097800237,-0.2133321328697429,2.7769576957455064,-0.4512742141372114,0.414737248141588,-0.4186743839823993,1.0365921771464404,-0.1857707407091069,0.9954162238514142,0.2217185488653988,9.027949098864156,-0.964802553095248,0.2882787309827914,-0.8899509406586502
0.44,1.983787372668903,-0.2088193040469822,2.7730927384761896,-0.0540232065063474,0.0697666344440044,0.0410081877703294,-0.3652283332413678,0.3787559416805959,-0.3350429381860117,1.987446097800237,-0.2133321328697429,2.7769576957455064,-0.4512742141372114,0.414737248141588,-0.4186743839823993,0.8411391531542363,-0.16317765736443,0.8203779390420635,0.0887026732358103,10.740808188826122,-0.9630667909949608,0.2866646420940042,-0.8905138777806453
0.46,1.9764439389388064,-0.2010871331407392,2.7663447630109395,-0.0502386807029024,0.068525795257134,0.0417723392145892,-0.3691069278532577,0.3936745169630667,-0.3398125443587487,1.9829333556588649,-0.209184760388327,2.7727709519056822,-0.4712742144352346,0.4323441070507181,-0.4386743842804226,0.8067783581398623,-0.1939297305944998,0.7459287641235379,-0.2384803086368514,10.357745522051118,-0.962551394407534,0.2849996916081261,-0.8905171548921516
0.48,1.9693872964067325,-0.193475698888499,2.75979928462988,-0.0471346883794835,0.0653963613657005,0.0425420730842729,-0.3736497058293372,0.4068425092919544,-0.348928699990836,1.973907871376121,-0.2008900154254953,2.7643974642260343,-0.5112742150312811,0.4675578248689783,-0.4786743848764691,0.8323718328097655,-0.2271388988039746,0.6583996164443856,-0.4558077816043643,9.746904948824522,-0.964084283863607,0.2832350421367016,-0.8888231286140699
0.5,1.9618509937369144,-0.1852026314714743,2.752684885350741,-0.0444271139032374,0.0602508872681151,0.0433747887101032,-0.3801007659966616,0.4198112123329957,-0.3621960402691085,1.9648823870933765,-0.1925952704626635,2.7560239765463863,-0.5512742156273276,0.5027715426872386,-0.5186743854725155,0.982122387878191,-0.3225530083662165,0.6484351520520654,-0.6633670139136238,9.746904948824522,-0.9667535405694612,0.2815628302833921,-0.8863526710531917
0.52,1.954155477353536,-0.1766777241873219,2.745270119405577,-0.0422970521079723,0.0539918244946875,0.0441896849426508,-0.3893863756673259,0.4321261334596571,-0.3785996000276385,1.95385690278083,-0.1825398396089187,2.745650488836936,-0.5912742162233741,0.5379852605054988,-0.558674386068562,1.1257848396379873,-0.4642804835332165,0.6157460563330691,-0.8201779879265014,9.540489693713424,-0.9705650935199226,0.2800737444975991,-0.8829838871142455
0.54,1.946648350197593,-0.1683561050125264,2.7379116400876797,-0.0407706103934651,0.0478141875417146,0.0449160070088313,-0.4005213477445318,0.4432898672571061,-0.3951487142849907,1.9428314184682836,-0.172484408755174,2.7352770011274856,-0.6312742168194205,0.573198978323759,-0.5986743866646085,1.1429017216753137,-0.5567486038602937,0.5581866898724502,-0.8274557128676113,9.34132056693943,-0.9758016597538997,0.2786229496957354,-0.8783719361754623
0.56,1.9384924143244056,-0.1593653886895444,2.729817681146616,-0.0395115185830158,0.0417658594568243,0.045617249651222,-0.4146152083265585,0.4551531316751376,-0.413406528845533,1.930805934140836,-0.1615486349559727,2.723903513403134,-0.6712742174154669,0.6084126961420191,-0.6386743872606548,1.2968439972534165,-0.7046930291013359,0.5931632209015741,-0.9128907280271132,9.34132056693943,-0.9810727140122087,0.2774006420113256,-0.873654238297081
0.58,1.930030010009728,-0.1501377156536887,2.72135051563036,-0.0383608794063465,0.0368955498167806,0.0462457307339355,-0.4310709660968132,0.4669558883769502,-0.432424148967549,1.9177804497984867,-0.1497325182113149,2.711530025663882,-0.7112742180115134,0.6436264139602793,-0.6786743878567013,1.3890346509903797,-0.8227878885127354,0.5901378350906289,-0.9508810061007984,9.29984430791592,-0.985442183268918,0.2761758969017066,-0.8700026362623989
0.6,1.9212124527455188,-0.1406753821266338,2.7124930642060727,-0.0371439863673789,0.0341337046972655,0.0467810326131009,-0.449885458514776,0.478593633488844,-0.4523617869596781,1.908476461704887,-0.1267899212348412,2.699729308181982,-0.5310709675869294,0.4945301500273932,-0.5324241504576651,1.4890698816208876,-0.9407246208981396,0.5818872555946902,-0.9968818996064556,9.268781339550516,-0.988135875787406,0.2748497924342933,-0.8683416028210307
0.62,1.9124467642157617,-0.1312673016435524,2.7039824390014213,-0.0295603431711612,0.0350047488766997,0.0475943507741445,-0.4710079009010065,0.5065863875513738,-0.442225296904093,1.908476461704887,-0.1267899212348412,2.699729308181982,-0.5310709675869294,0.4945301500273932,-0.5324241504576651,1.825171418669955,-1.0561221193115256,1.3996377031264884,0.5068245027792517,9.23386233177598,-0.9994248165088512,0.2697136174701818,-0.8562224330620709
0.64,1.902826262563292,-0.1209664148744302,2.6952127919537467,-0.0155057390806951,0.0394725350662803,0.0487739223849929,-0.489449213653954,0.5208856671986721,-0.4356262378686725,1.908476461704887,-0.1267899212348412,2.699729308181982,-0.5310709675869294,0.4945301500273932,-0.5324241504576651,1.2125376227530322,-0.9220656376473736,0.714963982364919,0.3299529517710259,11.09738252425359,-0.9984861115702084,0.2606057513492322,-0.8581891961471679
0.66,1.892873256355028,-0.110479744952409,2.6864954807329418,-0.0003875409505236,0.046030641781392,0.0500442517389363,-0.504569343949295,0.5266872504081233,-0.4367574043539605,1.9031657520290175,-0.1218446197345672,2.694405066677406,-0.5510709678849526,0.5000450023574818,-0.5524241507556883,0.8117207732676801,-0.7560065147670492,0.2900791604725561,-0.0565583242643996,10.611041013347858,-0.9942574326304132,0.2502350340814849,-0.8653653074772216
0.68,1.8831671975219937,-0.100463192981062,2.678119530257065,0.0130050653469738,0.0531400297585757,0.0512489029657368,-0.516133666990695,0.5274725463832508,-0.4448386189559037,1.8925443326772795,-0.1119540167340194,2.6837565836682526,-0.591070968480999,0.5110747070176591,-0.5924241513517348,0.7064989147498132,-0.5782161520699991,0.0392647987563776,-0.4040607300971582,10.135123052493327,-0.9879511125733544,0.239052436068747,-0.8758994428838934
0.7000000000000001,1.8727408319952243,-0.0899355168074959,2.669081220640257,0.0254071244512693,0.0606755224499568,0.052466653538155,-0.5257025173263047,0.5253360639615404,-0.4588251763573137,1.8819229133255408,-0.1020634137334715,2.6731081006590998,-0.6310709690770455,0.5221044116778364,-0.6324241519477812,0.8540363602132404,-0.4784425167804862,-0.1068241210855192,-0.6993278700704986,9.454686998747093,-0.9806566544359514,0.2283623260888083,-0.8878418168265341
0.72,1.862146494030104,-0.0794740345409442,2.659712465894776,0.0358989952510217,0.0676251656877707,0.0535888847313275,-0.5331400407754987,0.5210782633569879,-0.4775492681212396,1.869301493944,-0.0916213254999148,2.660459617620144,-0.671070969673092,0.5331341163380137,-0.6724241525438277,1.0296082184857462,-0.3718761724597008,-0.2128900302276248,-0.936204588196296,9.454686998747093,-0.97314977129296,0.2185008879300965,-0.9000106957539821
0.74,1.8514226640663287,-0.0691145953201723,2.649940753417663,0.0445229738510392,0.0735710226407736,0.0545757103871676,-0.5388165164523255,0.515268255342629,-0.4987792325298174,1.8566800745624588,-0.081179237266358,2.6478111345811883,-0.7110709702691385,0.5441638209981908,-0.7124241531398742,1.136540758206674,-0.2838237838413415,-0.2905004007179468,-1.0614982204288883,9.12328993306619,-0.9665098016283876,0.209918266725792,-0.9110856675477156
0.76,1.8411393980185256,-0.0593906114470156,2.6402471847843523,0.0511483978255428,0.0781709550759953,0.055367432645773,-0.543356331202803,0.5088423089576416,-0.5205404872323022,1.8430586551660169,-0.0704614064162969,2.6341626515273315,-0.7510709708651848,0.5551935256583681,-0.7524241537359205,1.156994934234591,-0.2269907375238744,-0.3212973192493695,-1.08806273512424,9.12328993306619,-0.9600053953760476,0.201723863603651,-0.922168253783281
0.78,1.8302278948400543,-0.049292235889822,2.629582121438833,0.0568057249987807,0.0820309160726635,0.0560544731842134,-0.5475440836830928,0.5014579492901318,-0.5448930203795812,1.8284372357546732,-0.0594678329497313,2.619514168458573,-0.7910709714612313,0.5662232303185453,-0.792424154331967,1.289488182598665,-0.2093876240144898,-0.3692179833754916,-1.2176266573639516,9.058554748210554,-0.9541527179477096,0.1943483066131121,-0.9323959676830764
0.8,1.8192373904428123,-0.0393487007118347,2.618417590923008,0.0613062126487937,0.0850113750096744,0.0565964443232778,-0.5512985195197745,0.4933938760504135,-0.5703905214809518,1.8028506906559,-0.0242193384253155,2.6023374704198536,-0.6475440851732089,0.4975440275204233,-0.6448930218696973,1.3502292657931236,-0.1877217918340834,-0.4032036619859125,-1.2748750550685306,8.99433259885609,-0.9492115728119664,0.1879881850955288,-0.9413848421093955
0.8200000000000001,1.8081930309831769,-0.0295355104736143,2.6070263643817406,0.066526046964617,0.0873673980162549,0.0571295324643387,-0.5527555854660555,0.4874123824016577,-0.5660095784063495,1.8028506906559,-0.0242193384253155,2.6023374704198536,-0.6475440851732089,0.4975440275204233,-0.6448930218696973,0.3778027582774635,-0.0728532973140516,-0.2990746824377888,0.2190471537301175,8.950104725876827,-0.9531603825725,0.1810754456685427,-0.9421643989678826
0.84,1.7976881528554838,-0.0203628513195749,2.5962859110777115,0.0723875732504946,0.088946661901246,0.0576323378619779,-0.553025014109101,0.4782240445107711,-0.5649737130608353,1.8028506906559,-0.0242193384253155,2.6023374704198536,-0.6475440851732089,0.4975440275204233,-0.6448930218696973,0.462523410231397,-0.0134714321522733,-0.4594168945443289,0.0517932672757071,10.75705404929704,-0.9504189660253756,0.1755511864358455,-0.9459902431627044
0.86,1.7866265623640871,-0.0109241497193887,2.58493794624883,0.078137049210931,0.0896058311692058,0.058030126020012,-0.553220379020888,0.4661724236612235,-0.5701532501247418,1.7963752498041676,-0.0192438981501112,2.5958885402011567,-0.6675440854712321,0.4967612431664817,-0.6648930221677205,0.6559484292731977,-0.0097682455893532,-0.602581042477382,-0.2589768531953251,10.369924566577538,-0.9477820463409292,0.1694697769459262,-0.9505323738628774
0.88,1.7755600457373293,-0.0017420625368719,2.573425191523827,0.0828337402792844,0.0891032216778606,0.0582273560940976,-0.553535546723795,0.4528678613886452,-0.5808247796529763,1.7834243681007034,-0.0092930175997028,2.5829906797637627,-0.7075440860672786,0.4951956744585983,-0.704893022763767,0.8529247481722062,-0.0157583851453479,-0.6652281136289129,-0.5335764764117235,10.01915594176171,-0.9463306756917576,0.1639742650243701,-0.9542298926879424
0.9,1.7650396929794718,0.0067284135217743,2.5622535510002176,0.0862205149055532,0.0873950228070387,0.0582004486804608,-0.553955274643636,0.4396642495014928,-0.5945778585704581,1.7704734863972391,0.0006578629507056,2.570092819326369,-0.7475440866633251,0.493630105750715,-0.7448930233598134,0.953491895749157,-0.0209863959920508,-0.6601805943576206,-0.6876539458740893,9.751040080628629,-0.9461002343028472,0.1586568731291256,-0.9572037668353858
0.92,1.7539540552427275,0.0153728937790942,2.550182923938236,0.0887609777582886,0.08406357403853,0.0579275187190188,-0.554698141150116,0.425641935613991,-0.6118677532497806,1.7555226046639727,0.0105304650657199,2.5551949588591727,-0.7875440872593715,0.4920645370428316,-0.7848930239558599,1.1136848695076875,-0.0371433253239961,-0.7011156943750929,-0.8644947339661258,9.404681034212445,-0.9474155535404636,0.153957067991555,-0.9588062937724676
0.94,1.7428470423058664,0.0237326916507467,2.5377555268433,0.0903227924702629,0.0789703728309907,0.057389186565676,-0.5562780781790442,0.4111488441975589,-0.6300097058783186,1.7405717229307065,0.0204030671807342,2.5402970983919766,-0.827544087855418,0.4904989683349482,-0.8248930245519064,1.163697066461621,-0.0789968514464112,-0.7246545708216034,-0.9070976314269008,9.404681034212445,-0.9504046461666076,0.1496937154406565,-0.95907547712749
0.96,1.7316816487859532,0.0317937919087248,2.524962745366353,0.0907386535797345,0.072673975394766,0.0566272171018139,-0.5604616851446039,0.3958548488524604,-0.6483410940378516,1.7246208411825386,0.0302365300780514,2.524399237909879,-0.8675440884514644,0.4889333996270649,-0.8648930251479527,1.2118670025147558,-0.2091803482779874,-0.7646997672549255,-0.9165694079766472,9.373961965192391,-0.9546928946458332,0.1466402675480406,-0.9576827755783128
0.98,1.7209729109605532,0.0391618412014425,2.5124689960531,0.0898126622369246,0.0664009158778351,0.0557625875420879,-0.566729720990759,0.3806824458596519,-0.6658535903566959,1.7076699594194698,0.0400308537576716,2.5075013774128805,-0.9075440890475108,0.4873678309191815,-0.9048930257439992,1.2001849995546572,-0.3134017923077548,-0.7586201496404238,-0.8756248159422164,9.37208162322986,-0.960246311692017,0.1446736984636703,-0.9550011016613398
1.0,1.709550452929771,0.0466054237228983,2.49895509745089,0.0872074491915863,0.0600735864879939,0.0547547391724123,-0.5753480118522388,0.3647344762265482,-0.6846036369271492,1.6926364249110153,0.058195963494425,2.4791763165352654,-0.6667297224808751,0.3610847590324691,-0.765853591846812,1.3040100835361987,-0.4309145430739902,-0.7973984816551871,-0.9375023285226658,9.371373884715467,-0.9660351884083463,0.1442194503360488,-0.9518279924133302
1.02,1.6978969642860502,0.0537938716798201,2.4853386976942806,0.0855963042326219,0.0560501926634964,0.0540131728666321,-0.5898145416698659,0.3541812609997748,-0.674750766769309,1.6926364249110153,0.058195963494425,2.4791763165352654,-0.6667297224808751,0.3610847590324691,-0.765853591846812,1.0219220700891936,-0.7233264908813541,-0.5276607613386691,0.4926435078920099,11.178436295061148,-0.974567402233476,0.1432715343488751,-0.9459934142781852
1.04,1.685945992526447,0.0607516261780916,2.471920593660432,0.0865005001714093,0.0563796502436773,0.0538009975179949,-0.6039780897984705,0.3419304491557502,-0.6676870554782652,1.6926364249110153,0.058195963494425,2.4791763165352654,-0.6667297224808751,0.3610847590324691,-0.765853591846812,1.0007303628253323,-0.7081774064302271,-0.6125405922012273,0.3531855645521886,10.772339988116071,-0.978624621851736,0.1433570967298386,-0.9410492600298008
1.06,1.674355362412702,0.0671200144513285,2.4592432362538887,0.0885251979337527,0.0593409803968189,0.053890859072829,-0.6150841328933898,0.3290500000024355,-0.6670953048310435,1.6859691276862063,0.0618068110847497,2.4715177806167974,-0.6867297227788983,0.3571652216670326,-0.7858535921448352,0.8508823838313656,-0.555302154745968,-0.6440224576657355,0.0295875323610861,10.772339988116071,-0.9777942472705824,0.1412760100744196,-0.9423892230944716
1.08,1.6619526407047325,0.0735473335944393,2.445856286690692,0.0910572260856058,0.0639373710385874,0.0541299116078887,-0.6243591201236448,0.3142579761739858,-0.6718764400398338,1.672634533236589,0.0690285062653991,2.456200708779861,-0.7267297233749448,0.3493261469361595,-0.8258535927408817,0.9051085721441828,-0.4637493615127497,-0.739601191422487,-0.2390567604395155,10.381731429397403,-0.974091982539762,0.1378685638377386,-0.947720434367408
1.1,1.6493872771532505,0.0796655670781223,2.4323221468103453,0.0931518607223127,0.0690750823497688,0.0543752617548885,-0.631550696288199,0.2984553776256219,-0.6814771461807347,1.6592999387869716,0.0762502014460485,2.440883636942925,-0.7667297239709913,0.3414870722052864,-0.8658535933369281,0.9919859462402536,-0.3595788082277118,-0.7901299274181928,-0.4800353070450458,10.063251256392505,-0.968581472414298,0.1340858744707819,-0.9555043422223932
1.12,1.6366969552978323,0.0854633340078929,2.4185542072219994,0.0944247571732889,0.0740757429977029,0.0545360288140578,-0.6370171414207827,0.2822198747118923,-0.6949882739378747,1.6439653443075517,0.0830799428901542,2.4235665650761864,-0.8067297245670377,0.3336479974744133,-0.9058535939329746,1.0908988845431875,-0.2733222566291826,-0.811775145686483,-0.6755563878569959,9.810480937397188,-0.9626983681522724,0.1305890383191311,-0.963929188082581
1.14,1.6245551347542946,0.0906649422028843,2.405202032115658,0.094530792293004,0.0782488255358017,0.054540071688327,-0.6407881679796864,0.2663002902620752,-0.7098136703032634,1.6286307498281318,0.08990968433426,2.406249493209448,-0.8467297251630842,0.3258089227435402,-0.9458535945290212,1.1039091762388071,-0.1885513279451856,-0.7959792224908557,-0.7412698182694355,9.613255621480675,-0.956834854823638,0.1275051026601195,-0.9726851276643624
1.16,1.611704013342918,0.0958109926807954,2.390828762717548,0.0931784435076887,0.0818845327647135,0.0543487236179256,-0.6441026207144563,0.2492967795002417,-0.7267862810668856,1.6122961553338109,0.0965434489100939,2.387932421327808,-0.8867297257591306,0.3179698480126671,-0.9858535951250674,1.212615449444128,-0.1657226367384967,-0.8501755380916715,-0.848630538181111,9.527100295730634,-0.9515234816993352,0.1257523132417544,-0.9806303470976652
1.18,1.598791942233222,0.1006178764133349,2.376103879427014,0.0900483463384823,0.0848008990312174,0.0539418255939357,-0.6469631647657577,0.2328182994225036,-0.7448082644369091,1.5949615608245888,0.1029812366176559,2.368615349431267,-0.926729726355177,0.3101307732817939,-1.025853595721114,1.2293442383352708,-0.1430272025650658,-0.8239240038869069,-0.9010991685011738,9.463335042797553,-0.947253589596379,0.1258035166604733,-0.9869517610938248
1.2,1.5858250987326297,0.1051213351895554,2.3610114505905697,0.0858624063033131,0.0870750254242889,0.0533797734253038,-0.6496012015024094,0.2186935222283815,-0.7635124337681217,1.566443783994934,0.1122587913844601,2.3388634662051686,-0.7469631662558738,0.2031233250000488,-0.832872808339783,1.1793160295041705,-0.1319018368325875,-0.7062388597061056,-0.9352084665606332,9.375070473259257,-0.9438025223205287,0.1271982762847809,-0.9920606965362916
1.22,1.5734746214760928,0.1091780337902853,2.346600678208315,0.0830544040432366,0.0889277029932496,0.052881215570585,-0.6501178058822092,0.2083385209239616,-0.7509482848058391,1.566443783994934,0.1122587913844601,2.3388634662051686,-0.7469631662558738,0.2031233250000488,-0.832872808339783,0.8144795443198576,-0.0258302189899917,-0.5177500652209927,0.628207448114132,9.375070473259257,-0.9471116109446897,0.1272631553268108,-0.9917439073536154
1.24,1.5604778654378595,0.1132173352371488,2.3317014820218045,0.0819174661570026,0.0905451409432418,0.0524376314852284,-0.6495553046231601,0.1960460433487789,-0.7401309998556067,1.566443783994934,0.1122587913844601,2.3388634662051686,-0.7469631662558738,0.2031233250000488,-0.832872808339783,0.8191994053606941,0.0281250629524554,-0.6146238787591365,0.5408642475116188,11.386869694129928,-0.946282754716792,0.1286348856941566,-0.9915184221970976
1.26,1.547495663583368,0.1170028305855915,2.31694321024039,0.0815615716549514,0.0913436958831385,0.0519644936952143,-0.6488000338057394,0.1831409322693655,-0.7362078350344491,1.5589741523323757,0.1142900246344606,2.330534738121771,-0.766963166553897,0.1971843301155578,-0.8504857171203578,0.6754693705002737,0.0377635408710386,-0.6452555539706695,0.196158241057881,10.978314626022438,-0.9452338420777968,0.1286431177199805,-0.9922860969585444
1.28,1.5351755660174602,0.1203576223607244,2.30294550710034,0.0814199240440352,0.091163064360559,0.0514372436934113,-0.6481981602752376,0.1707034965529825,-0.737412320960929,1.544034889007258,0.1183524911344615,2.313877281954975,-0.8069631671499434,0.1853063403465759,-0.8857115346815074,0.6255054861729176,0.0300936765250892,-0.6218717858191516,-0.0602242963239962,10.597928926982604,-0.944973442605332,0.128017339104915,-0.9928076885417564
1.3,1.5222170133929651,0.1236341239778595,2.288146437678933,0.0812195500374684,0.0898224331236556,0.050770251665895,-0.6477610521711757,0.1576550758833998,-0.7425946312524756,1.5290956256821404,0.1224149576344625,2.2972198257881797,-0.8469631677459899,0.1734283505775939,-0.920937352242657,0.7023330503096408,0.0218554052030917,-0.6524210334791322,-0.2591155145773294,10.30726358775155,-0.9460707372820572,0.1272676012588798,-0.9922268721901404
1.32,1.5092648037334742,0.1266488795773064,2.273209692166733,0.0807624362082594,0.0870382801844176,0.0499547363031304,-0.6475817512272621,0.1445382307991487,-0.7509283218895045,1.5121563623272205,0.1258835246460144,2.278801078743326,-0.8869631683420364,0.161550360808612,-0.9561631698038068,0.7770684870499428,0.0089650471956803,-0.655842254212556,-0.4166845318514467,9.91081417298392,-0.9485242194500896,0.126448505083096,-0.9906568050956172
1.34,1.4963127180967566,0.1293998910171502,2.258092083028672,0.0798410718103016,0.0825143365219946,0.0489567783204415,-0.6478440471532501,0.1313196216072853,-0.7603827829355198,1.4952170989723008,0.1293520916575663,2.260382331698473,-0.9269631689380828,0.14967237103963,-0.9913889873649564,0.8126919185500515,-0.013114796299396,-0.6609304595931716,-0.4727230523007608,9.91081417298392,-0.9524304328205772,0.125730847792064,-0.9879745440129198
1.36,1.4839831329789972,0.1317651474983827,2.243551269086859,0.0783347891088041,0.0768384094779921,0.0478517676959574,-0.650288096902044,0.1184493535150388,-0.769736901936245,1.4772778356024798,0.1325237089248936,2.241082939214591,-0.9669631695341292,0.1377943812706481,-1.026614804926106,0.8048551456948753,-0.1222024874396987,-0.6435134046123253,-0.4677059500362623,9.860289867914616,-0.9574862434057896,0.1251932098401229,-0.9845495884396848
1.38,1.470926967107827,0.1339935414265685,2.228048367928435,0.0759672675664233,0.0702694706126582,0.0465934533218911,-0.6554497922749822,0.1053426719781103,-0.7800572573555495,1.4583385722177575,0.1353983764479964,2.220902901291681,-1.0069631701301756,0.1259163915016662,-1.0618406224872556,0.8731236109713223,-0.2580847686469101,-0.6553340768464206,-0.5160177709652269,9.83991372206765,-0.9637648187360364,0.1255783942880862,-0.9795954978544158
1.4,1.457741521416826,0.1359712547079409,2.212335523617295,0.073122750159459,0.0637689504857433,0.0453208959205909,-0.6630180629504979,0.0932589077023826,-0.7907067334599961,1.438154477494078,0.139260675025474,2.189045505060657,-0.7554497937650984,0.0970212759029212,-0.7890427125034716,0.8898137746017466,-0.3784135337757843,-0.6041882137863879,-0.5324738052223277,9.78632649204974,-0.9705105396919012,0.126581889542605,-0.9738512723233296
1.42,1.4443740189389187,0.1376227254549996,2.196759825802303,0.0679273775514782,0.0589360414008283,0.0440258700054716,-0.6736154080516632,0.0736934419584419,-0.7643444468174533,1.438154477494078,0.139260675025474,2.189045505060657,-0.7554497937650984,0.0970212759029212,-0.7890427125034716,1.7248777710276322,-0.5298672550582639,-0.9782732871970368,1.3181143321271405,9.78632649204974,-0.9803090194761652,0.1270691260957571,-0.967997767363124
1.44,1.4314585442047862,0.1388822482770682,2.1824946570334816,0.0609008944577569,0.0575265286759144,0.0428909930415044,-0.6850942748524774,0.0604235967717365,-0.7387117638985865,1.438154477494078,0.139260675025474,2.189045505060657,-0.7554497937650984,0.0970212759029212,-0.7890427125034716,1.553132003347693,-0.5739433400407112,-0.6634922593352685,1.281634145943339,12.342938577971836,-0.9864505502511214,0.135068887789201,-0.9585611229121548
1.46,1.4176436932753982,0.1399766355651387,2.167964272515198,0.0530218385897361,0.0585644869815749,0.041827833519047,-0.6955644498437495,0.050077583317065,-0.7158408164410559,1.430599979556427,0.1402308877845032,2.181155077935623,-0.7754497940631215,0.0953569966878834,-0.7908398035330559,1.359912493836671,-0.5235087495636059,-0.5173006727335755,1.14354737287653,12.036889241495372,-0.9894794588285668,0.1432912271979295,-0.9523238291155892
1.48,1.4036363855459908,0.1408956652052539,2.153842702657281,0.0452181527299884,0.0609881783885,0.0408410920417341,-0.7044758513599785,0.0425902571643599,-0.6974148090879155,1.415490983681125,0.1421713133025617,2.165374223685553,-0.815449794659168,0.0920284382578078,-0.7944339855922248,1.0897142708967475,-0.4455700758114467,-0.374366307635255,0.9213003676570186,11.707514838248244,-0.9903264867189576,0.1510510546960749,-0.9486881634480124
1.5,1.389465960580053,0.1416917586323058,2.140051331103131,0.0378215560145056,0.0639555627503328,0.0398985153910179,-0.712015343350676,0.037528378632145,-0.6826273653127193,1.400381987805823,0.1441117388206201,2.149593369435484,-0.8554497952552145,0.0886998798277321,-0.7980281676513936,0.8676621565408967,-0.3769745995348739,-0.2530939266107448,0.7393721887598126,11.417024493280223,-0.9897505733111632,0.1577932831894388,-0.9469838510272904
1.52,1.3758755514748764,0.1423747969044723,2.127193979827473,0.031360195289267,0.0667495724954188,0.0390333171378264,-0.7181333932964767,0.0346571843018809,-0.6715112084940641,1.3832729919007187,0.1458857364171747,2.133632806082456,-0.8954497958512609,0.0853713213976565,-0.8016223497105625,0.6504675903501801,-0.3059024972900392,-0.1435597165132047,0.5558078409327594,11.180352316756398,-0.9887544298755786,0.1641278913526677,-0.9459300953736024
1.54,1.3614548757308629,0.1430524607698958,2.113877533878444,0.0252770035319251,0.0692760592567881,0.0381547564105865,-0.7235827132855788,0.0332883643374777,-0.6607557648868123,1.3661639959956144,0.1476597340137294,2.1176722427294283,-0.9354497964473074,0.0820427629675808,-0.8052165317697313,0.6067296012791632,-0.2724659994551015,-0.0684409982201605,0.537772180362589,10.98779663960795,-0.9880055913922472,0.1695755736411625,-0.9450074538699754
1.56,1.34692793411675,0.1437178213605319,2.100768016039575,0.0200024741618842,0.0712738827858448,0.0373189965542942,-0.7288286920070628,0.0332982110861547,-0.650766866253765,1.3480550000756089,0.1493505176495321,2.101621824824921,-0.9754497970433538,0.0787142045375052,-0.8088107138289,0.5641331527352762,-0.2622989360742012,0.0004923374338501,0.4994449316523652,10.887870083019152,-0.9873320028336696,0.1742066123535177,-0.9442345626724008
1.58,1.3322970919107398,0.144396309586935,2.0878493165629965,0.0155795027973141,0.0728769684917201,0.0365387490877249,-0.73397875961183,0.0344371348157401,-0.6416025101060397,1.3289460041407024,0.150958087324583,2.0854815523689347,-1.0154497976394,0.0753856461074295,-0.8124048958880689,0.5286912312442756,-0.2575033802383608,0.0569461864792703,0.458217807386263,10.887870083019152,-0.9869905132063802,0.1779201162137016,-0.9432905628594624
1.6,1.318302964952273,0.1450705963645467,2.0757386048593744,0.0121407993106208,0.0741349935378355,0.0358527791732918,-0.7388138483800283,0.0363554030057883,-0.6336675542803676,1.2955981539301482,0.146118166327722,2.0557691910576947,-0.8339787611019461,0.023139220616209,-0.635008619617892,0.4743979347569841,-0.2417544384099135,0.0959134095024131,0.3967477912836081,10.794350835371915,-0.9868487510344366,0.1811279281627097,-0.9421996854984088
1.62,1.3034709376803597,0.1458636319150753,2.063263430026414,0.0105373041292549,0.0755904161146076,0.0352797912685646,-0.7440072404566013,0.0423105149548502,-0.6136806015174445,1.2955981539301482,0.146118166327722,2.0557691910576947,-0.8339787611019461,0.023139220616209,-0.635008619617892,1.074608021948222,-0.2596696038286494,0.2977555974530927,0.999347638146153,11.591615929401089,-0.9873864202391992,0.1821420709236177,-0.9413650216410848
1.64,1.2885479680576857,0.1467637860300182,2.051191656318312,0.0114989664658743,0.0772252067882627,0.0348944240443492,-0.7479761549827505,0.0471823039912411,-0.5946725310809622,1.2955981539301482,0.146118166327722,2.0557691910576947,-0.8339787611019461,0.023139220616209,-0.635008619617892,1.0009911995732668,-0.1984457263074612,0.2435894518195459,0.9504035218241168,11.591615929401089,-0.988479575815032,0.1826153632096116,-0.9380654627168582
1.66,1.2735544384883,0.1477531345074788,2.0394716011297973,0.0145369928125079,0.0784944435544974,0.0346560879554872,-0.7511997065426702,0.0509927138098452,-0.5782707299987374,1.2872583663191288,0.1463495585338841,2.049419104861516,-0.8539787613999693,0.0208796377763028,-0.6336898415202624,0.8572187386922391,-0.1611775779959856,0.1905204909302058,0.8200900541112388,11.262890276581857,-0.9892250829546148,0.181117580463933,-0.9359541356337444
1.68,1.259255595931274,0.1487351809112869,2.028621881348845,0.0184127581372296,0.0791220219113164,0.0344943053445338,-0.7538420932061235,0.0519314653244154,-0.56462132650597,1.2705787910970898,0.1468123429462083,2.036718932469158,-0.8939787619960158,0.0163604720964903,-0.6310522853250033,0.6967239004686068,-0.1321193331726644,0.0469375757285076,0.6824701746383721,11.13733089852576,-0.9901182890396348,0.17831671895123,-0.934226123892664
1.7,1.2441514784319243,0.1497666616209732,2.0174663575695533,0.022577736589294,0.079049049902706,0.0343172740459639,-0.756506691822918,0.0510578088454097,-0.5517123875819586,1.2538992158750508,0.1472751273585324,2.0240187600768,-0.9339787625920624,0.0118413064166779,-0.6284147291297443,0.660499934851978,-0.1332299308397233,-0.0436828239502837,0.6454469462005674,11.13733089852576,-0.9914163555902,0.1752299310793267,-0.932356470752098
1.72,1.2289927586334688,0.150766280676231,2.0065553478773546,0.0264530169452314,0.0781775015606462,0.0340995213048213,-0.7593091604826967,0.0489066636717177,-0.5400807879287097,1.2352196406232097,0.147511953486866,2.0114504654942054,-0.9739787631881086,0.0073221407368655,-0.6257771729344852,0.6078144590267663,-0.1401234329889367,-0.1075572586846009,0.5815799826624446,11.045543309724962,-0.99335639754014,0.1722538068683065,-0.9299465625248484
1.74,1.2137766438419944,0.1517118149372504,1.995870755480626,0.0298700005078429,0.076434174977337,0.0338215585804848,-0.7622676147891305,0.0457832583695618,-0.5289470914701314,1.2165400653713685,0.1477487796151995,1.9988821709116105,-1.013978763784155,0.002802975057053,-0.6231396167392261,0.5967983524536404,-0.1479227153216911,-0.1561702651077963,0.5566848229289156,10.942886155426097,-0.996074852136875,0.1697091922470312,-0.9267775017122992
1.76,1.199257845993386,0.152543989047082,1.9859247559120088,0.0326321620323759,0.0740642866798423,0.03349638121029,-0.7659760837948406,0.0420361195592734,-0.5185471629047294,1.196860490104626,0.1478726266015378,1.986379815233897,-1.0539787643802014,-0.0017161906227593,-0.620502060543967,0.5829929369112182,-0.1854234502855045,-0.1873569405144156,0.5199964282701031,10.942886155426097,-0.9993944602346586,0.1672951808585944,-0.9230633378742892
1.78,1.183887243345118,0.153337272306098,1.975667871174427,0.0350292949006391,0.0711344884464956,0.0330980994826623,-0.7710129351906748,0.037529743059634,-0.5076841057470388,1.1761809148229825,0.1478834944458807,1.973943398461065,-1.0939787649762478,-0.0062353563025717,-0.6178645043487079,0.6396938954520971,-0.2518425697917104,-0.225318824981973,0.5431528578845268,10.932083386165688,-1.0032627221019348,0.1653232463676097,-0.9186791650817429
1.8,1.1684011653450337,0.1540348250884924,1.965626671996816,0.0369138551873435,0.0681513896833655,0.0326577076067418,-0.7774700350843474,0.0325122286750733,-0.4969780402298095,1.1453365965855842,0.1552137594590797,1.9502836658870752,-0.8710129366807909,0.0046130928835857,-0.5086695821682311,0.673590061712883,-0.3228549946836301,-0.2508757192280331,0.5353032758614651,10.926093260597554,-1.0071536088544977,0.1637119027840633,-0.9142682125021426
1.82,1.1527360761145946,0.1546610439156872,1.9558350836856708,0.0394441299766481,0.0667539286681542,0.0323191585203752,-0.7886654689581252,0.0298077225208094,-0.4825341205836926,1.1453365965855842,0.1552137594590797,1.9502836658870752,-0.8710129366807909,0.0046130928835857,-0.5086695821682311,0.923686781198126,-0.5597716936888875,-0.1352253077131937,0.7221959823058427,10.917091482903745,-1.0096623555390705,0.1618905041422059,-0.911217672394311
1.84,1.13765735408893,0.1551829305923371,1.9467940411337503,0.0426152705463657,0.0677535357024191,0.0321428879041403,-0.797765557246817,0.0250865025474187,-0.469892438831723,1.1453365965855842,0.1552137594590797,1.9502836658870752,-0.8710129366807909,0.0046130928835857,-0.5086695821682311,0.8138083963950157,-0.4550044144345899,-0.2360609986695367,0.6320840875984807,11.19355285679194,-1.0113030103505862,0.159468264216843,-0.9091617843942368
1.86,1.1216180336966597,0.1556183955501563,1.937519753541328,0.0459490245614985,0.0700508739897609,0.0320162696375562,-0.8055241633895344,0.0186586149373768,-0.4582752698747372,1.1366264672187762,0.1552598903879155,1.9451969700653928,-0.8910129369788141,-0.0019702371516238,-0.5088666774524696,0.7688828307686063,-0.3879303071358697,-0.321394380502097,0.5808584478492917,11.074606749893064,-1.0113108320577917,0.1569222932294371,-0.9090470789977064
1.88,1.105440503988875,0.1559142943402503,1.928457942444756,0.0489309265631847,0.0728125641883986,0.0318956532355243,-0.8117487229980986,0.0112941804947553,-0.4484771913487045,1.1192062084851604,0.1553521522455872,1.935023578422028,-0.9310129375748606,-0.0151368972220432,-0.5092608680209465,0.6873543114408717,-0.3112279804282136,-0.3682217221310717,0.4899039263016352,10.853367630679712,-1.010403716908692,0.1544650467800023,-0.9101122305044704
1.9,1.0891523074968708,0.1560562287622444,1.9195765171858576,0.0514468688760407,0.0754738107148631,0.0317468718311499,-0.8167274421300966,0.0033379644237933,-0.4401525181920867,1.1017859497515443,0.155444414103259,1.924850186778664,-0.9710129381709072,-0.0283035572924625,-0.5096550585894234,0.6272742652294752,-0.2489359565998994,-0.3978108035481025,0.4162336578308917,10.767099545214478,-1.0092341842512829,0.1523146115156013,-0.9115784894342934
1.92,1.0735956845825667,0.1560396564986402,1.9112819103825112,0.0533911463564504,0.0775632576169859,0.0315591212578924,-0.8205813062877669,-0.0046075208433058,-0.4333781783701891,1.0823656909881263,0.1548783429574097,1.9146570856068752,-1.0110129387669535,-0.0414702173628818,-0.5100492491579003,0.5564950249059117,-0.1926932078835153,-0.3972742633549594,0.3387169910948756,10.767099545214478,-1.008114754236903,0.1502923128376527,-0.9130722620575856
1.94,1.05714787925726,0.1558568229107829,1.902682620832569,0.055010265454504,0.0790771112883313,0.0313009576251934,-0.8240210429194944,-0.0132292105417457,-0.426937095406836,1.0629454322247085,0.1543122718115605,1.9044639844350864,-1.051012939363,-0.0546368774333011,-0.5104434397263772,0.5649178504274548,-0.1719868315863737,-0.4310844849219937,0.3220541481676581,10.699196495926117,-1.0075026696474487,0.1485507361920197,-0.9140326521185274
1.96,1.0406300198653309,0.1554937826827059,1.8942059392596649,0.0560544818304523,0.0799332637331046,0.0309713844208559,-0.8276283671864698,-0.0226042540580754,-0.4210724084122972,1.042525173446389,0.1534170341639507,1.8942610284990864,-1.0910129399590465,-0.0678035375037204,-0.5108376302948542,0.5815900249404583,-0.1803662133487704,-0.4687521758164854,0.2932343497269368,10.633161149305124,-1.0071560496062086,0.1470920357384127,-0.9148196854719992
1.98,1.0240374536890815,0.1549357187470344,1.885841653818781,0.0561890816349788,0.0803844839465741,0.0305605570816675,-0.8314724308749397,-0.0326034479202639,-0.4156408131204416,1.0211049146531683,0.1521926300145805,1.884048217798874,-1.1310129405550928,-0.0809701975741397,-0.5112318208633311,0.6005475229928741,-0.192203184423495,-0.4999596931094276,0.2715797645927831,10.633161149305124,-1.0071929947631544,0.1463444587638047,-0.915139646636252
2.0,1.0082009981869433,0.1542175261532556,1.877993055821231,0.0552559498771208,0.0806178997163928,0.0300911059548899,-0.8353400993341317,-0.0423528923507919,-0.4107896994969961,0.9824638321453344,0.1533055463510212,1.8650596131627588,-0.8460202734296878,-0.0590247992785584,-0.4194396467029919,0.577805826817623,-0.1933834229595976,-0.4874722215263968,0.242555681172274,10.614193264690584,-1.0074555168442307,0.1464601915633913,-0.9151259059391762
2.02,0.9913633473404831,0.153233596528147,1.86987348071251,0.052234766644327,0.0837267611384852,0.0296159569877736,-0.8477754270237111,-0.0548791073953972,-0.4011148892236102,0.9824638321453344,0.1533055463510212,1.8650596131627588,-0.8460202734296878,-0.0590247992785584,-0.4194396467029919,1.0064111882289113,-0.6217663844789723,-0.6263107522302667,0.4837405136692951,10.597765124697617,-1.0030847042039128,0.1476357122186586,-0.9204970485078032
2.04,0.9743177172052644,0.1520437239766295,1.8619394205708808,0.047697003200827,0.0914302918656848,0.0292638124866855,-0.8555344396212871,-0.0631521513323305,-0.3928981575774715,0.9824638321453344,0.1533055463510212,1.8650596131627588,-0.8460202734296878,-0.0590247992785584,-0.4194396467029919,0.7002860333756981,-0.3879506298787971,-0.4136521968466647,0.4108365823069337,10.97708768942448,-0.9988919757138948,0.1516714381057782,-0.9241146004092796
2.06,0.9571657847944924,0.150719716467593,1.8541461913686208,0.0431221609048379,0.1013329342949595,0.0289847258397272,-0.8588068271172158,-0.06877505062944,-0.3868366744109284,0.9740036294110376,0.1527152983582356,1.860865216695729,-0.8489298419406374,-0.0643090695502173,-0.4201994134195019,0.4445983991402536,-0.1636193747964365,-0.2811449648554752,0.3030741583271545,10.6456846782703,-0.991654669046936,0.1552933710496487,-0.9311436231054588
2.08,0.940845681748538,0.1493749582887993,1.8468368868601168,0.0392281720824339,0.1115586005759604,0.0287547841828211,-0.8585976059367965,-0.0725514885136783,-0.3828892250372865,0.9570832239424438,0.1515348023726644,1.852476423761669,-0.8547489789625367,-0.0748776100935351,-0.421718946852522,0.2733478239958784,0.0104610590209663,-0.1888218942119164,0.1973724686820971,10.6456846782703,-0.98245040275906,0.1587388624796749,-0.9400506996362894
2.1,0.9237022137746428,0.1478933609275588,1.839208395749868,0.0357725024681632,0.1224812054697948,0.0285340586385845,-0.8554263593973016,-0.075456768157028,-0.3802624351240533,0.94016281847385,0.1503543063870932,1.8440876308276093,-0.8605681159844358,-0.0854461506368529,-0.4232384802855422,0.2519795610192613,0.1585623269747427,-0.1452639821674831,0.1313394956616614,10.53627301135657,-0.9721670356441642,0.1614559097588755,-0.9501156038578096
2.12,0.9066503320875344,0.1463623150409585,1.83161719373746,0.0330135855021195,0.1331801594305156,0.0283306433417806,-0.8496274081155202,-0.0775773916022857,-0.379076214274012,0.9229514561541614,0.1486453833743562,1.8356228612218983,-0.866387253006335,-0.0960146911801707,-0.4247580137185623,0.3143723893335891,0.2899475640890714,-0.1060311722628867,0.0593110425020637,10.391799288453512,-0.9613630851515268,0.1634734152203595,-0.960666352412672
2.14,0.8897398920548931,0.1447947972491878,1.82403913700872,0.0309241711800875,0.1434517793447627,0.0281445823470235,-0.8414391233036281,-0.0791575832089196,-0.3788543870427486,0.9057400938344726,0.1469364603616191,1.827158091616188,-0.8722063900282343,-0.1065832317234885,-0.4262775471515824,0.4171157543022915,0.4094142405946022,-0.0790095803316903,0.0110913615631702,10.358907902993453,-0.951000392974684,0.1648113810456555,-0.9706900064713976
2.16,0.8738476366113335,0.1432792967756379,1.8168371425602292,0.0294916653038501,0.1527249063714418,0.0279839472462176,-0.8316236353660539,-0.0803557491655034,-0.3792982180320055,0.8883832530892365,0.1449633238352991,1.8186553336746516,-0.8780255270501335,-0.1171517722668063,-0.4277970805846025,0.4949151216602873,0.4907743968787126,-0.0599082978291906,-0.0221915494628438,10.341889259104391,-0.940137302405563,0.1656858124307608,-0.9810733864738068
2.18,0.8573412830633853,0.1416632482606976,1.809242070367078,0.0285540863171533,0.1619388948904969,0.0278365989117219,-0.8192987914077378,-0.0812040876010273,-0.3802343947825646,0.8708809339184529,0.1427259737953961,1.8101145873972893,-0.8838446640720328,-0.1277203128101241,-0.4293166140176226,0.6194713141185716,0.6162421979158061,-0.0424169217761949,-0.0468088375279562,10.341889259104391,-0.9294064243049192,0.166036675610627,-0.9911838290778044
2.2,0.8411015850881832,0.1400344011118889,1.8016238490156649,0.0283192262335446,0.1705867471439735,0.0277259763829322,-0.8050763099339495,-0.0816755489481369,-0.3815865156188406,0.8163763434929984,0.1376030438806462,1.7902303506279498,-0.7817486326090431,-0.0973724938342188,-0.3534507459042286,0.7147193257320666,0.711124073689412,-0.0235730673554805,-0.067606041813803,10.335642449657826,-0.9193987525141152,0.1657860223733272,-1.0005011735152494
2.22,0.8251714963846216,0.1383541044311965,1.794002677352467,0.0275008308012919,0.178670203528013,0.0275650853472821,-0.7884267655042687,-0.0860351775818836,-0.3803442559629383,0.8163763434929984,0.1376030438806462,1.7902303506279498,-0.7817486326090431,-0.0973724938342188,-0.3534507459042286,0.8627816939886681,0.8324772214840404,-0.217981431687337,0.0621129827951177,10.333200987623968,-0.9101624067430758,0.1659152980817175,-1.0090282105820536
2.24,0.8103645264691959,0.1366927043695275,1.786797390604291,0.0255254247643882,0.1858364773637342,0.0273125460212858,-0.7708828384211074,-0.0884708912485245,-0.3782170586611158,0.8163763434929984,0.1376030438806462,1.7902303506279498,-0.7817486326090431,-0.0973724938342188,-0.3534507459042286,0.8919740003582272,0.8771963541580663,-0.1217856833320436,0.106359865091124,10.587689546308866,-0.9004598258194304,0.1675155405709276,-1.0172666466162874
2.26,0.7951561298822154,0.1349142318197692,1.7792661911963898,0.0231531864657741,0.1928677522217153,0.0270073888011608,-0.7506983549636674,-0.0891853885960244,-0.3749945780164304,0.8085588571669079,0.136629318942304,1.7866958431689075,-0.7742386008493042,-0.100606175080857,-0.3480940161285614,1.0226292832798989,1.0092241728719975,-0.0357248673749976,0.1611240322342721,10.587689546308866,-0.891383304450208,0.1696148261552776,-1.0245568037126154
2.28,0.7803691514262355,0.1331343719386489,1.7718096072396952,0.0210817900876161,0.1994031019370126,0.026707616123694,-0.7288395946727781,-0.0888124669709777,-0.3708130450388765,0.7929238845147271,0.1346818690656196,1.779626828250823,-0.7592185373298264,-0.1070735375741337,-0.3373805565772271,1.1129124965999757,1.0929380145444645,0.018646081252336,0.2090766488776929,10.667469921308111,-0.882915539053735,0.1716966548221651,-1.0309580638724154
2.3000000000000003,0.7660362772468624,0.1313701346750929,1.76444706610909,0.0195583635951465,0.2054736081793193,0.0264360587515818,-0.705393031718596,-0.0877284142060456,-0.36569345958748,0.7772889118625462,0.1327344191889353,1.7725578133327384,-0.7441984738103485,-0.1135409000674102,-0.3266670970258927,1.201173009973723,1.1723281477091063,0.0542026382466039,0.2559792725698256,10.742059731568588,-0.8752500298455684,0.1733308841074361,-1.0365486628653455
2.32,0.7528684419049849,0.1297202157926578,1.7575551065428818,0.0187854025947663,0.2108385846757378,0.0262209251405535,-0.6817463472539644,-0.0860895265790422,-0.360065346886105,0.7624049423863393,0.1304636011875871,1.7660244713922206,-0.7291784102908707,-0.1200082625606868,-0.3159536374745583,1.218120777471565,1.1823342232315792,0.081944381350172,0.2814056350687488,10.877738339284406,-0.8675119876307873,0.1745721247548796,-1.0419572281644105
2.34,0.7395141676158825,0.1280215270629321,1.7504236875179386,0.0188925895899095,0.2158669600497386,0.0260551806973021,-0.6548156603804185,-0.0839385238489109,-0.3533532350708291,0.7475209729101322,0.1281927831862389,1.7594911294517026,-0.7141583467713928,-0.1264756250539634,-0.3052401779232239,1.3918882437598734,1.346534343677297,0.1075501365065664,0.3356055907637933,10.877738339284406,-0.8607396344438816,0.1751043698191472,-1.0464307290630777
2.36,0.7267248837581329,0.1263661759198488,1.7434346529975262,0.0200698523659072,0.2196683447889237,0.0259525224772034,-0.6254499705209255,-0.0817998424849788,-0.3458579707460122,0.7330125050219123,0.1257602811225587,1.7532256239999682,-0.699138283251915,-0.1329429875472401,-0.2945267183718895,1.5191253126381898,1.4682844929746477,0.1069340681966055,0.3747632162408476,10.947958872332492,-0.8555221343537318,0.1745370482920782,-1.0498466719192487
2.38,0.7145437542937688,0.1247496702389456,1.7366062355510978,0.0223155266203358,0.2215844652773317,0.0258980640100032,-0.5943446071230148,-0.0801279210916634,-0.3373539179967864,0.7188795387216792,0.1231660949965467,1.7472279550370169,-0.6841182197324371,-0.1394103500405167,-0.2838132588205552,1.6145106583908977,1.555268169895535,0.0835960696657686,0.4252026374612916,11.016548720589526,-0.8521700746122992,0.1730833857754766,-1.0518414894481662
2.4,0.7035593664367964,0.1232287208034984,1.7302873001410832,0.025035992367941,0.2213218361431797,0.0258466180831747,-0.5636113070527837,-0.0802274029828267,-0.3282129139877241,0.6848265239376181,0.1207432741843624,1.7197385396512586,-0.5914744115777587,-0.0838357502560045,-0.2899408668683989,1.6032027196733651,1.536665003511556,-0.0049740945581647,0.4570502004531129,11.090724058439264,-0.8514466115620838,0.171017257927799,-1.0516882647549883
2.42,0.6926683108841921,0.1215547684694809,1.7237299430542112,0.0259252395923397,0.2166396326821441,0.0255423897991645,-0.527293798590005,-0.0868935117602928,-0.3289548043804495,0.6848265239376181,0.1207432741843624,1.7197385396512586,-0.5914744115777587,-0.0838357502560045,-0.2899408668683989,1.8465838923075168,1.8158754231389351,-0.3333054388733054,-0.0370945196362715,11.170010527235718,-0.8566383692106436,0.1714292260854415,-1.045801219491402
2.44,0.682476612819061,0.1197623847118889,1.717167895222171,0.0234122845522973,0.205765686430555,0.024862047194081,-0.4945718174417969,-0.0917196094931533,-0.3267746738665768,0.6848265239376181,0.1207432741843624,1.7197385396512586,-0.5914744115777587,-0.0838357502560045,-0.2899408668683989,1.657386676856312,1.6360990574104033,-0.2413048866430234,0.1090065256936362,10.503270684678682,-0.8614070886706954,0.1724750015538003,-1.0423025352700228
2.46,0.6728842920576608,0.1179066569237128,1.7107113274578527,0.0191319890292057,0.1910471655338161,0.0240363341564828,-0.4671120730793416,-0.0931821879538148,-0.3188768593540363,0.6789117798218405,0.1199049166818024,1.7168391309825746,-0.5909003724687075,-0.0845773160888727,-0.2804582566427214,1.4305175377109898,1.3729872181227676,-0.0731289230330771,0.3948907256270256,10.740937835868865,-0.8711526346503004,0.1758567775868649,-1.0337777344562868
2.48,0.6642255324091796,0.116145751764546,1.7047678627537932,0.0149953459570598,0.1753326063199398,0.0233024963450608,-0.4462798071846243,-0.0921136000041076,-0.3070691218163326,0.6670822915902853,0.1182282016766823,1.7110403136452066,-0.589752294250605,-0.0860604477546091,-0.2614930361913664,1.1984863873588183,1.041613294735863,0.0534293974853626,0.590386876885185,10.997907521826164,-0.885580774971026,0.1804088056416385,-1.019862259581823
2.5,0.6554813066069405,0.1143287579445452,1.698789019180846,0.011187974445532,0.1584796358001225,0.0226569012805514,-0.4297695426044143,-0.0896904871822467,-0.2912510539067132,0.6552528033587302,0.1165514866715622,1.7052414963078386,-0.5886042160325026,-0.0875435794203456,-0.2425278157400114,1.1496429713712588,0.8255132290104994,0.121155641093041,0.7909033954809713,11.21446441532953,-0.901765432481561,0.1849555831669711,-1.0034315390634698
2.52,0.6470119897722011,0.1125696456325836,1.6931549520428508,0.0081289365453937,0.1424748374431607,0.0221545745662049,-0.4183962777807047,-0.0864346048017389,-0.2728195631856942,0.6434807190380801,0.1148006150831553,1.7003909399930384,-0.5874561378144001,-0.089026711086082,-0.2235625952886565,1.0950705148812805,0.5686632411854825,0.1627941190253938,0.921574536050948,11.510839649901754,-0.918524166872674,0.189206623746911,-0.9855517999652188
2.54,0.6387194977589613,0.1108819383251495,1.6879055116457002,0.005854522413443,0.1282079349342488,0.021783550819516,-0.4116349377985433,-0.0826659614540503,-0.253015670969928,0.6317086347174301,0.1130497434947484,1.695540383678238,-0.5863080595962976,-0.0905098427518184,-0.2045973748373015,1.0631469065116748,0.3380669991080692,0.1884321673844266,0.9901946107883114,11.510839649901754,-0.9336500725027151,0.1928145195871854,-0.9685850677162194
2.56,0.630929776656768,0.1093517183216394,1.6832924030853218,0.0043629782274624,0.1167621215880443,0.0215315611269263,-0.4087476807875652,-0.0787117305594456,-0.2335380823895773,0.6199652523522325,0.1112617936146981,1.6911639578747215,-0.5851599813781952,-0.0919929744175549,-0.1856321543859465,1.0041770908568566,0.1443628505489069,0.1977115447302363,0.9738794290175335,11.562828578345943,-0.9480261553535664,0.1961725053267144,-0.9515895155809124
2.58,0.6227607455958117,0.1078257352927875,1.6788417504518032,0.0035376256748745,0.1071777117846098,0.0213580782709798,-0.4084068318243073,-0.0741393423317947,-0.2125114126663413,0.6082505719424877,0.1094367654430043,1.6872616625824892,-0.5840119031600928,-0.0934761060832913,-0.1666669339345915,1.0760387443886057,0.0170424481628933,0.2286194113825447,1.0513334861617984,11.60427185122353,-0.960415465229688,0.1991090049635329,-0.9359655444170945
2.6,0.6145715987054364,0.1063955774562467,1.67481386261764,0.0036454531750069,0.100330869230385,0.0212769108988042,-0.4106840455666484,-0.0691799746189397,-0.1913101659167977,0.6023404040045963,0.1041187681761978,1.668216179818486,-0.439476406701927,-0.078194336188493,-0.171055331693193,1.0946162504214083,-0.1138606871170538,0.2479683856427522,1.06006233747718,11.60427185122353,-0.9693548452204838,0.2012295695182786,-0.9237496721865732
2.62,0.6063165364395097,0.1050653434511637,1.671086511824611,0.0048138344009893,0.0962392088595759,0.0212882715230184,-0.4147770823982748,-0.0641839853691802,-0.1831319727459431,0.6023404040045963,0.1041187681761978,1.668216179818486,-0.439476406701927,-0.078194336188493,-0.171055331693193,0.5210463094307836,-0.2046518415813214,0.2497994624879727,0.4089096585427318,10.70815502795176,-0.9727534877816972,0.2023621411698684,-0.9174654699125488
2.64,0.5983916344536574,0.103891757296782,1.6676858405854753,0.0069534961168493,0.0945934199656599,0.0213858526388113,-0.4190138851780247,-0.0597459923143565,-0.1751526977241246,0.6023404040045963,0.1041187681761978,1.668216179818486,-0.439476406701927,-0.078194336188493,-0.171055331693193,0.5032770360918912,-0.2118401389874957,0.2218996527411837,0.3989637510909222,10.79873459018836,-0.9775929729012132,0.2016538687880117,-0.9113096457419037
