t,x,y,z,roll,pitch,yaw,v_x,v_y,v_z,ref_x,ref_y,ref_z,ref_v_x,ref_v_y,ref_v_z,a_com,a_x,a_y,a_z,thrust,wind_x,wind_y,wind_z
0.0,-1.7908889574858915,-2.018803384940728,2.8152136320201437,0.0296688760896553,0.0995858831574412,0.0421510312292063,0.0007963516001469,0.0075614622577462,-0.0007305686469202,-1.7908656088246588,-2.0185432956603617,2.8151929347377087,0.1007817441037043,0.1083895855716349,-0.1007000048444518,0.3819149705570631,0.0398175800073489,0.3780731128873138,-0.0365284323460128,10.254614853763089,-0.940488579796565,0.2540799831663264,-0.8784955139460059
0.02,-1.7909555629278455,-2.0189604940349724,2.815088197558959,0.0220967800269624,0.1024300595348727,0.0416993023424828,-0.0072689022186436,-0.0185814826936122,-0.0121485984765516,-1.7908656088246588,-2.0185432956603617,2.8151929347377087,0.1007817441037043,0.1083895855716349,-0.1007000048444518,1.482289862916186,-0.4032626909395336,-1.3071472475679282,-0.5709014914815701,10.254614853763089,-0.9276367446421092,0.2548482127672181,-0.8955388644771026
0.04,-1.7911533916212694,-2.019354775317795,2.8146641813061253,0.0064612857100341,0.1092192349692227,0.040722411730402,-0.0126459107097763,-0.0207137957095522,-0.0318718224349362,-1.7908656088246588,-2.0185432956603617,2.8151929347377087,0.1007817441037043,0.1083895855716349,-0.1007000048444518,1.0276971129961603,-0.2688504245566324,-0.1066156507969994,-0.9861611979192316,9.671933596983765,-0.9192596172611996,0.2656313754723025,-0.9038083093822298
0.06,-1.7914313096011267,-2.0197129785939736,2.8137955388847558,-0.0108817293680729,0.1184586448554051,0.0395266343424434,-0.0144510676137393,-0.0145514637772926,-0.0540304196166353,-1.7898577913836218,-2.017459399804645,2.8141859346892644,0.1207817444017275,0.1283895858696581,-0.120700005142475,1.1535124136220565,-0.0902578451981486,0.3081165966129793,-1.1079298590849531,9.11910391875881,-0.9057753170171972,0.2752669826914924,-0.9196262634722412
0.08,-1.7917085977193494,-2.019901270382101,2.8124830257387816,-0.0276779219482763,0.1285524921620154,0.0382109567383716,-0.0128513563859391,-0.0042131984192546,-0.0761510452165943,-1.7878421565015477,-2.0152916080932126,2.8121719345923752,0.160781744997774,0.1683895864657046,-0.1607000057385214,1.223479549848626,0.0799855613900098,0.5169132679019018,-1.1060312799979477,9.072666020536872,-0.8912945497144487,0.2850610887973674,-0.9350242754521404
0.1,-1.7919141983084608,-2.0198570093408112,2.810831095409057,-0.0429241936930709,0.1382699664313562,0.0368674045256926,-0.00862556588678,0.008659895543107,-0.0967060376130883,-1.7858265216194735,-2.01312381638178,2.810157934495486,0.2007817455938205,0.208389587061751,-0.2007000063345679,1.2309361944537434,0.211289524957952,0.6436546981180873,-1.0277496198247027,9.10902275483204,-0.8749949008815889,0.2957736385984981,-0.9509848884064812
0.12,-1.7920183253611233,-2.0195107163632,2.808671976451858,-0.0580697896456453,0.1482640615631857,0.0353890815125615,-0.0017464129653969,0.0255501896722343,-0.1181714530029909,-1.7818108867075972,-2.008956024640545,2.806143934368795,0.2407817461898669,0.2483895876577974,-0.2407000069306143,1.4083401919860068,0.3439576460691552,0.8445147064563622,-1.073270769495132,9.166435550470853,-0.8581873694324711,0.3068923634478018,-0.9658918069190366
0.14,-1.7919619300131269,-2.0187748212265304,2.8060834289889915,-0.0715161741427,0.1578315885343552,0.0339323123543708,0.0072930615779736,0.0469206680850087,-0.1396794636202064,-1.7777952517957207,-2.00478823289931,2.8021299342421035,0.2807817467859134,0.288389588253844,-0.2807000075266608,1.5819323376185797,0.4519737271685332,1.0685239206387191,-1.0754005308607713,9.256759677329685,-0.84207482599176,0.3171396725305109,-0.9789610364334944
0.16,-1.79172204254251,-2.017644190908454,2.8032242042827207,-0.0819914611175854,0.1664540339276565,0.0326549871037453,0.0177228084216614,0.0704892536260843,-0.1602490538689768,-1.7727796168689431,-1.999620441143174,2.797115934100511,0.3207817473819598,0.3283895888498904,-0.3207000081227072,1.648761570567989,0.5214873421843899,1.1784292770537832,-1.0284795124385224,9.256759677329685,-0.8249844780517357,0.3265941996549515,-0.992202531477186
0.18,-1.7912362200271463,-2.015955669331911,2.7997894765194657,-0.090517966755536,0.1750174223730399,0.0314647670269903,0.0305397672030577,0.0967707009929939,-0.1821644306217938,-1.7667639819272645,-1.9934526493721365,2.791101933944017,0.3607817479780063,0.3683895894459368,-0.3607000087187537,1.827069132737973,0.6408479390698121,1.3140723683454758,-1.095768837640848,9.295756491907923,-0.8077862655702427,0.3342913227120647,-1.0052803387255602
0.2,-1.7904747750089915,-2.0137277997683625,2.795917313077021,-0.0966469242270793,0.1830577933052568,0.0304516096186227,0.0451803352534951,0.1243049012391439,-0.2039463646626291,-1.7897092316669934,-2.0111171342822614,2.790681254988376,0.1305397686931738,0.19677070248311,-0.2821644321119099,1.901927355732781,0.7320284025218683,1.376710012307502,-1.089096702041764,9.321227480470045,-0.7931537501927876,0.3400297471370329,-1.015871581544992
0.22,-1.7893690454705884,-2.010779601271515,2.7918016392372342,-0.0960003522313306,0.1905231854547842,0.0299642809068002,0.0649575784481519,0.1664617916941669,-0.2063064847338116,-1.7897092316669934,-2.0111171342822614,2.790681254988376,0.1305397686931738,0.19677070248311,-0.2821644321119099,2.331261958665204,0.9888621597328444,2.107844522751149,-0.1180060035591276,10.620788284676564,-0.7838332759740646,0.3406880299386887,-1.0221949996916595
0.24,-1.7879351284156253,-2.007301462069818,2.7878494589690286,-0.0893715372665945,0.197078951579093,0.0300180879961432,0.0851822655719803,0.1963895880998248,-0.209559072476864,-1.7897092316669934,-2.0111171342822614,2.790681254988376,0.1305397686931738,0.19677070248311,-0.2821644321119099,1.8133465567711475,1.011234356191417,1.4963898202828938,-0.1626293871526171,10.620788284676564,-0.7733554872034375,0.3394690571212494,-1.02461119477164
0.26,-1.78599982573472,-2.003107156519245,2.783594991024458,-0.0808624782716208,0.2034955681640091,0.0302884882839629,0.1074225000552336,0.2211351953949845,-0.215864839632054,-1.7884038339800616,-2.00914942725743,2.787859610667257,0.150539768991197,0.2167707027811332,-0.3021644324099332,1.6931743927397358,1.1120117241626668,1.2372803647579893,-0.3152883577595008,10.416598447614888,-0.7636678650381308,0.3362224482801664,-1.0275989581094325
0.28,-1.7836111532351715,-1.998459893235701,2.779183860176793,-0.072577043903239,0.2094809680072585,0.0306402737855639,0.1304535314014455,0.2422595442768079,-0.2250683869918375,-1.7857930386061982,-2.0052140132077683,2.7822163220250187,0.1905397695872435,0.2567707033771796,-0.3421644330059796,1.6289350850747282,1.1515515673105956,1.0562174440911676,-0.4601773679891743,10.214766891582258,-0.7558183863923642,0.3324940048054813,-1.030477447240759
0.3,-1.780908593346871,-1.9936782630860717,2.7747965291726664,-0.0655381060343676,0.21481196267209,0.030992255984489,0.152991014409818,0.2601139861635585,-0.2363158845876382,-1.7831822432323348,-2.001278599158106,2.7765730333827805,0.2305397701832899,0.2967707039732261,-0.382164433602026,1.5437174592583125,1.1268741504186246,0.8927220943375294,-0.5623748797900369,10.049400133770176,-0.7472145781725479,0.3285907851438474,-1.034735401623618
0.32,-1.7775933681932583,-1.9882951407683245,2.769926664615867,-0.0591909822982265,0.2200818032466782,0.0313551985594907,0.1774481832539584,0.2773371719608609,-0.2501939962060853,-1.778571447828669,-1.9953431850786412,2.76892974471074,0.2705397707793364,0.3367707045692725,-0.4221644341980725,1.6487822923094384,1.2228584422070186,0.861159289865121,-0.6939055809223549,9.91481864364141,-0.7393868007238595,0.3251416393827331,-1.0388433322285204
0.34,-1.7737761917368708,-1.9825786547466528,2.7647681531023696,-0.0539326550174658,0.2249169210468972,0.0317049514677927,0.2031373476127949,0.2935488937034715,-0.2650080880353682,-1.7739606524250031,-1.9894077709991769,2.7612864560387,0.3105397713753829,0.3767707051653191,-0.462164434794119,1.6898301719711162,1.2844582179418265,0.810586087130527,-0.7407045914641419,9.773669610995968,-0.7323591498841926,0.3222984770310333,-1.0425912103627226
0.36,-1.7694239236140532,-1.9765372141299344,2.75930597045768,-0.0493891381301402,0.2288385680739694,0.0320831735299527,0.2308254162047297,0.3097428556809651,-0.2804884308383956,-1.7683498570064362,-1.9824723569048115,2.7526431673517577,0.3505397719714293,0.4167707057613655,-0.5021644353901654,1.7808106020710313,1.384403429596738,0.809698098874681,-0.7740171401513701,9.773669610995968,-0.7268591138701769,0.3202239593254513,-1.0450949656011237
0.38,-1.7647617847215886,-1.9705015173269895,2.7538249167428326,-0.045395389054657,0.2311351166441697,0.0325105162222371,0.2583992832140054,0.3247141230445429,-0.2956673264514134,-1.7617390615729682,-1.9745369427955444,2.742999878649915,0.3905397725674757,0.4567707063574119,-0.5421644359862118,1.7427391230099851,1.378693350463786,0.7485633681788895,-0.7589447806508914,9.75638614390664,-0.7231611306401008,0.3188583120457215,-1.045458322875712
0.4,-1.759284175790948,-1.9638479471836547,2.747738265799619,-0.0414294520759332,0.2318381841664133,0.0330340079689974,0.2878264509043749,0.3397788819569413,-0.3122068528935267,-1.7518418205608883,-1.9542658111747624,2.739041550420262,0.3583992847041216,0.424714124534659,-0.3956673279415295,1.848283727066259,1.471358384518473,0.7532379456199195,-0.8269763221056659,9.740594754957783,-0.7214160922168269,0.3175362000145546,-1.0446969807544535
0.42,-1.753138200622463,-1.9568896044262287,2.741568006227241,-0.037708555012019,0.2300975097732387,0.0336440396360137,0.3255519655540939,0.3553107934923508,-0.3026017402213351,-1.7518418205608883,-1.9542658111747624,2.739041550420262,0.3583992847041216,0.424714124534659,-0.3956673279415295,2.095657964086365,1.886275732485948,0.776595576770478,0.4802556336095803,11.458552500507722,-0.7187515282034693,0.3119266298119583,-1.0511686769482265
0.44,-1.7466034766809715,-1.9500078639244844,2.735892954322576,-0.0347599073723922,0.2254999538861242,0.0342867079849845,0.3599987182597773,0.368509241384835,-0.2953002005719076,-1.7518418205608883,-1.9542658111747624,2.739041550420262,0.3583992847041216,0.424714124534659,-0.3956673279415295,1.8802195882325088,1.7223376352841713,0.6599223946242072,0.3650769824713767,11.090036933160263,-0.7316834862361297,0.3196753942478834,-1.0280402141682408
0.46,-1.7390602086769342,-1.942496087741873,2.730024424023393,-0.0323738961936379,0.2182551579556042,0.0349847436979411,0.3920069129789856,0.3820495159255515,-0.2920620393551534,-1.7482578277138472,-1.950018669929416,2.7350848771408467,0.3783992850021448,0.4447141248326822,-0.4156673282395527,1.7452430001911072,1.6004097359604177,0.6770137270358245,0.1619080608377066,11.090036933160263,-0.7461549741725473,0.3266199914174785,-1.0056183914537136
0.48,-1.7309251975247877,-1.9347171397683072,2.72417565313129,-0.0305602493176884,0.2096202274513272,0.0356763798469113,0.4194780815682241,0.3952023675463335,-0.2930891111345011,-1.741089842019765,-1.941524387438723,2.7271715305820163,0.4183992855981912,0.4847141254287287,-0.4556673288355992,1.5237433230834845,1.3735584294619212,0.6576425810391001,-0.0513535889673816,10.443744120078918,-0.7604946180322514,0.3316403355069496,-0.9862845292202208
0.5,-1.7222875033609284,-1.9266810250119824,2.7182619253957,-0.0292951799038862,0.2005338851002397,0.0363359259130656,0.4426432387140906,0.4077966938744408,-0.2981413356350482,-1.7339218563256822,-1.9330301049480296,2.719258184023185,0.4583992861942377,0.5247141260247752,-0.4956673294316456,1.3423547720847469,1.1582578572933266,0.6297163164053654,-0.2526112250273576,10.443744120078918,-0.7727143878127779,0.3356016063012269,-0.9703728701290076
0.52,-1.7136895976973894,-1.9188187432848012,2.712518548863635,-0.0286895499008081,0.1921967315742436,0.0369110822991405,0.4610911243070847,0.4192352045793698,-0.3061252446997114,-1.7247538706017973,-1.9225358224275344,2.709344837434553,0.4983992867902841,0.5647141266208217,-0.5356673300276921,1.15640262663117,0.9223942796497075,0.5719255352464508,-0.3991954532331587,10.183975283706786,-0.7836095042313939,0.3390353442005358,-0.9565509066883342
0.54,-1.7042917567867608,-1.910312737739608,2.706290074526967,-0.0288450641140002,0.1843193739693263,0.0374421728131729,0.4775645604025839,0.4308199436258925,-0.316366766533068,-1.7155858848779126,-1.9120415399070383,2.69943149084592,0.5383992873863306,0.6047141272168681,-0.5756673306237385,1.1296781013098856,0.8236718047749586,0.579236952326137,-0.5120760916678291,9.961774722789414,-0.7920388968704678,0.3419348335835677,-0.9460375439669856
0.56,-1.6945854546711168,-1.90156536667643,2.6998370162968097,-0.0295977890089735,0.1776020664609923,0.0379128378738759,0.4921797174158022,0.4433004090722459,-0.3283950874648526,-1.705417899139127,-1.900547257371642,2.6885181442423858,0.5783992879823769,0.6447141278129145,-0.6156673312197849,1.1336283966942722,0.7307578506609125,0.624023272317667,-0.6014160465892315,9.833732358382804,-0.7988510052061953,0.3445026303229474,-0.9376716791201828
0.58,-1.6851092461468191,-1.893016150143384,2.693469552886252,-0.0304097643818856,0.1722567827750385,0.0383382887011751,0.5045045453763815,0.4559141548111953,-0.3412416160611288,-1.6942499133854396,-1.888052974821344,2.67660479762395,0.6183992885784234,0.684714128408961,-0.6556673318158314,1.0909184923720052,0.6162413980289633,0.6306872869474733,-0.6423264298138082,9.634120684651862,-0.8042843723333223,0.3469246179777828,-0.9307411494170628
0.6,-1.674898320232802,-1.8837528469480036,2.686488704310582,-0.0310283293804434,0.1678740085414142,0.0387794630526188,0.5158196642292701,0.4697012847996662,-0.3562260532963021,-1.6598840188780002,-1.870220442402824,2.6764074720831954,0.6045045468664976,0.5559141563013115,-0.4412416175512449,1.1647427046657528,0.5657559426444303,0.6893564994235435,-0.7492218617586671,9.634120684651862,-0.8078897483025245,0.3487356788636476,-0.9259777339325456
0.62,-1.664436899683225,-1.8741432586110085,2.6795224554732804,-0.0293513579519316,0.165502174606896,0.0393271253981577,0.5299184441755577,0.4901173550238972,-0.3378931372697192,-1.6598840188780002,-1.870220442402824,2.6764074720831954,0.6045045468664976,0.5559141563013115,-0.4412416175512449,1.5424714984500618,0.7049389973143805,1.0208035112115488,0.916645801329144,9.54231166257432,-0.8062400571124854,0.3469412463668399,-0.9288576810801566
0.64,-1.6537020278541523,-1.8641649153401665,2.6729227365584154,-0.0248265643314997,0.1659234762940019,0.0399916515165458,0.5432506509985582,0.5060080838218015,-0.323160073016986,-1.6598840188780002,-1.870220442402824,2.6764074720831954,0.6045045468664976,0.5559141563013115,-0.4412416175512449,1.2721302830046273,0.6666103411500257,0.7945364398952159,0.7366532126366621,11.768143054489885,-0.8138224580340125,0.3508776874138526,-0.9132367229412736
0.66,-1.643248840157118,-1.8544322106454607,2.6668558745961954,-0.0201076577837261,0.1681758815921619,0.0406119446053519,0.5566357702988884,0.5176486075463819,-0.316176874055024,-1.6538389734093353,-1.8646613008398107,2.671995055907683,0.6245045471645208,0.5759141565993346,-0.4612416178492681,0.9531897489599584,0.6692559650165131,0.5820261862290177,0.3491599480981017,11.222647722384863,-0.8183348181570305,0.3521413609025851,-0.9037512548303528
0.68,-1.6319612520143594,-1.843970562152176,2.660554814569747,-0.0156202287253842,0.1716115399850576,0.0412235946100703,0.5715578563633206,0.5279538797051545,-0.3145546051984223,-1.6417488824720052,-1.8535430177137848,2.663170223556658,0.6645045477605672,0.6159141571953811,-0.5012416184453146,0.910355758788554,0.7461043032216064,0.5152636079386319,0.081113442830083,10.750512358510605,-0.8196641934658954,0.3523797358928199,-0.8990912247639199
0.7000000000000001,-1.6203660380167677,-1.8333151949289224,2.6542284893454937,-0.0119433183571274,0.1754640375381173,0.0417880256865645,0.587337642578473,0.5372326906839401,-0.3181440809332455,-1.6296587915346754,-1.8424247345877585,2.654345391205633,0.7045045483566137,0.6559141577914276,-0.541241619041361,0.9327142143052582,0.7889893107576207,0.4639405489392789,-0.1794737867411577,10.395760060592693,-0.8190301810624542,0.352258893024127,-0.8975065650178078
0.72,-1.6090505001940034,-1.8230265771952536,2.6481147971427887,-0.0091999722801794,0.1790453461245838,0.0422860801646313,0.6030385240296213,0.545476174634357,-0.3252237373810263,-1.6155687005675432,-1.82930645143193,2.6435205588248056,0.7445045489526602,0.6959141583874741,-0.5812416196374075,0.9547175516905516,0.785044072557417,0.4121741975208481,-0.3539828223890401,10.119570478838796,-0.8168993435456875,0.3518830946431639,-0.898079727953412
0.74,-1.596809606631935,-1.812031011523041,2.641515450484185,-0.007060992295632,0.1824624901329941,0.0427723072693041,0.620269708901772,0.553775211811982,-0.3344117534941322,-1.601478609600411,-1.8161881682761012,2.6326957264439783,0.7845045495487066,0.7359141589835205,-0.621241620233454,1.0609045554013448,0.8615592436075348,0.4149518588812462,-0.4594008056552967,9.910837173512846,-0.8140203765182439,0.3514024827414503,-0.90000844965255
0.76,-1.5842117535587077,-1.8008629096577558,2.6347176851662124,-0.0053606083413777,0.1851836243865646,0.043240993598036,0.6386522761071156,0.5625974330175151,-0.344953856088574,-1.5863885186183777,-1.802069885105372,2.62087089404825,0.824504550144753,0.7759141595795669,-0.6612416208295003,1.1477001907837994,0.9191283602671796,0.4411110602766555,-0.5271051297220886,9.82347521637348,-0.812007149072203,0.3510540122442364,-0.9013378126115544
0.78,-1.5712387793213047,-1.7895175387148776,2.627695410361493,-0.0037636691814089,0.1868233308769188,0.0437138495203026,0.6576605234693101,0.5714418625279333,-0.3567910056694007,-1.570298427621443,-1.786951601919741,2.6080460616376206,0.8645045507407995,0.8159141601756134,-0.7012416214255468,1.203801801944571,0.9504123681097264,0.4422214755209097,-0.5918574790413383,9.693202183044376,-0.8108348615258236,0.3508376498190959,-0.9018465741875924
0.8,-1.5585599908861945,-1.7785767700861002,2.620790788995657,-0.002227543065328,0.1871976389453984,0.0441715749172452,0.6758792773765,0.5797018377504919,-0.3694016684380127,-1.5383557531478391,-1.760945445588481,2.609855860078023,0.7576605249594263,0.6714418640180494,-0.4567910071595168,1.182348299013117,0.9109376953594928,0.4129987611279306,-0.6305331384306001,9.693202183044376,-0.8104418968165924,0.3504751970279339,-0.901770558690225
0.8200000000000001,-1.544756695863371,-1.7668587932257496,2.613596100072849,0.0004824769386262,0.1856800792929447,0.0447311051246347,0.703808619588391,0.5910351696210284,-0.3475790950682121,-1.5383557531478391,-1.760945445588481,2.609855860078023,0.7576605249594263,0.6714418640180494,-0.4567910071595168,1.8605894739013271,1.3964671105945514,0.5666665935268267,1.0911286684900294,9.619471781556058,-0.8028808163561286,0.3440147997257046,-0.9144789579043984
0.84,-1.5303990945382118,-1.7549555510206434,2.606836930448575,0.003854571855807,0.1814762824195164,0.0453209845178096,0.7302749440866426,0.5987234271115234,-0.3295535609009608,-1.5383557531478391,-1.760945445588481,2.609855860078023,0.7576605249594263,0.6714418640180494,-0.4567910071595168,1.6465839772857391,1.3233162249125796,0.3844128745247477,0.9012767083625668,11.417450675515283,-0.8160003925394078,0.349389215675111,-0.8943623861520149
0.86,-1.5155505716055282,-1.7429172734679266,2.60035414067902,0.0067296968293549,0.1749608576361679,0.0458451555199669,0.7527631553284192,0.6048596660991692,-0.3195192288651557,-1.5307791478982449,-1.7542310269483006,2.605287950006428,0.7776605252574494,0.6914418643160726,-0.4767910074575401,1.268917740806172,1.124410562088829,0.3068119493822907,0.5017166017902558,11.417450675515283,-0.8292962639613636,0.3540669403581785,-0.8749426318224199
0.88,-1.5010742738944536,-1.7313755769811607,2.594315851685961,0.0087514444274053,0.1676018611075321,0.046265697263431,0.7696478288564388,0.6099337055904741,-0.3165179443825991,-1.5156259373990564,-1.7408021896679395,2.596152129863237,0.8176605258534959,0.731441864912119,-0.5167910080535866,0.894211643645343,0.8442336764009795,0.2537019745652458,0.1500642241278299,10.884561142494931,-0.8421726286725257,0.358039468585787,-0.8569894703936204
0.9,-1.485534240992044,-1.7191284808188445,2.5879650105505005,0.0100267873770664,0.1596390115395414,0.0466321827072663,0.7831758600081286,0.6145819449610996,-0.3189505647115637,-1.500472726899868,-1.7273733523875785,2.587016309720047,0.8576605264495424,0.7714418655081655,-0.556791008649633,0.7254850063106301,0.6764015575844884,0.2324119685312764,-0.1216310164482314,10.081694661560505,-0.852790731238821,0.3609009110773972,-0.8427136529618936
0.92,-1.4697645737911444,-1.706796341985952,2.5815053678096973,0.0101317611421904,0.1522959987818991,0.0469188624040694,0.7930247801781399,0.6185686449429704,-0.3268426353762751,-1.483319516370877,-1.711944515077415,2.5758804895470546,0.8976605270455889,0.811441866104212,-0.5967910092456795,0.6617775015771987,0.4924460085005688,0.1993349990935367,-0.3946035332355713,10.081694661560505,-0.8610389288661101,0.3632232284844472,-0.8318328287867816
0.94,-1.4538276598951576,-1.6943881186520902,2.574858646761529,0.0088335603739557,0.1461780064412091,0.0471282889706642,0.8001037077303609,0.6222450688910319,-0.3374114380367607,-1.466166305841886,-1.696515677767252,2.564744669374062,0.9376605276416352,0.8514418667002585,-0.636791009841726,0.662055318707885,0.3539463776110474,0.1838211974030779,-0.5284401330242772,9.778651056336455,-0.8660584622688108,0.3651403517201207,-0.8252044363147767
0.96,-1.438574416849171,-1.682521382127986,2.5683297190758494,0.0064641418216343,0.1418866720146943,0.0472779928716142,0.8050859837142103,0.6268602286599841,-0.3493048941964556,-1.4480130952979942,-1.6800868404421874,2.5526088491861683,0.9776605282376816,0.8914418672963048,-0.6767910104377723,0.6847938979992113,0.2491137991924685,0.2307579884476107,-0.5946728079847446,9.629338470357652,-0.869349053576945,0.3671620372403467,-0.8209371735843254
0.98,-1.4224324694017296,-1.6699142630603026,2.561196446992648,0.0035631581550754,0.1392642407891914,0.0474379815449096,0.8087694371318102,0.6336962490548727,-0.3634733895760244,-1.4288598847392011,-1.6626580031022216,2.539473028983373,1.0176605288337282,0.9314418678923512,-0.7167910110338188,0.8078447642335462,0.1841726708799951,0.3418010197444254,-0.7084247689784384,9.518867005177526,-0.8706091431572129,0.3691440443914991,-0.8190678698985715
1.0,-1.406223970002921,-1.6571546630745526,2.553763217534442,0.000999364600236,0.1387583292524717,0.0476421742709691,0.8121745112327688,0.6418255267127186,-0.3791533304725599,-1.3819939975451392,-1.638229450607559,2.5430227775138463,0.9087694386219264,0.7336962505449888,-0.4634733910661405,0.8993612057875031,0.1702537050479347,0.4064638828922995,-0.7839970448267758,9.424412878802286,-0.8699594575404795,0.3701520943881574,-0.8202027308340852
1.02,-1.3906995723804274,-1.6448060625994678,2.5467685451414988,0.0013151532837879,0.1396272052590802,0.0480342780509616,0.8219713951154232,0.6565486716365824,-0.3563085146766515,-1.3819939975451392,-1.638229450607559,2.5430227775138463,0.9087694386219264,0.7336962505449888,-0.4634733910661405,1.4445029759473411,0.4898441941327158,0.7361572461931865,1.142240789795418,9.347117372831235,-0.8575205881366701,0.3628451014608597,-0.8415095925244247
1.04,-1.374155111906546,-1.6315481854706029,2.539844099854681,0.0051768665597937,0.1415039411186225,0.0486955435053829,0.8320535886737485,0.6678056366468268,-0.3378347667530468,-1.3819939975451392,-1.638229450607559,2.5430227775138463,0.9087694386219264,0.7336962505449888,-0.4634733910661405,1.19336630015085,0.5041096779162646,0.5628482505122212,0.923687396180234,11.257463861836186,-0.8645433703956779,0.3667103533300768,-0.8279894515106858
1.06,-1.3574081323548874,-1.618118081028492,2.5332006322212277,0.0101042923197286,0.1440860048105812,0.0494391496823902,0.8422287061459155,0.6745021335589394,-0.3277739550368085,-1.37290630315892,-1.6308924881021092,2.538388043603185,0.9287694389199496,0.753696250843012,-0.4834733913641637,0.78993040651682,0.508755873608352,0.3348248456056302,0.5030405858119175,11.257463861836186,-0.8688157732956843,0.3681813869800968,-0.819858485938491
1.08,-1.3404569637120298,-1.6045824963424344,2.5266764518046885,0.0145387557636481,0.1469648979530984,0.0501581786160883,0.8524794111080713,0.6788868628183514,-0.3251135814997125,-1.3547309143864814,-1.6162185630912094,2.529118575781862,0.968769439515996,0.7936962514390584,-0.5234733919602101,0.5731064261033703,0.5125352481077927,0.2192364629706011,0.1330186768547986,10.7366434517171,-0.8707686908294049,0.3683469485308994,-0.8158780013059044
1.1,-1.3241617922866256,-1.5916540830253016,2.5204741030387208,0.0178611698546558,0.1497257225684889,0.0507852331921582,0.8623476127148666,0.6820118384098552,-0.3278902568789374,-1.336555525614043,-1.6015446380803096,2.5198491079605394,1.0087694401120424,0.8336962520351049,-0.5634733925562566,0.5358563276696583,0.4934100803397623,0.156248779575191,-0.1388337689612467,10.331747436338446,-0.8696720996585552,0.3671524664502539,-0.8169826958596659
1.12,-1.3068056620773438,-1.577985867325998,2.513844480805096,0.0203503520519578,0.1525308001575825,0.0513770853765081,0.8727802143021005,0.6848377070329587,-0.3351187353418995,-1.316380136811802,-1.5848707130396074,2.508579640109414,1.0487694407080888,0.8736962526311514,-0.6034733931523031,0.650145388052747,0.5216300793616957,0.1412934311551705,-0.3614239231481048,10.02340142995945,-0.8675654725212857,0.3659878730186541,-0.8195386891740976
1.14,-1.289236764185347,-1.5642660540319488,2.507043769327385,0.0217682164516206,0.1551503052919423,0.0518920394065277,0.8836318136127986,0.6872061916912326,-0.3445801941724497,-1.296204748009561,-1.5681967879989054,2.497310172258289,1.088769441304135,0.9136962532271978,-0.6434733937483496,0.7295308944428244,0.5425799655349062,0.1184242329136997,-0.4730729415275081,9.782655577248988,-0.8646022556093116,0.364940391160134,-0.8232677795686096
1.16,-1.271440732649832,-1.550493664168406,2.500038771600329,0.0222824295342355,0.1573161329601746,0.0523335055642336,0.8954027463076123,0.6899664836991783,-0.3554507029115397,-1.275029359192419,-1.550522862943302,2.485040704392263,1.1287694419001817,0.9536962538232444,-0.6834733943443959,0.8129299304392636,0.5885466347406831,0.1380146003972848,-0.5435254369545006,9.687122259641,-0.8616743956812921,0.3642510044136559,-0.8269564632235656
1.18,-1.2543109879089622,-1.5373565439268286,2.4931696526619027,0.0221052251490289,0.1586721727577157,0.0526891562399699,0.9070740949538024,0.6927788847689338,-0.3670712910286193,-1.252853970360376,-1.5318489378727975,2.471771236511336,1.168769442496228,0.9936962544192908,-0.7234733949404424,0.8354161346073287,0.5835674323095119,0.1406200534877721,-0.5810294058539806,9.619200498797907,-0.859210568141632,0.3640813606451728,-0.8298986694595611
1.2,-1.2360401602706357,-1.523468079367969,2.4856856798494644,0.0212895024057108,0.1592704578827037,0.0529995238529899,0.9193241921683928,0.6959551069832172,-0.3807806029703838,-1.208957283161272,-1.502717599688382,2.474816088110472,1.0070740964439189,0.7927788862590499,-0.4670712925187354,0.9328699041640628,0.612504860729518,0.1588111107141687,-0.6854655970882223,9.471195098518365,-0.8574147863722832,0.3644036706683636,-0.8319133500872019
1.22,-1.2174462402016422,-1.5094586330288395,2.4782811500056185,0.0217963806458356,0.1583632513574855,0.0533672877007625,0.9397379839957984,0.7043750967253476,-0.3570604037053181,-1.208957283161272,-1.502717599688382,2.474816088110472,1.0070740964439189,0.7927788862590499,-0.4670712925187354,1.6203911388956789,1.0206895913702774,0.4209994871065214,1.1860099632532843,9.471195098518365,-0.8478082786922139,0.3588199900604911,-0.8468496375090957
1.24,-1.1994077682209792,-1.4960175493407326,2.4716873263085466,0.0243427631937096,0.1554702664683143,0.0538054641105371,0.9578298684736316,0.7098306577010801,-0.3383822718251653,-1.208957283161272,-1.502717599688382,2.474816088110472,1.0070740964439189,0.7927788862590499,-0.4670712925187354,1.328487899880516,0.9045942238916582,0.272778048786626,0.9339065940076412,11.960691421182672,-0.8594244585284364,0.3641301303789191,-0.8285897045962864
1.26,-1.1800748749770211,-1.481790778375958,2.465046270001789,0.0274798077457534,0.1505661140137517,0.0542313229177597,0.9742286447995436,0.712521850326358,-0.3270532675611772,-1.1988865421968329,-1.494789810825791,2.4701453751852847,1.0270740967419418,0.8127788865570731,-0.4870712928167587,1.0056201076290006,0.8199388162956067,0.1345596312638919,0.5664502131994015,11.37033031305873,-0.8687803460899006,0.3664425692724966,-0.8152979275334301
1.28,-1.16045319526438,-1.4675288924734882,2.458547842450857,0.0299798717710509,0.1443201560605404,0.0545502816296219,0.9867409381170484,0.7136853666854032,-0.3236356852706462,-1.1787450602679543,-1.4789342331006103,2.4608039493349096,1.0670740973379884,0.8527788871531196,-0.5270712934128051,0.651135782870184,0.6256146658752293,0.0581758179522606,0.1708791145265509,10.814047056499476,-0.8773382864246678,0.3680522546287553,-0.803616493452708
1.3,-1.1406247749603209,-1.4532537534760772,2.4520396349354607,0.0314383620608496,0.1377415134272555,0.0547662072922787,0.9952992390365526,0.7140006031141969,-0.3272874018633575,-1.158603578339076,-1.4630786553754294,2.451462523484535,1.1070740979340348,0.892778887749166,-0.5670712940088516,0.4655075797135553,0.4279150459752134,0.0157618214396859,-0.182585829635562,10.338222510347803,-0.8843118509168181,0.3692555722416853,-0.7943161377059822
1.32,-1.121661178443771,-1.4396931930773669,2.445736811040652,0.0315951786370121,0.131939020341283,0.0548903438951165,1.0003660074753975,0.7136129719539734,-0.33595396204407,-1.1364620963803953,-1.445223077620446,2.440121097604358,1.1470740985300811,0.9327788883452124,-0.6070712946048981,0.5023237643571208,0.2533384219422452,-0.0193815580111722,-0.4333280090356273,9.951256860714238,-0.889835831612984,0.3703770464079988,-0.787002638030111
1.34,-1.1016224229328435,-1.425431406678609,2.438895852334628,0.0301207200227816,0.1269918064993477,0.0549455768277187,1.003065037100928,0.7127557784862787,-0.3477856059822307,-1.1143206144217146,-1.4273674998654626,2.428779671724181,1.1870740991261275,0.972778888941259,-0.6470712952009445,0.6082913361210338,0.134951481276524,-0.0428596733847375,-0.5915821969080359,9.497180307737835,-0.8929087905356788,0.3716405694393236,-0.7827819732765967
1.36,-1.081549885146097,-1.411174404123868,2.4317973961434864,0.0270689949482316,0.1238577469318847,0.0549573270240227,1.003949527876031,0.7133970954779463,-0.3615296540655669,-1.0911791324481328,-1.4085119220955782,2.4164382458291027,1.227074099722174,1.012778889537305,-0.6870712957969909,0.6893701276021854,0.0442245387551665,0.0320658495833792,-0.687202404166809,9.497180307737835,-0.8943950082120734,0.3733195055187796,-0.7806955339795726
1.38,-1.0614728270793243,-1.3968762893304538,2.4244081806337614,0.02355776678899,0.1228669656194219,0.0550067518116452,1.003918122525501,0.7164760200772027,-0.3767070714292615,-1.06703765045965,-1.3886563443107924,2.4030968199191234,1.2670741003182204,1.0527788901333517,-0.7270712963930374,0.7743299697411409,-0.0015702675265183,0.1539462299628202,-0.75887086818473,9.395133259672548,-0.8939957932400057,0.3747254834799394,-0.7812411384581981
1.4,-1.0423918431084491,-1.383221211477963,2.417097180185217,0.0204685323173404,0.1235478614937555,0.0551138639216705,1.0047802718799776,0.7207080841146951,-0.3921260941197232,-1.0112769209530492,-1.3610524883265938,2.4055728270622985,1.103918124015617,0.8164760215673188,-0.4767070729193776,0.800624644037135,0.0431074677238352,0.2116032018746216,-0.7709511345230874,9.320087736027745,-0.8918089069085139,0.375682762138373,-0.7842987050510755
1.42,-1.0222267912127694,-1.3686825535961389,2.409447045368376,0.0201197882380291,0.1251162603971862,0.0554452589805982,1.012079086670896,0.7321205212751087,-0.3701536548075221,-1.0112769209530492,-1.3610524883265938,2.4055728270622985,1.103918124015617,0.8164760215673188,-0.4767070729193776,1.2906437430802515,0.3649407395459159,0.5706218580206812,1.0986219656100582,9.26564437572415,-0.8801179565773941,0.3694713438639961,-0.8036921526987436
1.44,-1.001909379083702,-1.3539529013660243,2.402238575380834,0.0235751023307238,0.127100824160142,0.0560472045400516,1.019420123442733,0.739657496586333,-0.352009421285829,-1.0112769209530492,-1.3610524883265938,2.4055728270622985,1.103918124015617,0.8164760215673188,-0.4767070729193776,1.0487016112998906,0.3670518385918475,0.3768487655612107,0.9072116760846516,11.750602341492597,-0.8851484415423302,0.3725467208271489,-0.793810126682141
1.46,-0.982472498069388,-1.3398687017949722,2.39564533104234,0.0279127388574221,0.1292706901649229,0.056698538259174,1.0262897293021018,0.7424458918521233,-0.3429085672123058,-1.000237739712893,-1.3528877281109206,2.4008057563331047,1.1239181243136402,0.836476021865342,-0.4967070732174009,0.5869245643371089,0.3434802929684455,0.1394197632895166,0.4550427036761617,11.19584590014074,-0.8873578035048307,0.3727399626670872,-0.7896297022650663
1.48,-0.9618725894797134,-1.3250132296068078,2.3888230058126934,0.0319305617590322,0.1316970887248094,0.0573501089407928,1.033376029499009,0.7431015853295765,-0.3400983066818637,-0.9781593772325808,-1.336558207679574,2.391271614874717,1.1639181249096868,0.8764760224613884,-0.5367070738134473,0.38256747334955,0.3543150098453629,0.03278467387266,0.1405130265221071,10.677642032587755,-0.8877582120736569,0.3720398080549067,-0.7886168764494503
1.5,-0.9411314048736358,-1.3101554346355953,2.381994209532075,0.0348654565707846,0.1341652446353226,0.0579269330137223,1.0404203016106417,0.7428703756122232,-0.3431461235643687,-0.9560810147522684,-1.3202286872482278,2.381737473416329,1.2039181255057332,0.9164760230574348,-0.5767070744094938,0.3839414514786282,0.3522136055816305,-0.0115604858676621,-0.1523908441252525,10.275452815350036,-0.8869490364236743,0.3712336371723822,-0.7894736792671866
1.52,-0.9202496677173646,-1.2953081393200268,2.375050717701052,0.0365638903649784,0.1365803632633447,0.0584135529458627,1.047453962240657,0.7421603149048557,-0.3510278690678761,-0.9320026522421536,-1.3018991667870792,2.37020333192814,1.2439181261017795,0.9564760236534814,-0.6167070750055402,0.5293828488164976,0.3516830315007491,-0.0355030353683782,-0.3940872751753671,9.958430947176566,-0.8849994017964985,0.3704065770058728,-0.7919508327658159
1.54,-0.9002785252957217,-1.281221091168224,2.368288922304677,0.0368960236819102,0.1387737087568297,0.0587792554273169,1.0544581013450731,0.7409376756217768,-0.3603401056148924,-0.907924289732039,-1.2835696463259303,2.35866919043995,1.283918126697826,0.996476024249528,-0.6567070756015867,0.5858125999799981,0.350206955220822,-0.0611319641539431,-0.4656118273508175,9.717457187923172,-0.8819647514042814,0.3697762246524774,-0.7958306411850372
1.56,-0.8791046428825179,-1.2664119806548593,2.3609663029401347,0.0358693281432477,0.1407907130347789,0.0590524184510587,1.062576688812678,0.7401430815502821,-0.3714932314098446,-0.8828459272070232,-1.2642401258498803,2.346135048936859,1.3239181272938725,1.0364760248455742,-0.6967070761976331,0.6908962606745556,0.4059293733802427,-0.0397297035747368,-0.5576562897476101,9.62780072260466,-0.8790655783604432,0.3699407234689346,-0.799323668644283
1.58,-0.8577619807167686,-1.2516121809656415,2.3534079075619405,0.0335891068200672,0.1422236337683987,0.0592120081991654,1.0712540645484558,0.7400174778113391,-0.3838338395655745,-0.8567675646671062,-1.2439106053589295,2.3326009074188665,1.3639181278899188,1.0764760254416206,-0.7367070767936795,0.7543262484037832,0.4338687867888935,-0.0062801869471496,-0.6170304077864952,9.557909884994842,-0.8767031936125981,0.3708765219686015,-0.8018819794097958
1.6,-0.8373234606242497,-1.2375372545122725,2.3459872841177365,0.0307306869226389,0.1428702342577899,0.0592881936574752,1.0796471364101692,0.7417304440376293,-0.3966597394073855,-0.8041992774893458,-1.2146113070750746,2.3342162155836617,1.171254066038572,0.8400174793014552,-0.4838338410556906,0.7711705636894836,0.4196535930856671,0.0856483113145123,-0.6412949920905492,9.499301355642274,-0.8749141931127131,0.3724229665620591,-0.8035637417575542
1.62,-0.8155700945147836,-1.2226092621905271,2.3382713120339584,0.029990541438392,0.1422251182189003,0.0594834436508448,1.095502670954826,0.7502167152749452,-0.3723573639062495,-0.8041992774893458,-1.2146113070750746,2.3342162155836617,1.171254066038572,0.8400174793014552,-0.4838338410556906,1.5116383745859234,0.7927767272328357,0.4243135618657911,1.2151187750567976,9.440539875525246,-0.8663323505622634,0.3672841621182509,-0.8179139831204778
1.64,-0.7935039212244906,-1.207545405635379,2.331046656319665,0.032425598989285,0.1397690377315609,0.0598343763422111,1.1100857225167735,0.7555267080902919,-0.3519160349141554,-0.8041992774893458,-1.2146113070750746,2.3342162155836617,1.171254066038572,0.8400174793014552,-0.4838338410556906,1.2832666787543543,0.7291525780973918,0.265499640767336,1.0220664496047085,11.3339015380825,-0.874757500622085,0.3709491265429102,-0.8044063324387107
1.66,-0.7711704921818554,-1.192412485720569,2.3241335225129776,0.0360723568658951,0.1358105170282559,0.0601976596917355,1.1223324968824016,0.7572657688068571,-0.3407826813116727,-0.7924867368289601,-1.20621113228206,2.329377877173105,1.1912540663365951,0.8600174795994784,-0.5038338413537139,0.8321048265940018,0.6123387182813911,0.0869530358282633,0.5566676801241344,11.3339015380825,-0.8823903040622461,0.3725305654562889,-0.7933512656869649
1.68,-0.7497530441287997,-1.178031212967216,2.317685582358596,0.0390856080529667,0.1309436663750429,0.0604444363916328,1.1313555310903602,0.7566871010034472,-0.3384296013051392,-0.7690616555081887,-1.189410782696031,2.319701200351991,1.2312540669326415,0.9000174801955249,-0.5438338419497603,0.4671375286300699,0.4511517103979345,-0.0289333901704991,0.1176540003266751,10.75202325594637,-0.889051370240803,0.3725271993811865,-0.784977419560079
1.7,-0.727056372313454,-1.1629149478046552,2.3108817207550745,0.0412422383053261,0.1252765838048627,0.0605867367045825,1.1375658176113663,0.7551885816167185,-0.3423368531840286,-0.7456365741874172,-1.1726104331100018,2.310024523530877,1.271254067528688,0.9400174807915712,-0.5838338425458067,0.3744323579449261,0.3105143260503151,-0.0749259693364312,-0.1953625939444703,10.271788738283249,-0.8945529912785393,0.3722103209452198,-0.7783843557599762
1.72,-0.704270778151832,-1.1478371233380955,2.303933307420676,0.0420747551434076,0.1199322905907201,0.0606327745385032,1.1405681168297128,0.7529158424900614,-0.3522564691129772,-0.7202114928368435,-1.1538100834941702,2.298347846679961,1.3112540681247344,0.9800174813876178,-0.6238338431418532,0.5305137225184927,0.1501149609173135,-0.1136369563328576,-0.4959807964474289,9.893703348835515,-0.8984709388668205,0.3721306350131346,-0.7736545749981374
1.74,-0.6825940312344139,-1.1335623972166164,2.2971202029779367,0.0412974199427481,0.1158958333037829,0.0606056057184773,1.1409586125002258,0.7500499895073176,-0.3643885341220865,-0.6947864114862696,-1.135009733878339,2.286671169829045,1.351254068720781,1.0200174819836645,-0.6638338437378997,0.6236036432956531,0.0195247835256484,-0.1432926491371888,-0.6066032504554647,9.583682234894695,-0.9004951060694215,0.3723392268822925,-0.7712404831562426
1.76,-0.6597846756805144,-1.1185873899948102,2.2896825227814,0.0387811734792641,0.1133559700247442,0.060533035209938,1.139831038874329,0.747776718681816,-0.3788912825334591,-0.6683613301207948,-1.1152093842476063,2.273994492963228,1.3912540693168274,1.0600174825797106,-0.703833844333946,0.7361536762311711,-0.0563786812948441,-0.1136635412750775,-0.7251374205686334,9.440297552269383,-0.9013144437897912,0.3734831879302061,-0.7700531545124382
1.78,-0.637007167914458,-1.1036345552153797,2.2819392755312022,0.0351876230860759,0.1128336951783869,0.0604697407996644,1.138189095436153,0.7479074570608525,-0.394748994389931,-0.6409362487404188,-1.0944090346019726,2.2603178160825093,1.4312540699128735,1.100017483175757,-0.7438338449299925,0.7971513283260719,-0.0820971719087793,0.0065369189518216,-0.7928855928235917,9.267684038745756,-0.900916383697758,0.3750375910146523,-0.7703639306005917
1.8,-0.6153895645702817,-1.0894069873995662,2.274280492859386,0.0317149945514428,0.1137289586217004,0.0604561740910347,1.1375742768072232,0.7497649948922609,-0.4106500629363636,-0.5800977131426504,-1.066239182362337,2.262201825811706,1.2381890969262694,0.8479074585509686,-0.4947489958800471,0.8010499823043852,-0.0307409314465045,0.0928768915704203,-0.795053427321632,9.223579703346331,-0.8987763730350418,0.3764648302389152,-0.7728693223118397
1.82,-0.5925887551409155,-1.074312670706698,2.2662595830299743,0.0308720087509436,0.1153032851230243,0.0606546889104306,1.1429127940049129,0.7586770730314212,-0.3886879706291987,-0.5800977131426504,-1.066239182362337,2.262201825811706,1.2381890969262694,0.8479074585509686,-0.4947489958800471,1.214761706196899,0.2669258598844815,0.4456039069580142,1.0981046153582474,11.7154289281998,-0.8885833994654239,0.3712812822653304,-0.7896928227488296
1.84,-0.5696736390943342,-1.0590799530233368,2.258687796623396,0.0336784143549177,0.117086462762571,0.0611088252302087,1.148347355927381,0.7638071314994603,-0.3701936559568942,-0.5800977131426504,-1.066239182362337,2.262201825811706,1.2381890969262694,0.8479074585509686,-0.4947489958800471,0.99736106597969,0.2717280961234025,0.2565029234019578,0.9247157336152252,11.7154289281998,-0.8919592155495569,0.37340581582922,-0.7828150829143455
1.86,-0.5466533884305119,-1.0437910659465237,2.2513860836688435,0.0376808608389858,0.1190657045647583,0.0616490164990218,1.1534984112997015,0.7647122273662695,-0.3608683734112997,-0.5677158221733877,-1.0577601077768273,2.257254335852905,1.2581890972242926,0.8679074588489918,-0.5147489961780704,0.5345873748322109,0.2575527686160317,0.0452547933404601,0.4662641272797252,10.64599932427791,-0.8934347441149187,0.3731896742063602,-0.7801768487317919
1.88,-0.5246903161684148,-1.0292757940449064,2.244552953974469,0.0409512607921142,0.1210316499208144,0.0621252306101898,1.1581965454389944,0.763420933592392,-0.3588507429347292,-0.5429520402348622,-1.040801958605808,2.247359355935304,1.2981890978203392,0.9079074594450384,-0.5547489967741167,0.2636794300909253,0.2349067069646437,-0.0645646886938744,0.1008815238285248,10.241161403408114,-0.8934750061014456,0.3720760657597864,-0.7802270816172896
1.9,-0.5014766487315026,-1.0140315388007852,2.2373458875846315,0.0433091965662459,0.1231552090852265,0.0625493959035945,1.1629464012413606,0.7613304127393244,-0.362192546585231,-0.5181882582963369,-1.0238438094347886,2.2374643760177038,1.3381890984163856,0.9479074600410848,-0.5947489973701632,0.3086221768558193,0.2374927901183099,-0.10452604265338,-0.1670901825250925,10.241161403408114,-0.8924050853939329,0.3710145865682206,-0.7818077985447016
1.92,-0.4781687805379183,-0.998835756503384,2.230018636443542,0.0443111346983872,0.1253119426125995,0.062875740531095,1.167659800650525,0.7586197555877793,-0.3703380879266684,-0.4914244763280092,-1.0048856602339669,2.2255693960703,1.378189099012432,0.9879074606371312,-0.6347489979662096,0.4896775467810426,0.2356699704582188,-0.1355328575772585,-0.4072770670718706,9.93038513499414,-0.890550550408677,0.3702893706806706,-0.784362021049635
1.94,-0.454763121181203,-0.9837007687263162,2.222507733295925,0.0435976695138609,0.1274520590327025,0.0630759291254145,1.172717067649,0.7553016075023637,-0.3803323071973435,-0.4646606943596814,-0.9859275110331452,2.2136744161228967,1.4181890996084785,1.0279074612331776,-0.6747489985622561,0.5841028912806022,0.2528633499237487,-0.1659074042707764,-0.4997109635337532,9.692305278957065,-0.887567052404835,0.3700331776086543,-0.7881870948514665
1.96,-0.4324253393512163,-0.9693766692046384,2.2151766035491893,0.0412666905839568,0.1292516556826701,0.0631345880452026,1.178356019007692,0.7528676427381558,-0.3908601161377698,-0.4368969123764525,-0.9659693618174224,2.2007794361605924,1.4581891002045249,1.067907461829224,-0.7147489991583025,0.6094192275954657,0.2819475679346039,-0.1216982382103992,-0.526390447021316,9.607367875136331,-0.8850277401749664,0.3710617933228306,-0.7909612945740137
1.98,-0.4087922879487626,-0.9543255020766956,2.207233327779662,0.0376945098902383,0.1306237886156963,0.0630912751319756,1.1846163540181271,0.7526880818131092,-0.4029546208669143,-0.4081331303783225,-0.9450112125867984,2.186884456183387,1.4981891008005712,1.1079074624252705,-0.754748999754349,0.6809939082179464,0.3130167505217551,-0.0089780462523281,-0.6047252364572236,9.552810515118836,-0.8831824535574456,0.3730772586595319,-0.7924431336864587
2.0,-0.3850317778229657,-0.939254875786337,2.199036676125007,0.0340046481808258,0.1313014386412434,0.0630105044375159,1.19104113007809,0.7544330124759298,-0.416104642035363,-0.3495614702478562,-0.91669109798604,2.1870855967363165,1.2846163555082433,0.8526880833032253,-0.5029546223570305,0.7369626638598664,0.3212388029981361,0.0872465331410277,-0.6575010584224383,9.49349359518601,-0.8817135614534459,0.3750138071523746,-0.7935140395309116
2.02,-0.3610743567185368,-0.9240601704815592,2.1909793101119623,0.033424733501611,0.1306723991389832,0.0630996478083222,1.2042683854344192,0.7635211556346563,-0.3889885561617265,-0.3495614702478562,-0.91669109798604,2.1870855967363165,1.2846163555082433,0.8526880833032253,-0.5029546223570305,1.575465600577714,0.6613627678164646,0.4544071579363262,1.355804293681825,9.440063013073086,-0.8738835385178902,0.3707460701831,-0.8061953388069655
2.04,-0.3380811150348387,-0.9095013706996982,2.183782964187568,0.0362300421023316,0.1285414984081525,0.0633555355623379,1.215288428842629,0.7681680275144174,-0.3699754786194569,-0.3495614702478562,-0.91669109798604,2.1870855967363165,1.2846163555082433,0.8526880833032253,-0.5029546223570305,1.123089369344783,0.5510021704104973,0.2323435939880547,0.9506538771134831,11.939023055318104,-0.8801827733519167,0.3720552618817588,-0.7971104747979185
2.06,-0.3136734323506371,-0.8941301034314311,2.176507949803687,0.0402617526723284,0.1250510659483472,0.0636306973073311,1.2247079490904489,0.7685833177126337,-0.3589102254138217,-0.3367153066927738,-0.908164217153008,2.182056050512746,1.3046163558062664,0.8726880836012485,-0.5229546226550537,0.7268762895992629,0.4709760123909778,0.0207645099108144,0.5532626602817586,11.305556641572366,-0.8860873802781949,0.3715762026115612,-0.7897226456720399
2.08,-0.289104598742059,-0.8787795206835181,2.169357090251359,0.0436153325839047,0.1206820826880078,0.0637943381082881,1.2315505289780913,0.7667342827080025,-0.3566547519017938,-0.3110229795826089,-0.8911104554869433,2.1719969580656056,1.344616356402313,0.912688084197295,-0.5629546232511001,0.3719105763842351,0.3421289943821293,-0.0924517502315591,0.1127736756013936,10.252830374328369,-0.8914920863364634,0.3709854646220824,-0.7832163695548223
2.1,-0.2656630710184325,-0.8642400704421634,2.162540407841397,0.0457013801557516,0.1161843922478727,0.0638350737902851,1.2355019066463226,0.7641587399571698,-0.3609575370610192,-0.285330652472444,-0.8740566938208788,2.161937865618465,1.3846163569983594,0.9526880847933414,-0.6029546238471466,0.3192207937494614,0.1975688834115696,-0.1287771375416357,-0.2151392579612665,10.252830374328369,-0.8961497396427517,0.3703974429544726,-0.7777267399583103
2.12,-0.2409344069141747,-0.8489935236422058,2.155223217703689,0.0465570362072281,0.1117393703248096,0.0637818982009017,1.2369590348540271,0.7607826585461285,-0.3707511464493961,-0.2576383253324769,-0.855002932125012,2.149878773141522,1.4246163575944055,0.992688085389388,-0.6429546244431931,0.5230581544144285,0.0728564103852247,-0.1688040705520643,-0.4896804694188461,9.57616496512128,-0.8995702681352137,0.3701991582036369,-0.7736003787368779
2.14,-0.2162035683916124,-0.8338243795985831,2.147673971587832,0.04555072571848,0.1084204352901338,0.0636458572426349,1.2359704039217372,0.7566108417112526,-0.3836395336565527,-0.2299459981925096,-0.8359491704291452,2.1378196806645797,1.4646163581904523,1.0326880859854344,-0.6829546250392395,0.6791391087723356,-0.0494315466144978,-0.2085908417437942,-0.6444193603578313,9.57616496512128,-0.9012610484503126,0.3705964421775756,-0.7714614235606323
2.16,-0.1927404528528411,-0.8194837386425856,2.140247361933184,0.0428231350136328,0.1068438569836105,0.0634680867962522,1.2338666453984142,0.7534875852549892,-0.3974421116549716,-0.2012536710376413,-0.8158954087183772,2.124760588172735,1.504616358786499,1.0726880865814807,-0.7229546256352859,0.7153525183755254,-0.1051879261661503,-0.1561628228131717,-0.6901288999209443,9.34735764377956,-0.9018809924472214,0.3720186243392368,-0.7703533978412835
2.18,-0.1680857322651969,-0.8044244836937217,2.132135543468306,0.0389366374426077,0.1068154854074718,0.0632846980632831,1.2318743895171775,0.7528714002209135,-0.413059887506253,-0.1715613438678718,-0.7948416469927081,2.1107014956659897,1.544616359382545,1.112688087177527,-0.7629546262313324,0.7878192845339098,-0.0996127940618318,-0.0308092517037839,-0.780888792564069,9.34735764377956,-0.9011968009062834,0.3739539873380428,-0.7707154672068516
2.2,-0.1434611242224829,-0.7893558911683493,2.123703409328322,0.0349738756477018,0.1078527330422601,0.0631385682412384,1.2307946880851683,0.7541005209306217,-0.4294051235540467,-0.106492012789338,-0.766780913682676,2.111482549092993,1.3318743910072937,0.8528714017110296,-0.5130598889963691,0.8213452903003265,-0.0539850716004597,0.0614560354854132,-0.8172618023896849,9.278960406919396,-0.8992304084546641,0.3757268769798473,-0.7727163420453712
2.22,-0.1188037825965646,-0.7741791753472161,2.1153149787103778,0.0339260046661964,0.1092098563897939,0.0632040420718386,1.2353273553453592,0.7625491614188218,-0.4066987503772217,-0.106492012789338,-0.766780913682676,2.111482549092993,1.3318743910072937,0.8528714017110296,-0.5130598889963691,1.2323797927543425,0.2266333630095429,0.4224320244100021,1.1353186588412472,9.241114434311385,-0.8897936116808645,0.3713584496041451,-0.7878211486527766
2.24,-0.0952912534282263,-0.7596424543050599,2.10776904306997,0.0364332966861767,0.1104604070322301,0.063504145227811,1.2394854496872962,0.766907898596933,-0.3889675824976942,-0.106492012789338,-0.766780913682676,2.111482549092993,1.3318743910072937,0.8528714017110296,-0.5130598889963691,0.9363261353773684,0.2079047170968517,0.2179368589055597,0.8865583939763777,11.755280023248815,-0.8926303131596852,0.3723098472414929,-0.7828817615929266
2.26,-0.0704606606884117,-0.7442972365956728,2.100106184372476,0.0403116689631357,0.1118497862104361,0.0639036798229533,1.243373508299225,0.7672092102080019,-0.3786247215243312,-0.0931732688792651,-0.7582521996655657,2.106351950203029,1.3518743913053168,0.8728714020090528,-0.5330598892943923,0.5526811050937828,0.1944029305964378,0.0150655805534472,0.5171430486681505,11.19661797399658,-0.8941442452476936,0.3715358445283525,-0.7806640013881662
2.28,-0.0455566360546925,-0.7289748533624872,2.092569542461381,0.0436356679717142,0.1133364139133127,0.0642632280042045,1.2468423152437205,0.7652064716883399,-0.3758413121882799,-0.0665357810591192,-0.7411947716313451,2.096090752423102,1.3918743919013634,0.9128714026050992,-0.5730598898904388,0.2438798409480343,0.1734403472247736,-0.1001369259831019,0.1391704668025628,10.678341607115726,-0.8946844143260801,0.3704157090047324,-0.7801193676705078
2.3000000000000003,-0.0205873744652986,-0.7137037270017556,2.08501846158166,0.0457599148701423,0.1149186945794329,0.0645383238766961,1.2499555238898885,0.7623762386336717,-0.3793619651403206,-0.0398982932389733,-0.7241373435971244,2.0858295546431744,1.4318743924974098,0.9528714032011456,-0.6130598904864852,0.2743049599762256,0.155660432308391,-0.1415116527334114,-0.176032647602034,10.256075567808692,-0.8941192214273501,0.3694561345747584,-0.7810616277658161
2.32,0.0031895177567957,-0.6992539067185918,2.077735867348016,0.0464636061028692,0.1165075787100711,0.0647074069374433,1.252763696906231,0.7590517337742666,-0.3870338341581272,-0.0112608053890251,-0.7050799155331016,2.073568356833445,1.471874393093456,0.9928714037971922,-0.6530598910825317,0.4410094740374175,0.1404086508171365,-0.1662252429702526,-0.3835934508903293,9.93320380107798,-0.892605858859436,0.3687897893605858,-0.7831877595651129
2.34,0.0282767793608911,-0.684117178637494,2.069891834405914,0.0454123334162881,0.1182822295829181,0.0647603117754607,1.2558570681612502,0.7549991623155671,-0.3970333051010852,0.017376682460923,-0.6860224874690786,2.0613071590237158,1.5118743936895027,1.0328714043932388,-0.6930598916785782,0.5612078498388708,0.1546685627509592,-0.2026285729349763,-0.4999735471479027,9.692889146061134,-0.8901792803646386,0.3688739135705013,-0.7861930379660046
2.36,0.0534342644593242,-0.6690524858203006,2.061835274006336,0.0424417482777189,0.1199696189737111,0.0646704632396083,1.2597437611446676,0.7520757841746827,-0.4081484278929009,0.0470141703257724,-0.6659650593901546,2.0480459611990844,1.551874394285549,1.0728714049892851,-0.7330598922746245,0.6066268968218566,0.1943346491708686,-0.1461689070442196,-0.5557561395907823,9.598117561178697,-0.8880396483528902,0.3702313325120634,-0.788405775731234
2.38,0.0786750794166454,-0.6540163905712831,2.053546782095326,0.0385197576657985,0.1212116323171493,0.0644915958223648,1.2640885460072682,0.7519143952914751,-0.4201373004591844,0.0776516582055228,-0.6449076312963293,2.0337847633595523,1.5918743948815954,1.1128714055853317,-0.773059892870671,0.6376446253292126,0.2172392431300296,-0.0080694441603801,-0.599443628314178,9.542080114788403,-0.8863351455596,0.3722178607749543,-0.7897677911911486
2.4,0.1027360154320048,-0.6397163227763425,2.045441487780312,0.0347901188915342,0.1218212606779493,0.0642982943524276,1.2683611570986306,0.753398943237169,-0.4324538309751012,0.1418795067170088,-0.6164206708067094,2.032539917072367,1.294144709675901,0.8519143967815912,-0.5201373019493005,0.656041180282548,0.2136305545681227,0.0742273972846985,-0.6158265257958401,9.495224530586713,-0.8849283618572117,0.3743571313162968,-0.790695919924441
2.42,0.1283528186271368,-0.6245569061411647,2.0370143628967035,0.033290314625965,0.1167003042233838,0.0640702985918264,1.292873983067982,0.7616113487954447,-0.4076568256813401,0.1418795067170088,-0.6164206708067094,2.032539917072367,1.294144709675901,0.8519143967815912,-0.5201373019493005,1.7910986248641687,1.2256412984675724,0.4106202779137813,1.2398502646880585,9.442479409820407,-0.883139393035678,0.3698365624910346,-0.7981027304312697
2.44,0.1544130304434899,-0.6092731231798882,2.0290750739868897,0.0347021951905921,0.1016920070283247,0.0637019024274448,1.310312284649488,0.7660722944074718,-0.3875849999005878,0.1418795067170088,-0.6164206708067094,2.032539917072367,1.294144709675901,0.8519143967815912,-0.5201373019493005,1.3480287348327211,0.8719150790752916,0.2230472806013572,1.0035912890376113,11.991375060798418,-0.898053654887448,0.3730831135942535,-0.7771094375324421
2.46,0.1793815383666837,-0.5946986418133793,2.0217954970863925,0.0371389330021767,0.0820184196249182,0.063194353563008,1.3161195117686149,0.7677349699068775,-0.3795847818647431,0.1548209538137679,-0.6079015268388934,2.0273385440528737,1.3001559424096272,0.8719143970796144,-0.5401373022473237,0.5012281547621391,0.2903613559563478,0.0831337749702842,0.4000109017922387,11.282618210464534,-0.9178971338275298,0.3751858069844785,-0.750354633726924
2.48,0.205672677865524,-0.5793538322923579,2.0141904696926414,0.039595598804167,0.0590402452223492,0.0624993767240665,1.3118087737873092,0.7667363342623644,-0.381784513177628,0.1807038480072859,-0.5908632389032616,2.016935798013888,1.3121784078770802,0.9119143976756608,-0.5801373028433702,0.2470756611994069,-0.2155368990652828,-0.0499317822256539,-0.1099865656442461,10.504782146547768,-0.937927203933341,0.3765704893243742,-0.7228155019384276
2.5,0.2317784774385809,-0.5640462900243803,2.006431817300142,0.0410621497845173,0.0364754711112074,0.0616953506619982,1.2984129175769086,0.7642399664041529,-0.3943712458961992,0.2065867422008039,-0.5738249509676299,2.006533051974902,1.3242008733445332,0.9519143982717072,-0.6201373034394166,0.9275056018995128,-0.6697928105200313,-0.124818392910575,-0.6293366359285596,9.855008711964729,-0.956098494544808,0.3779847124315122,-0.6965457755010103
2.52,0.2575390117926357,-0.5488002009433705,1.998330819958365,0.0410008954514277,0.01631258235156,0.0608624226152281,1.2780033174982193,0.7606734645825352,-0.4154148404557061,0.2330707596676945,-0.5547866630021957,1.9941303059061133,1.3362233388119862,0.9919143988677538,-0.6601373040354631,1.476570843712337,-1.0204800039344653,-0.1783250910808886,-1.0521797279753442,8.895358750920423,-0.9702404753516236,0.3792003544043342,-0.6753219345895736
2.54,0.2815812834088666,-0.5343918694212265,1.9901935396635664,0.0389730685209255,0.0006088227527033,0.0600953837902231,1.253859986006876,0.7565014298290149,-0.4400315394839179,0.2595547771345852,-0.5357483750367615,1.9817275598373247,1.3482458042794392,1.0319143994638005,-0.7001373046315096,1.7365829958074528,-1.2071665745671645,-0.2086017376760118,-1.230834951410592,8.895358750920423,-0.9808014234111014,0.3799521732691925,-0.6596428540112385
2.56,0.3063642578962586,-0.5192896657490517,1.9811004594693504,0.0350573894050935,-0.0118975328620853,0.059375003130404,1.2257221603521338,0.7544789307679198,-0.4680347018514035,0.2863393562381622,-0.5157100870564263,1.968324813753636,1.3602682697468922,1.0719144000598466,-0.7401373052275559,1.9874637340141343,-1.4068912827371105,-0.1011249530547542,-1.400158118374281,8.601436936540267,-0.9885211942127248,0.3813726098109014,-0.6477527960715054
2.58,0.3305612887422511,-0.5041994374557515,1.971435727047118,0.0306474012707942,-0.0202563821757438,0.0588247316690224,1.1953625977601918,0.754785170327248,-0.4970697959104144,0.3134244969784255,-0.4946717990611898,1.953922067655045,1.3722907352143452,1.111914400655893,-0.7801373058236024,2.1004960785831908,-1.517978129597097,0.015311977966409,-1.4517547029505418,8.601436936540267,-0.9924234419356804,0.3822580099630664,-0.6421349258187671
2.6,0.3541266252613256,-0.4890890329629742,1.961185896402026,0.0263450011974524,-0.0239939296063816,0.0584643767758904,1.1628999933759678,0.7563045855234319,-0.5264465397868449,0.3903294186302607,-0.466460178939389,1.946582237251597,1.1265368387665662,0.8547851718173641,-0.5970697974005306,2.190389455511524,-1.6231302192111996,0.0759707598091963,-1.4688371938215232,8.572974407475158,-0.9927867772014162,0.382208195869766,-0.6430743941439656
2.62,0.3760774935297961,-0.4746394964396829,1.9512580218344535,0.0244069196956966,-0.0287860356890859,0.0582647778393876,1.1486321750348594,0.7635078741072783,-0.5171987344936385,0.3903294186302607,-0.466460178939389,1.946582237251597,1.1265368387665662,0.8547851718173641,-0.5970697974005306,0.9232820660260024,-0.7133909170554231,0.3601644291923167,0.4623902646603173,8.572974407475158,-0.9902988953956126,0.3744629459631007,-0.6581143854487862
2.64,0.3988587626874292,-0.4593292200987028,1.9409663327450928,0.0244886982468797,-0.0403493266126647,0.0580494469359296,1.1292469846063722,0.7670313009234929,-0.512991111472215,0.3903294186302607,-0.466460178939389,1.946582237251597,1.1265368387665662,0.8547851718173641,-0.5970697974005306,1.007353259745985,-0.9692595214243592,0.1761713408107323,0.2103811510711761,10.665066025885608,-1.000496005441528,0.3782058353651142,-0.6375420082184705
2.66,0.4211724948720727,-0.443970589350902,1.9306642964002083,0.0250979140296312,-0.0555992415613193,0.0577747462435932,1.1023955682181268,0.7686689905820071,-0.5178217583901834,0.4015947870179264,-0.4579123272212154,1.940611539277592,1.112771686967841,0.8747851721153873,-0.6170697976985537,1.36657943340171,-1.34257081941227,0.0818844829257092,-0.2415323458984208,10.177237062605856,-1.0117935492350365,0.3802532820512713,-0.616565692105006
