t,x,y,z,roll,pitch,yaw,v_x,v_y,v_z,ref_x,ref_y,ref_z,ref_v_x,ref_v_y,ref_v_z,a_com,a_x,a_y,a_z,thrust,wind_x,wind_y,wind_z
0.0,-1.4060668371444731,1.3058533862066142,2.013677160914108,0.021037431137639,0.0994014611332112,0.0414735482680798,0.0020495925564881,-0.002365426858788,-0.0009391078039235,-1.4059991050293776,1.3056921465541176,2.013646721447115,0.0428245347309418,-0.1045846603060923,-0.1009949563984727,0.1633860255596956,0.1024796278244067,-0.1182713429394011,-0.0469553901961764,10.259308226675785,-0.9404263155285284,0.2596076650325869,-0.8783184991131958
0.02,-1.406134346256117,1.3060661525037578,2.013567725293885,0.0283524548626591,0.1021034061362784,0.0420562933024266,-0.0080609317790747,0.0195584687483206,-0.0106948183560953,-1.4059991050293776,1.3056921465541176,2.013646721447115,0.0428245347309418,-0.1045846603060923,-0.1009949563984727,1.3019732997542266,-0.5055262167781446,1.0961947803554315,-0.4877855276085917,9.656118982195494,-0.9335349160379116,0.2600416921012036,-0.8783455544325419
0.04,-1.4063632985198795,1.3064998144994653,2.0131735737583147,0.0428217882620679,0.109150257429826,0.0433099983888772,-0.0137215246121472,0.0218968532464798,-0.0285686164166634,-1.4059991050293776,1.3056921465541176,2.013646721447115,0.0428245347309418,-0.1045846603060923,-0.1009949563984727,0.9446997014832704,-0.2830296416536249,0.1169192249079614,-0.8936899030284063,9.656118982195494,-0.9214720860779052,0.2426472427349868,-0.900778816394829
0.06,-1.4066564012462002,1.306898538232916,2.0123924728159435,0.0578757999706216,0.1183397679830243,0.0448011968565654,-0.0148615774683276,0.0175044034084377,-0.0486989287054892,-1.4055708596820682,1.3046462999510566,2.0126367718831304,0.05094877745393,-0.1245846606041155,-0.1209949566964959,1.0317737263327802,-0.0570026428090187,-0.2196224919021069,-1.00651561444129,9.186984796310751,-0.9072786427136724,0.2239706247782451,-0.9256720601116396
0.08,-1.4069203870466904,1.3071616514014066,2.011270442015371,0.0717060298327647,0.127863615372322,0.0463477639227101,-0.0125542571099611,0.010136207612783,-0.0684862823345628,-1.4047143689874495,1.302554606744935,2.0106168727551608,0.0671972628999062,-0.164584661200162,-0.1609949572925423,1.0620185970137797,0.1153660179183253,-0.3684097897827336,-0.9893676814536786,9.186984796310751,-0.8900975500527918,0.2039914889859789,-0.953046644083676
0.1,-1.4071195364074562,1.307258905781842,2.009675812206532,0.085614067232347,0.1380381202791523,0.0480640895958606,-0.0071651665768688,-0.0003246654223292,-0.0900316614919198,-1.4038578782928306,1.300462913538813,2.008596973627191,0.0834457483458825,-0.2045846617962084,-0.2009949578885888,1.227472529697584,0.2694545266546135,-0.5230436517556145,-1.0772689578678467,9.190143009584062,-0.8723279114372883,0.1848603343629351,-0.9788295461671932
0.12,-1.4071818645620395,1.3071195400360367,2.007646389539972,0.0988529294975826,0.1479839570763393,0.0498301611818742,0.0009436030779318,-0.0133745802814824,-0.1119134569277788,-1.402188963325913,1.296371220302889,2.00457707446942,0.0996942337918587,-0.2445846623922548,-0.2409949584846352,1.3368483409146903,0.4054384827400346,-0.6524957429576588,-1.0940897717929512,9.194657047128205,-0.8537692449858977,0.1656444461011922,-1.004350565636994
0.14,-1.4070457900393878,1.3066936788091783,2.0051731522263245,0.1114392731974912,0.1571568175621266,0.051572381465872,0.0124601536124907,-0.0288311671135648,-0.1344147806195922,-1.4005200483589957,1.2922795270669647,2.000557175311648,0.115942719237835,-0.2845846629883014,-0.2809949590806817,1.4814237919958255,0.5758275267279466,-0.7728293416041192,-1.1250661845906715,9.24233328491846,-0.8363719863116661,0.1472486072718132,-1.027691161769711
0.16,-1.406672265648787,1.3059809974915515,2.0024009193229126,0.1228000194164913,0.1644301204714238,0.0530926155814073,0.0262739058385092,-0.0456441768773056,-0.1563612201218398,-1.3984449212559282,1.287187833816139,1.9955372761389747,0.1321912046838113,-0.3245846635843478,-0.3209949596767281,1.5452696000239612,0.6906876113009215,-0.8406504881870408,-1.097321975112378,9.24233328491846,-0.8188868262955609,0.1284300794983794,-1.0502230695113208
0.18,-1.4059752292581809,1.3048633153535327,1.9990266087921025,0.1341404933112221,0.1701725057687896,0.0544538670081915,0.0427117113706789,-0.0654937154359537,-0.1799898185466618,-1.3959635820167118,1.2810961405504129,1.9895173769514003,0.1484396901297875,-0.3645846641803942,-0.3609949602727745,1.748225025008359,0.8218902766084887,-0.9924769279324028,-1.1814299212411032,9.262205782388264,-0.8032726271432271,0.1107553811825746,-1.0695514261825434
0.2,-1.4049336885693922,1.303325677392901,1.9951784941714883,0.1448602714000124,0.1738128962456976,0.0554975638122478,0.0605602347560755,-0.0875239611505198,-0.2036846288233482,-1.403839643689647,1.301588629581735,1.9900271178647693,0.0622282222596131,-0.1654937169260698,-0.2799898200367779,1.8475291251637755,0.8924261692698304,-1.101512285728308,-1.184740513834316,9.282726960683249,-0.7895452222461092,0.093111573719614,-1.0870706180800094
0.22,-1.4033884497896467,1.3011460540045243,1.9910505519864847,0.1499958369390662,0.1724359239266404,0.0553805393338055,0.0923586346059988,-0.126355501455185,-0.2074686173659794,-1.403839643689647,1.301588629581735,1.9900271178647693,0.0622282222596131,-0.1654937169260698,-0.2799898200367779,2.516617434543441,1.5899199924961644,-1.9415770152332603,-0.1891994271315616,10.723634582414888,-0.7923807925800829,0.0782102428477928,-1.094902442873662
0.24,-1.401361077948741,1.298428253191663,1.9870656739684187,0.1495305543768837,0.1646248251083387,0.053871121173613,0.1185036336171041,-0.1572978841008693,-0.2116866806884766,-1.403839643689647,1.301588629581735,1.9900271178647693,0.0622282222596131,-0.1654937169260698,-0.2799898200367779,2.0364086496054985,1.3072499505552642,-1.5471191322842135,-0.2109031661248595,10.723634582414888,-0.7934806768000864,0.0762087731295627,-1.0957373163985398
0.26,-1.398763394001218,1.2949631787611977,1.9827596064628008,0.1458621493331001,0.1520555593033548,0.051403642583149,0.1391043531144174,-0.1869811091123051,-0.2186864526289832,-1.403217361467051,1.2999336924124745,1.9872272196644016,0.0661315244373999,-0.185493717224093,-0.2999898203348012,1.84016323875466,1.0300359748656625,-1.4841612505717916,-0.3499885970253302,10.506204982006238,-0.8008664458208476,0.0776758858630152,-1.0916933172555936
0.28,-1.3958284457885717,1.2909480037239702,1.978284714417265,0.14068275765552,0.1373001187230446,0.0485605424768227,0.1527745515854603,-0.2127110155570493,-0.2283259608131428,-1.4019727970218585,1.2966238180739529,1.981627423263666,0.0739381287929736,-0.2254937178201395,-0.3399898209308476,1.5344563613259494,0.6835099235521447,-1.2864953222372064,-0.4819754092079811,10.272826168566098,-0.8110691256515145,0.0803127027201768,-1.085594796788612
0.3,-1.3928486419959007,1.2866842769202256,1.973831012888072,0.135663482565675,0.1229620540831419,0.0458764986481152,0.1598804751663866,-0.234751178681914,-0.2399643004092298,-1.4007282325766663,1.2933139437354315,1.9760276268629309,0.0817447331485472,-0.2654937184161859,-0.3799898215268941,1.2958721860801494,0.3552961790463188,-1.1020081562432351,-0.5819169798043505,10.06809589159002,-0.8229052127979537,0.0823855791292765,-1.0791331492134792
0.32,-1.389620494489214,1.2817629579813217,1.9688787642728192,0.1308423505466757,0.1088521208367355,0.0432873800098245,0.1622466440562692,-0.2562132840430243,-0.2547703530434089,-1.3990933379136954,1.2880040693671078,1.9684278304323928,0.0895513375041208,-0.3054937190122324,-0.4199898221229405,1.3090453738821748,0.1183084444941265,-1.073105268055517,-0.7403026317089514,9.885871138778384,-0.8348899647922674,0.0840210209622836,-1.0724727461449015
0.34,-1.38639014435029,1.276423456576239,1.9636122645811616,0.1266798356437581,0.0966700290834629,0.0410535753495927,0.1605087976943297,-0.2766884031334998,-0.2712027701793306,-1.3974584432507244,1.282694194998784,1.960828034001855,0.0973579418596945,-0.3454937196082789,-0.459989822718987,1.315555913554982,-0.0868923180969719,-1.023755954523775,-0.8216208567960848,9.72009812080796,-0.8458854210572623,0.0845502786009558,-1.0670162712312072
0.36,-1.383227403118968,1.2706731775229003,1.9580013236445135,0.1228720567134194,0.0869692633278668,0.0391989137812403,0.1558994982108731,-0.2971782135255975,-0.2890444361063681,-1.395628383478864,1.2763843206155592,1.952228237556416,0.1051645462152682,-0.3854937202043253,-0.4999898233150334,1.3778633955188724,-0.2304649741728295,-1.024490519604884,-0.8920832963518754,9.633515170011378,-0.8545273643157978,0.0846163317061116,-1.0633475637953294
0.38,-1.38032863144588,1.2648347904858377,1.952329466566602,0.1192886989195257,0.0802270211199769,0.0377697622484431,0.1494687084736143,-0.316205160356691,-0.3070822009651504,-1.3936031585981146,1.2690744462174333,1.942628441096076,0.1129711505708418,-0.4254937208003717,-0.5399898239110799,1.3497599077787985,-0.3215394868629428,-0.951347341554673,-0.901888242939114,9.565534338463294,-0.8607282656659427,0.0844969521863738,-1.0620051894903029
0.4,-1.3774282636577715,1.2583074967089245,1.945977278307752,0.115525477505857,0.0760579176883109,0.036632675230939,0.1408263913501632,-0.3353915360191769,-0.3272358634330856,-1.3728551960221993,1.249024532468003,1.9369753565183443,0.183274343300036,-0.4162051618468071,-0.4070822024552665,1.456860294602567,-0.432115856172556,-0.9593187831242966,-1.0076831233967631,9.50804422164856,-0.8636326605419969,0.0843497776866268,-1.0634356838212726
0.42,-1.3747432872156595,1.2513822183121333,1.9394840931064,0.1121636022920699,0.0769228494964337,0.0361067478430184,0.1288189110978158,-0.3563692885880957,-0.3196342424968446,-1.3728551960221993,1.249024532468003,1.9369753565183443,0.183274343300036,-0.4162051618468071,-0.4070822024552665,1.2669158670878546,-0.6003740126173703,-1.048887628445938,0.3800810468120502,11.27737415984666,-0.8675365754351844,0.0791718857722223,-1.0690182189386024
0.44,-1.37226132334815,1.2440480817934956,1.9331492830208556,0.1095327812099941,0.0832384612087904,0.0362275535844548,0.1206145077082534,-0.3760240952679076,-0.3146724786368264,-1.3728551960221993,1.249024532468003,1.9369753565183443,0.183274343300036,-0.4162051618468071,-0.4070822024552665,1.0934381111910558,-0.4102201694781163,-0.9827403339905976,0.2480881930009115,10.825833808104107,-0.865772070351762,0.0833320079605953,-1.0677705726893207
0.46,-1.3700110763021704,1.2367227961118576,1.927162641654856,0.1075054882553707,0.0921545210481615,0.0366710618398758,0.1171272031246847,-0.3940611660092823,-0.3157193746651059,-1.371022452589199,1.2448624808495348,1.932904534493792,0.1900354702653204,-0.4362051621448303,-0.4270822027532897,0.9200451150377912,-0.1743652291784345,-0.9018535370687336,-0.0523448014139754,10.825833808104107,-0.8585035471344794,0.0860193718628997,-1.0723734992709637
0.48,-1.367674196819458,1.2286513252433056,1.9207954553419624,0.1056528146535819,0.1029375921995421,0.0372799317965938,0.1171575916911765,-0.4121028632756425,-0.321154343673766,-1.367356965723198,1.2365383776125989,1.9247628904446863,0.2035577241958891,-0.4762051627408767,-0.4670822033493361,0.9421287754880692,0.0015194283245881,-0.9020848633180116,-0.2717484504330042,10.464594849631794,-0.8471898087356525,0.0872234364163146,-1.0816308413018825
0.5,-1.3653025050858685,1.2202268650054018,1.914279753935365,0.1040319251195027,0.114178835540584,0.03792521834869,0.1203533759838381,-0.4294066240751703,-0.330313898714065,-1.3636914788571974,1.2282142743756626,1.9166212463955807,0.2170799781264578,-0.5162051633369232,-0.5070822039453826,0.9918803148424262,0.1597892146330805,-0.8651880399763889,-0.4579777520149514,10.205558328237204,-0.8336983856966611,0.087353395781566,-1.0934409108951653
0.52,-1.3628287558203096,1.2114650808430818,1.9075459780507635,0.1026270964013588,0.12499839575819,0.0385153094370065,0.1270702491583319,-0.4459033519907963,-0.3426376108853657,-1.3593498792946683,1.217890171108924,1.9064796023166732,0.2306022320570264,-0.5562051639329697,-0.5470822045414291,1.0829731054434026,0.3358436587246875,-0.8248363957812976,-0.6161856085650341,10.012745659564644,-0.8216119386776994,0.0874594258741221,-1.1036511010297678
0.54,-1.3603241746003416,1.202842445934806,1.900907800928491,0.1015695408633829,0.1341394716599328,0.0389567894714383,0.1363096683590455,-0.4609320291254555,-0.3555401532778277,-1.355008279732139,1.2075660678421856,1.8963379582377655,0.2441244859875952,-0.5962051645290162,-0.5870822051374756,1.0928215817021831,0.4619709600356819,-0.7514338567329637,-0.6451271196230984,9.863535992953985,-0.8089889903457577,0.0866608265415523,-1.11486798845636
0.56,-1.357473586938319,1.1934544771650235,1.8936434358366216,0.1005944817131058,0.1420756117496196,0.0392404949743749,0.1483299366430657,-0.4770095735250105,-0.3702876759318625,-1.3503286238213457,1.196241964560546,1.885196314143957,0.2576467399181639,-0.6362051651250625,-0.6270822057335219,1.2454554467851884,0.6010134142010112,-0.80387721997775,-0.7373761327017447,9.817926012959106,-0.7973428233093631,0.0855305139767652,-1.1254167390530116
0.58,-1.3543624414196644,1.1837416525100737,1.8860721289878075,0.0993663259297488,0.1479538199016954,0.0392808020441027,0.1620826178917815,-0.4933285000227422,-0.3861207441002699,-1.345310911562288,1.1839178612640051,1.873054670035247,0.2711689938487325,-0.676205165721109,-0.6670822063295684,1.3286550071337009,0.6876340624357907,-0.8159463248865823,-0.7916534084203675,9.776777871562444,-0.787847742050391,0.0844947739244512,-1.1344065432981552
0.6,-1.3511429715895016,1.1742118512350246,1.878576437861084,0.0977071749464142,0.1515802813198927,0.0390735342954577,0.1759836134912161,-0.5088135676438635,-0.4021078139425054,-1.3462583105250754,1.1590752275089364,1.866766091782794,0.1919324302802016,-0.5933285015128583,-0.486120745590386,1.3120703106414624,0.6950497799717265,-0.774253381056067,-0.7993534921117734,9.742698072416715,-0.7797153766696674,0.0836541059489013,-1.142776802536125
0.62,-1.34737689133008,1.163827009857888,1.8706365944647787,0.0948961241590901,0.1520480834434633,0.0384407054159537,0.2001087572823369,-0.528506258107241,-0.3894843609567827,-1.3462583105250754,1.1590752275089364,1.866766091782794,0.1919324302802016,-0.5933285015128583,-0.486120745590386,1.6801608449129204,1.2062571895560397,-0.9846345231688702,0.6311726492861325,9.704908310150133,-0.7823524748367022,0.0810945957157398,-1.146180320268395
0.64,-1.3431273348117592,1.153081518616415,1.862959418118442,0.0915768840471524,0.1475619335279737,0.0373024178748299,0.2229246948573768,-0.5449912895244085,-0.3792837543916771,-1.3462583105250754,1.1590752275089364,1.866766091782794,0.1919324302802016,-0.5933285015128583,-0.486120745590386,1.4969766552531778,1.1407968787519984,-0.8242515708583753,0.5100303282552815,11.236473275388562,-0.785013131656832,0.0858779231862143,-1.1424709878383263
0.66,-1.3384750253513693,1.1420229882266502,1.855412913069845,0.0884819265250421,0.1393339402024343,0.0358547327601506,0.2405500144085134,-0.5600449802086938,-0.3757866918483118,-1.3443389862222734,1.153141942493808,1.8619048843268904,0.1979023927578857,-0.6133285018108815,-0.5061207458884093,1.172065419387955,0.8812659775568304,-0.7526845342142652,0.1748531271682646,11.236473275388562,-0.7917055012199479,0.0902413901004116,-1.1359176019562809
0.68,-1.3337809724533236,1.1312493145996048,1.8482571284084333,0.0858488286049421,0.1296013725020328,0.0343567217628403,0.252274988328972,-0.5733130899783788,-0.3775791815736923,-1.340500337616669,1.1412753724635507,1.8521824694150824,0.2098423177132537,-0.653328502406928,-0.5461207464844556,0.8898465734488153,0.5862486960229257,-0.6634054884842533,-0.0896244862690243,10.817421744501187,-0.8012312518355545,0.0931232604079429,-1.1286989245812775
0.7000000000000001,-1.3286504545400344,1.1196458575610886,1.8406437266581872,0.0835020658579333,0.1187030054575426,0.032781811852813,0.2597692755697948,-0.5863722955448499,-0.3838510688903274,-1.3366616890110654,1.1294088024332936,1.8424600545032743,0.2217822426686218,-0.6933285030029744,-0.5861207470805021,0.8155423989405416,0.3747143620411397,-0.6529602783235555,-0.3135943658317541,10.477615946763764,-0.8116350284722562,0.0948684900667494,-1.121509505256751
0.72,-1.3234178680005753,1.1077880192553264,1.832858053263673,0.0816244687642147,0.1082466573282908,0.0313014644122561,0.2629286471530309,-0.5988411516080321,-0.3943709616798886,-1.332226044157693,1.115542232373234,1.8307376395616648,0.2337221676239898,-0.7333285035990209,-0.6261207476765486,0.8308461720276166,0.1579685791618046,-0.6234428031591077,-0.525994639478064,10.198447771038444,-0.821064818104774,0.0954201264643267,-1.1156839811093937
0.74,-1.3184210861591186,1.096296788800519,1.8252463685076457,0.0802797525128552,0.0994345123158438,0.0300345836379322,0.2628281833926698,-0.6101844344156943,-0.4063199571884717,-1.3277903993043203,1.1016756623131745,1.8190152246200544,0.2456620925793579,-0.7733285041950674,-0.666120748272595,0.8238001145391511,-0.0050231880180523,-0.5671641403831085,-0.5974497754291513,9.96693799309105,-0.8299503460149745,0.094840609133483,-1.111048365541246
0.76,-1.3131866623212318,1.0839641253154029,1.816971757940553,0.0791734957543881,0.0917307481060065,0.0288606676518194,0.2605347371997698,-0.6224387906561012,-0.4205786169879443,-1.3230562563270638,1.086809092238214,1.8062928096635436,0.2576020175347259,-0.8133285047911137,-0.7061207488686414,0.9470196956553042,-0.114672309645003,-0.6127178120203469,-0.7129329899736331,9.854214533170309,-0.8375084636186119,0.0937478280025806,-1.107533841958871
0.78,-1.308019177967402,1.0713835259743405,1.8083953219351143,0.0780499795129331,0.085870127620935,0.0278407851910892,0.2561984045978104,-0.6349332519439403,-0.4364080824079028,-1.318023615225923,1.0709425221483522,1.792570394692131,0.2695419424900939,-0.8533285053871602,-0.7461207494646879,1.031367197934117,-0.2168166300979684,-0.6247230643919577,-0.791473270997925,9.758812145936645,-0.8427100145589048,0.0925167240396936,-1.105940350480482
0.8,-1.302961067771482,1.058551364368039,1.7994853633035583,0.0766292831618092,0.0823689433826501,0.0269929462220452,0.2498059326071068,-0.6475246318760862,-0.4537824736433475,-1.2952092577375114,1.0396368633771431,1.7865749178147192,0.301296441125444,-0.7349332534340565,-0.536408083898019,1.1194597106973891,-0.3196235995351765,-0.6295689966072937,-0.8687195617722354,9.67954354413814,-0.8457357769022055,0.0914210783104055,-1.1062304223789767
0.8200000000000001,-1.298300788031568,1.0460843935438502,1.7910127570698209,0.074281154208783,0.083063591785741,0.0264306541948371,0.2418214853960087,-0.6634942446741643,-0.4371061278635788,-1.2952092577375114,1.0396368633771431,1.7865749178147192,0.301296441125444,-0.7349332534340565,-0.536408083898019,1.2215568332600852,-0.3992223605549044,-0.7984806399039035,0.8338172889884393,9.60866232950957,-0.8452493837192168,0.0874491835283759,-1.1137760190987245
0.84,-1.293532832095521,1.0326733613547832,1.782408210673339,0.0713211255431213,0.0884747528695264,0.0261483829945333,0.2359404041727102,-0.676669968163259,-0.4246774513100217,-1.2952092577375114,1.0396368633771431,1.7865749178147192,0.301296441125444,-0.7349332534340565,-0.536408083898019,0.9521801387986596,-0.2940540611649278,-0.6587861744547341,0.6214338276778503,11.8438710875962,-0.8444311660017679,0.0930308722233358,-1.109856517303518
0.86,-1.288844988054464,1.0190179015282188,1.77397627945238,0.0686190184219409,0.0969941985304077,0.0260916507848875,0.2336219241020852,-0.6881756008467527,-0.4194217397558848,-1.292196293326257,1.0322875308428028,1.7812108369757391,0.3103160484309708,-0.7549332537320796,-0.5564080841960422,0.6429957955260135,-0.1159240035312508,-0.5752816341746847,0.2627855777068477,11.283509508713903,-0.8388722456288625,0.0973967904774717,-1.1109470124180936
0.88,-1.284165038182655,1.005146874837313,1.7655821469062454,0.0663263270367208,0.1070544628734622,0.0261512534995658,0.2349062333247923,-0.6984120420838177,-0.4202455066976743,-1.286170364503748,1.0175888657741217,1.7704826752977787,0.3283552630420243,-0.7949332543281261,-0.5964080847920886,0.5174765003210314,0.0642154611353543,-0.511822061853251,-0.0411883470894769,10.486438410224764,-0.8303096160269589,0.1002759401099942,-1.1157744839839965
0.9,-1.2796622092058905,0.9917888880112714,1.7575491666668617,0.0645853784577185,0.1169210304761136,0.0262438622543461,0.2392654042759288,-0.7072704124372486,-0.4253149322661146,-1.2801444356812393,1.0028902007054403,1.7597545136198185,0.3463944776530777,-0.8349332549241726,-0.6364080853881351,0.5549147959230625,0.2179585475568277,-0.4429185176715478,-0.2534712784220155,10.486438410224764,-0.819322762307731,0.1020883122310498,-1.1233839764351816
0.92,-1.274803629361802,0.9775550324161424,1.748952949430864,0.0633109516622881,0.1268161584085394,0.0263374583270945,0.2465858118712739,-0.7156783516838606,-0.4342290534084775,-1.2732165461281777,0.986191535606957,1.7470263519120557,0.3644336922641312,-0.874933255520219,-0.6764080859841816,0.7136935012269371,0.3660203797672554,-0.4203969623305992,-0.4457060571181448,10.237187222259308,-0.8074149273213346,0.1027590157712311,-1.132406445341849
0.94,-1.2697698265298965,0.9631614525468896,1.7401575200322652,0.0628569579595926,0.1356021835938018,0.0264135552037184,0.2565280794692571,-0.7233715133881009,-0.4449010622693128,-1.266288656575116,0.9694928705084735,1.7342981902042929,0.3824729068751847,-0.9149332561162656,-0.716408086580228,0.8245077245290682,0.497113379899157,-0.384658085212014,-0.5336004430417624,9.979152045352748,-0.7962574214600402,0.1020704763553811,-1.141517535413284
0.96,-1.2647808091578845,0.9493390341012607,1.731592874576832,0.0630407637017319,0.1425002193907759,0.0264394823860563,0.2681258897427993,-0.7312217063823502,-0.4561357713774547,-1.2589097866567782,0.951794205395089,1.720570028481629,0.4005121214862381,-0.954933256712312,-0.7564080871762744,0.8977101730689688,0.5798905136771088,-0.3925096497124636,-0.5617354554070947,9.979152045352748,-0.7854039856330053,0.1003912709583961,-1.1507755415274223
0.98,-1.2592766100893873,0.9346246395935136,1.7223343486910232,0.0635895000558314,0.1479996225846734,0.0263845901110341,0.2816781411051792,-0.7398018443578055,-0.4691956641836454,-1.251079936373164,0.9330955402668032,1.7058418667440638,0.4185513360972916,-0.9949332573083584,-0.7964080877723209,1.0342184063051811,0.6776125681189987,-0.4290068987727657,-0.6529946403095344,9.938530968732266,-0.7763611512303712,0.0982795516900558,-1.15874879574347
1.0,-1.2534902223329178,0.9197325251671808,1.7128015562460503,0.0642361349021879,0.1516048490966147,0.0262198178969284,0.2961508521291427,-0.7489300407395367,-0.4834392454677411,-1.2451927030341283,0.8976345473756233,1.698874565481841,0.3361328924179119,-0.8398018458479216,-0.5691956656737616,1.113174448776167,0.7236355511981762,-0.4564098190865617,-0.7121790642047876,9.886582669384552,-0.7695452618816118,0.0960521338281095,-1.1652127527924083
1.02,-1.2473358473736784,0.9045906219597448,1.7033337267162152,0.0634423305578991,0.1528324721921278,0.0258036734317069,0.3182869977489583,-0.7642042982217097,-0.4625685347772114,-1.2451927030341283,0.8976345473756233,1.698874565481841,0.3361328924179119,-0.8398018458479216,-0.5691956656737616,1.7021298784619736,1.1068072809907792,-0.7637128741086463,1.0435355345264878,12.108792278107105,-0.7677557171634187,0.0922592329373201,-1.1712130980565831
1.04,-1.241088678803445,0.8899475793830761,1.694693609576844,0.060973040584024,0.1515122134221236,0.0251359283829112,0.3380151096221864,-0.7761938474994615,-0.4480216931283423,-1.2451927030341283,0.8976345473756233,1.698874565481841,0.3361328924179119,-0.8398018458479216,-0.5691956656737616,1.3643297731152784,0.9864055936614048,-0.5994774638875933,0.7273420824434523,12.108792278107105,-0.7710455145797446,0.0975857020261932,-1.1651780151590758
1.06,-1.234126983379658,0.874319739216392,1.6858279420734588,0.0577635870084287,0.147660424753518,0.0242571693853099,0.3568955421540801,-0.7858098122917798,-0.4395938835246706,-1.2418313741099491,0.8892365289171441,1.6931826088251032,0.3470238426804585,-0.8598018461459448,-0.5891956659717847,1.140137586208608,0.9440216265946848,-0.4807982396159149,0.4213904801835866,11.576425832595303,-0.7763185868412406,0.1033154812167631,-1.1581780662634258
1.08,-1.2268192636817614,0.8585221741572201,1.6770565109299684,0.0548196428589892,0.1415650463383486,0.0232940617477784,0.3724856379684664,-0.7935467674917973,-0.4379020847444184,-1.235108716261591,0.8724404920001856,1.681798695511628,0.3688057432055515,-0.8998018467419913,-0.6291956665678312,0.874319372972034,0.7795047907193126,-0.3868477600008746,0.0845899390126109,11.104295787152296,-0.7813801356124817,0.1074245780269181,-1.1530652912033883
1.1,-1.219242857705551,0.8425822294868243,1.6682626926020796,0.0524405968979001,0.134267274146916,0.0223343848602167,0.3840818612623491,-0.8002051156534774,-0.4415301750228863,-1.228386058413233,0.8556444550832272,1.6704147821981528,0.3905876437306446,-0.9398018473380376,-0.6691956671638777,0.6927644512972133,0.5798111646941384,-0.3329174080840047,-0.1814045139233971,10.705496204338488,-0.7877887094539869,0.1104054078463115,-1.1478851105910783
1.12,-1.2118654188064422,0.8273234311227449,1.6597986435827397,0.0508104918247784,0.1271053177270401,0.0214797207335275,0.3917460493515362,-0.8057880977514488,-0.4492201667323574,-1.2205743055386198,0.8368484181364664,1.6570308688548752,0.4123695442557377,-0.979801847934084,-0.7091956677599242,0.6104208397991483,0.3832094044593531,-0.2791491048985683,-0.3844995854735522,10.120881028761689,-0.7946871024525045,0.1121193813629808,-1.1429972258015093
1.14,-1.203971914570724,0.8111541493923607,1.6507075850533364,0.0499375518262199,0.1200326110412028,0.0206823113179237,0.3970380042577183,-0.810920199704413,-0.4595719919861779,-1.212762552664007,0.8180523811897057,1.6436469555115978,0.4341514447808308,-1.0198018485301306,-0.7491956683559706,0.6354202217240165,0.264597745309103,-0.2566050976482104,-0.5175912626910251,10.120881028761689,-0.8011106437038809,0.1121059108596226,-1.1394486062317322
1.16,-1.1959950844141374,0.7948774436206959,1.6413875130908906,0.0498747634812175,0.1138770850203998,0.0199988243713413,0.4003013360385306,-0.8165127396022994,-0.4719010586131775,-1.2044062522762666,0.7982563442280437,1.629263042153419,0.4559333453059239,-1.059801849126177,-0.789195668952017,0.6962968488979903,0.1631665890406142,-0.2796269948943219,-0.6164533313499837,9.987522484118015,-0.8064081220630168,0.1108261270594725,-1.1372637343134735
1.18,-1.1879725155089316,0.7784843847109427,1.6318036550758224,0.0503097321382703,0.1089187166473022,0.0194159372700948,0.4017017952402411,-0.8225057936592852,-0.4858626532127348,-1.195505404375399,0.7774603072514806,1.6138791287803391,0.4777152458310169,-1.0998018497222233,-0.8291956695480635,0.7628959736884144,0.0700229600855251,-0.2996527028492901,-0.6980797299778657,9.884248167510124,-0.8099376879029077,0.1087872903625421,-1.1367590140688637
1.2,-1.1803418444394105,0.7627955545559683,1.6224260390787426,0.0509814242520577,0.1057027259806809,0.0189591275786268,0.4014090290751252,-0.8286285953702462,-0.5005554838164901,-1.1678874257469196,0.7373590950279785,1.6075105224151855,0.4770405314167318,-0.9225057951494012,-0.583234074967095,0.7960114383126498,-0.0146383082557932,-0.3061400855480511,-0.7346415301877601,9.79693106842842,-0.8118210075998389,0.1060426299475816,-1.1379658337310037
1.22,-1.1723363140935117,0.7460969920656639,1.6125916190238916,0.050664593030906,0.1058157100569779,0.0185899923467069,0.3997232833025068,-0.8406957915947318,-0.4802700034181805,-1.1678874257469196,0.7373590950279785,1.6075105224151855,0.4770405314167318,-0.9225057951494012,-0.583234074967095,1.1831733585155035,-0.0842872886309215,-0.60335981122428,1.0142740199154787,9.720059753573878,-0.8097803261603002,0.0997129753710867,-1.1476756794291905
1.24,-1.1643454635716053,0.7291744934923897,1.6031694418455789,0.0487592221341441,0.1104280595383513,0.0183425869405799,0.399936623778737,-0.8507836524006208,-0.4635356370558432,-1.1678874257469196,0.7373590950279785,1.6075105224151855,0.4770405314167318,-0.9225057951494012,-0.583234074967095,0.9770484472976688,0.0106670238115141,-0.5043930402944485,0.8367183181168636,12.179063211397988,-0.8094985813218363,0.1044343865401865,-1.142970559507749
1.26,-1.1567227895035592,0.7129322508375892,1.594448866591386,0.0462426763358707,0.1175471275050908,0.0181885566679141,0.402878020982316,-0.8582109553755296,-0.4552131368096445,-1.1631170204327523,0.7281340370764845,1.6016781816655146,0.49210827865203,-0.9425057954474244,-0.6027083593179671,0.576802950188124,0.1470698601789499,-0.3713651487454394,0.4161250123099369,11.584407349041612,-0.8047175991449087,0.1095478404183517,-1.142233930406657
1.28,-1.148606269023966,0.6957079841824091,1.5853819889879623,0.0437404398991128,0.1265140048939116,0.0180947430834064,0.4089833037543838,-0.8638521075325359,-0.4521870033673507,-1.1535762098044176,0.7096839211734964,1.5900135001661728,0.5222437731226264,-0.982505796043471,-0.6416569280197111,0.4423080346205935,0.3052641386033866,-0.2820576078503167,0.1513066721146871,11.088461361892769,-0.7963115022947757,0.113688973631689,-1.1454440556501524
1.3,-1.1403358188943926,0.6783837528687668,1.5763225366643996,0.0418090038492052,0.1359058671190847,0.0180501198577671,0.4180380337830056,-0.868383738247118,-0.454130809801891,-1.144035399176083,0.6912338052705084,1.5783488186668309,0.5523792675932226,-1.0225057966395177,-0.6806054967214552,0.5155147822311448,0.4527365014310919,-0.2265815357291034,-0.0971903217270142,10.726356654719892,-0.7860059432941376,0.1165950085781921,-1.150991628143073
1.32,-1.1318560574459695,0.6609793871611496,1.5671787343754635,0.0406499587922138,0.1448671075619694,0.0180377781920508,0.4296669653152473,-0.8719611243231641,-0.4601756296256922,-1.1329878138242186,0.670783689337718,1.5647367087324018,0.5825147620638189,-1.0625057972355638,-0.7195540654231993,0.679281948863785,0.5814465766120824,-0.1788693038023037,-0.3022409911900614,10.451814096375529,-0.7755806146169854,0.1181197788178524,-1.157431039707095
1.34,-1.123561467019942,0.6443867976254725,1.5583648764083886,0.0405356744130457,0.1524579787658791,0.0180612048141387,0.4429460503468724,-0.8746014381545308,-0.4673263931675886,-1.121940228472354,0.6503335734049277,1.5511245987979727,0.6126502565344153,-1.1025057978316104,-0.7585026341249435,0.7655696827156776,0.6639542515812585,-0.1320156915683379,-0.357538177094821,10.2491228633653,-0.764771860298285,0.1181663117854257,-1.164785246890177
1.36,-1.1145357814446282,0.6268613725416645,1.5489286645465452,0.0414500114802178,0.1590573847701911,0.0181128765127102,0.4589849445524181,-0.8778609768958524,-0.475986311609917,-1.1101392557587249,0.6288834574572362,1.536538774646,0.6427857510050116,-1.1425057984276568,-0.7974512028266875,0.9258305832746084,0.8019447102772831,-0.1629769370660783,-0.4329959221164164,10.144802958892797,-0.7549581692798182,0.1169555288101907,-1.171687654051692
1.38,-1.1051705709338124,0.6092638897730264,1.5393076137853368,0.0431488339287017,0.1638468019804126,0.0181585677775874,0.4766322776187323,-0.8817680642366948,-0.4857017176954125,-1.0975848956833305,0.6064333414946436,1.5209792362764836,0.6729212454756078,-1.1825057990237031,-0.8363997715284315,1.0260151208053443,0.882366653315711,-0.195354367042122,-0.4857703042747768,10.144802958892797,-0.7473413718111699,0.1148695881707564,-1.177314219399261
1.4,-1.0959382383345777,0.5924658149364052,1.5299781340289251,0.0452231261760303,0.1665969244420791,0.0181681545477286,0.494167649532287,-0.886331136149945,-0.4958713535577421,-1.0813389570528755,0.5651754865611917,1.515022527900566,0.5621057256568336,-0.981768065726811,-0.549599603077588,1.0389085462692993,0.8767685956777349,-0.2281535956625058,-0.5084817931164803,10.065470611183628,-0.7411067233513016,0.1119786945855606,-1.182326379744735
1.42,-1.0857655178810073,0.5746101642644664,1.520308108997314,0.0458261127362396,0.1667300839726666,0.0179500377557155,0.5224445598953188,-0.8986158491727789,-0.4686231443074814,-1.0813389570528755,0.5651754865611917,1.515022527900566,0.5621057256568336,-0.981768065726811,-0.549599603077588,2.0572814228237672,1.413845518151588,-0.614235651141698,1.3624104625130362,10.065470611183628,-0.7413474118523291,0.1063529113686353,-1.1877545245979275
1.44,-1.07502349104107,0.5565256659233047,1.5112094716482032,0.0438253141108225,0.1630018810053373,0.0173849498219065,0.5499478960952364,-0.9089832427553538,-0.4430626232822951,-1.0813389570528755,0.5651754865611917,1.515022527900566,0.5621057256568336,-0.981768065726811,-0.549599603077588,1.9475988979386287,1.3751668099958814,-0.518369679128744,1.278026051259315,12.273154086636168,-0.7497784253414445,0.1136457073633359,-1.1751597097117903
1.46,-1.0637738194031126,0.5382629010737127,1.5025409598390702,0.0403081499890351,0.1559393399650437,0.0165993801632533,0.5730361336824682,-0.9163502562489436,-0.4249357888642569,-1.0757178997963075,0.5553578059039236,1.50952653186979,0.5792004152644539,-1.0017680660248345,-0.5623791801540231,1.513209939762301,1.1544118793615887,-0.3683506746794907,0.9063417209019098,12.273154086636168,-0.7598244527269229,0.1213158279479429,-1.1628107753892285
1.48,-1.052710004689455,0.5208104774773067,1.4945807760174354,0.0369257740474965,0.1474223009564522,0.0158222968939151,0.5900389291589616,-0.920447369205463,-0.4138181864302551,-1.0644757852831708,0.5357224445893873,1.4985345398082384,0.6133897944796943,-1.0417680666208806,-0.5879383343068934,1.036197944982601,0.8501397738246708,-0.2048556478259688,0.5558801217000892,11.752162763420529,-0.7714677705854436,0.1284482135338598,-1.1502282701714723
1.5,-1.0407658473742374,0.5023734214127501,1.4863765221074836,0.0340416240596908,0.1377964501840954,0.0150764424848372,0.6031016901335048,-0.9231671540377384,-0.4074086897619395,-1.053233670770034,0.5160870832748511,1.4875425477466866,0.6475791736949348,-1.081768067216927,-0.6134974884597635,0.7401260050712181,0.6531380487271587,-0.1359892416137653,0.320474833415782,11.304588743531896,-0.7831164553238894,0.1338379251800342,-1.138781684133524
1.52,-1.0286068854536774,0.4838915979249686,1.4782474164470694,0.0320765716202776,0.1285105847308168,0.0144483541646734,0.6118815564789851,-0.9250312594215436,-0.4060105544993507,-1.0402820872961354,0.4944517219305125,1.4752725979774914,0.6817685529101752,-1.1217680678129731,-0.6390566426126336,0.4541908303205954,0.4389933172740168,-0.0932052691902718,0.0699067631294375,10.627936799895906,-0.7931850677636487,0.1372700912536967,-1.129553005527146
1.54,-1.0163083229381873,0.4653800197266222,1.4701162275996005,0.03116681111355,0.1203018807786695,0.0139580443052232,0.6173892710325595,-0.9261337665267816,-0.4072573182045992,-1.027330503822237,0.472816360586174,1.463002648208296,0.7159579321254158,-1.16176806840902,-0.6646157967655039,0.2876841204232501,0.2753857276787175,-0.0551253552618924,-0.0623381852624255,10.627936799895906,-0.8022165054222103,0.1387736503366708,-1.122280665096506
1.56,-1.0045447886363277,0.4477712206501504,1.4623487249165623,0.0312871679985975,0.1138679389006904,0.0136189958762526,0.6205481997072204,-0.927438067910942,-0.4102918879057168,-1.013524185867957,0.4501809992269343,1.450093719585279,0.7501473113406563,-1.2017680690050665,-0.690174950918374,0.2285204900181751,0.1579464337330471,-0.0652150692080189,-0.1517284850558797,10.47854236908188,-0.8093783372805438,0.13869648151254,-1.1170088665042106
1.58,-0.9921167001053456,0.4292059823189619,1.4540955213133118,0.0322663391814165,0.1087573998821722,0.0133815351416969,0.6219607394609907,-0.9290749290018137,-0.4149315138796619,-0.9988631334332962,0.4265456378527934,1.4365458121084402,0.7843366905558967,-1.2417680696011126,-0.7157341050712441,0.2559331551640806,0.0706269876885157,-0.0818430545435788,-0.2319812986972536,10.369866660870684,-0.8142210759776712,0.1372628898767004,-1.1141353281795283
1.6,-0.9796802206521638,0.4106021911690438,1.4457343399027065,0.0339803396738023,0.105795533658152,0.0132687453371338,0.6215890130530058,-0.9312777178259553,-0.4209493770769835,-0.961018663132296,0.3827522358688712,1.433348945619329,0.7219607409511068,-1.0290749304919298,-0.4404698093870929,0.3209561363638122,-0.0185863203992442,-0.1101394412070799,-0.3008931598660808,10.283605838692893,-0.8164090062742855,0.1348601169769692,-1.113711154419258
1.62,-0.9678616562858596,0.3928168640729149,1.4379898388611712,0.0344387927566616,0.1057986908560076,0.0131810762360152,0.6229322530238045,-0.9400763290839932,-0.3939058034244934,-0.961018663132296,0.3827522358688712,1.433348945619329,0.7219607409511068,-1.0290749304919298,-0.4404698093870929,1.4235297060360972,0.0671619985399329,-0.4399305629019079,1.352178682624508,10.214640543262249,-0.8177190581311116,0.1295925318460916,-1.1183915054493878
1.64,-0.9553763644553476,0.3739387576763271,1.4303837285954408,0.0328695809028542,0.1086051480061749,0.0130521701635972,0.6258211752803997,-0.9471033117719913,-0.3684665350372083,-0.961018663132296,0.3827522358688712,1.433348945619329,0.7219607409511068,-1.0290749304919298,-0.4404698093870929,1.3274795041566505,0.1444461128297602,-0.3513491343998975,1.2719634193642526,12.106728563895558,-0.8199808360256043,0.1349582141135525,-1.110573400962373
1.66,-0.942816347024336,0.3549439150970926,1.4232254413258376,0.030181838218469,0.1133169448413059,0.0129143163619919,0.6303692396870536,-0.951826039060136,-0.3486001402619316,-0.953799055722785,0.3724614865639519,1.4289442475254577,0.74196074124913,-1.049074930789953,-0.4455774684885791,1.0460194599676411,0.2274032203326947,-0.23613636440723,0.9933197387638344,12.106728563895558,-0.818673203649197,0.1402472853768347,-1.1070513832482525
1.68,-0.9307817706485462,0.336839159448933,1.4167517607649085,0.0276403631172716,0.1187601606963899,0.012814888578629,0.6364346890636806,-0.95380444497823,-0.3338312566575444,-0.9393598409037628,0.3518799879541133,1.420134851337716,0.7819607418451765,-1.0890749313859995,-0.4557927866915516,0.8043999145902394,0.3032724688313504,-0.098920295904703,0.7384441802193636,11.740007597603835,-0.8153833092496218,0.145644810227609,-1.105159723611248
1.7,-0.9179702124306844,0.3177564119835738,1.4102077524328862,0.0256897697444494,0.1248673751789793,0.0127729991377273,0.6446060103458079,-0.9545207877255985,-0.3215011872775652,-0.9249206260847408,0.3312984893442747,1.411325455149974,0.821960742441223,-1.129074931982046,-0.466008104894524,0.7404631141092578,0.4085660641063637,-0.0358171373684268,0.6165034689989551,11.457207816307346,-0.8108084866717655,0.1499238645841062,-1.1049327605787231
1.72,-0.9049761187216356,0.2986695816736501,1.4038808416638329,0.0248033244661843,0.1308543669610092,0.0128083208304106,0.654549456831746,-0.9542305140700498,-0.3119255193829021,-0.9084814112359164,0.3087169907046337,1.4020052930520837,0.8619607430372694,-1.1690749325780925,-0.4762234230974964,0.6903799722665475,0.4971723242969073,0.0145136827774339,0.4787833947331565,11.250094667439043,-0.8057677869284339,0.152789420766087,-1.1057019800659642
1.74,-0.8917638253448112,0.2795990071098703,1.3977349201774123,0.0254407525748618,0.1362868895375555,0.0129484284731407,0.666267106569738,-0.9530958789786502,-0.303152188278098,-0.8920421963870918,0.2861354920649928,1.3926851309541932,0.901960743633316,-1.2090749331741388,-0.4864387413004688,0.7341015782019221,0.5858824868995971,0.0567317545699774,0.4386665552402052,11.089820879894432,-0.8010613173731097,0.1536627779265234,-1.107145800321873
1.76,-0.8789758611962654,0.2614953520508616,1.3920560769795916,0.0274474976639274,0.1405237166934228,0.0131721577300875,0.6792244191143892,-0.9527330705627652,-0.2950683435666395,-0.8746029815233662,0.2625539934104507,1.3831095859012283,0.9419607442293624,-1.2490749337701852,-0.4966540595034412,0.7638260987381059,0.6478656272325634,0.0181404207942548,0.4041922355729255,11.0622162933887,-0.797048997111137,0.1530823879407566,-1.1081694169398997
1.78,-0.8652365155759001,0.2424308164775296,1.3862419917270372,0.0305800454242402,0.1436713587493047,0.0134608289668199,0.6940040376789798,-0.9540926663959346,-0.286783851364362,-0.8561637666447395,0.2379724947410075,1.3732786578931893,0.9819607448254088,-1.2890749343662316,-0.5068693777064136,0.849880045644616,0.7389809282295268,-0.0679797916584734,0.4142246101138752,11.054749153796363,-0.7941465865143564,0.1512930510629239,-1.108751833877338
1.8,-0.8511923781426952,0.2233141167293067,1.3805895865794346,0.0337560524147854,0.1452912083131929,0.0137202230159585,0.7095137656357001,-0.9575042262832528,-0.2788663088961783,-0.8305363136919511,0.1947261831577329,1.371902799158819,0.7940040391690959,-1.0382521225893817,-0.2633995596856949,0.8872399349833775,0.7754863978360171,-0.1705779943659058,0.3958771234091857,11.032747027651569,-0.7929854631322792,0.1493681690913514,-1.1083895331202624
1.82,-0.8367320091039319,0.2039763946035113,1.3753242002532986,0.032193109016787,0.1431956888914115,0.0135362991103749,0.7353684635466264,-0.974021307364978,-0.2479375962774248,-0.8305363136919511,0.1947261831577329,1.371902799158819,0.7940040391690959,-1.0382521225893817,-0.2633995596856949,2.178224412095199,1.2927348955463158,-0.8258540540862669,1.546435630937676,12.689757682109304,-0.799326637194791,0.1494992748472964,-1.1042971173527127
1.84,-0.8225416330617374,0.1853891985563215,1.3708965147962568,0.0259311471637391,0.1362717358083095,0.0129150419890958,0.7562618963637837,-0.9807693541496806,-0.2196294654273174,-0.8305363136919511,0.1947261831577329,1.371902799158819,0.7940040391690959,-1.0382521225893817,-0.2633995596856949,1.791243941036784,1.0446716408578638,-0.3374023392351266,1.4154065425053652,12.689757682109304,-0.8101675048531879,0.1597429428881354,-1.0905306125739764
1.86,-0.8072450253340757,0.1657634360244431,1.3667789447161127,0.0186664386795033,0.1260075460365885,0.0122306277228958,0.7716789344072014,-0.9813453269194132,-0.1937690961171856,-0.8225962733002602,0.1843436619318391,1.3692688035619622,0.8140040394671191,-1.055084013828071,-0.2587227013499615,1.505635669343739,0.7708519021708826,-0.0287986384866378,1.2930184655065902,12.414859476086349,-0.8242015800463469,0.1710481406452632,-1.0733727105187654
1.88,-0.7917095688339079,0.1461676032588049,1.363123580489081,0.0124875188641851,0.1147597568372826,0.0117108122596814,0.7807310976958117,-0.9785071946652064,-0.1729955044094583,-0.8067161925168782,0.1635786194800514,1.3640008123682483,0.8540040400631655,-1.08874779630545,-0.2493689846784947,1.1418611642132697,0.452608164430518,0.1419066127103463,1.0386795853863675,12.068739085386367,-0.8380171223361276,0.1804380744915304,-1.0567424571452906
1.9,-0.7768363619629648,0.1276227753946633,1.3599956808069185,0.0081109309965903,0.1046290816493707,0.0114125072327659,0.7842761350919307,-0.974113091315322,-0.1572621874331435,-0.7908361117334963,0.1428135770282638,1.3587328211745344,0.894004040659212,-1.1224115787828288,-0.2400152680070278,0.8357821149476478,0.1772518698059499,0.2197051674942274,0.7866658488157415,11.438418247945265,-0.8514731617603766,0.1881556252039857,-1.040673302424635
1.92,-0.7611499744576182,0.1081994753815985,1.3569963800793954,0.0051043995218078,0.0956125454286831,0.0112864639741349,0.7840415290593523,-0.968756897668542,-0.1436120687575415,-0.7729560309203121,0.1203653454526072,1.3539325158143938,0.9340040412552584,-1.1560753612602075,-0.230661551335561,0.7332625556892005,-0.0117303016289205,0.2678096823389875,0.6825059337800976,11.438418247945265,-0.8630505412525198,0.1936933747671213,-1.0267595557772524
1.94,-0.7455039209639579,0.0888889094814394,1.354251878894684,0.0036907294937549,0.0890845608293076,0.0113241771918809,0.780398710086463,-0.9627921533270792,-0.1315657983007649,-0.7550759501071279,0.0979171138769506,1.3491322104542534,0.974004041851305,-1.1897391437375866,-0.2213078346640942,0.6963492964132038,-0.1821409486444658,0.2982372170731495,0.6023135228388293,11.243427517099915,-0.8712723996123082,0.197082460292322,-1.016656092636638
1.96,-0.7299596561107786,0.0696967313764792,1.3517384921582296,0.0038365160624544,0.0859641000437159,0.0115046664745292,0.7743178485472381,-0.9569266507158024,-0.1203571044379493,-0.7361958692790425,0.0746272877393596,1.3445657480108997,1.014004042447351,-1.2234029262149653,-0.2119541179926274,0.7018116129924744,-0.3040430769612467,0.2932751305638359,0.5604346931407808,11.161298298902691,-0.8760047248035389,0.1984969542024033,-1.0104326101679053
1.98,-0.7153026607331557,0.0515707682007324,1.3495581349670778,0.0053269397779374,0.0862008575285262,0.0117951518571091,0.7691967606876818,-0.951521978964154,-0.1096992537175919,-0.7163157884360559,0.0504958670398341,1.340233128484332,1.0540040430433977,-1.2570667086923442,-0.2026004013211605,0.6500496126946431,-0.2560543929778114,0.2702335875824135,0.5328925360178711,11.117937103865188,-0.878142273684269,0.1982583281536308,-1.0070553633368438
2.0,-0.6999576725278431,0.0325938984299325,1.3474875123852488,0.0082224972841523,0.0888051319311986,0.0122204171682773,0.7658599418173945,-0.9468160700645816,-0.097891573549578,-0.6768428226987716,0.0039946692525246,1.3440731722811985,0.869196762177798,-0.976693361316864,-0.0630380853807236,0.6570792374103155,-0.166840943514368,0.2352954449786226,0.5903840084006927,11.100192266400882,-0.8775618480814813,0.1967887247282356,-1.0063051851818494
2.02,-0.6846188050694202,0.0134520957228818,1.3457187865980238,0.0041804259440335,0.0919616714352939,0.0121824831246813,0.7682877210171297,-0.9643954959935744,-0.0791672492751748,-0.6768428226987716,0.0039946692525246,1.3440731722811985,0.869196762177798,-0.976693361316864,-0.0630380853807236,1.2898940337956184,0.1213889599867623,-0.8789712964496321,0.9362162137201624,11.122828837678751,-0.8767459467591971,0.2004572772300139,-1.0063670993975369
2.04,-0.6692266113942302,-0.0058618053157354,1.3443412429669892,-0.0076396198355483,0.0944535541576791,0.0116050665053699,0.7707941626965011,-0.9649118354882432,-0.0595532344334741,-0.6768428226987716,0.0039946692525246,1.3440731722811985,0.869196762177798,-0.976693361316864,-0.0630380853807236,0.9890126826490908,0.1253220839685709,-0.0258169747334391,0.980700742085035,11.61641079222136,-0.8781627094177501,0.2128708603832494,-1.0000027080603615
2.06,-0.65456111717903,-0.0241161069790789,1.3433766099156612,-0.0195734711921924,0.096540710031354,0.0110150671546752,0.7728676290703771,-0.95653659461528,-0.0429710545384041,-0.6681508550769937,-0.0057722643606439,1.343442791427391,0.8891967624758211,-0.981727637787406,-0.0537058517133499,0.9346290876013472,0.1036733186937977,0.4187620436481576,0.8291089947535,11.569668260229264,-0.8795440514707585,0.2276861228209669,-0.9915631657571204
2.08,-0.6390830347400666,-0.0431036123919709,1.3426834176032978,-0.0305608893764288,0.098693036506663,0.0105145087985947,0.7748916683591331,-0.942830852864274,-0.0272965774400712,-0.6507669198334377,-0.0253061315869812,1.3421820297197766,0.9291967630718676,-0.9917961907284898,-0.0350413843786026,1.0459843740394197,0.1012019644378026,0.6852870875502903,0.7837238549166453,11.315971748355878,-0.8804560395702274,0.2408727121631319,-0.9838061434356756
2.1,-0.6235635872642162,-0.0617831687989595,1.3422871925775035,-0.0391458977788785,0.1009673901981764,0.01019031818935,0.7770339779296301,-0.9261720245820224,-0.0131561370638126,-0.6333829845898817,-0.0448399988133185,1.340921268012162,0.969196763667914,-1.0018647436695738,-0.0163769170438553,1.0977910822054386,0.1071154785248496,0.8329414141125868,0.7070220188129255,11.230517557018176,-0.881093907884278,0.251900798995192,-0.9765145945486068
2.12,-0.6079978979769437,-0.0801088269145804,1.3421644093608591,-0.0451288148708688,0.1034251048477689,0.0100547463716005,0.7795452165107513,-0.907870845172424,0.0002010239626731,-0.6139990493165235,-0.0648772936867099,1.3405937296712849,1.0091967642639603,-1.0119332966106578,0.0022875502908919,1.1397951983592187,0.1255619290560561,0.9150589704799206,0.667858051324292,11.230517557018176,-0.8811041868871041,0.2600126772563343,-0.9708399355024538
2.14,-0.5931579196821353,-0.0971723061420367,1.3422970137407997,-0.0486558409361092,0.1059035944639321,0.0100848983910541,0.7825301913829307,-0.8897631382818455,0.0131175532135709,-0.5946151140431651,-0.0849145885601014,1.340266191330408,1.049196764860007,-1.0220018495517416,0.0209520176256393,1.1220916314097804,0.1492487436089706,0.905385344528925,0.6458264625448896,11.210344129905025,-0.8808286892940151,0.2664104719505469,-0.9657797934546588
2.16,-0.5774636383610194,-0.114764727612586,1.3427089067833522,-0.0505147540897551,0.108462358601811,0.0102663286690345,0.7868171115008511,-0.8707067460974595,0.0274444291350159,-0.5742311787549057,-0.10520359725702,1.3404052646728994,1.0891967654560533,-1.0320704024928256,0.0396164849603866,1.2111803549131743,0.2143460058960211,0.952819609219302,0.716343796072251,11.210344129905025,-0.8808338784509021,0.2711425922313693,-0.9608039058334892
2.18,-0.5616723611474792,-0.131970583688432,1.3434150824251605,-0.0505496550179611,0.1106559545844122,0.0106137152913192,0.792127751011993,-0.8510241826954404,0.0425040164648825,-0.5528472434517452,-0.1257443197774657,1.3410109496987597,1.1291967660520996,-1.042138955433909,0.0582809522951339,1.2672779535659089,0.2655319755570928,0.9841281701009508,0.7529793664933316,11.254321172006712,-0.8814491771862849,0.2744985955524202,-0.9553465194942986
2.2,-0.545766126518575,-0.1487757236008811,1.3444309544997994,-0.0483820063600943,0.1122433037788431,0.0111660894556757,0.7981900436481196,-0.830834409884873,0.0583617303763176,-0.5220659735968796,-0.1745217928232041,1.3455402832484045,0.8921277525021091,-0.8187389953020136,0.1035714672564799,1.3189440934373264,0.3031146318063338,1.009488640528372,0.7928856955717517,11.3375167094282,-0.8827127199961587,0.2761629667831115,-0.9496790472038934
2.22,-0.530494170534848,-0.1645680021772711,1.3456465885388855,-0.0503894221190199,0.1115449994802623,0.0115349697728623,0.808795379408135,-0.829918770150159,0.0687111597134205,-0.5220659735968796,-0.1745217928232041,1.3455402832484045,0.8921277525021091,-0.8187389953020136,0.1035714672564799,0.7423311766154858,0.5302667880007661,0.045781986735699,0.517471466855144,11.3375167094282,-0.8876006100903095,0.282388060474173,-0.9377732347994664
2.24,-0.5142184056662947,-0.1810425221395893,1.347143678478884,-0.0581034067511422,0.1072056480202532,0.0117656432177597,0.8177847619744997,-0.816636529591448,0.0805494383857472,-0.5220659735968796,-0.1745217928232041,1.3455402832484045,0.8921277525021091,-0.8187389953020136,0.1035714672564799,0.9967092794636732,0.4494691283182361,0.6641120279355539,0.5919139336163372,10.960613242370528,-0.8941260266539524,0.2923541607454972,-0.9248211050653844
2.26,-0.4978077080309843,-0.1971665591887957,1.3488795128701152,-0.066361377633484,0.1007435330314612,0.0121673280684998,0.8224502174514162,-0.7963811440302971,0.0924620998677621,-0.5131446960718585,-0.1827091827762242,1.3465759979209693,0.9121277528001324,-0.8122819578233281,0.1157849574147994,1.197871677834325,0.2332727738458273,1.0127692780575404,0.5956330741007445,11.03990191849698,-0.9026221189168452,0.303573606050444,-0.9080882848876716
2.28,-0.4813503720517495,-0.212842051612204,1.3508500123598477,-0.0732288380550167,0.0939557981199367,0.012779293495659,0.8229111006997916,-0.7725749187382327,0.1040496598649663,-0.4953021410218163,-0.1990839626822645,1.3486474272660989,0.9521277533961788,-0.7993678828659574,0.1402119377314384,1.3240282499950378,0.0230441624187671,1.190311264603222,0.5793779998602102,11.03990191849698,-0.9111366147198556,0.3132467309123811,-0.891353988337397
2.3000000000000003,-0.4657426026495176,-0.2272742366084098,1.352935607441042,-0.0779777769143521,0.0884731677180346,0.0134831883725825,0.8199077921734828,-0.7482661103311757,0.1149656013665515,-0.4774595859717741,-0.2154587425883047,1.3507188566112285,0.9921277539922252,-0.7864538079085867,0.1646389180480773,1.3407980898901524,-0.1501654263154406,1.215440420352848,0.5457970750792601,11.022611183449044,-0.9189549177095064,0.3218808042694774,-0.8749724643449281
2.32,-0.4494075379084968,-0.2419621990931537,1.3553603311646414,-0.0811940046270778,0.0849882611399626,0.0142197531201203,0.8136027364301807,-0.7221396650331696,0.1270009277703546,-0.4576170308919296,-0.2311878187464765,1.35401163497219,1.0321277545882717,-0.7735397329512159,0.1890658983647162,1.472407852364566,-0.3152527871651045,1.306322264900306,0.6017663201901564,11.024088922897135,-0.9244543314329172,0.3288304995289478,-0.8615505374053676
2.34,-0.4332160697144442,-0.2561209507915883,1.3580319714067144,-0.0826924205674155,0.0848394695999034,0.0148368135171309,0.8062684227116241,-0.6952930449616805,0.1396317358395201,-0.437774475812085,-0.2469168949046482,1.3573044133331515,1.072127755184318,-0.7606256579938451,0.2134928786813552,1.5281283318697263,-0.3667156859278264,1.342331003574454,0.6315404034582708,11.071445308815782,-0.928223701458724,0.3336263405327128,-0.8514758352039394
2.36,-0.4179524907198369,-0.2690626725893776,1.3608152209224431,-0.0822059932822313,0.0872752160198034,0.0153633244494246,0.8011087843742744,-0.6686827098861446,0.152763329897066,-0.4169319207173394,-0.2623231191888857,1.361207866202029,1.1121277557803644,-0.7477115830364743,0.2379198589979942,1.5059636143485688,-0.257981916867489,1.3305167537767948,0.6565797028772982,11.146863791357646,-0.9301926055848736,0.3372048077775523,-0.843502880247352
2.38,-0.4019655904768437,-0.2821369644083365,1.3640321772952482,-0.079343978525023,0.0914990779688983,0.015967775116398,0.7981320323794409,-0.6405300059202598,0.1683741467247434,-0.3950893656076926,-0.2774064915991889,1.3657219935788223,1.1521277563764107,-0.7347975080791036,0.2623468393146331,1.616426146671098,-0.1488375997416746,1.4076351982942437,0.7805408413838671,11.146863791357646,-0.9308305158548096,0.3394479830256114,-0.8370034754354664
2.4,-0.3860101236830048,-0.2946728214957408,1.367584311737294,-0.0746097056759106,0.096471137151658,0.0166747387717623,0.7977794381008784,-0.6149637798344433,0.1861980112381071,-0.3620589888578717,-0.3141634647043495,1.3724508846314851,0.898132033869557,-0.547005102861254,0.2404588790784307,1.5584017334974192,-0.0176297139281245,1.2783113042908243,0.8911932256681854,11.240299089018665,-0.9324853154160148,0.3414957309208827,-0.8281679326248033
2.42,-0.3700021939067766,-0.3069182088233393,1.3713906442554027,-0.0751859507917706,0.0999989178992658,0.017148164390743,0.8028451587228601,-0.6089122398411239,0.1927295753069363,-0.3620589888578717,-0.3141634647043495,1.3724508846314851,0.898132033869557,-0.547005102861254,0.2404588790784307,0.512210871848541,0.253286031099087,0.302576999665971,0.3265782034414632,11.341218342259708,-0.9340780442403523,0.3464111416700106,-0.8196076238190376
2.44,-0.3547095512143403,-0.3183355644107873,1.3751229272403662,-0.0821946381746752,0.1009205451399852,0.0173479436565264,0.8064483499045085,-0.5920400465276503,0.1998284339244187,-0.3620589888578717,-0.3141634647043495,1.3724508846314851,0.898132033869557,-0.547005102861254,0.2404588790784307,0.9328018111712344,0.1801595590824212,0.843609665673678,0.3549429308741164,10.489409272073315,-0.9359502475550748,0.3546734789477744,-0.8115175536743522
2.46,-0.3385546580443543,-0.329915470476596,1.379217948767111,-0.0907368296038232,0.1005042589292539,0.0176216790125263,0.8087142032113362,-0.5666193880979103,0.2094192484519337,-0.3530776685191761,-0.319633515732962,1.3748554734222695,0.9181320341675802,-0.5283001222494529,0.2548758255491681,1.3632018279685911,0.1132926653413857,1.2710329214869975,0.4795407263757489,10.811709909106868,-0.9408509508581478,0.3661239901747547,-0.795534583589263
2.48,-0.3223718981546954,-0.3409345328807511,1.3835261285132563,-0.0982740648988697,0.0996162666898889,0.0180482768595147,0.8093970160601575,-0.5368392150591637,0.22095938278286,-0.335115027841785,-0.3305736177901872,1.3796646510038382,0.9581320347636266,-0.4908901610258506,0.283709718490643,1.597263002748793,0.0341406424410606,1.489008651937335,0.5770067165463189,10.811709909106868,-0.9462806096167364,0.376737544941303,-0.7789509247357739
2.5,-0.306187713257478,-0.3513302801549035,1.388083390282868,-0.104051849399844,0.0989848534053145,0.0186104827251485,0.8090458640081464,-0.5046618414313851,0.2342598500255262,-0.3171523871643938,-0.3415137198474122,1.3844738285854068,0.9981320353596732,-0.4534801998022483,0.3125436114321179,1.740983278364932,-0.0175576026005541,1.6088686813889252,0.6650233621333074,10.92902472944388,-0.9517045033372432,0.3857691900634857,-0.7628671685690223
2.52,-0.2908247544468351,-0.3605965621416202,1.392676827482925,-0.107804948345084,0.0989770911813114,0.0192330602812336,0.8082221862059173,-0.472784540304879,0.2486688375340175,-0.2971897464572004,-0.3505833238434572,1.390724700814049,1.0381320359557196,-0.416070238578646,0.3413775043735929,1.7496140240433706,-0.0411838901114514,1.593865056325308,0.7204493754245658,11.035188835537156,-0.9578231168532536,0.3941658696522139,-0.745568383781344
2.54,-0.2746712537596178,-0.3696933326302997,1.397823332800992,-0.1101658835197791,0.0997650500004538,0.0199376216932748,0.8072702400522835,-0.4388438434726857,0.2653494532033809,-0.2772271057500069,-0.3596529278395022,1.3969755730426916,1.078132036551766,-0.3786602773550437,0.3702113973150678,1.89150736321808,-0.0475973076816904,1.6970348416096652,0.8340307834681676,11.141639472138197,-0.9643866720683668,0.4019454377010969,-0.7273496530815902
2.56,-0.2585302251838742,-0.3780916960564035,1.4033173710021771,-0.1106324689399918,0.1012549366395139,0.020718089092727,0.8069918431871693,-0.4031099778662057,0.2832997010396509,-0.2562644650279123,-0.3677872828049571,1.4039472925948708,1.1181320371478125,-0.3412503161314414,0.3990452902565427,1.9994987205422237,-0.0139198432557108,1.7866932803239977,0.8975123918135042,11.219378842630247,-0.9709770883832716,0.4080963833806769,-0.7105279809434494
2.58,-0.2423857984595296,-0.3857612091628926,1.4091843921207725,-0.1084729277623948,0.1031040085808678,0.0216616885193393,0.8075465284973439,-0.3661069420010615,0.3025929086205197,-0.2343018242909165,-0.374986388739822,1.4116398594705868,1.1581320377438586,-0.3038403549078391,0.4278791831980176,2.086720032604375,0.0277342655087275,1.8501517932572096,0.964660379043436,11.280143785224936,-0.9763491663544094,0.4119090150138649,-0.6975288076691988
2.6,-0.227029755282983,-0.3923732751750594,1.415131149096511,-0.1039048898893497,0.1049235865411874,0.0227446952109333,0.8089121982402124,-0.332647305963367,0.3225428951195325,-0.2020084720346624,-0.4040665562629456,1.4243140375517982,0.90754652998746,-0.2661069405109454,0.3787628762718869,1.9489832342354605,0.0682834871434279,1.6729818018847264,0.9974993249506404,11.351614587112635,-0.981556821851684,0.4144796608815898,-0.6852969813316476
2.62,-0.2108041592489608,-0.3986856088662766,1.421629840738771,-0.097339125877331,0.1052624257478612,0.024182407847433,0.8135247068343887,-0.3011028214358969,0.3254254950208906,-0.2020084720346624,-0.4040665562629456,1.4243140375517982,0.90754652998746,-0.2661069405109454,0.3787628762718869,1.600499236040477,0.2306254297088139,1.5772242263735052,0.1441299950679042,11.419967498041842,-0.9837575053468324,0.4158891660140424,-0.6773055230440829
2.64,-0.194496683685541,-0.4044188686670421,1.428194730256682,-0.0902842579271855,0.1028141428947315,0.0259205075430549,0.8167662177853279,-0.2738785524688675,0.3312816094051977,-0.2020084720346624,-0.4040665562629456,1.4243140375517982,0.90754652998746,-0.2661069405109454,0.3787628762718869,1.4017509494524227,0.1620755475469582,1.3612134483514695,0.2928057192153582,10.186848915096562,-0.9865287040095172,0.4158925458102399,-0.670560386279658
