t,x,y,z,roll,pitch,yaw,v_x,v_y,v_z,ref_x,ref_y,ref_z,ref_v_x,ref_v_y,ref_v_z,a_com,a_x,a_y,a_z,thrust,wind_x,wind_y,wind_z
0.0,-0.0161634450303196,-2.461671028456024,1.973247605253736,0.0334849901448405,0.0997708208655073,0.0424231645828186,0.0005870780896577,0.0015491602708658,-0.000251281078039,-0.0161519372851397,-2.4615236492510677,1.9732431673516475,0.0986879663085574,0.1039615003789474,-0.0552796438843048,0.0837809705178605,0.0293539044828876,0.0774580135432933,-0.0125640539019502,10.256979039459113,-0.940019919347602,0.2500471051598998,-0.8811002429425697
0.02,-0.0162308654368446,-2.4619373037801227,1.97316384833203,0.0245541830263877,0.1025611205374726,0.0418749350828254,-0.0071376863944311,-0.0233529411962009,-0.0082544971614617,-0.0161519372851397,-2.4615236492510677,1.9732431673516475,0.0986879663085574,0.1039615003789474,-0.0552796438843048,1.3636697836066185,-0.3862382242044428,-1.245105073353341,-0.4001608041711374,10.256979039459113,-0.9287117530253738,0.2526775490135641,-0.8959789409531871
0.04,-0.0164311303381521,-2.462442951849121,1.97285717463315,0.0076662297239156,0.1096940967623143,0.0408218453783953,-0.0119707593184495,-0.0250364480764066,-0.0222967342482978,-0.0161519372851397,-2.4615236492510677,1.9732431673516475,0.0986879663085574,0.1039615003789474,-0.0552796438843048,0.7472904584354966,-0.2416536462009209,-0.084175344010284,-0.7021118543418029,9.872680593804034,-0.9219781973501772,0.2645733623869461,-0.9016787368758452
0.06,-0.0166853659783346,-2.4628864350203394,1.9722562602614897,-0.009811943398406,0.1188976747916649,0.0396206506288137,-0.0128056563279665,-0.0187961886843945,-0.0371148278059179,-0.0151650576220541,-2.4604840342472776,1.9726903709128043,0.1183406563019389,0.1239615006769706,-0.0663016453892029,0.8050058803798849,-0.0417448504758494,0.3120129696006042,-0.7409046778810043,9.46019855888244,-0.9112501416727492,0.2750324082794655,-0.9129880265496232
0.08,-0.0169090962109502,-2.463150746542873,1.9714156101921507,-0.0258494200914274,0.1283879464333754,0.0383746866180632,-0.010417016890631,-0.0089992745901296,-0.0506919052419474,-0.013191298295883,-2.458404804239698,1.9715847780351183,0.1576460362887019,0.1639615012730171,-0.0883456483989991,0.845609478181187,0.1194319718667716,0.489845704713246,-0.6788538718014779,9.457048855806534,-0.8980658680153702,0.2866535084965245,-0.9253368602849542
0.1,-0.017065626352761,-2.4631926912024045,1.970257366119571,-0.0419697707497189,0.138490630468928,0.0369679252620777,-0.0050674560962654,0.0046657773283411,-0.0644411313920829,-0.0112175389697118,-2.45632557423212,1.9704791851574324,0.1969514162754649,0.2039615018690635,-0.1103896514087952,1.0054758380422235,0.2674780397182812,0.6832525959235374,-0.6874613075067753,9.50995099874126,-0.8841128750167644,0.298812223676914,-0.936841886075896
0.12,-0.0170883158941764,-2.462917279098288,1.9688298388620329,-0.0569874620974385,0.1483436953865083,0.0355106411205371,0.0027954239258259,0.0223716332311778,-0.0776486115602373,-0.0072785106442025,-2.452246344194738,1.9682713921292565,0.2362567962622279,0.2439615024651099,-0.1324336544185913,1.172347802367126,0.3931440011045691,0.8852927951418365,-0.6603740084077165,9.571660021194475,-0.8700991099237875,0.3111637535900801,-0.9469064389327856
0.14,-0.0169304516090601,-2.462236535390983,1.9671414387933053,-0.070070285609055,0.1577659178227058,0.034096535149444,0.0128513119428693,0.0444872559810244,-0.0905877640584059,-0.0033394823186932,-2.448167114157357,1.9660635991010809,0.2755621762489909,0.2839615030611565,-0.1544776574283875,1.3762660723818212,0.5027944008521688,1.10578113749233,-0.6469576249084341,9.637676659413955,-0.8570016358329404,0.3224805704981066,-0.9549001872152972
0.16,-0.016575014072666,-2.461144955537159,1.9652992166074483,-0.0800755904090112,0.1662508055713965,0.0328738850676374,0.0242784402320936,0.0687379621515043,-0.1027037162869782,0.001582180506485,-2.4430878841050747,1.96330470599766,0.3148675562357539,0.3239615036572029,-0.1765216604381836,1.4709455369849576,0.5713564144612153,1.2125353085239932,-0.6057976114286135,9.690750232633944,-0.843436466951181,0.3330232055420377,-0.9623869232145682
0.18,-0.0159467160212826,-2.4594835798655894,1.9631121886732084,-0.0880142700916195,0.1746717038484217,0.0317533374842861,0.0381816638540342,0.0957419913142025,-0.1153571834842253,0.0074864778313325,-2.4370086540378915,1.9599947128189943,0.3541729362225169,0.3639615042532493,-0.1985656634479798,1.6451652274265298,0.6951611810970328,1.350201458134911,-0.6326733598623568,9.74242798587511,-0.8301755529076519,0.3418131763217233,-0.9692746510139368
0.2,-0.015020935835184,-2.4572685860037504,1.9606754737404768,-0.0934734578521524,0.1825731843268059,0.0308209203181607,0.0539205079247268,0.1239767186941316,-0.1276554906519766,-0.0140376328285809,-2.454696480299879,1.9573443294989967,0.1330102695058897,0.1957419928043186,-0.1847293978611518,1.729276873502948,0.7869422035346282,1.4117363689964535,-0.6149153583875618,9.831958114779807,-0.8185379869645338,0.3486635652648097,-0.9746163498717128
0.22,-0.0137511979991707,-2.4543475274340807,1.9580737234024044,-0.0926034608963004,0.1899553154525218,0.0303806132209453,0.0726156407831831,0.1651429070313947,-0.1312822353636503,-0.0140376328285809,-2.454696480299879,1.9573443294989967,0.1330102695058897,0.1957419928043186,-0.1847293978611518,2.2678824550767613,0.934756642922813,2.058309416863154,-0.1813372355836881,9.831958114779807,-0.812330141650507,0.3521457185094726,-0.9738582662913436
0.24,-0.0121786874414223,-2.4508982773998667,1.9555498993776936,-0.0855537740407268,0.196492834688776,0.0304893125000954,0.0921715341052766,0.1946563202055122,-0.1341653447459788,-0.0140376328285809,-2.454696480299879,1.9573443294989967,0.1330102695058897,0.1957419928043186,-0.1847293978611518,1.7760819523052331,0.9777946661046782,1.4756706587058757,-0.1441554691164234,10.475158681486391,-0.802142596002007,0.3501531635865054,-0.977883462682084
0.26,-0.0101022819378873,-2.446744818530449,1.9528216202582065,-0.0766653080852921,0.2027397780811136,0.0308264462578139,0.1145677758763205,0.2188317029797385,-0.1385936388939468,-0.012707530133522,-2.452739060371836,1.9554970355203856,0.1519759906362608,0.2157419931023418,-0.198603840736537,1.6625662143267663,1.1198120885521925,1.2087691387113144,-0.2214147073983999,10.37720389952483,-0.7930570444283106,0.3465472147649863,-0.9817006404860806
0.28,-0.0075583065846964,-2.442150853338918,1.9499861162201335,-0.0681602501954021,0.2079515782424853,0.031276352314267,0.1387126221369164,0.2393644260006239,-0.1447417444783167,-0.0100473247434042,-2.4488242205157498,1.9518024475631623,0.189907432897003,0.2557419936983883,-0.2263527264873076,1.6142842979760208,1.207242313029799,1.0266361510442716,-0.3074052792184922,10.176228588227788,-0.7855464443411463,0.3428025346388669,-0.9852191096448532
0.3,-0.0046826148286856,-2.437429110513397,1.9471652126883177,-0.0610274284200412,0.2116754071139559,0.0317634517583908,0.1627253041087488,0.2567663329525722,-0.1518974787834111,-0.0073871193532864,-2.444909380659664,1.94810785960594,0.2278388751577452,0.2957419942944347,-0.2541016122380782,1.5253194702174122,1.2006340985916155,0.8700953475974118,-0.3577867152547237,10.176228588227788,-0.7785325603183564,0.3394907411753872,-0.9882941076917168
0.32,-0.001158249018485,-2.43211727222316,1.9440375048635608,-0.0546844191697299,0.2142693302848001,0.0323051802958938,0.1883914674508388,0.2736050301149914,-0.1605488667774837,-0.0028303418501315,-2.4389945407737748,1.943025827361178,0.2657703174184874,0.3357419948904812,-0.2818504979888488,1.5946317576908613,1.2833081671045037,0.8419348581209629,-0.4325693997036306,10.104380157093146,-0.7735293211250942,0.3372420292691008,-0.9894304427090252
0.34,0.0028823294852854,-2.426479036789197,1.9407305125492933,-0.0495058991185724,0.2155894785576306,0.032853966708204,0.2143025326918025,0.2894914188761023,-0.1697266400135794,0.0017264356530233,-2.4330797008878857,1.9379437951164165,0.3037017596792296,0.3757419954865277,-0.3095993837396194,1.5874446221552243,1.295553262048181,0.7943194380555435,-0.4588886618047849,10.041847369884636,-0.7706499723924881,0.3361617437287014,-0.9884081730183344
0.36,0.0074475208099943,-2.420522172149594,1.937235462244652,-0.0451015372065812,0.215509620184481,0.0334282283714266,0.2407869497441094,0.3053903746500828,-0.179288565263729,0.0072314992126967,-2.426164860987096,1.9321680407278856,0.3416332019399717,0.4157419960825741,-0.33734826949039,1.6168113339169812,1.3242208526153487,0.7949477886990242,-0.4780962625074769,10.01663687920336,-0.7709544939155425,0.3357805370620998,-0.9848620547325456
0.38,0.0122782368893959,-2.4145716770082952,1.9337350671399052,-0.0412691702692835,0.2138393930056565,0.0340239210457941,0.2662738897060569,0.3201261894010696,-0.1886629883024615,0.0136848488288888,-2.418250021071405,1.9256985641955853,0.3795646442007139,0.4557419966786205,-0.3650971552411605,1.544836684174442,1.2743469980973725,0.7367907375493421,-0.4687211519366241,9.996528753905295,-0.7731217279300354,0.335824028993399,-0.9794949547726088
0.4,0.0178842429702557,-2.408012132558518,1.9298541703128855,-0.0374939103359491,0.2100912867890363,0.0347099545180285,0.2928602728308701,0.3349865287822422,-0.1989196873674732,0.0255919313746988,-2.3985653675382417,1.9243019177247824,0.3597563170050796,0.4201261908911857,-0.2380915928456705,1.6069111128911218,1.3293191562406603,0.7430169690586297,-0.5128349532505849,9.973348117148817,-0.7773276706731397,0.3360030990945774,-0.9726378178333792
0.42,0.0240652134870186,-2.4011516507008603,1.925964112529028,-0.0338708156211272,0.2038189748811843,0.0354653898084042,0.323619943960059,0.3502453581507412,-0.188407322628202,0.0255919313746988,-2.3985653675382417,1.9243019177247824,0.3597563170050796,0.4201261908911857,-0.2380915928456705,1.7954797785580157,1.5379835564594435,0.7629414684249519,0.5256182369635598,9.93636265934947,-0.7827953768953905,0.333837085729558,-0.9683203441525232
0.44,0.0304730431639382,-2.3943692194397195,1.922480446010129,-0.0308785696505015,0.1960508135898203,0.0361928066861799,0.3489546627967679,0.3630863199006544,-0.1788457030214784,0.0255919313746988,-2.3985653675382417,1.9243019177247824,0.3597563170050796,0.4201261908911857,-0.2380915928456705,1.4984682568388863,1.2667359418354478,0.6420480874956558,0.4780809803361791,11.291218595360078,-0.7976058431109899,0.3405165300298372,-0.9443153239884656
0.46,0.0376927670831967,-2.386972795149548,1.9189805305902432,-0.0284314185077413,0.1872081633970819,0.0369106206810793,0.3713192811852256,0.3759732323813424,-0.1717366187144591,0.0291894945447496,-2.3943641056293297,1.9219210017963253,0.3784528024648841,0.440126191189209,-0.2479773137543124,1.3386446024155942,1.1182309194228857,0.6443456240344009,0.3554542153509657,11.046705490492968,-0.8128059092913967,0.3461902717009492,-0.9217262449085784
0.48,0.0453173859430394,-2.379323116703765,1.915591011041277,-0.026643163664466,0.1785600628851687,0.037564149706173,0.3897580699949843,0.3884113440623422,-0.1676586822280132,0.0363846208848511,-2.385961581811506,1.917159169939412,0.4158457733844932,0.4801261917852554,-0.267748755571596,1.1306249609700294,0.9219394404879344,0.6219055840499893,0.2038968243222944,10.8045107778089,-0.8262498880622312,0.351012202320041,-0.9020508594417228
0.5,0.0532736241507126,-2.3714306329436443,1.912251145786573,-0.0255397857592765,0.1707814459122208,0.0381423388228506,0.4048474469015403,0.4002969643302952,-0.1664755934148653,0.0435797472249527,-2.3775590579936825,1.9123973380824988,0.4532387443041022,0.5201261923813019,-0.2875201973888797,0.9622330327445048,0.7544688453277965,0.5942810133976517,0.059154440657394,10.583946993175232,-0.8366415440038416,0.3547390640160336,-0.8868973671313166
0.52,0.0610847335393889,-2.3637171643928085,1.9090780099563716,-0.0252359324565512,0.1646370244225853,0.0386118438664448,0.416551434151502,0.4111358350673206,-0.1675678281392445,0.0526445221110348,-2.3671565341460563,1.9066469341347208,0.4906317152237113,0.5601261929773483,-0.3072916392061633,0.7994645287540135,0.5851993624980845,0.5419435368512693,-0.054611736218961,10.395685301629785,-0.8449194011025578,0.3583144262317311,-0.8742587871919559
0.54,0.0695229053677447,-2.355378284974646,1.9057044960035352,-0.0258554467155812,0.1600121121768848,0.0390059433461143,0.4265016731062451,0.4222605406160741,-0.1697576861053646,0.0617092969971168,-2.35675401029843,1.900896530186944,0.5280246861433204,0.6001261935733948,-0.3270630810234469,0.7542575931250775,0.4975119477371559,0.556235277437675,-0.1094928983060045,10.24145131201476,-0.8501346769780235,0.361746848035625,-0.8652898404460756
0.56,0.0781425755675609,-2.346804942423792,1.9022768654206648,-0.027188438425641,0.1577932819051674,0.0393048933550982,0.4350155551730969,0.4345031313039768,-0.1728829194207723,0.0717088961561891,-2.345351486435903,1.894651840193734,0.5654176570629295,0.6401261941694412,-0.3468345228407306,0.7617977058831245,0.4256941033425915,0.6121295343951338,-0.1562616657703838,10.171048076548686,-0.8534677832768547,0.3647848985606901,-0.8591586541166372
0.58,0.0864927139861606,-2.3384219063232763,1.8989557063722136,-0.0285996532769579,0.1577247574096888,0.0395380528034697,0.4437318453136659,0.4472489472370282,-0.1765587655799123,0.0826433195882516,-2.3329489625584747,1.8879128641550924,0.6028106279825385,0.6801261947654876,-0.3666059646580142,0.7936330742217593,0.4358145070284508,0.6372907966525704,-0.1837923079570008,10.112294358384132,-0.8555116146666227,0.367663025071659,-0.8547470490349142
0.6,0.0954750380873453,-2.329326314235177,1.8953779250781284,-0.0298090149981901,0.158947900491236,0.0397782840665646,0.4541798953893041,0.4616081720914031,-0.1810547935899653,0.1086793062518439,-2.316059458961425,1.890127768093218,0.5164703661147333,0.5472489487271444,-0.2199583863811227,0.9159194242245344,0.5224025037819074,0.7179612427187454,-0.2248014005026472,10.062824545107103,-0.8559712411784988,0.3703466093542812,-0.8519279134052338
0.62,0.1047555005791236,-2.319870487767367,1.891886901244516,-0.028554980249425,0.1592210261542574,0.040229134098428,0.4735325183787184,0.4827775054763378,-0.1667989564880585,0.1086793062518439,-2.316059458961425,1.890127768093218,0.5164703661147333,0.5472489487271444,-0.2199583863811227,1.6014786792282178,0.9676311494707156,1.0584666692467382,0.712791855095339,10.024935694849772,-0.861528842381865,0.3713023365307716,-0.8450463492321175
0.64,0.1139328454690846,-2.3105246596998525,1.88884338040576,-0.0243234096145938,0.1568181632672745,0.040944636414167,0.4913381903427513,0.4991850151550017,-0.1543205965577764,0.1086793062518439,-2.316059458961425,1.890127768093218,0.5164703661147333,0.5472489487271444,-0.2199583863811227,1.361945111316773,0.8902835982016438,0.8203754839331917,0.6239179965141034,11.278831265150984,-0.8696488313395918,0.3743831229553991,-0.8303942424835438
0.66,0.1239381164518905,-2.300402110257691,1.8858589661007592,-0.0191733381878684,0.1519243036543582,0.041784320785586,0.5078826176452255,0.512077062665965,-0.1449077833862405,0.1138440099129913,-2.3105869694741537,1.887928184229407,0.5310180702749467,0.5672489490251675,-0.2286383105413648,1.149482509212327,0.8272213651237093,0.6446023755481645,0.470640658576793,11.026512014362195,-0.8790985795138887,0.3762248797323029,-0.8154149328546483
0.68,0.1342354987344329,-2.290048578293029,1.883022532297949,-0.0145034518263686,0.1454905086510785,0.0425897614645581,0.5206715160132002,0.5226666267710369,-0.1393297171137713,0.1241734172352859,-2.2996419904996106,1.8835290165017844,0.5601134785953737,0.607248949621214,-0.245998158861849,0.8757990818987437,0.639444918398735,0.5294782052535973,0.2789033136234617,10.753168402699885,-0.8882503595902466,0.3774320672475468,-0.8016914074152002
0.7000000000000001,0.1447482251987235,-2.279499588294476,1.8802572126534305,-0.0107247830978141,0.1386777627165466,0.0433089350233888,0.5297699565622411,0.5318931578087418,-0.1374263285725712,0.1345028245575806,-2.2886970115250675,1.879129848774162,0.5892088869158006,0.6472489502172605,-0.2633580071823331,0.6548537687013343,0.4549220274520482,0.4613265518852438,0.0951694270600059,10.279031736633442,-0.8960764772026684,0.378242854643517,-0.7903411929639982
0.72,0.1548734044024455,-2.269315067023421,1.8776371989618827,-0.0080018989409214,0.1326721095737704,0.0439064912694281,0.5354989050244093,0.5398974747854223,-0.1384328324365176,0.1462870022958966,-2.2757520325207223,1.8738626886305152,0.6183042952362275,0.687248950813307,-0.2807178555028173,0.4947297008809298,0.2864474231084102,0.4002158488340235,-0.0503251931973217,10.279031736633442,-0.9027306861994886,0.3787697722518516,-0.7808850037263483
0.74,0.1656224140009958,-2.2584352790717133,1.874842258467448,-0.0060116178806397,0.1275544481215094,0.0444532610631576,0.5389167797817865,0.5477935230003824,-0.1410670866412104,0.1580711800342126,-2.262807053516377,1.8685955284868685,0.6473997035566545,0.7272489514093534,-0.2980777038233015,0.4499131596348158,0.1708937378688602,0.3948024107480075,-0.1317127102346396,10.09804578307194,-0.9066795078379708,0.3788203692330888,-0.7753204890001195
0.76,0.176416360292788,-2.24739334024993,1.871979077584608,-0.0046381356934923,0.1244085189194501,0.0449419952637457,0.5402645151693559,0.5560093938648,-0.1451065318711419,0.1705827429805393,-2.2488620744971306,1.8628943721352096,0.6764951118770814,0.7672489520053998,-0.3154375521437856,0.4626933177097651,0.0673867693784691,0.4107935432208776,-0.2019722614965718,10.004081656597007,-0.908728965285835,0.3787830211354089,-0.772418803297383
0.78,0.1866854241495723,-2.2367510648550564,1.8691743306972803,-0.0036322779149347,0.1236251447016207,0.0453769689159697,0.5408850807949833,0.5638036975794187,-0.1499302520989075,0.1838216911348767,-2.2339170954629832,1.856759219575539,0.7055905201975083,0.8072489526014462,-0.3327974004642698,0.4593597417253327,0.03102828128137,0.3897151857309378,-0.2411860113882835,9.930132690855316,-0.9094995388593498,0.3785836162166459,-0.7715217147223775
0.8,0.1975200522362897,-2.2253898152802845,1.866114540395572,-0.0028211257895179,0.1246412787163745,0.0458154225672922,0.5427323293397784,0.5718973639740836,-0.1558371616383111,0.2137296781893214,-2.2085608799760856,1.861677818092335,0.5839858215555481,0.6638036990695348,-0.1883261635540619,0.5094392584034748,0.092362427239756,0.4046833197332455,-0.2953454769701796,9.867158529191329,-0.9084570962388904,0.3783668810116201,-0.7728587854429724
0.8200000000000001,0.2084942120512375,-2.213824373881032,1.8631173825675067,-0.0009983603190289,0.1246843571790377,0.0463303339169805,0.5547982903797557,0.583840745014207,-0.1425783767961753,0.2137296781893214,-2.2085608799760856,1.861677818092335,0.5839858215555481,0.6638036990695348,-0.1883261635540619,1.0770644618335037,0.6032980519988629,0.597169052006169,0.66293924210679,11.04740365622638,-0.9117835075287488,0.3768267774911766,-0.7712108604073978
0.84,0.2197146539535792,-2.2020574667782538,1.860390393462812,0.0018036698833739,0.1211381017103157,0.0469116841709747,0.5663042311898997,0.5921949583137497,-0.1308445531096616,0.2137296781893214,-2.2085608799760856,1.861677818092335,0.5839858215555481,0.6638036990695348,-0.1883261635540619,0.9217675575856724,0.5752970405072,0.4177106649771334,0.5866911843256841,10.793901225093578,-0.9187628103731388,0.3800433363695109,-0.7583951189989273
0.86,0.2305549406062547,-2.1907431170502782,1.857976149874681,0.004102876865932,0.1152190670232685,0.047421436172808,0.5737806319992664,0.598509492346261,-0.1238231846393451,0.2195695364048769,-2.20192284298539,1.8597945564567944,0.5926059697076611,0.683803699367558,-0.1960053458450928,0.6022240536253919,0.3738200404683367,0.3157267016255682,0.3510684235158288,10.514490018600554,-0.926544137515705,0.3827325919237496,-0.7450301113841311
0.88,0.2420746498462505,-2.178714319124041,1.8555420538308052,0.0057554280945953,0.1077613796112425,0.0478857991416897,0.5774530197713122,0.6041443055439566,-0.1200980865573497,0.2312492528359879,-2.1886467690039995,1.8560280331857133,0.609846266011887,0.7238036999636045,-0.2113637104271546,0.3844278457710918,0.1836193886022907,0.2817406598847771,0.1862549040997675,10.514490018600554,-0.9340410368697448,0.3847362101888918,-0.7329024035997406
0.9,0.2536271671850909,-2.166581012525404,1.8531452596734583,0.0063506155511332,0.1002900667788148,0.0482698725853359,0.5773947942468561,0.6089960092611875,-0.1198942626716358,0.2429289692670989,-2.175370695022609,1.852261509914632,0.6270865623161129,0.763803700559651,-0.2267220750092164,0.2428166146903746,-0.0029112762228056,0.2425851858615435,0.0101911942856941,10.27868358303931,-0.9403751974880517,0.3863534766110125,-0.7228539897843868
0.92,0.2651437833489722,-2.154358003225742,1.850718353466052,0.0055640770136718,0.0937762777992697,0.0485690028963024,0.5742015874763348,0.6132646260000781,-0.1227768893493534,0.2554707005134211,-2.160094621011416,1.847727068414448,0.6443268586203389,0.8038037011556974,-0.2420804395912781,0.3030148301070857,-0.1596603385260686,0.2134308369445337,-0.1441313338858801,10.07322297749215,-0.9445456662581232,0.3876389827171336,-0.7162472252484031
0.94,0.2760001128876581,-2.142667737621008,1.848345626546097,0.0033623740998306,0.0892077165970874,0.0487760967342459,0.5686627455721307,0.6172939165831178,-0.1268289334067924,0.2680124317597434,-2.144818547000223,1.8431926269142636,0.6615671549245647,0.8438037017517439,-0.2574388041733399,0.3979102074770308,-0.2769420952102031,0.2014645291519845,-0.2026022028719473,9.911545762335663,-0.9467620542603744,0.3890073075523956,-0.712589400573701
0.96,0.287293383568294,-2.1302541514871267,1.845756907701763,0.0001131823530477,0.0868623679048686,0.0489573098631212,0.5609197375476409,0.6240722524103933,-0.1318638734506792,0.2809851704136713,-2.1285424729741287,1.8382742262995275,0.6788074512287907,0.8838037023477903,-0.2727971687554016,0.5728233390413111,-0.3871504012244897,0.3389167913637747,-0.2517470021943399,9.804672654958267,-0.9478526770292558,0.3907273234918117,-0.7107036727377933
0.98,0.298430329539319,-2.117681114935695,1.8430621776175709,-0.0029145927532331,0.0872289470111988,0.049167872935094,0.5535117652647995,0.632803896392048,-0.1373530969676754,0.2943889164752049,-2.1112663989331333,1.83297186657024,0.6960477475330166,0.9238037029438368,-0.2881555333374634,0.6349236859364642,-0.3703986141420701,0.4365821990827356,-0.2744611758498133,9.804672654958267,-0.9476309345724488,0.3923372258051082,-0.7107090161982418
1.0,0.3094357567361481,-2.1049218062828423,1.8402554420021573,-0.0052882331113607,0.0895023853017895,0.0494234867460883,0.5476607696653637,0.6425203517373124,-0.1430502434360638,0.326105917802559,-2.0860409201160923,1.8361945227691872,0.5681670517110132,0.7328038978821642,-0.1487501783949516,0.6346281034263341,-0.2925497799717902,0.4858227672632165,-0.2848573234194157,9.764077788851864,-0.9456940614577578,0.3936260815301471,-0.7130983773555435
1.02,0.3198778689582118,-2.0925478414449468,1.837671313314773,-0.0048373113664759,0.090624199673608,0.0498620655891211,0.5515200586583427,0.6585096915973733,-0.1286564524444253,0.326105917802559,-2.0860409201160923,1.8361945227691872,0.5681670517110132,0.7328038978821642,-0.1487501783949516,1.0928567149938206,0.1929644496489524,0.7994669930030451,0.7196895495819228,9.764077788851864,-0.9490215892229906,0.3930196359206312,-0.7112855823209359
1.04,0.3309448892549617,-2.079236824594896,1.835244951029389,-0.0010055077250894,0.0885355835312652,0.0505672309761683,0.5547758366458863,0.6711082414362949,-0.1149013552774984,0.326105917802559,-2.0860409201160923,1.8361945227691872,0.5681670517110132,0.7328038978821642,-0.1487501783949516,0.9467394657712912,0.1627888993771753,0.6299274919460807,0.6877548583463428,11.01067805698858,-0.9542003267996996,0.3948982073544089,-0.7012867813961295
1.06,0.3420571986154173,-2.065727893984172,1.83305195232626,0.0037513844994383,0.0837162305582626,0.0513161664519341,0.5558917950070551,0.6790514646150165,-0.1050459797900452,0.3317875883196691,-2.0787128811372706,1.8347070209852376,0.5710981090002559,0.7528038981801873,-0.1510295946804068,0.6353514451261169,0.0557979180584422,0.3971611589360824,0.4927687743726628,10.81862101427123,-0.9599354541540964,0.395608189134951,-0.691412816248868
1.08,0.3531526017784591,-2.0520907205504364,1.8310184276811712,0.0079154984958541,0.0773488913425279,0.0519845731291747,0.5532882831622431,0.6844600463884792,-0.0987678933857197,0.3431509293538894,-2.064056803179628,1.8317320174173384,0.5769602235787414,0.7928038987762338,-0.1555884272513173,0.4342965565903248,-0.1301755922406,0.2704290886731353,0.3139043202162718,10.580363568274151,-0.9660257083466148,0.3958053589055738,-0.6815829800546633
1.1,0.3636111475162696,-2.039048828667284,1.8291732727998489,0.0108832491671017,0.0710636043627586,0.0525203305831273,0.5475987363985925,0.6883710682621895,-0.0957474299820193,0.3545142703881097,-2.049400725221984,1.82875701384944,0.582822338157227,0.8328038993722803,-0.1601472598222277,0.3767964757183298,-0.2844773381825316,0.1955510936855142,0.1510231701850238,10.368022700480653,-0.971605864166802,0.3957893347207842,-0.6729464407118444
1.12,0.3744741487877687,-2.025246911380757,1.8272694574572736,0.0128799062572485,0.0651321296175526,0.0529928155156624,0.5388159189582417,0.6918080546822518,-0.0948838816344571,0.3661707171512542,-2.0327446472345385,1.825554068652995,0.5886844527357125,0.8728038999683267,-0.1647060923931382,0.4735411111793786,-0.4391408720175405,0.1718493210031146,0.0431774173781061,10.19145193246368,-0.9757766590665544,0.3956352287212064,-0.6666304342379258
1.14,0.3851319092722557,-2.0113845798323644,1.825367716107951,0.013575156413414,0.0608421887786906,0.0533863477943922,0.5273159004831093,0.6944765908973286,-0.0953142386957215,0.3778271639143988,-2.016088569247093,1.8223511234565504,0.594546567314198,0.9128039005643732,-0.1692649249640486,0.5906706308505243,-0.5750009237566189,0.1334268107538394,-0.0215178530632194,10.060589801813876,-0.9774021405092412,0.3951385653901285,-0.6644985041802017
1.16,0.3950234549949367,-1.9981621509901544,1.8235473832547304,0.0131029718153869,0.0591286435247092,0.0537129781663638,0.5145933564819014,0.6973195461880423,-0.0962666812670094,0.3896301635420054,-1.9984324912447464,1.819034207445833,0.6004086818926834,0.9528039011604196,-0.1738237575349591,0.6535531108855435,-0.6361272000603935,0.1421477645356827,-0.0476221285643937,10.011059453513552,-0.9782314230530502,0.3950429758994894,-0.6638714671102284
1.18,0.4051797657802452,-1.984180581633824,1.8216106769107905,0.0116044253591594,0.0598864019904971,0.0540226549541631,0.5019778883043828,0.7007786823559645,-0.0973426105453168,0.4015797160340743,-1.9797764132274984,1.815603320620843,0.6062707964711689,0.9928039017564662,-0.1783825901058695,0.656264588748568,-0.6307734088759287,0.172956808396113,-0.0537964639153704,9.98703964660308,-0.9782735611040428,0.3958683983141305,-0.6640301050852776
1.2,0.4150997923824861,-1.9701200191365784,1.8196542563112037,0.0092945112810732,0.0625080106435088,0.0542971140311445,0.4908781541768308,0.7052808049728027,-0.0982322853828062,0.4302786601954643,-1.9491416475160253,1.8167435463835249,0.4912922656122747,0.8007786838460806,-0.1037676778620576,0.6005512615003212,-0.5549867063776026,0.2251061308419066,-0.0444837418744674,9.974830350168304,-0.9769898569961032,0.396937756563517,-0.6661512926187106
1.22,0.4248652836283164,-1.9558963472054396,1.8177694580433936,0.0084526178117116,0.064739184158165,0.0546681861860078,0.4862539032307006,0.7163480434712356,-0.0897580678322634,0.4302786601954643,-1.9491416475160253,1.8167435463835249,0.4912922656122747,0.8007786838460806,-0.1037676778620576,0.734302097041655,-0.2312125473065085,0.553361924921647,0.4237108775271378,9.97899454227172,-0.979234822932202,0.3976481085514559,-0.6643732424575525
1.24,0.4340602408379453,-1.9422034974840443,1.81614084634932,0.0097532287531441,0.0649376556356416,0.0551487427281211,0.4817104991774771,0.7243545799268456,-0.0821454476465248,0.4302786601954643,-1.9491416475160253,1.8167435463835249,0.4912922656122747,0.8007786838460806,-0.1037676778620576,0.5972837108489036,-0.2271702026611755,0.4003268227805001,0.3806310092869303,10.443657065497064,-0.980892479700166,0.3992518082945313,-0.6602499490186903
1.26,0.4436358563680653,-1.9276443780517851,1.81456384224134,0.0120897964596204,0.0636728565905681,0.0557020219788474,0.4759710437302342,0.7310893366047027,-0.0760364407680368,0.4351915828515871,-1.9411338606775648,1.815705869604904,0.489155141073853,0.8207786841441038,-0.1050526913254057,0.5376296619938304,-0.2869727723621457,0.3367378338928528,0.3054503439243995,10.325072406983054,-0.9833267888728864,0.3999538589812662,-0.6556995097922325
1.28,0.4530843159535092,-1.9129728753344892,1.8130856623868876,0.0145505085231535,0.0613605113993743,0.0562410356747967,0.4690433569684342,0.7357606951568197,-0.0720693750057919,0.4450174281638325,-1.9251182870006431,1.813630516047663,0.4848808919970098,0.8607786847401503,-0.107622718252102,0.4624717433369069,-0.3463843380899972,0.2335679276058544,0.1983532881122435,10.325072406983054,-0.9855778387475734,0.4000475855866405,-0.6518920318196098
1.3,0.4623790005815575,-1.8982245072727053,1.8116679820260635,0.0163471874272347,0.0585135226161903,0.0567149382921075,0.4606520772521517,0.7390592706628712,-0.0698836839938944,0.454843273476078,-1.9091027133237213,1.8115551624904216,0.4806066429201665,0.9007786853361968,-0.1101927451787983,0.4638734225128309,-0.4195639858141253,0.1649287753025752,0.1092845505948778,10.11176468170379,-0.987815336009278,0.3999063815035275,-0.6484663414483965
1.32,0.4710382169022108,-1.8841619279647828,1.810347915580192,0.0170658697586232,0.0558460327722013,0.0570896417291867,0.4511771712285693,0.7412277518528463,-0.0691705250160318,0.4644554063344814,-1.8910871396169973,1.809351307586846,0.4763323938433232,0.9407786859322432,-0.1127627721054946,0.4873006016687747,-0.4737453011791209,0.1084240594987517,0.0356579488931294,10.11176468170379,-0.9892769378788124,0.399711501673585,-0.6463724805309604
1.34,0.4799437835499107,-1.869322143261092,1.808966190529576,0.0163735471503722,0.053666639072921,0.0573917722794128,0.4397731802766158,0.7427855402650991,-0.0690602868280858,0.4740675391928847,-1.8730715659102737,1.80714745268327,0.47205814476648,0.9807786865282896,-0.1153327990321909,0.5755212133963177,-0.5701995475976745,0.0778894206126423,0.0055119093973009,10.03786393359951,-0.9898159063825333,0.3997273093980585,-0.6457961962405062
1.36,0.4886080059260793,-1.8544435700425983,1.8075831852192528,0.0141794321915851,0.0526893766683883,0.0576118770291006,0.4273659186059241,0.7451361722827121,-0.0692279985318675,0.4835728158243669,-1.8540559921886488,1.8048793471065263,0.4677838956896367,1.020778687124336,-0.1179028259588872,0.6314541556257812,-0.6203630835345836,0.1175316008806492,-0.0083855851890836,10.01084655084196,-0.9905994975108384,0.4008008589041134,-0.644540552904545
1.38,0.4970252270185124,-1.839496988193977,1.806198232835941,0.0111416535852964,0.0529057547799155,0.0577938911394432,0.4151048742530209,0.7496399547253054,-0.0692460284653572,0.4929712362289281,-1.8340404184521224,1.802546990856616,0.4635096466127935,1.0607786877203824,-0.1204728528855835,0.6531033417319466,-0.613052217645163,0.2251891221296653,-0.0009014966744887,10.002823243897184,-0.9911895191881488,0.4024082238774947,-0.6433883504710506
1.4,0.5047984910346546,-1.8251941126030389,1.8048846450125164,0.0084003808068871,0.0539811725085994,0.0579876093180454,0.4038701550387757,0.7556350363295656,-0.0690235303186181,0.5177804707311635,-1.802014990457712,1.8027359314126727,0.3583525836763245,0.8496399562154215,-0.0709400468358291,0.6368073191515039,-0.5617359607122563,0.2997540802130105,0.0111249073369568,10.002823243897184,-0.9909196223001024,0.4040532123816293,-0.6433943606176978
1.42,0.512845047948614,-1.809945446017976,1.8035708086837705,0.0078132941825135,0.0529191557223661,0.0583335905792804,0.4015836864327469,0.7683174373736439,-0.0620439521350624,0.5177804707311635,-1.802014990457712,1.8027359314126727,0.3583525836763245,0.8496399562154215,-0.0709400468358291,0.7327785247766864,-0.1143234303014412,0.6341200522039125,0.3489789091777832,10.0136180661666,-0.9989005633153896,0.4061731437082621,-0.6324386643210536
1.44,0.520842637447958,-1.7944768261513393,1.8023955663110187,0.0100376224699402,0.0465717956140838,0.0588218489789067,0.3974128790540731,0.7776930419797687,-0.0558699053123954,0.5177804707311635,-1.802014990457712,1.8027359314126727,0.3583525836763245,0.8496399562154215,-0.0709400468358291,0.5987830368524026,-0.2085403689336906,0.4687802303062427,0.3087023411333514,10.397903330532245,-1.002646393264902,0.407153183978761,-0.6245131217967583
1.46,0.528310613550954,-1.779638117602233,1.8013725508075973,0.0132259978987822,0.03761210924831,0.0593001996433157,0.3884632364415127,0.783544553392728,-0.0521190189008792,0.5213639965679268,-1.7935185908955575,1.8020265309443149,0.3470021255609852,0.8696399565134447,-0.0712788505099235,0.5665806155805335,-0.4474821306280213,0.2925755706479627,0.1875443205758088,10.28927719940657,-1.0081099316609268,0.4069387852130547,-0.6147254193255067
1.48,0.5359373413012187,-1.7639313653950603,1.800351833924027,0.0162586051352823,0.0270635510151057,0.0597230420206355,0.3742812163336476,0.7869283187032482,-0.0502383554515595,0.5285310482414532,-1.7765257917712491,1.8006077300075984,0.3243012093303066,0.9096399571094912,-0.0719564578581123,0.735044993565319,-0.7091010053932534,0.1691882655260101,0.0940331724659834,10.16053258211832,-1.013960184494893,0.4054898205203132,-0.6059455554334306
1.5,0.5432335930989702,-1.748172440939016,1.799348006959267,0.0183317898467667,0.0168973500984735,0.0600482841760607,0.35580229481735,0.788987587991134,-0.0503049591583403,0.5356980999149797,-1.7595329926469407,1.7991889290708818,0.3016002930996281,0.9496399577055376,-0.072634065206301,0.9296714022428504,-0.9239460758148826,0.10296346439429,-0.0033301853390354,9.959878404902156,-1.0197269007887546,0.4039352152323652,-0.5978340619045267
1.52,0.5501219942032333,-1.7323846224846502,1.7983266049349127,0.0191215767980377,0.008264006023589,0.0602908330414336,0.333948628948031,0.7899384417478568,-0.0518103046319607,0.5417301057769723,-1.74054019349283,1.7977362477667558,0.2788993768689495,0.989639958301584,-0.0733116725544898,1.0963039037938571,-1.0926832934659485,0.0475426878361384,-0.0752672736810237,9.959878404902156,-1.0243299208903665,0.4026960799636926,-0.5916451251846363
1.54,0.5562354414445438,-1.7173771230347517,1.797323258227556,0.0183260225281263,0.0021583094355555,0.0604495159335854,0.3106173382843782,0.7899977519914149,-0.0537250888518397,0.5477621116389649,-1.7215473943387192,1.7962835664626298,0.2561984606382709,1.0296399588976306,-0.0739892799026785,1.170490324976608,-1.1665645331826373,0.0029655121779048,-0.0957392109939472,9.903240565403394,-1.0276359094419414,0.4016834519244918,-0.5878130652758042
1.56,0.5621653355669649,-1.7015713863698787,1.7962270447800015,0.01584283456422,-0.0011969056800784,0.0605651789376787,0.283510645943725,0.7907615007891498,-0.0557931202676233,0.5532265945951905,-1.7015545951697073,1.794813944974799,0.2334975444075924,1.069639959493677,-0.0746668872508673,1.3598095784093631,-1.3553346170326634,0.0381874398867443,-0.1034015707891796,9.898935922055898,-1.0290836676279744,0.4009133514733656,-0.587565441575897
1.58,0.567544854279684,-1.68572584204635,1.7950947212035373,0.0124392583702736,-0.0008574723534364,0.060681209529548,0.2561912151070957,0.7939963189607673,-0.0572621559776155,0.5581235546456491,-1.680561795985794,1.7933273833032637,0.2107966281769138,1.109639960089723,-0.0753444945990561,1.3774736075130722,-1.3659715418314649,0.1617409085808763,-0.0734517854996126,9.92071544211285,-1.0298960012910603,0.4011360013441433,-0.5882863007473512
1.6,0.5723941942029984,-1.6697929734876371,1.793943626907743,0.0091766163380631,0.0024686878776232,0.06083964244296,0.2305263919317318,0.7991078415127848,-0.0577361464292444,0.5803544150350388,-1.6460260260983115,1.7922316134046563,0.169313042053831,0.8939963204508834,-0.0391810925729362,1.3086591213630794,-1.283241158768195,0.2555761276008761,-0.0236995225814454,9.948769569967226,-1.0293311880733913,0.4017948976452659,-0.5907646081506925
1.62,0.5765848532318409,-1.6544926559777502,1.7928956952135366,0.0083514186259993,0.0061967895712794,0.0611456462115467,0.2118388059534944,0.8101974642492582,-0.0525825988625979,0.5803544150350388,-1.6460260260983115,1.7922316134046563,0.169313042053831,0.8939963204508834,-0.0391810925729362,1.1166519765050018,-0.9343792989118692,0.5544811368236702,0.2576773783323264,9.98618167325094,-1.0319830471804583,0.4023892163967543,-0.5891451073772933
1.64,0.5806258079941213,-1.638202389774982,1.791904627244387,0.0100321374758204,0.0089966678138395,0.0616317896034863,0.1932147343131539,0.8181173236604112,-0.0468127496835449,0.5803544150350388,-1.6460260260983115,1.7922316134046563,0.169313042053831,0.8939963204508834,-0.0391810925729362,1.0522254714484722,-0.931203582017026,0.3959929705576515,0.2884924589526497,10.274851586426848,-1.0318096368546958,0.4020510842011684,-0.5905846831063402
1.66,0.5842975115083816,-1.6217779662560707,1.7910245420250452,0.0127747613092241,0.0107717558727053,0.0621781296263793,0.1748363719058444,0.8237742787967731,-0.0414925866567093,0.5820475454555771,-1.6370860628938029,1.7918398024789273,0.1519374074431781,0.9139963207489066,-0.0355648798920004,0.9975839323351744,-0.9189181203654708,0.2828477568180942,0.2660081513417809,10.25042010944253,-1.0319095118071926,0.4011517249939602,-0.5917621004046713
1.68,0.5874456460356042,-1.6060962426300986,1.7902812512582793,0.0152371538918057,0.0117407751632716,0.062672619387386,0.1574099300990903,0.8268198883534159,-0.0370157092827666,0.5854338062966538,-1.619206136484785,1.7910561806274683,0.1171861382218723,0.953996321344953,-0.0283324545301286,0.9124130679645897,-0.8713220903377061,0.1522804778321396,0.223843868697135,10.25042010944253,-1.032411877283706,0.4000173138428542,-0.5926089970378858
1.7,0.5904009238857978,-1.5895404318527335,1.7895864009054536,0.0169352893247467,0.0122132935638116,0.0631151409213731,0.1389872611070153,0.8287706262066885,-0.0327211414222956,0.5888200671377304,-1.6013262100757673,1.7902725587760098,0.0824348690005664,0.9939963219409996,-0.0211000291682569,0.950846233720183,-0.9211334496037504,0.0975368926636299,0.2147283930235478,10.219497285342186,-1.033218604200902,0.3991481475027337,-0.5928797316618243
1.72,0.5929855200039728,-1.5729566415356508,1.7889739478586368,0.0172466666830169,0.0123113391611622,0.0634475002599382,0.1203448585783847,0.8297675916704231,-0.0287334819281632,0.5904687645177418,-1.5814462836369474,1.7898505581926447,0.0476835997792606,1.033996322537046,-0.0138676038063852,0.9545084342431422,-0.932120126431532,0.0498482731867311,0.1993829747066199,10.186175531179288,-1.0340520190210802,0.3988218060043088,-0.5927043594586822
1.74,0.5950929240820846,-1.557188817227256,1.7884673747765545,0.0159102738390053,0.0122337744843445,0.0636420075991943,0.1023899579960971,0.8302081736031631,-0.0247818628904438,0.592117461897753,-1.5615663571981273,1.7894285576092797,0.0129323305579547,1.0739963231330925,-0.0066351784445135,0.9194942364943802,-0.8977450291143774,0.0220290966369995,0.1975809518859712,10.186175531179288,-1.0350715857842323,0.3991287345124651,-0.5920168968610521
1.76,0.5969367040238935,-1.5405684055743991,1.7880196711895135,0.012911464762192,0.0121977940693005,0.0637348766673853,0.0829109707288647,0.8322048706728802,-0.0201629504604818,0.5928973775472317,-1.540686430744406,1.7891873676599612,-0.021818938663351,1.1139963237291388,0.0005972469173581,1.0059225817388668,-0.9739493633616182,0.0998348534858528,0.2309456214981017,10.19969259143818,-1.036681532627135,0.4003889750480767,-0.5899353222635488
1.78,0.5983844933934079,-1.5238768118560193,1.7876711117294697,0.0094411929357492,0.0124682161822083,0.0637985560028961,0.0628739443951238,0.8369340494557304,-0.0148903977746427,0.5928085114661777,-1.518806504275784,1.7891269883446896,-0.0565702078846569,1.1539963243251852,0.0078296722792299,1.062599840114022,-1.0018513166870489,0.2364589391425087,0.2636276342919516,10.22679053802949,-1.038323139572715,0.4021737255488646,-0.5873152404120746
1.8,0.5994279947355098,-1.50707215651536,1.7874348230310524,0.0063878117124,0.0132423715844767,0.063894400559819,0.0425838637749772,0.8431836889243558,-0.0089940969832474,0.6015281906131641,-1.4820301093832329,1.7869265918407375,-0.0371260570949923,0.9369340509458464,0.0092754188304483,1.1017165335085717,-1.014504031007328,0.3124819734312722,0.2948150395697669,10.262914460656248,-1.0398466089641254,0.403886211124795,-0.5848396038709962
1.82,0.6000462723166976,-1.4909229230880732,1.787295652719561,0.0060353705285481,0.0142866490069774,0.0641613666067449,0.0236149210887686,0.8553857478456347,-0.0059569534731875,0.6015281906131641,-1.4820301093832329,1.7869265918407375,-0.0371260570949923,0.9369340509458464,0.0092754188304483,1.137909562807749,-0.9484471343104318,0.6101029460639451,0.1518571755029933,10.294902885791998,-1.042154863760972,0.4052761141070189,-0.5811381928680536
1.84,0.6003186912601951,-1.47372042197071,1.7872155323633814,0.0085365167307427,0.0153360082671833,0.0646355587498461,0.0046532610184718,0.8640596618890848,-0.0021667040744971,0.6015281906131641,-1.4820301093832329,1.7869265918407375,-0.0371260570949923,0.9369340509458464,0.0092754188304483,1.059654811670904,-0.9480830035148368,0.4336957021725041,0.1895124699345227,10.16413575453862,-1.0431390480757623,0.4041207703829767,-0.5815836605218393
1.86,0.6002166364245983,-1.4563811522111805,1.78721428323872,0.0120133763297272,0.0161684142823185,0.0651672697805715,-0.0139072809539458,0.8692847153403073,0.0018497143329794,0.6011569300422142,-1.4726607688737745,1.787019346029042,-0.0571260573930155,0.9569340512438698,0.0141085821514665,0.9847925145708728,-0.9280270986208864,0.2612526725611241,0.20082092037383,10.16413575453862,-1.044190554159898,0.4026560330906867,-0.581979816427851
1.88,0.5997784029401461,-1.4398383494734968,1.787287400236687,0.0148484344351399,0.0167812270120277,0.0656287037266297,-0.0313164153953111,0.8720358138517353,0.005650119294313,0.6004144089003144,-1.4539220878548575,1.7872048544056511,-0.0971260579890619,0.9969340518399162,0.0237749087935029,0.9015120394193878,-0.8704567220682645,0.1375549255714037,0.1900202480666772,10.171126854167596,-1.045534126519043,0.4012425366570505,-0.582051819529757
1.9,0.5989616426449594,-1.4223794918954866,1.7874434161520845,0.0168050415130147,0.0172413954624779,0.0660306697630224,-0.0494665840351347,0.8739126887519931,0.0097640768934593,0.5996718877584145,-1.4351834068359406,1.78739036278226,-0.1371260585851084,1.0369340524359627,0.0334412354355394,0.9352485340443312,-0.9075084319911808,0.0938437450128892,0.2056978799573161,10.170086543618709,-1.0474277723926049,0.4004296043163151,-0.5809619775750494
1.92,0.5977821732109551,-1.4048908636598068,1.7876836952535375,0.0174321608161988,0.0175249539254997,0.0663283921718922,-0.0675955426175651,0.8749999050330591,0.0140740136257391,0.5969293665867124,-1.4144447257872212,1.7880591874909708,-0.1771260591811548,1.076934053032009,0.0431075620775758,0.9332962192701038,-0.9064479291215212,0.0543608140533002,0.2154968366139923,10.176447007585011,-1.0494259913716948,0.4002850474268489,-0.5792027127200239
1.94,0.5962397699557553,-1.3873882508350448,1.7880130123499165,0.016315628901236,0.0176863232081577,0.0664960094689568,-0.0857701734460241,0.875490295659865,0.0186557231854338,0.5941868454150102,-1.393706044738502,1.7887280121996816,-0.2171260597772013,1.1169340536280556,0.0527738887196122,0.937483001455263,-0.9087315414229482,0.0245195313402946,0.229085477984733,10.18728840820586,-1.0516050200108855,0.4009858675137401,-0.5765440845937309
1.96,0.5944320243842641,-1.3707401495136733,1.7884154195265014,0.0137660317054322,0.0179054458249276,0.0665491524923357,-0.1035944643079205,0.8771549856638083,0.0234920037747391,0.5904443242284069,-1.3719673636748817,1.7896384950744433,-0.2571260603732477,1.156934054224102,0.0624402153616487,0.927181410886245,-0.8912145430948197,0.0832345001971657,0.2418140294652636,10.200983712423294,-1.0547570856886508,0.4028773036389608,-0.5716937049915506
1.98,0.5921592125826662,-1.3531545536377187,1.7889459161004386,0.0104485546824791,0.0184164130586404,0.0665626290416146,-0.1227226324559634,0.8814626914808984,0.0293493953794635,0.5857018030269023,-1.34922868259636,1.790790636115256,-0.2971260609692941,1.1969340548201484,0.0721065420036851,1.0231717628500738,-0.9564084074021456,0.2153852908545028,0.2928695802362213,10.226832027215096,-1.0582449536752092,0.4053295152437796,-0.5659649814229553
2.0,0.5895010550992994,-1.3354623202593765,1.7896012080428203,0.0074429208236143,0.0193388614221498,0.0665992005835686,-0.1420733259790356,0.8874906638794978,0.035924993061307,0.5860230809598681,-1.309081419063674,1.7904133858694118,-0.2227226339460795,0.9814626929710144,0.044144466824869,1.065392270405141,-0.9675346761536072,0.3013986199299712,0.3287798840921755,10.265482958401662,-1.0615903452877211,0.4077722277135871,-0.560421750424826
2.02,0.5864291139510592,-1.3175819707161822,1.790328496101007,0.0069696347973738,0.0214517582311765,0.0668158787654232,-0.1639290535418154,0.8995988797520769,0.0361646907015935,0.5860230809598681,-1.309081419063674,1.7904133858694118,-0.2227226339460795,0.9814626929710144,0.044144466824869,1.2493389991053163,-1.0927863781389937,0.6054107936289521,0.0119848820143229,10.299909159381968,-1.0630108759629116,0.4094927635330941,-0.5576041515158232
2.04,0.5831256341703476,-1.3004062962323677,1.7910201309397775,0.009264292783153,0.0247645359558405,0.0672185338334045,-0.1825252405768178,0.9076560933487016,0.0366782421060076,0.5860230809598681,-1.309081419063674,1.7904133858694118,-0.2227226339460795,0.9814626929710144,0.044144466824869,1.0136574843449353,-0.92980935175012,0.4028606798312351,0.0256775702207046,9.918899245927603,-1.0641026371452658,0.4083409245712913,-0.5592195855912545
2.06,0.5792881380698885,-1.2821932950475623,1.7917620198418758,0.0126902111235681,0.0287349252204006,0.0677180510436793,-0.2000841877062126,0.9129916678026148,0.0374898434109291,0.5837958546204073,-1.2992667921339638,1.7908548305376604,-0.2427226342441028,1.0014626932690378,0.0471034811139501,0.9184820027146452,-0.8779473564697368,0.2667787226956652,0.0405800652460788,9.958355128693256,-1.063882942392247,0.4063593584806064,-0.5633453642328745
2.08,0.5751183635185427,-1.2639021243474664,1.7925196976469866,0.0156602702551491,0.032634283907067,0.0681865879005902,-0.2159609489238564,0.9160915474525108,0.0382389168051026,0.5793414019414858,-1.2796375382745435,1.7917377198741578,-0.2827226348401492,1.0414626938650842,0.0530215096921123,0.8096942502509443,-0.793838060882189,0.1549939824947999,0.0374536697086744,9.962419602601583,-1.0638171100285108,0.4048175953295335,-0.5666965565707033
2.1,0.5708758311567707,-1.2464779086729043,1.7932530630185608,0.017577297979473,0.0359271753003268,0.068561237164227,-0.2298299629789416,0.9181557767479424,0.0389204833743227,0.5748869492625641,-1.2600082844151232,1.7926206092106551,-0.3227226354361957,1.0814626944611303,0.0589395382702745,0.7019172430432017,-0.6934507027542613,0.1032114647715742,0.0340783284610051,9.954939167675548,-1.0637314321639972,0.4034662128699439,-0.5699502858395848
2.12,0.5661355531500777,-1.228100239297527,1.794040152732847,0.0184232746144952,0.0387214633587534,0.0688577079868517,-0.2434629315070172,0.9196285502825674,0.0397565053594147,0.5684324965538402,-1.2383790305259006,1.7937993999760606,-0.3627226360322421,1.1214626950571769,0.0648575668484367,0.6868875918433642,-0.6816484264037831,0.0736386767312524,0.0418010992545962,9.952217917749294,-1.0637158348525135,0.4025562789220481,-0.5725654855720897
2.14,0.5611292462915483,-1.209698989432325,1.7948440566605246,0.0177117879926585,0.0407106656848996,0.0690240233024017,-0.2565171538459387,0.9205806340940592,0.0405908528226302,0.5619780438451163,-1.216749776636678,1.794978190741466,-0.4027226366282886,1.1614626956532237,0.0707755954265989,0.6557730555372678,-0.6527111169460711,0.0476041905745849,0.041717373160777,9.960277392723585,-1.064000495316196,0.4024416317788338,-0.5738670369568571
2.16,0.5558599453116515,-1.1912686899124407,1.7956673938492624,0.0155243676535075,0.0420365716387802,0.0690687378814558,-0.2697903813918145,0.9225136280184104,0.0417029176343857,0.5545235911214912,-1.1941205227325542,1.7963049322213256,-0.4427226372243351,1.2014626962492698,0.0766936240047611,0.6729630806027199,-0.6636613772937922,0.0966496962175655,0.0556032405877753,9.960918162967571,-1.064707158882122,0.4031753817044629,-0.5736122337356604
2.18,0.5506047927526627,-1.1737050595341236,1.796475569765275,0.012727956626424,0.0429557059619812,0.0690506311275039,-0.2827303992385184,0.9263635569051026,0.0433173004762005,0.5460691383829649,-1.1704912688135294,1.7977796244156392,-0.4827226378203815,1.2414626968453162,0.0826116525829233,0.679838668850094,-0.6470008923351922,0.1924964443346111,0.0807191420907377,9.97761876988534,-1.0662869103447743,0.4046567496093791,-0.5715403894294674
2.2,0.544804937952723,-1.155118265239378,1.7973654820010632,0.0099821560667208,0.0437691110176893,0.0690388930178256,-0.2965618790111126,0.9320718028959856,0.0456165182281305,0.5364682727907368,-1.1273868816888686,1.7986414347890851,-0.3827304007286345,1.0263635583952189,0.0343086078987192,0.7569351148924603,-0.6915739886297095,0.2854122995441521,0.1149608875965022,10.008748732220738,-1.068026054226405,0.4061583860895666,-0.5691121301647263
2.22,0.5386978951513188,-1.136354851580245,1.798246682725044,0.0095315258135014,0.0453028764277955,0.0691884961730103,-0.3132912654625309,0.9434055535075868,0.0420906625708681,0.5364682727907368,-1.1273868816888686,1.7986414347890851,-0.3827304007286345,1.0263635583952189,0.0343086078987192,1.0256192423150017,-0.8364693225709152,0.5666875305800623,-0.1762927828631206,10.041649116909866,-1.067707001734678,0.407338684860103,-0.5687401025948614
2.24,0.5326030121760525,-1.1183529285512968,1.7990079813499107,0.0115850239975897,0.0477461737584123,0.0695073592744525,-0.3273087685157508,0.9508930133861938,0.0382576570680475,0.5364682727907368,-1.1273868816888686,1.7986414347890851,-0.3827304007286345,1.0263635583952189,0.0343086078987192,0.8173805393839377,-0.7008751526609958,0.3743729939303442,-0.1916502751410319,9.697167267608163,-1.067835243824407,0.4053889982627932,-0.5721877434799487
2.26,0.525915923679382,-1.0992743618459262,1.7997262325988634,0.0147498530425457,0.0505895193526878,0.0699122759602908,-0.3405475245421338,0.9562917009543422,0.0337357383089313,0.5326409687834505,-1.1171232461049163,1.7989845208680724,-0.4027304010266577,1.046363558693242,0.0325068693832229,0.7497636925202164,-0.6619378013191513,0.2699343784074215,-0.2260959379558072,9.697167267608163,-1.066800913277741,0.4027946033366127,-0.5774822393662169
2.28,0.518977732397215,-1.0801151928324169,1.8003472678089658,0.0176408612252726,0.0532914996251619,0.0702925428923154,-0.3525625842833296,0.9594661988641908,0.0285630020197026,0.5249863607688778,-1.096595974937012,1.7996706930260469,-0.4427304016227041,1.0863635592892886,0.0289033923522304,0.6730458719174384,-0.6007529870597911,0.1587248954924347,-0.2586368144614357,9.665458007804771,-1.0655862948815722,0.4001922582705166,-0.5829274847372283
2.3000000000000003,0.5118091854159821,-1.0609036822322415,1.8008594553038983,0.0196948229305862,0.0555805471703633,0.0706019539680447,-0.3636821396217489,0.9617034302598708,0.0228922523527185,0.5173317527543051,-1.0760687037691077,1.8003568651840212,-0.4827304022187506,1.126363559885335,0.0252999153212379,0.634048730437151,-0.5559777669209648,0.1118615697839942,-0.2835374833492055,9.611232230758104,-1.0643880974114868,0.3979235685841539,-0.5878853637599994
2.32,0.5047999465184062,-1.042618973576615,1.8012382104532476,0.0206250433766086,0.0572097682616267,0.0708073243376983,-0.373621520015068,0.963073898510691,0.0172556244644814,0.5076771447099301,-1.053541432571401,1.800862863490446,-0.5227304028147971,1.1663635604813811,0.0216964382902454,0.5754151539976445,-0.4969690196659521,0.0685234125410105,-0.2818313944118539,9.603635539448987,-1.0631654504015555,0.3959343693870865,-0.5925571400105273
2.34,0.4972217874158284,-1.0233496126497867,1.801518734060907,0.0202227339008575,0.0582826216618454,0.0709061587307464,-0.3837111565646989,0.9639251874950726,0.0110796028769842,0.498022536665555,-1.0310141613736945,1.8013688617968708,-0.5627304034108436,1.206363561077428,0.0180929612592529,0.5930191845290715,-0.5044818274815482,0.042564449219079,-0.3088010793748603,9.594908454918368,-1.0624031555742917,0.3944864097247583,-0.5961869062235349
2.36,0.48943814408168,-1.004054515597724,1.801676849672993,0.0184635771765062,0.0588369491629979,0.0708928663480295,-0.3941798208649902,0.9656288534698628,0.0050370406564169,0.4873679286062789,-1.0074868901610865,1.8017847731775207,-0.6027304040068899,1.2463635616734745,0.0144894842282604,0.6103441000273506,-0.5234332150145654,0.0851832987395162,-0.3021281110283627,9.594908454918368,-1.062117680122469,0.3938148844563843,-0.5984993343254146
2.38,0.4814407568551,-0.9847117596273464,1.8017187468416165,0.0158654445602801,0.0591686428216481,0.0708116611479256,-0.4050481668995957,0.9687604144062224,-0.0005454950844509,0.4757133205321016,-0.9829596189335774,1.802110597632396,-0.6427304046029364,1.2863635622695206,0.0108860071972679,0.6306590297540441,-0.5434173017302729,0.1565780468179733,-0.2791267870433978,9.634214994985996,-1.0624630803572146,0.3937849773268969,-0.5994270502100822
2.4,0.4736383148709018,-0.9662580739319776,1.8016603681392829,0.013438526136622,0.0594727660823264,0.0707330594101597,-0.4156919214142027,0.9734935333450752,-0.0053262998444486,0.4611883485101203,-0.9362737389070354,1.8016914720873936,-0.4992526374148469,1.0687604158963384,-0.0179769405042393,0.6295792627020051,-0.5321877257303487,0.2366559469426432,-0.2390402379998822,9.634214994985996,-1.062985924473177,0.3939081407587531,-0.6000120370598306
2.42,0.4651680754773861,-0.94668354953816,1.801512157733733,0.0128766584340268,0.0610211922496531,0.0707990930201475,-0.4305451849232423,0.9832168850536468,-0.0091836984676863,0.4611883485101203,-0.9362737389070354,1.8016914720873936,-0.4992526374148469,1.0687604158963384,-0.0179769405042393,0.9083536335812532,-0.7426631754519797,0.4861675854285818,-0.1928699311618857,9.664976498429496,-1.0624531786283236,0.3936251460470261,-0.6020076047988117
2.44,0.4564229796470311,-0.9269455244076223,1.801285687628414,0.0146565931654275,0.0643726257199476,0.0710445971647397,-0.4429621963510237,0.990004840893988,-0.0132955151491016,0.4611883485101203,-0.9362737389070354,1.8016914720873936,-0.4992526374148469,1.0687604158963384,-0.0179769405042393,0.7368269025178895,-0.6208505713890727,0.3393977920170599,-0.2055908340707675,9.719402494764836,-1.0620947973079922,0.3915307374433443,-0.6063606023641955
2.46,0.4474530879345417,-0.9070899484063204,1.800964067337096,0.0174406965545126,0.0684130866078631,0.0713669635897121,-0.4532494331459133,0.9950404305680092,-0.018670172054335,0.4561958221359718,-0.925586134748072,1.8015117026823515,-0.5180935315178972,1.0887604161943616,-0.0214632295881969,0.6325965165257641,-0.5143618397444816,0.2517794837010589,-0.2687328452616681,9.719402494764836,-1.0601646584059892,0.3889819266350585,-0.6127190384983849
2.48,0.4387597318104344,-0.8881570573273326,1.8005466627402456,0.020025606142407,0.0722412486261369,0.0716676421298997,-0.4612744942078456,0.9977682274733968,-0.0250079392826695,0.4462107693876749,-0.9042109264301452,1.8011521638722665,-0.5557753197239976,1.1287604167904082,-0.0284358077561123,0.5291733516659086,-0.4012530530966118,0.136389845269369,-0.3168883614167244,9.647916344952137,-1.057463956920224,0.3859112501363012,-0.6205271333332263
2.5,0.4294591921705067,-0.8681830210420237,1.7999666849262146,0.022024373298486,0.0757752866081733,0.071920660091735,-0.4683217841558291,0.9996541977584504,-0.0327105603632813,0.436225716639378,-0.8828357181122184,1.8007926250621815,-0.5934571079300981,1.1687604173864543,-0.0354083859240276,0.5304515789366214,-0.3523644973991768,0.0942985142526942,-0.3851310540305918,9.582597932588214,-1.0548201922330511,0.3831952401436351,-0.62774126410916
2.52,0.4200288434560557,-0.8481778760402018,1.7992247087822657,0.023018257836385,0.0784907581847202,0.0720790242375059,-0.4743702470592571,1.0008615830749232,-0.041137207975378,0.424356574480776,-0.8594605097644893,1.8000844573437011,-0.6311388961361986,1.208760417982501,-0.042380964091943,0.5221352142286353,-0.3024231451713988,0.0603692658236343,-0.4213323806048347,9.53180166733273,-1.052487490338554,0.3809972415494286,-0.633853295989198
2.54,0.410485299409998,-0.828156097571539,1.798310730586088,0.0226493460853921,0.0802261606715938,0.0721109528492639,-0.479775976207316,1.0014571823178555,-0.0498478658432317,0.412487432322174,-0.8360853014167602,1.7993762896252206,-0.668820684342299,1.2487604185785477,-0.0493535422598583,0.5134496240410487,-0.2702864574029462,0.0297799621466143,-0.4355328933926872,9.502629133628943,-1.050420122109147,0.3792550560871984,-0.6392026995960104
2.56,0.4013168718379128,-0.8091155072432524,1.7972828618959364,0.0211568845504541,0.0810844861448757,0.0720354662313877,-0.4851061748009893,1.0028390549239816,-0.0579207328963767,0.3996762454584196,-0.81171009305413,1.7984938074525425,-0.7065024725483995,1.2887604191745938,-0.0563261204277737,0.4885994561123442,-0.2665099296836642,0.069093630306305,-0.4036433526572469,9.497410910853432,-1.048842598463633,0.3782546020735064,-0.6431959393580595
2.58,0.3915535023542301,-0.7890348424202889,1.7960388084507664,0.0187750496722551,0.081414340350279,0.071880383086826,-0.4909972174631556,1.0052978930989096,-0.0660451148785256,0.3859230138895126,-0.7863348846765986,1.797437010825666,-0.7441842607545,1.3287604197706402,-0.063298698595689,0.516613616278676,-0.2945521331083139,0.1229419087463989,-0.4062190991074462,9.514897458397172,-1.0477759417685708,0.3777874927857446,-0.6460791719571499
2.6,0.3816680811735476,-0.76888483287774,1.7946383315528345,0.0162814101681248,0.0813794190652386,0.071705296288921,-0.4972776005557449,1.0095749579117683,-0.0735747602907852,0.3670036414810723,-0.7387699477653434,1.7927365527068402,-0.5693998409973582,1.1052978945890255,-0.0906554983146094,0.5348645979064179,-0.3140191546294635,0.2138532406429361,-0.3764822706129808,9.575028989026578,-1.0473195532316537,0.3777167530658349,-0.647734892875739
2.62,0.3715976844238907,-0.7485933605208759,1.7931157538354476,0.0158438556363313,0.0829283848747812,0.0716917743724018,-0.509159942264628,1.01884802720046,-0.0781622953785004,0.3670036414810723,-0.7387699477653434,1.7927365527068402,-0.5693998409973582,1.1052978945890255,-0.0906554983146094,0.7877584285498944,-0.5941170854441569,0.463653464434588,-0.2293767543857565,9.774706523716304,-1.045178169934523,0.3770997678143848,-0.6514524544137301
2.64,0.3618335266775425,-0.7291731756920833,1.7915847247128138,0.0177558718778829,0.0869217367792259,0.071874692016759,-0.5177236015554264,1.0248556699600315,-0.0827891910236152,0.3670036414810723,-0.7387699477653434,1.7927365527068402,-0.5693998409973582,1.1052978945890255,-0.0906554983146094,0.5719182530884358,-0.4281829645399193,0.300382137978572,-0.2313447822557414,9.774706523716304,-1.043896130617468,0.374823083596023,-0.6567392271142017
2.66,0.3514109455563717,-0.7086276060467065,1.7898628997688413,0.02080919966029,0.0923218915867466,0.0721608893734712,-0.5238251939172696,1.0291191186887527,-0.0892408470445229,0.3613096430710987,-0.7277169688194531,1.791829997723694,-0.5850803657041987,1.125297894887049,-0.0955775750018262,0.4925197707317235,-0.3050796180921578,0.2131724364360598,-0.3225828010453853,9.726674409036605,-1.040620035702956,0.3720775574997633,-0.6644820570696653
