t,x,y,z,roll,pitch,yaw,v_x,v_y,v_z,ref_x,ref_y,ref_z,ref_v_x,ref_v_y,ref_v_z,a_com,a_x,a_y,a_z,thrust,wind_x,wind_y,wind_z
0.0,-0.4392054715596278,1.146447464672841,2.628061320970333,0.0253942252778819,0.099472948076467,0.0417962341668366,0.0006604704246185,0.0067678657483488,-0.0008887573472211,-0.4391804204226927,1.1465874699422445,2.6280328209452937,-0.0373242860531255,-0.094743740323816,-0.1009332829750284,0.3428925399877824,0.0330235212309273,0.3383932874174433,-0.0444378673610591,10.256309872483143,-0.9407775859181396,0.2574765834890656,-0.8773080351428678
0.02,-0.4391493289586605,1.1467856676662718,2.6279555685241043,0.0342229624509681,0.0975000116599725,0.0423488804486231,0.0052738691961317,0.0240895805631301,-0.010346201393618,-0.4391804204226927,1.1465874699422445,2.6280328209452937,-0.0373242860531255,-0.094743740323816,-0.1009332829750284,1.013371230399231,0.2306699385756619,0.8660857407390641,-0.4728722023198428,10.255441213395898,-0.9449784066773936,0.2541041534933435,-0.8702064197451849
0.04,-0.438998044211007,1.147287708524653,2.6275796655906323,0.0486531946964748,0.0911083255779816,0.0430531513028949,0.0089109710421231,0.0245440766062552,-0.027038286559685,-0.4391804204226927,1.1465874699422445,2.6280328209452937,-0.0373242860531255,-0.094743740323816,-0.1009332829750284,0.854489297303605,0.1818550922995677,0.0227248021562565,-0.8346042583033491,9.633398252375628,-0.9421445174059094,0.2406366625385897,-0.8776444802132592
0.06,-0.4388243691199872,1.147726061720371,2.626840681374076,0.0633183845237536,0.0819185450581825,0.0434830547587153,0.007841295738256,0.0188962190979994,-0.0460308161933393,-0.4395536632832239,1.1456400325390064,2.6270234881155434,-0.04494652132148,-0.1147437406218393,-0.1209332832730516,0.9921676793447072,-0.0534837651933533,-0.2823928754127933,-0.9496264816827188,9.282590370932668,-0.9424439751431442,0.225128558925568,-0.8844775656414732
0.08,-0.4387218523452776,1.148003661183912,2.6257756600171134,0.0766968931637462,0.0723476653012101,0.0436297172240827,0.002782701792894,0.0103178187050722,-0.0651661173591276,-0.4403001490042864,1.14374515773253,2.625004822456043,-0.0601909918581888,-0.1547437412178857,-0.1609332838690981,1.0785848097285191,-0.2529296972680999,-0.4289200196463601,-0.9567650582894108,9.20807704314484,-0.9444465987952608,0.2074329568461471,-0.891715884075785
0.1,-0.4387539818434455,1.1480902141206986,2.6242511945739766,0.0901024629128712,0.0626861924660677,0.0435910658193597,-0.0059215760938236,-0.0015270030392291,-0.0863575345340207,-0.4410466347253489,1.1418502829260535,2.6229861567965425,-0.0754354623948976,-0.1947437418139322,-0.2009332844651445,1.2895158176267487,-0.4352138943358871,-0.5922410872150693,-1.0595708587446553,9.171257821650215,-0.9470704724247488,0.1888598437331289,-0.8995790269050578
0.12,-0.4389912927502096,1.1479113639038545,2.622294681777442,0.1028354583345312,0.0543606383032113,0.04346263960483,-0.0173715990075367,-0.016057880581801,-0.1082865662452664,-0.4425553439732468,1.1379554080897751,2.61896749110724,-0.0906799329316065,-0.2347437424099786,-0.240933285061191,1.4345137317873566,-0.5725011456856527,-0.7265438771285953,-1.0964515855622865,9.142714976125262,-0.9498335161735072,0.1713068731540275,-0.9068804504277426
0.14,-0.4394491500802478,1.1474485507412526,2.620020497829928,0.1143425873173785,0.048201743199431,0.0433537001797537,-0.030254109835156,-0.0321751976992864,-0.130060610451303,-0.4440640532211448,1.1340605332534963,2.6149488254179367,-0.1059244034683153,-0.2747437430060251,-0.2809332856572375,1.4998633249197688,-0.6441255413809669,-0.8058658558742688,-1.0887022103018311,9.118581058623931,-0.9512908907219818,0.1524928563332961,-0.916530889007738
0.16,-0.4402149076302779,1.1466064315951665,2.61716959927255,0.1258707366198304,0.0441373551226762,0.0433756854298813,-0.0457258654532992,-0.051457739293368,-0.1539754079254894,-0.4459538742324605,1.1291656584023166,2.6099301597137328,-0.1211688740050241,-0.3147437436020716,-0.3209332862532839,1.7198177014340676,-0.7735877809071612,-0.9641270797040816,-1.1957398737093172,9.118581058623931,-0.9503113184501598,0.1329746040773055,-0.9294640274117618
0.18,-0.4413043787303775,1.1453544151085042,2.613833349518572,0.1368347342315658,0.0432049184150919,0.0436881808527725,-0.0621369708000133,-0.0730205000988844,-0.17849111486077,-0.4482248070071939,1.1232707835362357,2.6039114939946275,-0.1364133445417329,-0.354743744198118,-0.3609332868493303,1.8270857388156585,-0.8205552673357007,-1.0781380402758165,-1.2257853467640327,9.105045581918604,-0.9488293110745778,0.1148638419843201,-0.9414608349575074
0.2,-0.4427063592158873,1.1436376492866491,2.610002576802118,0.1468999059788148,0.0450344775875528,0.044286847593256,-0.0769432419914474,-0.0976092527735821,-0.20337056710943,-0.4444112272703781,1.14170339010356,2.6049087937755333,-0.1063676703391978,-0.1730205015890005,-0.2784911163508862,1.8992232418051167,-0.7403135595717061,-1.2294376337348838,-1.2439726124329975,9.10866062865398,-0.9456167583356132,0.0988780636972896,-0.953570487617349
0.22,-0.4442754361803194,1.1413498489040863,2.606103033039704,0.150604754349085,0.0485430291002565,0.0446947705796313,-0.0873591578137925,-0.139007193201774,-0.2054168371820438,-0.4444112272703781,1.14170339010356,2.6049087937755333,-0.1063676703391978,-0.1730205015890005,-0.2784911163508862,2.1368598429262846,-0.5207957911172546,-2.069897021409594,-0.1023135036306896,9.117349743909472,-0.9476050068286856,0.0844190967425332,-0.9639615683135634
0.24,-0.4461202067553841,1.1381858242417298,2.6019622831029072,0.1479320428188741,0.0531766767235148,0.0447851502436143,-0.0964141115855199,-0.174338139468731,-0.2086703190639434,-0.4444112272703781,1.14170339010356,2.6049087937755333,-0.1063676703391978,-0.1730205015890005,-0.2784911163508862,1.8308830494344652,-0.4527476885863697,-1.7665473133478549,-0.1626740940949805,10.598079180012064,-0.9455204116988832,0.0850139424576373,-0.9676224242614548
0.26,-0.4481298308322407,1.1343850452388746,2.597715650530477,0.1421614374770543,0.0579552349003896,0.0446458744549701,-0.1040094325675052,-0.2032436431231597,-0.2157106131920307,-0.4454749039737701,1.13997318508767,2.6021238826120245,-0.1152138102470347,-0.1930205018870237,-0.2984911166489094,1.535238404731947,-0.3797660490992671,-1.4452751827214338,-0.352014706404366,10.342087579907457,-0.941848920686451,0.0878568358146243,-0.9727141590525809
0.28,-0.4502790948230199,1.1300580232965205,2.593295910046723,0.1356894156418261,0.0623918034571707,0.0443708582955294,-0.1104663393246927,-0.22778025686642,-0.2260708465852108,-0.4476022573805541,1.13651277505589,2.5965540602850066,-0.1329060900627086,-0.2330205024830701,-0.3384911172449558,1.370284181126423,-0.3228453378593759,-1.226830687163012,-0.5180116696590034,9.862517986151031,-0.9373501408037546,0.0907810364233064,-0.9793217632807169
0.3,-0.452431810321012,1.125522314290545,2.5888705706581017,0.1297997049557052,0.0660062127096806,0.0440145216562912,-0.1158004314604798,-0.2484281030889223,-0.2392369826375857,-0.449729610787338,1.13305236502411,2.590984237957989,-0.1505983698783824,-0.2730205030791166,-0.3784911178410023,1.253129314048252,-0.2667046067893523,-1.0323923111251188,-0.6583068026187452,9.862517986151031,-0.932786135993282,0.0933380977640956,-0.9861099062383768
0.32,-0.4548018338624886,1.1203453702324184,2.5839138426400283,0.1242883382929641,0.0690593126181673,0.043563397893899,-0.1209110086752945,-0.2682006688168919,-0.2558963905143594,-0.4527415781849057,1.1275919549625275,2.583414415601169,-0.1682906496940562,-0.313020503675163,-0.4184911184370487,1.3177710591564915,-0.255528860740737,-0.9886282863984768,-0.8329703938386848,9.513869573270313,-0.9285865648964914,0.0952418290596547,-0.9926071403214038
0.34,-0.4572696586688929,1.1147870519769647,2.578605449627141,0.1196322989976273,0.0713078418167052,0.0430514280617527,-0.1256425902839077,-0.2867729140817941,-0.274135687414515,-0.4557535455824733,1.1221315449009452,2.575844593244349,-0.1859829295097301,-0.3530205042712095,-0.4584911190330952,1.322864420595204,-0.2365790804306614,-0.92861226324511,-0.9119648450077787,9.513869573270313,-0.9248544568656104,0.0958222017626254,-0.99915470887097
0.36,-0.4597016179296986,1.109162199449893,2.5732135639356257,0.1156918395464716,0.0728164993893715,0.0425092824389259,-0.1301359199100552,-0.3043271485192306,-0.2925265232883969,-0.4592078199754328,1.1156711348244617,2.567274770872628,-0.2036752093254039,-0.393020504867256,-0.4984911196291416,1.290895040227669,-0.2246664813073701,-0.8777117218718239,-0.919541793694098,9.395545814617437,-0.921136405809262,0.0956540666284689,-1.006247261561383
0.38,-0.4623548088407228,1.1028873080497774,2.567149148870365,0.111794506388203,0.0739324521993141,0.041889676611784,-0.1349591419921793,-0.3221567944823614,-0.3130037791687419,-0.4631044013637841,1.108210724733077,2.557704948486005,-0.2213674891410777,-0.4330205054633024,-0.5384911202251881,1.3788380568554812,-0.241161104106205,-0.8914822981565401,-1.0238627940172496,9.338723086554635,-0.9176973962150554,0.0952138330542403,-1.013175700238419
0.4,-0.4651059205574717,1.0962619714991773,2.560663953733821,0.1080496058981182,0.074729359057978,0.0412352362222189,-0.1399145920639215,-0.3393786389019279,-0.3344924381093002,-0.4691027659403318,1.0867794683256593,2.551498959911928,-0.1720324450062192,-0.4221567959724775,-0.413003780658858,1.399027227834502,-0.2477725035871111,-0.8610922209783239,-1.0744329470279117,9.338723086554635,-0.914586339094076,0.0946381927508614,-1.019698801204912
0.42,-0.4678044483551739,1.0896385716478023,2.554371033430948,0.1049908977129442,0.0757093496695389,0.0406637539783885,-0.1437648643794514,-0.35712475825208,-0.3268488750352333,-0.4691027659403318,1.0867794683256593,2.551498959911928,-0.1720324450062192,-0.4221567959724775,-0.413003780658858,0.985105838680315,-0.1925136157764947,-0.8873059675076067,0.3821781537033442,9.29447530671223,-0.920489896555752,0.0941537370055271,-1.0178411419262194
0.44,-0.4707180069067383,1.0823149673727357,2.547879529811813,0.1026583849915677,0.0771910329415436,0.0401617181984569,-0.1473311028634688,-0.3744400511951934,-0.3231087419978689,-0.4691027659403318,1.0867794683256593,2.551498959911928,-0.1720324450062192,-0.4221567959724775,-0.413003780658858,0.9035015519741848,-0.178311924200869,-0.8657646471556701,0.1870066518682211,11.044736240687598,-0.9194710682154404,0.0962205672000252,-1.018221516803932
0.46,-0.4736996827256727,1.0746466891096298,2.5413976808470014,0.1009888504180052,0.0787819174916513,0.0397070493358252,-0.1506277179679611,-0.3915216858353508,-0.3255061624477056,-0.470823090390394,1.0825579003659345,2.54736892210534,-0.1794471056090272,-0.4421567962705007,-0.4330037809568812,0.8780625517870136,-0.1648307552246167,-0.854081732007872,-0.1198710224918353,10.6428604357925,-0.9182883140598452,0.0972214208789735,-1.019255985422293
0.48,-0.476745563054156,1.0666433739975945,2.534810766133285,0.0996840391439368,0.0802667279198466,0.0392576669333813,-0.1537744337227275,-0.4079581303035633,-0.3330436185690074,-0.4742637392905183,1.074114764446485,2.5391088464921623,-0.1942764268146432,-0.4821567968665471,-0.4730037815529277,0.917703344739573,-0.1573357877383205,-0.8218222234106259,-0.3768728060650927,10.296082099173873,-0.9167759623682358,0.097422669183009,-1.021200536695527
0.5,-0.4796965209125751,1.0587423906029467,2.528376744535798,0.0987740431330172,0.0814729098314707,0.03882529952333,-0.1566901031652195,-0.4229140687179202,-0.3438439336736369,-0.4777043881906427,1.0656716285270351,2.5308487708789853,-0.2091057480202592,-0.5221567974625936,-0.5130037821489741,0.9338469206877604,-0.1457834721245984,-0.7477969207178442,-0.5400157552314738,10.028678423879684,-0.9146117027319102,0.0966171347336238,-1.024523444909779
0.52,-0.4828624278416217,1.0501261321343005,2.5213511867056235,0.0982956421945054,0.0824784369340219,0.0383695222025378,-0.1597510179029228,-0.4379386982112918,-0.3582908717010524,-0.481886503151048,1.0552284925777835,2.5205886952360057,-0.2239350692258752,-0.56215679805864,-0.5530037827450206,1.0533550075978229,-0.1530457368851642,-0.7512314746685789,-0.722346901370774,9.821452076083006,-0.9119950554559648,0.0948263504704792,-1.028879631666746
0.54,-0.4860888429296109,1.0412122298316897,2.51401940278186,0.0984291942413669,0.0832006257548784,0.0379203540741745,-0.1627418073651255,-0.452736877724801,-0.3742198932306002,-0.4860686181114531,1.0447853566285317,2.5103286195930266,-0.2387643904314912,-0.6021567986546865,-0.5930037833410671,1.0973430017661563,-0.1495394731101385,-0.7399089756754601,-0.7964510764773891,9.58606716916256,-0.909417412981488,0.091975134527738,-1.0337884939105222
0.56,-0.4893759849335796,1.0319915108117004,2.5063565063470223,0.0988539702390417,0.083706606683919,0.0374616464698086,-0.1658263640193908,-0.4685137261879987,-0.3912678702366073,-0.4906214661019987,1.0333422206643788,2.4990685439351457,-0.2535937116371072,-0.6421567992507329,-0.6330037839371134,1.1715982216415133,-0.1542278327132648,-0.7888424231598828,-0.8523988503003566,9.58606716916256,-0.9075805060031484,0.0891530256969067,-1.03773767597532
0.58,-0.4925568948667344,1.0229317506882625,2.4987515090456176,0.0990431192021664,0.0840929946012176,0.0369937448481778,-0.1688480658239217,-0.4842371754856657,-0.4083997282921258,-0.4955450471226847,1.0208990846853243,2.486808468262364,-0.2684230328427232,-0.6821567998467793,-0.6730037845331599,1.1724526643389952,-0.1510850902265437,-0.7861724648833501,-0.8565929027759239,9.541401947263694,-0.9057185771952858,0.0862739392352083,-1.0419275411245728
0.6,-0.4959680434897381,1.0130689497067202,2.4903834231893294,0.0986790859460942,0.0844747690235867,0.0364519554428124,-0.172103632097615,-0.5011274214552757,-0.4275538866782284,-0.5009992981579305,0.9987198919139793,2.478331522631011,-0.2016492767042012,-0.5842371769757818,-0.5083997297822419,1.2872071551970967,-0.1627783136846666,-0.8445122984804987,-0.9577079193051312,9.497874791274626,-0.9037536354283215,0.0838484660190195,-1.0462745308400343
0.62,-0.4994306306518178,1.0028065897220908,2.481915630944565,0.0965023649485635,0.0852556811282289,0.0358166191110168,-0.1738125389892331,-0.5239601244037383,-0.4166798903820349,-0.5009992981579305,0.9987198919139793,2.478331522631011,-0.2016492767042012,-0.5842371769757818,-0.5083997297822419,1.267375715944746,-0.0854453445809061,-1.1416351474231312,0.5436998148096728,9.441824811308834,-0.9114598598489296,0.0837633385955761,-1.0412686913235314
0.64,-0.5029214249267259,0.9921264310660308,2.4736690914595125,0.092625581835273,0.0866240758473651,0.0351148819644469,-0.1751193770806234,-0.5425550845608873,-0.4086532615889499,-0.5009992981579305,0.9987198919139793,2.478331522631011,-0.2016492767042012,-0.5842371769757818,-0.5083997297822419,1.0147747765206945,-0.0653419045695116,-0.9297480078574504,0.4013314396542539,10.947994849384486,-0.9101150645294646,0.087157031291665,-1.0417965010037045
0.66,-0.5062601589146942,0.981664438203274,2.465920469013426,0.0887630462633016,0.0880979692679849,0.0344480143803476,-0.176223161203247,-0.5576877940797793,-0.4073710663827372,-0.5030157909249725,0.9928775201442214,2.4732475253331887,-0.2082095188802571,-0.604237177273805,-0.5283997300802651,0.761349560516317,-0.0551892061311828,-0.7566354759446003,0.0641097603106349,10.542786777806214,-0.9082470319791376,0.0905267700016594,-1.0431932600045413
0.68,-0.5097960686844787,0.9703622097414126,2.457736094166338,0.0849889987892915,0.0895846440022687,0.0337574116367697,-0.1772959888458696,-0.5717094059422615,-0.4113781431736875,-0.5070487764590565,0.9811927766047056,2.463079530737544,-0.2213300032323689,-0.6442371778698515,-0.5683997306763116,0.7311176765429912,-0.0536413821311268,-0.7010805931241093,-0.2003538395475151,10.220898873742044,-0.9058078918110908,0.0930807436977737,-1.045750859303099
0.7000000000000001,-0.5133532791525429,0.958793529660243,2.449421130136184,0.08171271174089,0.0908636094971483,0.0330818746282555,-0.1783695401249719,-0.5844704905062332,-0.4201108199711453,-0.5110817619931406,0.96950803306519,2.452911536141899,-0.2344504875844808,-0.6842371784658979,-0.608399731272358,0.775011992885528,-0.0536775639551179,-0.6380542281985868,-0.4366338398728936,10.220898873742044,-0.9029868929177942,0.0945971419831222,-1.049228659692177
0.72,-0.516932701564086,0.9469808111667488,2.4408870286142106,0.0789972066770369,0.0918709059762931,0.0324226542481668,-0.179518895038008,-0.5962637661172776,-0.4328589373155662,-0.5157707717448302,0.955823289495872,2.440743541516452,-0.2475709719365926,-0.7242371790619444,-0.6483997318684045,0.8702253475124955,-0.0574677456518041,-0.5896637805522187,-0.6374058672210414,9.963884747459815,-0.8999704122252328,0.0953530402248375,-1.053370546713369
0.74,-0.5203541019552052,0.9355463814353526,2.432526148625488,0.0769413064186017,0.0925647474305456,0.0318125402430633,-0.1805785291182707,-0.6068845858806344,-0.4466052733472543,-0.5204597814965198,0.942138545926554,2.428575546891005,-0.2606914562887045,-0.7642371796579909,-0.688399732464451,0.8701815774966914,-0.0529817040131316,-0.5310409881678413,-0.6873168015844061,9.677222436735065,-0.8973994644776621,0.0953716763713171,-1.0574134003016766
0.76,-0.5239785747474102,0.9232883574287968,2.423428664542203,0.0750670118841695,0.0930702580200877,0.0311743028514609,-0.1818214315245881,-0.6183116694924616,-0.4624830966697038,-0.5254768033570123,0.927453802342335,2.4154075522506564,-0.2738119406408162,-0.8042371802540372,-0.7283997330604973,0.9800871386288078,-0.0621451203158707,-0.5713541805913602,-0.7938911661224762,9.677222436735065,-0.8948471488912136,0.0949443465247695,-1.0616688288525566
0.78,-0.5276294158104384,0.9108022962398392,2.4140001478855653,0.0732001317852022,0.0934412561124289,0.030528284812199,-0.1832039116109177,-0.6296318826939666,-0.4796236143560576,-0.5308218373263075,0.9117690587432148,2.401239557595406,-0.2869324249929281,-0.8442371808500837,-0.7683997336565438,1.0293879548945972,-0.06912400431648,-0.5660106600752501,-0.8570258843176887,9.605257735728628,-0.8923396953882043,0.0944256884347121,-1.0660152237690217
0.8,-0.5313093292285864,0.8980933520678815,2.4042159931836564,0.0712400133725852,0.0937558727486141,0.0298741957510491,-0.1847175758984036,-0.6405962139890503,-0.4979828101237103,-0.5367896113909844,0.8793207021051408,2.3900189671677623,-0.2022539341980978,-0.7296318841840828,-0.5796236158461737,1.0718766365101895,-0.075683214374296,-0.5482165647541837,-0.9179597883826356,9.543654870882165,-0.8901907360115754,0.0940276245112131,-1.069943059054315
0.8200000000000001,-0.5348342027182229,0.8857858114089322,2.394882597578356,0.068877897316105,0.094989343301187,0.0292861924511769,-0.1859531570570469,-0.6539711292419711,-0.4835115623657157,-0.5367896113909844,0.8793207021051408,2.3900189671677623,-0.2022539341980978,-0.7296318841840828,-0.5796236158461737,0.987208223344589,-0.0617790579321639,-0.6687457626460391,0.7235623878997316,9.482481125749471,-0.8965424311803553,0.0945035807405809,-1.0657211454338922
0.84,-0.5385586901061109,0.8725876654416216,2.3853268421393,0.0663422700567894,0.0977969541958957,0.0287675427101534,-0.1862497198959166,-0.665152136233045,-0.4732791477805257,-0.5367896113909844,0.8793207021051408,2.3900189671677623,-0.2022539341980978,-0.7296318841840828,-0.5796236158461737,0.7579663170205028,-0.0148281419434848,-0.5590503495536969,0.511620729259496,11.548100540357154,-0.8936918786792943,0.0973988106518767,-1.0668644688387563
0.86,-0.5422768739607817,0.8591785346750482,2.3758984623691006,0.0642613141470918,0.1013890522074858,0.0283306012711966,-0.1854146134443662,-0.675225707392405,-0.4703705689990516,-0.5388121507329653,0.8720243832633,2.3842227310093005,-0.2060639387155338,-0.7496318844821059,-0.5996236161441969,0.5259136554990522,0.0417553225775177,-0.5036785579679959,0.1454289390737051,11.055576768927494,-0.889388343037084,0.0991810174855229,-1.0700377495794355
0.88,-0.5459675191431371,0.8455784501652065,2.366458219755573,0.0626718763701631,0.1051372895929298,0.0279362807791238,-0.1835875948868509,-0.6843629172547507,-0.4737826580065372,-0.5428572294169273,0.8574317455796183,2.3726302586923773,-0.2136839477504059,-0.7896318850781524,-0.6396236167402434,0.4961576167737883,0.0913509278757634,-0.4568604931172892,-0.1706044503742787,10.621747051862258,-0.883994969262148,0.1000201060258654,-1.0748500015164473
0.9,-0.5494315659051033,0.8324973692946598,2.3573816447354505,0.0617206868137686,0.1084615605825217,0.0275856495567358,-0.1810927774529293,-0.6922101912354552,-0.4814810635700808,-0.5469023081008892,0.8428391078959366,2.3610377863754537,-0.2213039567852779,-0.8296318856741989,-0.6796236173362898,0.5636250331063214,0.1247408716960829,-0.3923636990352253,-0.384920278177181,10.031665975082433,-0.8781940916824698,0.0998351712505793,-1.0805872696870091
0.92,-0.5530206293428834,0.8185751630762037,2.347631937673801,0.0615583682227302,0.1114781795675516,0.027246921423683,-0.1779153481911388,-0.6996622979246885,-0.4932615908304499,-0.5513283872365948,0.8262464701824527,2.347445314028728,-0.22892396582015,-0.8696318862702453,-0.7196236179323363,0.7148614784587555,0.1588714630895216,-0.372605334461662,-0.5890263630184522,9.828578749907138,-0.8722810838462824,0.0984361116037287,-1.0869237400781335
0.94,-0.5565396309824734,0.8045085088328171,2.337624758420977,0.0625225991808344,0.1138506243182417,0.026950169704236,-0.1741531824300205,-0.7067858526660467,-0.5068736578490961,-0.5557544663723003,0.8096538324689687,2.333852841682002,-0.2365439748550221,-0.9096318868662918,-0.7596236185283828,0.7908654940749618,0.1881082880559173,-0.3561777370679087,-0.6806033509323101,9.828578749907138,-0.8675104635329008,0.0958354374575488,-1.0925480212383765
0.96,-0.5598093833865322,0.7910021564843243,2.327855228952593,0.0642647695197368,0.1154741318406559,0.0266893250889606,-0.1702469947002431,-0.7145968753316938,-0.5208240563756678,-0.5603710457338776,0.7920611947405836,2.319260369320375,-0.2441639838898941,-0.9496318874623382,-0.7996236191244291,0.8229276953561736,0.1953093864888691,-0.3905511332823574,-0.6975199263285825,9.752449902419356,-0.8636523046992467,0.0923163329115445,-1.0973848345110426
0.98,-0.5631698849752999,0.7766141419721521,2.3172741638723395,0.0665226406960956,0.1165670271356101,0.0264062998358033,-0.1660327316850118,-0.7239306198806952,-0.5366089896786469,-0.5651781253213268,0.7734685569972973,2.3036678969438467,-0.2517839929247662,-0.9896318880583846,-0.8396236197204756,0.9408014129547472,0.2107131507615656,-0.4666872274500688,-0.7892466651489571,9.705801596126548,-0.8606424614064319,0.0884082685098907,-1.101449229324062
1.0,-0.5664455723843993,0.762022195173463,2.306366328593004,0.0685529752081957,0.1170902072623332,0.0260694599341344,-0.1617983616422128,-0.734684878375719,-0.5533815495244542,-0.5714715215595504,0.7404176109781173,2.2904437143884078,-0.172998109518706,-0.8239306213708113,-0.636608991168763,1.018458061505644,0.2117185021399514,-0.5377129247511936,-0.8386279922903639,9.65219945965964,-0.8583024254399696,0.0847795116332984,-1.1050079531976231
1.02,-0.5694657548429118,0.7478892789163574,2.296001640959277,0.0685850418559294,0.117894648313298,0.0256384141252467,-0.1561522166624608,-0.751760658070777,-0.536750794626683,-0.5714715215595504,0.7404176109781173,2.2904437143884078,-0.172998109518706,-0.8239306213708113,-0.636608991168763,1.2247889754936072,0.2823072489875997,-0.8537889847528957,0.8315377448885608,9.612050595178516,-0.8626655272984677,0.0817098612452901,-1.1040805249739127
1.04,-0.5725229788200128,0.732689828687511,2.2854057699329946,0.0661088748094858,0.1195622593776889,0.025067857806689,-0.1497966946999538,-0.7670682823417012,-0.5241474806432694,-0.5714715215595504,0.7404176109781173,2.2904437143884078,-0.172998109518706,-0.8239306213708113,-0.636608991168763,1.0411046340308512,0.317776098125351,-0.7653812135462124,0.6301656991706761,11.765608770750076,-0.8597616974073365,0.0844766310217521,-1.1054746314331054
1.06,-0.5754491100675682,0.7172163712311821,2.2749840519407507,0.0621907456415389,0.1215114016262298,0.0244175716883207,-0.1431013391825232,-0.7790837084906945,-0.5189360046377272,-0.5732015026547375,0.7321783047644091,2.28407762447672,-0.1743911850854449,-0.8439306216688345,-0.6566089914667862,0.735455187627097,0.3347677758715292,-0.6007713074496657,0.2605738002771141,11.271333522243369,-0.8561673985950856,0.0882317130937265,-1.1077290307874528
1.08,-0.5782397935574198,0.7015370351810204,2.264593249105603,0.0581601391448222,0.1232821933038997,0.0237512791900563,-0.1362907835884427,-0.7882245315062982,-0.5203766473782626,-0.5766614648451115,0.7156996923369929,2.2713454446533445,-0.1771773362189226,-0.883930622264881,-0.6966089920628327,0.5744862148226647,0.3405277797040251,-0.4570411507801852,-0.0720321370267729,10.814128686432014,-0.852458011359666,0.0919714407114008,-1.1104699318123736
1.1,-0.5807648231378371,0.686490039007673,2.2546462953660527,0.0547732498350383,0.1245805577034428,0.0231313949203754,-0.1298591341472166,-0.7953067677482543,-0.526597655518808,-0.5801214270354856,0.6992210799095767,2.258613264829969,-0.1799634873524002,-0.9239306228609274,-0.7366089926588791,0.5705811226425908,0.3215824720613061,-0.3541118120978015,-0.311050407027269,10.447012154116235,-0.8487776572298906,0.0948981564436379,-1.1136832378971622
1.12,-0.5832927577723295,0.6705175029935977,2.244007382127647,0.0518966131647564,0.1254624514988999,0.0225073574404196,-0.1233089246341761,-0.8016733246183175,-0.5371532537777428,-0.5837206967825336,0.6807424674523582,2.2438810849767914,-0.1827496384858779,-0.963930623456974,-0.7766089932549256,0.6979594287071826,0.3275104756520208,-0.3183278435031633,-0.5277799129467409,10.16114815266883,-0.8454216597504332,0.0968587138744616,-1.1170300390741887
1.14,-0.5856907439081512,0.6544249583140938,2.2331320523185374,0.0498041886626639,0.1258275645060535,0.0219198473843661,-0.1168654907914019,-0.8074569840853263,-0.5498463764127117,-0.5873199665295816,0.6622638549951396,2.2291489051236137,-0.1855357896193556,-1.0039306240530204,-0.8166089938509721,0.7682511287705474,0.3221716921387098,-0.2891829733504381,-0.6346561317484456,9.933367792413264,-0.8434725263664419,0.0980545012707996,-1.1192286708778587
1.16,-0.5879616498535877,0.6382107344300613,2.2219886356565226,0.0481313057203026,0.1257087744661056,0.0213469779961722,-0.1106069201059499,-0.8136597578408833,-0.563858898456686,-0.5909888900549666,0.6427852425230199,2.2134167252555352,-0.1883219407528333,-1.0439306246490667,-0.8566089944470184,0.8276395400781251,0.312928534272603,-0.31013868777785,-0.7006261021987148,9.836500553307816,-0.8422410877285813,0.0987479856464948,-1.120920611653773
1.18,-0.5900059663191728,0.6226926581313128,2.2111310548708687,0.0466524154073557,0.125206991783077,0.0208012857984032,-0.1049526414761464,-0.8194645433917909,-0.5783405176356341,-0.5947274673586884,0.6223066300359991,2.196684545372555,-0.191108091886311,-1.083930625245113,-0.8966089950430649,0.8297344396847018,0.2827139314901736,-0.2902392775453788,-0.724080958947404,9.76977117336446,-0.8413362754295666,0.0993019519525929,-1.1225072354400942
1.2,-0.5920462320348641,0.6062425291107554,2.199391388651184,0.0451689440017431,0.124349419317912,0.0202274920894737,-0.0994217783073931,-0.8251988847521922,-0.5949243092652534,-0.5952535983929801,0.5817194309617233,2.182214028989087,-0.0903192588055651,-0.919464544881907,-0.6783405191257502,0.9199120379738936,0.2765431584376671,-0.2867170680200648,-0.8291895814809658,9.704453352637756,-0.8408383016351213,0.0997876282066783,-1.1238004672980797
1.22,-0.5939875163519082,0.5896452162930175,2.1876383839106666,0.0431325107639481,0.1247821950905696,0.0196834870137806,-0.0946044053865239,-0.8339319055476906,-0.5778297515353772,-0.5952535983929801,0.5817194309617233,2.182214028989087,-0.0903192588055651,-0.919464544881907,-0.6783405191257502,0.9895663672202611,0.2408686460434558,-0.4366510397749212,0.8547278864938113,11.869710729280996,-0.8420371947294226,0.0973433787166607,-1.127578066858295
1.24,-0.5957328561383202,0.573743388233978,2.1767886104618634,0.0409819414685923,0.1275160168293385,0.0192589159299854,-0.0890587275863442,-0.8395770317857121,-0.5653089996039329,-0.5952535983929801,0.5817194309617233,2.182214028989087,-0.0903192588055651,-0.919464544881907,-0.6783405191257502,0.7405930418174543,0.2772838900089891,-0.2822563119010746,0.6260375965722154,11.869710729280996,-0.8380754503346672,0.1004499581599667,-1.1291398628863638
1.26,-0.5974385693669025,0.5569031873675749,2.165551950130435,0.0392252277620789,0.131754538264773,0.0189070915714659,-0.081599776405367,-0.8442175204529561,-0.5593530366778005,-0.5961567909810357,0.5725247855129042,2.1754306237978294,-0.0873925822714488,-0.9394645451799302,-0.6983405194237734,0.5306684043931872,0.3729475590488584,-0.232024433362199,0.2977981463066215,11.336345117792009,-0.8316803155848852,0.1026158260314287,-1.1331564720524232
1.28,-0.5989787747885814,0.5399805996635906,2.154366354969896,0.0382353655716209,0.1364457973024295,0.0186308192041931,-0.0726552737885592,-0.8478615912226298,-0.5597650233237311,-0.597963176157147,0.5541354946152661,2.161863813415314,-0.0815392292032163,-0.9794645457759766,-0.7383405200198199,0.4833557484733609,0.4472251308403889,-0.1822035384836884,-0.0205993322965336,10.875384628132451,-0.8246741364579265,0.1036781982105285,-1.1380278210175128
1.3,-0.6003269104230471,0.5229956326479326,2.143114555699124,0.038352866614277,0.1408999978492061,0.0184299023831239,-0.0625296943537427,-0.8506236186045838,-0.5653910565707795,-0.5997695613332583,0.5357462037176279,2.1482970030327992,-0.0756858761349837,-1.019464546372023,-0.7783405206158663,0.5954166697497135,0.5062789717408249,-0.1381013690976984,-0.2813016623524178,10.245787123806622,-0.8192065038286768,0.1039031618321743,-1.141324910995971
1.32,-0.6014110230150791,0.5068135355073177,2.1322850876541137,0.0397593578045614,0.1445271879745315,0.018316013851747,-0.052079368138815,-0.8528074019255368,-0.5742831909941297,-0.601283278855958,0.5153569127901875,2.132730192620482,-0.0698325230667512,-1.0594645469680697,-0.8183405212119128,0.6947090797488682,0.5225163107463842,-0.1091891660476518,-0.444606721167512,10.245787123806622,-0.8134264210435133,0.1022587730118287,-1.1455442183102262
1.34,-0.6023298753928341,0.4897319242438051,2.120686647882718,0.0427579425801338,0.1475027650032302,0.0182805737062897,-0.0403438926665622,-0.8556999655783676,-0.5851760692919815,-0.6027969963786577,0.494967621862747,2.117163382208165,-0.0639791699985186,-1.099464547564116,-0.8583405218079593,0.8135464133307576,0.5867737736126415,-0.1446281826415374,-0.5446439148925897,10.04701591155026,-0.8075889048540392,0.098266949762415,-1.1508580654367897
1.36,-0.6030052458298438,0.4725590115837669,2.108859191870428,0.046317538937017,0.1494565907932819,0.0182512011100062,-0.0278578320868055,-0.8615171451667526,-0.5970329166760402,-0.6041643800746515,0.4735783309204053,2.100596571780946,-0.0581258169302861,-1.1394645481601624,-0.8983405224040056,0.9087437992274512,0.6243030289878354,-0.2908589794192506,-0.5928423692029339,9.97433472089324,-0.803006600605927,0.0936541043728107,-1.1555094600307092
1.38,-0.6034271704914128,0.4552514403491888,2.0967863540091605,0.0495002957925124,0.1503189076545922,0.0181510029140421,-0.0150716115057666,-0.8688555532516639,-0.6096589663228421,-0.6053854299439395,0.4511890399631626,2.0830297613388264,-0.0522724638620536,-1.1794645487562088,-0.938340523000052,0.9705112050501782,0.639311029051943,-0.3669204042455631,-0.6313024823400959,9.941658923866273,-0.7992651480206973,0.0890681120922423,-1.1597072285487968
1.4,-0.6035907357036832,0.4386648710812235,2.0850751493338207,0.0519162675634954,0.1501276572834112,0.0179653208483613,-0.0028752988513471,-0.8765919431397693,-0.6224625645249378,-0.6041807510667011,0.4118086626866056,2.0663034056930183,0.0128371998399297,-0.96885555474178,-0.7096589678129582,0.9650568607416894,0.6098156327209786,-0.3868194944052716,-0.6401799101047823,9.910098801656204,-0.7969135908321712,0.0851622248840212,-1.1628544650593875
1.42,-0.6034942139021439,0.4209730564579556,2.0728009012613424,0.0521227310886408,0.1498002912813147,0.0176021690349696,0.0121113793095584,-0.891736134488419,-0.6025796004914976,-0.6041807510667011,0.4118086626866056,2.0663034056930183,0.0128371998399297,-0.96885555474178,-0.7096589678129582,1.4571198583662872,0.7493339080452774,-0.7572095674324875,0.9941482016720072,9.869607336291663,-0.7954606643700411,0.0789043007142215,-1.170917087046951
1.44,-0.6030959004942537,0.4030021317428824,2.060922557299618,0.0492425636267109,0.1501575148980203,0.0170665583123262,0.0270158707127821,-0.904201684848044,-0.5864196433678124,-0.6041807510667011,0.4118086626866056,2.0663034056930183,0.0128371998399297,-0.96885555474178,-0.7096589678129582,1.263603996508061,0.7452245701611862,-0.6232775179812411,0.8079978561842616,12.147770358811613,-0.7927268519454738,0.0822960197356989,-1.1721089646310148
1.46,-0.6024431167591972,0.3857377560860512,2.049864726789266,0.0451572244480071,0.1506314156677884,0.0164805964063228,0.0409398039677045,-0.912183669875832,-0.578335850163236,-0.6040523790683018,0.4021201071391879,2.0592068160148886,0.018418962109069,-0.9888555550398032,-0.7296589681109814,0.8985206102891091,0.6961966627461197,-0.399099251389412,0.4041896602288208,11.124164567008847,-0.7934148888430986,0.0891782083171082,-1.168153611144379
1.48,-0.6014750590997436,0.3674347819064041,2.0383280928922898,0.0409317176257987,0.1508824098408382,0.0158709985528956,0.055072737274003,-0.9176760241269224,-0.5760306788750097,-0.6037956350715032,0.3827429960443522,2.04501363665863,0.0295824866473476,-1.0288555556358496,-0.7696589687070279,0.7668434874989339,0.7066466653149223,-0.274617712554509,0.1152585644113135,11.124164567008847,-0.7931704014702416,0.0952586016461897,-1.1658874873699083
1.5,-0.6002307981740038,0.3490402766364965,2.0267785440794954,0.0373610661305836,0.1506947562441666,0.0153044815113507,0.0685694018447915,-0.921576475808536,-0.5792584480055499,-0.6035388910747046,0.3633658849495166,2.0308204573023705,0.0407460111856262,-1.0688555562318962,-0.8096589693030743,0.7207495602098025,0.674833228539426,-0.195022584080684,-0.1613884565270118,10.40957022000839,-0.7925431243041104,0.1000110870009575,-1.1648065372656502
1.52,-0.5987241463818903,0.3305797469032751,2.015112830460838,0.0346392231884,0.1499795379566278,0.0147939334236026,0.0813495725032842,-0.9244886739617392,-0.5871341090932293,-0.602723970850992,0.3419887738248787,2.014627277916309,0.0519095357239048,-1.1088555568279426,-0.8496589698991208,0.7645908999453659,0.6390085329246363,-0.1456099076601658,-0.3937830543839671,10.162793877742844,-0.7920367027745987,0.1032003258233055,-1.1644325511802955
1.54,-0.5970604494082046,0.3129941640605484,2.0038641861248307,0.0328594110680462,0.1487919692684042,0.0143627129254348,0.0930859123155368,-0.9266759597712816,-0.5965371536196994,-0.6019090506272795,0.3206116627002408,1.998434098530248,0.0630730602621833,-1.1488555574239891,-0.8896589704951673,0.7598406704172763,0.5868169906126305,-0.1093642904771152,-0.4701522263235058,10.162793877742844,-0.791528286283037,0.1048733392520234,-1.1651590667916976
1.56,-0.5950712155267507,0.2944337700878724,1.9918150278569144,0.0316107318935435,0.1469202233316232,0.013947026578874,0.1051603157357675,-0.929255074251763,-0.607947888553466,-0.6008150422901101,0.2982345515607016,1.981240919129285,0.0742365848004619,-1.1888555580200355,-0.9296589710912138,0.8406068064002769,0.603720171011532,-0.1289557240240713,-0.5705367466883327,10.05566278481092,-0.7916877022111429,0.1054963527763889,-1.1659440393537204
1.58,-0.5928438933525371,0.2758219720894123,1.9795228855655371,0.0307958946739968,0.1442419683725622,0.0135506923075932,0.116890012009386,-0.9317887546434688,-0.6207463171329443,-0.5994419458394836,0.2748574404062615,1.9630477397134207,0.0854001093387405,-1.228855558616082,-0.9696589716872602,0.8772187371212782,0.5864848136809278,-0.126684019585288,-0.6399214289739108,9.969314886922804,-0.7926210194956916,0.1055212440154208,-1.1664520461355523
1.6,-0.5903876835385379,0.2571605197305246,1.9669595935188928,0.0303521136480595,0.1405887230576599,0.0131637527134507,0.1280246447266952,-0.9342302755006842,-0.6349284704316713,-0.5869993927520678,0.2292325343572388,1.94848556970889,0.1841434749796428,-1.0066397460117624,-0.7207463186230604,0.9097726941854568,0.5567316358654608,-0.1220760428607692,-0.7091076649363537,9.81829233136432,-0.7944044064954447,0.1050822714068283,-1.166515431691847
1.62,-0.5879060037229044,0.239265076614074,1.955099368079584,0.026724904514435,0.1394025302815005,0.0126546380435427,0.1330467017069667,-0.9470846387991932,-0.6127205441708228,-0.5869993927520678,0.2292325343572388,1.94848556970889,0.1841434749796428,-1.0066397460117624,-0.7207463186230604,1.307332877398138,0.251102849013575,-0.6427181649254543,1.1103963130424277,9.81829233136432,-0.7878620755734955,0.1017947999184965,-1.1812174278545176
1.64,-0.5851678876173775,0.2202637508090806,1.943034763090443,0.0197485832489954,0.1429113970090549,0.0120358300000977,0.1409978889985599,-0.9518081802954104,-0.5954380224315103,-0.5869993927520678,0.2292325343572388,1.94848556970889,0.1841434749796428,-1.0066397460117624,-0.7207463186230604,0.9800749732575124,0.3975593645796568,-0.2361770748108616,0.864126086965622,12.324219648944563,-0.7884533044057712,0.1126263885707812,-1.1749798048252729
1.66,-0.5822415467921832,0.2012250860082101,1.9312234592172883,0.0125017689865164,0.1490156265263797,0.0114363468714745,0.151575787696971,-0.9517014818337224,-0.586928002506405,-0.5851579580022713,0.2191661368971212,1.9412781065226596,0.1975941675736942,-1.0216099442854212,-0.7407463189210836,0.6788294420568127,0.5288949349205582,0.0053349230844101,0.425500996255268,11.64189125716075,-0.7839251695240642,0.1226875689218072,-1.1734990222211787
1.68,-0.5790827274940713,0.1822215745707213,1.9194984826676715,0.0061243699338969,0.1563614609220168,0.0108880965793342,0.1641080138118042,-0.9488179731139768,-0.5859942400973188,-0.5814750885026785,0.1990333419768859,1.9268631801501983,0.2244955527617969,-1.051550340832739,-0.78074631951713,0.6446767138783132,0.6266113057416561,0.144175435987276,0.0466881204543079,11.080739773155074,-0.7759424690932621,0.1313408639740707,-1.1757822044189512
1.7,-0.5758329920907165,0.1642386167671335,1.9083241252591396,0.0012037813963257,0.1637934190680336,0.0104275402040132,0.1775860449703959,-0.9445136081621311,-0.5903238648735073,-0.5777922190030856,0.1789005470566507,1.912448253777737,0.2513969379498997,-1.0814907373800562,-0.8207463201131765,0.7398150651568786,0.6739015579295848,0.2152182475922803,-0.2164812388094239,10.663996300345389,-0.7660367667486795,0.1379476128903436,-1.180580264936626
1.72,-0.5721193681558553,0.145407028632362,1.896430712278881,-0.0027250269662768,0.1716824084137172,0.0100144115661073,0.1932820164449475,-0.9390676453134787,-0.5989968324595341,-0.5727642802440877,0.1572707323090496,1.8960333273754733,0.2782983231380024,-1.1114311339273737,-0.860746320709223,0.9370731009733352,0.7847985737275839,0.2722981424326198,-0.4336483793013379,10.363898810473074,-0.7548535978996794,0.142713006638991,-1.1870584186381807
1.74,-0.5680672230115498,0.1266922883371699,1.8843396703543676,-0.005368852072321,0.1791719761664086,0.0096860341480223,0.211297572794647,-0.9330123125711864,-0.609697316496328,-0.5677363414850897,0.1356409175614484,1.87961840097321,0.3051997083261051,-1.1413715304746912,-0.9007463213052694,1.0905591270430433,0.9007778174849712,0.3027666371146154,-0.5350242018396956,10.068212073389075,-0.7430372298922817,0.145532867805645,-1.1948973858510143
1.76,-0.5636271046710484,0.1080949261400089,1.8720222912149,-0.0070694708728127,0.185589245072743,0.00943292770097,0.2318283727536164,-0.9271713151366566,-0.6215369220275025,-0.5620358680963891,0.1132625929001643,1.8622034745560452,0.3321010935142078,-1.1713119270220087,-0.940746321901316,1.2204581692127152,1.0265399979484695,0.2920498717264908,-0.591980276558729,10.068212073389075,-0.7322926624183372,0.1470629877855254,-1.2024176997678553
1.78,-0.5590108548769894,0.0905376311928198,1.860091577619948,-0.0079706509944456,0.1901888497527993,0.0092626010779343,0.2529907373374391,-0.9213426148502016,-0.6337535277284659,-0.5556628600779859,0.0901357583251974,1.8437885481239795,0.3590024787023105,-1.2012523235693262,-0.9807463224973624,1.25605023452564,1.0581182291911375,0.291435014322744,-0.6108302850481695,10.03076944120221,-0.7220794612795276,0.1477912426824728,-1.2099063679113564
1.8,-0.553708335484702,0.072179224441698,1.8472710848007887,-0.0080568761696309,0.1932461387372351,0.0091722988631776,0.276073663265064,-0.9148728982022066,-0.6477063336752222,-0.5463613180101174,0.0444705004503097,1.8284039012335245,0.3438052905386377,-0.9186380592157926,-0.7337535292185821,1.386866519057799,1.154146296381242,0.3234858323997558,-0.6976402973378149,9.995922236579643,-0.7134839902473927,0.1475043110114351,-1.2166396893611129
1.82,-0.5478942652785995,0.0536878988934726,1.8344978716183469,-0.0157129527123729,0.1952308591911124,0.0085756664808852,0.3044633295491045,-0.930279714347678,-0.6271479387684238,-0.5463613180101174,0.0444705004503097,1.8284039012335245,0.3438052905386377,-0.9186380592157926,-0.7337535292185821,1.9144129234594487,1.419483314202025,-0.7703408072735729,1.0279197453399225,9.948832112944729,-0.7037293350760268,0.1507548284727639,-1.229491840059333
1.84,-0.5415130901182162,0.0351106380096801,1.8221273460384535,-0.0306680450688679,0.1968908576428582,0.0074877566948756,0.332198580128228,-0.92563717784665,-0.6111409197402774,-0.5463613180101174,0.0444705004503097,1.8284039012335245,0.3438052905386377,-0.9186380592157926,-0.7337535292185821,1.617885910700743,1.3867625289561758,0.2321268250513986,0.8003509514073193,12.343361637187629,-0.7046129343191457,0.1715390179524353,-1.2212239641242832
1.86,-0.5349452238290207,0.0176328356993188,1.8105847544033535,-0.0455251193140349,0.1978821555342674,0.0064496265505206,0.3576979292788063,-0.9139943843662094,-0.6046671240352789,-0.5429232651047311,0.0352841198581518,1.8210663659413384,0.3619682011788774,-0.9180971480889109,-0.7537535295166052,1.4384726952234357,1.2749674575289165,0.5821396740220364,0.3236897852499254,11.714429813523566,-0.7031821343994831,0.1924995803005841,-1.2155215692586343
1.88,-0.5275193079726712,-0.0004843257367634,1.798496871751767,-0.0606158917828522,0.1980832641591974,0.0054729840891835,0.3834214115758629,-0.8979641600852509,-0.6047732040175628,-0.5360471592939583,0.0169113586738359,1.8063912953569667,0.3982940224593568,-0.917015325835147,-0.7937535301126517,1.5154841511439974,1.286174114852831,0.801511214047923,-0.0053039991141978,11.141768591554865,-0.7008084300394438,0.2120292177562897,-1.2117485263790555
1.9,-0.5195903203922652,-0.0182322535317572,1.78634184983415,-0.074409296410651,0.1973553174428598,0.004700053324493,0.40809215535453,-0.877597680038189,-0.6109585945274771,-0.5291710534831856,-0.0014614025104798,1.791716224772595,0.4346198437398363,-0.9159335035813834,-0.8337535307086982,1.6291855049841195,1.2335371889333506,1.0183240023530935,-0.3092695254957145,10.724016277153169,-0.6985047716868018,0.2297522299161882,-1.20870677126401
1.92,-0.5111779772623393,-0.0355326812201253,1.7740071049646209,-0.0860561181742984,0.1955578589253244,0.0042269529076027,0.4318317377647278,-0.8538424874417503,-0.6221641116385522,-0.5204786566083889,-0.0197800725821075,1.7750411541584212,0.4709456650203157,-0.9148516813276196,-0.8737535313047446,1.770198125938924,1.1869791205098927,1.1877596298219384,-0.5602758555537546,10.39625425369104,-0.6965446920463367,0.2440185583012191,-1.2067282111075406
1.94,-0.5027521686666466,-0.0515053905496151,1.7620607672196824,-0.0948748182603437,0.1927419812729871,0.0041020268998586,0.453825565211204,-0.8291376360755929,-0.634739543544325,-0.5117862597335922,-0.0380987426537352,1.7583660835442472,0.5072714863007952,-0.913769859073856,-0.9137535319007912,1.7693216315766536,1.0996913723238104,1.2352425683078705,-0.6287715952886408,10.15059134731564,-0.6949142865115966,0.2560895149044216,-1.2056731013587434
1.96,-0.4934349419653677,-0.0678007545140103,1.7492143788749903,-0.1019153980002566,0.188387855430914,0.0043381017794445,0.4766290169762596,-0.8020093624749791,-0.6492443354920846,-0.5021857173267834,-0.0563903671690187,1.740691012915172,0.5435973075812746,-0.9126880368200924,-0.9537535324968376,1.9146341885584583,1.1401725882527771,1.356413680030688,-0.7252395973879777,10.059678473584428,-0.6963715415542615,0.265590440636639,-1.2027995172481745
1.98,-0.4836730486302011,-0.083540589442394,1.7360657190474995,-0.1067367183698152,0.1824011878691737,0.0049732936237548,0.498028043212423,-0.77387738516463,-0.6647941070416106,-0.4916770293879627,-0.0746549461279582,1.7220159422711958,0.579923128861754,-0.9116062145663286,-0.9937535330928838,1.9307523575593897,1.0699513118081732,1.4065988655174555,-0.7774885774762985,9.99483770302686,-0.6991660491085139,0.272483667860115,-1.1996275859701515
2.0,-0.4740254076259367,-0.0979681078795799,1.723278766251812,-0.1094662589720373,0.1756218905815098,0.0058845903924333,0.5161707456668212,-0.746717473941525,-0.6803367351827665,-0.45877164646958,-0.1222344587006255,1.7028260136954192,0.5980280447025392,-0.7163703097952719,-0.7514838623621596,1.8085848884763625,0.907135122719907,1.3579955611552508,-0.7771314070577962,9.9383766016972,-0.7035428134859075,0.2774276306934118,-1.1961522325607337
2.02,-0.4634965615259055,-0.1126914625444314,1.709834332146208,-0.1148063880041381,0.1689284608487793,0.0066814742869789,0.5357324587217658,-0.7249703396638375,-0.6617539742995366,-0.45877164646958,-0.1222344587006255,1.7028260136954192,0.5980280447025392,-0.7163703097952719,-0.7514838623621596,1.7327128072613889,0.9780856527472293,1.0873567138843745,0.9291380441614928,12.1881889337983,-0.70490089614243,0.2816048423126889,-1.200663301567147
2.04,-0.4526080014042608,-0.126888883785819,1.6967520707288892,-0.1230821458385751,0.164405582410545,0.0071068074887892,0.5520483766741994,-0.6953329595239851,-0.6476273922733937,-0.45877164646958,-0.1222344587006255,1.7028260136954192,0.5980280447025392,-0.7163703097952719,-0.7514838623621596,1.8331283369734417,0.8157958976216795,1.48186900699262,0.706329101307146,11.65123787646462,-0.7123525482340428,0.2953424367277235,-1.186543368887276
2.06,-0.4414173922273811,-0.1404341337139152,1.6838743245161845,-0.130928514783305,0.1623071848012132,0.0073371071660632,0.5663414353338012,-0.660917028715181,-0.640809654620471,-0.4527913660225546,-0.1293981617985782,1.6953111750717975,0.6180280450005624,-0.7048688947214004,-0.7688218134262694,1.8942210575770264,0.7146529329800921,1.720796540440206,0.3408868826461353,11.212906045520867,-0.7160509217667287,0.3074334955160372,-1.175973681753014
2.08,-0.4305220112469738,-0.1526411625418295,1.6717142821942272,-0.1367855749444011,0.1621362333484171,0.0074768593170959,0.5800072298166891,-0.6262042509769196,-0.6394721535956251,-0.4408308051285038,-0.1437255679944836,1.6802814978245544,0.6580280455966089,-0.6818660645736571,-0.803497715554489,1.8664938964177795,0.6832897241443925,1.7356388869130712,0.0668750512422933,11.212906045520867,-0.7166891952107899,0.3176444026338409,-1.1685913130335872
2.1,-0.4187666539501581,-0.1647724288935693,1.6589047315606245,-0.1410681344574979,0.1631256313120082,0.0076316096304051,0.5949258839452939,-0.5891086900174521,-0.6416619608544563,-0.4288702442344531,-0.1580529741903891,1.6652518205773112,0.6980280461926553,-0.6588632344259139,-0.8381736176827086,2.002150181515694,0.7459327064302412,1.854778047973371,-0.1094903629415555,10.898087176021363,-0.7148503629628497,0.3253156461379938,-1.1643252400099815
2.12,-0.4067057751641155,-0.1761544445074638,1.6460191501773165,-0.1433520384905419,0.1647426465368341,0.0078688435424248,0.610527973479764,-0.5515123314714655,-0.6466965684895984,-0.4149096833105999,-0.1712302388789073,1.6484883482236572,0.7380280467887018,-0.6358604042781707,-0.8728495198109282,2.050767324564049,0.7801044767235032,1.879817927299332,-0.2517303817571092,10.683879670771605,-0.712205310183896,0.330844594059868,-1.160920502559179
2.14,-0.3949498811072524,-0.1862640527637868,1.6336793445375033,-0.1435802313375406,0.1664459487773803,0.0082337217539362,0.626209711443162,-0.5149138557265313,-0.651923194572139,-0.4009491223867468,-0.1844075035674256,1.631724875870003,0.7780280473847483,-0.6128575741304274,-0.907525421939148,2.007911198616557,0.7840868981699001,1.829923787246712,-0.2613313041270271,10.537410517144965,-0.7087821794043316,0.3338570883269054,-1.1595926044265106
2.16,-0.3822414651758417,-0.1961447417005573,1.6205803360111128,-0.1411624288386921,0.1679917520464195,0.0088682062841747,0.6438333215208695,-0.4754173379640488,-0.6576529359391504,-0.3859885614479925,-0.1970096975022503,1.6140945059631433,0.8180280479807946,-0.5898547439826842,-0.9422013240673676,2.1813966189496634,0.8811805038853759,1.974825888124124,-0.2864870683505716,10.527283315445857,-0.7055052190326383,0.3338055825814306,-1.1592605673882752
2.18,-0.3691700057287189,-0.2052489585673976,1.6073687166456925,-0.1358538519751742,0.1688399950506602,0.0098296559842201,0.6624143742478016,-0.4378806916983676,-0.6630866249371792,-0.3700280004943371,-0.2090368206833814,1.595597238503078,0.8580280485768411,-0.566851913834941,-0.976877226195587,2.111741171073771,0.9290526363466056,1.8768323132840603,-0.2716844499014381,10.525060219722036,-0.7026785354218196,0.330654780325237,-1.1596527116959996
2.2,-0.3557191162703595,-0.2136327858225193,1.5940511917379432,-0.1287887416371729,0.1686223090529338,0.0110750125442537,0.6816461226028241,-0.4031058683602817,-0.6682814834108494,-0.3360492870163288,-0.227142993152316,1.5742143853988333,0.7624143757379177,-0.3442409900935244,-0.702358601735952,2.003830729844373,0.9615874177511252,1.7387411669042925,-0.2597429236835091,10.52367178247914,-0.7016074601544133,0.3260038753951352,-1.1591362255696531
2.22,-0.342497041425742,-0.2210607127449571,1.5816405057021896,-0.1251892041600306,0.1663275239159348,0.0123127261800402,0.7089022979975569,-0.3784240691636248,-0.6380622108078348,-0.3360492870163288,-0.227142993152316,1.5742143853988333,0.7624143757379177,-0.3442409900935244,-0.702358601735952,2.379755631040632,1.3628087697366398,1.234089959832843,1.51096363015073,12.965402277134672,-0.7039027068047545,0.3208411519823527,-1.1614191678255026
2.24,-0.3280327215593875,-0.2283032436133978,1.5691790216745642,-0.1252775153198378,0.160676278931945,0.0137646478142544,0.7355124213595502,-0.3469238249667868,-0.6099890922930041,-0.3360492870163288,-0.227142993152316,1.5742143853988333,0.7624143757379177,-0.3442409900935244,-0.702358601735952,2.4942253471512243,1.3305061680996657,1.5750122098419028,1.4036559257415315,12.965402277134672,-0.7141884364147303,0.3274493355946538,-1.143402043865693
2.26,-0.3130847105239855,-0.2348846400231582,1.5572188286403428,-0.126709828587254,0.1525432228989758,0.0154650005846832,0.7574302876861045,-0.3128134052113411,-0.5875920792404262,-0.3284251432589496,-0.2305854030532512,1.5671907993814738,0.7824143760359409,-0.3255130497725558,-0.7102129970957065,2.31599859341427,1.0958933163277174,1.7055209877722854,1.1198506526288954,12.52559320868113,-0.7260990814438762,0.3350903826623776,-1.1249233137904606
2.28,-0.2977506347963874,-0.240764450661524,1.545648090297846,-0.1280037266667763,0.1431105149240744,0.0173769759986094,0.7744780210812882,-0.2770849515968679,-0.5704805032902013,-0.3131768557441913,-0.2374702228551217,1.5531436273467547,0.8224143766319874,-0.2880571691306186,-0.7259217878152157,2.1563589932425056,0.8523866697591809,1.7864226807236565,0.8555787975112472,11.766435767077382,-0.7379458478720459,0.3416778163826004,-1.1079521139272093
2.3000000000000003,-0.2829114510146986,-0.2456764275025803,1.5349322480102352,-0.1282009180586116,0.1338866005539837,0.0193257904042786,0.7864409940256659,-0.2420330318197265,-0.5582648694150216,-0.2979285682294329,-0.2443550426569922,1.5390964553120356,0.8624143772280338,-0.2506012884886813,-0.7416305785347248,1.949981738827001,0.5981486472188879,1.7525959888570724,0.6107816937589827,11.477782698801091,-0.7505739078916805,0.3471217689463473,-1.0905945808159778
2.32,-0.2670865507843472,-0.2501245817623093,1.5238708271239878,-0.1266593102251053,0.1246998861335441,0.0214408430030604,0.7951675891991812,-0.204866854580081,-0.5486035972730042,-0.2806802806848723,-0.2493670684267658,1.5242638437413412,0.9024143778240804,-0.213145407846744,-0.757339369254234,1.969021567513472,0.436329758675763,1.8583088619822743,0.4830636071008698,11.477782698801091,-0.7618232182188478,0.3504015634108317,-1.0752774488144825
2.34,-0.2511223227254433,-0.2538298254470451,1.512982129295335,-0.1228355331963965,0.1166895009525437,0.0235498624822446,0.8007733491751676,-0.1683547309127882,-0.54058777921877,-0.2634319931403115,-0.2543790941965395,1.509431232170647,0.9424143784201268,-0.1756895272048067,-0.7730481599737431,1.8899821815844184,0.2802879987993223,1.8256061833646375,0.4007909027117118,11.140566375018352,-0.7714489823139524,0.3514008441599037,-1.06168012201376
2.36,-0.2350666331905247,-0.2568307484772204,1.5022453237705629,-0.1173462800852502,0.1100884571521404,0.0255659694094579,0.8044417429201148,-0.1342417935113562,-0.5333687103527363,-0.2451837055808497,-0.2584547229502646,1.4942059008319644,0.9824143790161732,-0.1382336465628695,-0.7887569506932521,1.753043472161007,0.1834196872473603,1.7056468700716032,0.360953443301687,11.140566375018352,-0.779893628198424,0.3510402109089807,-1.0489099325555256
2.38,-0.2197639537836265,-0.2590715310348671,1.4921714827412191,-0.1111865415631934,0.105276843323407,0.027337277183737,0.8061173017810132,-0.1038382153246822,-0.5273090695131201,-0.2259354180064867,-0.2615939546879414,1.4785878497252944,1.0224143796122196,-0.1007777659209323,-0.8044657414127613,1.5523404194591748,0.0837779430449159,1.520178909333697,0.3029820419808093,11.054696440922273,-0.7871196947005117,0.3495535869620508,-1.0372609034303075
2.4,-0.2036390854665208,-0.2608309175394223,1.4816843225031322,-0.1041462727054699,0.1021042064035358,0.0289943573850406,0.806190976889314,-0.0740795005407111,-0.5217176693471629,-0.1794580886945758,-0.2642634418011012,1.465806029265563,0.8952460121105458,-0.0038382138345661,-0.5025488474506515,1.5139767909641069,0.0036837554150404,1.4879357391985557,0.279570008297858,10.973340359691974,-0.792121712526231,0.3472915440065792,-1.0279941889461712
2.42,-0.187458797479277,-0.2620048352489033,1.4715759502373424,-0.0973608439936686,0.1000518345218251,0.030486436269607,0.8120259785326285,-0.0446929154331472,-0.4879285060317458,-0.1794580886945758,-0.2642634418011012,1.465806029265563,0.8952460121105458,-0.0038382138345661,-0.5025488474506515,2.2579449650165904,0.2917500821657259,1.469329255378196,1.6894581657708545,12.914219578731718,-0.7959716363798114,0.3400021644813868,-1.0291289312528735
2.44,-0.1711670423918764,-0.2625971118290331,1.4621762625838526,-0.0910799394175605,0.0980069039914875,0.031918753550104,0.8167318281062598,-0.0161843749399868,-0.4538044538068621,-0.1794580886945758,-0.2642634418011012,1.465806029265563,0.8952460121105458,-0.0038382138345661,-0.5025488474506515,2.2356949934563994,0.2352924786815646,1.4254270246580196,1.7062026112441868,12.914219578731718,-0.8077950918833717,0.3442745234503371,-1.0016768219846073
2.46,-0.1556178662834458,-0.2626457251539538,1.4538487285709674,-0.0853773739476165,0.0964818466660101,0.0332032323139628,0.8198126234058924,0.009495125022485,-0.4244093471640813,-0.1705056285734704,-0.2643018239394469,1.4607805407910566,0.9130717541764524,0.016161786463457,-0.4975968030381578,1.95767739460648,0.1540397649816338,1.2839749981235935,1.4697553321390389,12.662284571991222,-0.8187615473275577,0.348830517723687,-0.9754213641065844
2.48,-0.1391968717102831,-0.2621871700231882,1.4456627432292786,-0.0796925546064052,0.0955098056990793,0.0344626183217532,0.8221284905280096,0.0348887103090109,-0.3958001526028671,-0.1526007083312594,-0.2643785882161382,1.4507295638420434,0.9487232383082652,0.0561617870595035,-0.4876927142131704,1.9161702871044488,0.1157933561058588,1.2696792643262975,1.4304597280607094,12.185974468951828,-0.8288558568922159,0.3530140413079927,-0.9514568228820346
2.5,-0.1227365640415031,-0.2612350741975425,1.4380235683704192,-0.0743702015043351,0.0952804328367796,0.0356256916768645,0.8238262066126465,0.0589407998832231,-0.3696090049747592,-0.1346957880890485,-0.2644553524928295,1.4406785868930303,0.9843747224400784,0.0961617876555499,-0.477788625388183,1.7800010301031448,0.0848858042318434,1.2026044787106072,1.3095573814053962,12.185974468951828,-0.8372997891675285,0.3567392095978643,-0.931023849302199
2.52,-0.1070716309618862,-0.2598977002019343,1.4312295906878834,-0.0696599623761954,0.0957732351128479,0.0366470837308875,0.8251269284405236,0.0805823533690763,-0.3467999082486743,-0.1150082936402469,-0.2625321167397185,1.4311228143852668,1.0200262065718917,0.1361617882515964,-0.4678845365631956,1.5734544861660733,0.0650360913938552,1.0820776742926628,1.1404548363042415,11.821606377793614,-0.844694965550343,0.3604634295266514,-0.9121522588001876
2.54,-0.0905539414578246,-0.2580579408937417,1.424542489865478,-0.0651378722338962,0.0969868321850529,0.0376408497503423,0.826662295131236,0.102226079008622,-0.3230909007289851,-0.0953207991914454,-0.2606088809866075,1.4215670418775033,1.0556776907037044,0.1761617888476429,-0.4579804477382082,1.6069577219108415,0.0767683345356207,1.0821862819772814,1.1854503759844592,11.821606377793614,-0.8508467892372684,0.3640680800710585,-0.8955806275845482
2.56,-0.0739976395423312,-0.255787035543149,1.4183250757920198,-0.0608598375913108,0.0986751482621196,0.0385868919424439,0.8289729948869287,0.123636792577574,-0.2998202753993951,-0.0747420176393485,-0.2576856452185954,1.4122588715903643,1.0913291748355174,0.2161617894436893,-0.4480763589132208,1.585307534930385,0.1155349877846323,1.070535678447602,1.1635312664795006,11.776818388641914,-0.8568504352824455,0.3678391937840602,-0.8794601323062949
2.58,-0.0573871409127442,-0.253093959899536,1.4125669310889375,-0.0565582872814783,0.1004638771498717,0.039529902737994,0.8320065921358414,0.1443963470159516,-0.2771025612178752,-0.0532719489839563,-0.253762409435682,1.40319830352385,1.1269806589673306,0.2561617900397357,-0.4381722700882333,1.5461697435775017,0.1516798624456361,1.0379777219188793,1.1358857090759982,11.720068608758991,-0.8624222203794664,0.3714910234605512,-0.8644884815660431
2.6,-0.0415453923161527,-0.2501593979498359,1.407512047049622,-0.0524196695292071,0.1020192429185154,0.0404386709857054,0.8354061494869914,0.1632946502174517,-0.2560811897024869,-0.0157868113059521,-0.2458741425487384,1.3987118030280437,0.8849184213392086,0.2443963485060677,-0.2065081983033129,1.4235526987677405,0.1699778675575025,0.9449151600750064,1.051068575769415,11.659744064238112,-0.8682571755594514,0.3753508269604257,-0.8490490466120446
2.62,-0.0246690419736717,-0.2466718204234691,1.4027277491298047,-0.0476983808744381,0.0996124462127844,0.0416195077947135,0.8520221171974023,0.1841633639559791,-0.2227927639743403,-0.0157868113059521,-0.2458741425487384,1.3987118030280437,0.8849184213392086,0.2443963485060677,-0.2065081983033129,2.1329046412769754,0.8307983855205425,1.0434356869263697,1.6644212864073262,11.595965333721324,-0.882769250981777,0.3769367851038449,-0.8281840296534628
2.64,-0.0074991350748476,-0.2427930157401343,1.3986291743586627,-0.0429027373437695,0.0901619428112288,0.0431018132547214,0.8630393385545535,0.202581969402464,-0.1886630168969334,-0.0157868113059521,-0.2458741425487384,1.3987118030280437,0.8849184213392086,0.2443963485060677,-0.2065081983033129,2.0158520708335224,0.550861067857561,0.920930272324244,1.7064873538703478,12.417403847370224,-0.8996719080062828,0.3851072386043845,-0.7944365756139656
