t,x,y,z,roll,pitch,yaw,v_x,v_y,v_z,ref_x,ref_y,ref_z,ref_v_x,ref_v_y,ref_v_z,a_com,a_x,a_y,a_z,thrust,wind_x,wind_y,wind_z
0.0,-0.3161467160447039,0.861761230816702,1.953634873634061,0.0242608277158116,0.0994378934654093,0.0417469068964884,0.001425655756403,0.0066332163037935,-0.0007209835832606,-0.3160976161513569,0.8618792943189961,1.9536109534944224,-0.0097436538938478,-0.0953400662718011,-0.1007773330199106,0.3411446547874124,0.071282787820154,0.3316608151896775,-0.0360491791630302,10.256396395918271,-0.9408732931516388,0.2585246582321981,-0.8766925830708485
0.02,-0.3161319247447375,0.8621089244885857,1.9535280307457712,0.0331725561683754,0.0992865071119776,0.0423637651328372,0.000153678934022,0.0243353420523656,-0.0105723599118954,-0.3160976161513569,0.8618792943189961,1.9536109534944224,-0.0097436538938478,-0.0953400662718011,-0.1007773330199106,1.0149295500468514,-0.0635988411190529,0.8851062874286063,-0.4925688164317417,9.612881227163598,-0.9394058141490308,0.2559366559846694,-0.8740761295714377
0.04,-0.316145279803923,0.8626169320732568,1.953136297185297,0.0476730115761005,0.098850897623639,0.0433326746914042,-0.0014097413125989,0.0248882215454722,-0.0281124557797778,-0.3160976161513569,0.8618792943189961,1.9536109534944224,-0.0097436538938478,-0.0953400662718011,-0.1007773330199106,0.8809156055717651,-0.0781710123310492,0.0276439746553287,-0.8770047933941205,9.612881227163598,-0.9329348388226938,0.2414081307123303,-0.8875034943141614
0.06,-0.3161885548330209,0.8630443243768365,1.9524193127206333,0.0617224668326638,0.0983803365393743,0.0442354629147744,-0.0030477929104992,0.0197686901233231,-0.0465202418174002,-0.3161950526902954,0.8609258936562781,1.9526031801642236,-0.0120084012899593,-0.1153400665698243,-0.1207773333179338,0.9588266290454192,-0.0819025798950163,-0.2559765711074548,-0.9203893018811184,9.269057304212764,-0.9264880636911914,0.2233732336522388,-0.9037404609257258
0.08,-0.3162684933417397,0.8633536424834842,1.951273787258036,0.0759498369531223,0.0979594329484273,0.0451133517234967,-0.004839012826005,0.0111038585405924,-0.0671613677285941,-0.3163899257681724,0.8590190923308421,1.9505876335038248,-0.0165378960821823,-0.1553400671658708,-0.1607773339139803,1.1228800626341986,-0.0895609957752871,-0.4332415791365373,-1.0320562955596948,9.21351644851802,-0.919686962308038,0.2044693879603425,-0.9209373953389424
0.1,-0.3163838773836527,0.8634597437714332,1.9497060353882751,0.0894848754502196,0.097688854049671,0.0459157624234195,-0.0065695596161397,-0.0003658648642362,-0.0886443525021508,-0.3165847988460493,0.8571122910054061,1.948572086843427,-0.0210673908744052,-0.1953400677619172,-0.2007773345100268,1.220725175824797,-0.0865273395067348,-0.5734861702414342,-1.0741492386778386,9.173991765869689,-0.9134476907199712,0.1864437015885379,-0.936882005307075
0.12,-0.3165238920643318,0.8633233013100827,1.9478133495970509,0.1017107549213047,0.0975866338788528,0.0466128081895008,-0.0080462168540928,-0.0136749681964796,-0.1095694936097126,-0.3170061466635374,0.8532054896501677,1.9445565401532263,-0.0255968856666282,-0.2353400683579637,-0.2407773351060732,1.2421496271364634,-0.0738328618976579,-0.6654551666121684,-1.046257055378088,9.164371842650326,-0.907239717812984,0.1677629635888745,-0.9527778081481068
0.14,-0.3166995633046351,0.8628819673029475,1.9453808907355328,0.1139435057519864,0.0976239222618075,0.0472808351000712,-0.0094083295441181,-0.0300345420822252,-0.132672707774051,-0.3174274944810255,0.8492986882949294,1.940540993463026,-0.0301263804588512,-0.2753400689540102,-0.2807773357021197,1.417082842873681,-0.0681056345012624,-0.8179786942872788,-1.1551607082169186,9.164371842650326,-0.9005790088011437,0.14882886997908,-0.96913234119918
0.16,-0.3168998425282188,0.8620888469162713,1.9424777959545387,0.1255548961451487,0.0977803068229694,0.0478822700372811,-0.010514380486156,-0.0487224776025386,-0.1565589666307126,-0.3179620796683192,0.8443918869247898,1.9355254467579244,-0.0346558752510742,-0.3153400695500566,-0.3207773362981661,1.517411978390529,-0.0553025471018971,-0.9343967760156734,-1.1943129428330823,9.134956786471776,-0.8935576029274455,0.1293709748927328,-0.9861470172359528
0.18,-0.3171188448929275,0.860898157315314,1.9390920925355104,0.1365757713703958,0.098018933853786,0.0484155044850312,-0.0112973430056131,-0.0696588126171667,-0.180883086016502,-0.3186099022254184,0.8384850855397492,1.9295099000379212,-0.0391853700432972,-0.355340070146103,-0.3607773368942125,1.6051525924703762,-0.0391481259728545,-1.046816750731402,-1.2162059692894676,9.128864801094096,-0.8877565553072193,0.1123260485828977,-0.999844016677244
0.2,-0.3173381646064423,0.8593588617858923,1.9354223090481355,0.1465252561788428,0.0982775330429786,0.0488547170134959,-0.0117270662786629,-0.0915296625993314,-0.2042518342467432,-0.3176837120432081,0.8574152166844557,1.9300479382346856,-0.0256663418237126,-0.1696588141072828,-0.2808830875066181,1.6004820640061517,-0.021486163652488,-1.0935424991082374,-1.168437411512059,9.139623846799624,-0.8820112010922152,0.0952009721695652,-1.0129886266020818
0.22,-0.3175424768600443,0.8571019100456829,1.9312498165311465,0.1520109336282372,0.0983589073728183,0.0489009662237115,-0.0084837738947559,-0.1322150968604596,-0.2094406916596498,-0.3176837120432081,0.8574152166844557,1.9300479382346856,-0.0256663418237126,-0.1696588141072828,-0.2808830875066181,2.0571507891714997,0.1621646191953501,-2.03427171305641,-0.2594428706453294,9.155159759204253,-0.8836643767032824,0.0789242929631398,-1.0233914147018714
0.24,-0.3176773512489947,0.8540781942066679,1.9270241671895791,0.1507706649436287,0.0979411679907044,0.0483698383145446,-0.0052976166503008,-0.167435140994532,-0.2131121247158606,-0.3176837120432081,0.8574152166844557,1.9300479382346856,-0.0256663418237126,-0.1696588141072828,-0.2808830875066181,1.7776969141832353,0.1593078622227519,-1.76100220670362,-0.1835716528105435,10.388754959307336,-0.8834084181872224,0.0775441279363928,-1.0256567747142322
0.26,-0.3177565667535929,0.8503988019534358,1.922684688029095,0.1459069903820697,0.096999518082598,0.0474892479470806,-0.0028864832201571,-0.1977229399139942,-0.2204798874868618,-0.3179403754614452,0.8557186285433829,1.9272391073596196,-0.0285401415873325,-0.189658814405306,-0.3008830878046414,1.5632084442369505,0.1205566715071868,-1.514389945973109,-0.3683881385500603,10.388754959307336,-0.8831237932888802,0.0795696524292583,-1.0277286114792028
0.28,-0.317795220242872,0.8463936879354841,1.918396743923804,0.1402016403942934,0.0956149974868624,0.0465004464396752,-0.001365492244588,-0.222102962935994,-0.2304754013573524,-0.3184537022979195,0.8523254522612372,1.9216214456094871,-0.0342877411145723,-0.2296588150013525,-0.3408830884006878,1.3196677930791605,0.0760495487784537,-1.2190011510999867,-0.4997756935245276,10.143927604167402,-0.8824241279781826,0.0820823025207006,-1.03079413338236
0.3,-0.3178135924879287,0.8417106871037723,1.9136490004080269,0.1342808563167568,0.0936781776735842,0.0453999561715547,-0.0006324692475491,-0.2448274454767131,-0.2439139171282739,-0.3189670291343938,0.8489322759790916,1.9160037838593549,-0.0400353406418121,-0.2696588155973989,-0.3808830889967343,1.3205426304960215,0.0366511498519458,-1.136224127035955,-0.6719257885460752,9.936122604529372,-0.8823078770406969,0.0845934145242474,-1.033356303862217
0.32,-0.3178275818956803,0.8365933471238858,1.908604084544439,0.1289233396491403,0.0913576773823911,0.0442919385806171,-0.0008884797531898,-0.2657564203990112,-0.2600219027793765,-0.31976773594723,0.8435390996671436,1.90838612207942,-0.0457829401690519,-0.3096588161934454,-0.4208830895927807,1.3205630753709854,-0.0128005252820368,-1.0464487461149086,-0.8053992825551276,9.75263100322536,-0.8825216684666606,0.086483838783607,-1.035598826904741
0.34,-0.3178574830089119,0.8310716523351925,1.9032204285692944,0.1242868291564378,0.0888477969415793,0.0432149335141833,-0.0021560737881757,-0.2854620808502428,-0.2775476555323302,-0.3205684427600662,0.8381459233551956,1.9007684602994848,-0.0515305396962917,-0.3496588167894919,-0.4608830901888272,1.3201059219002351,-0.0633797017492917,-0.9852830225615784,-0.8762876376476852,9.537812630057488,-0.8827004928236065,0.0872086914254424,-1.0387625076613634
0.36,-0.3179196580019121,0.8254605733232397,1.8977711539007205,0.1202827845331727,0.0865487488447916,0.042233867746502,-0.0043841914453039,-0.3041014224928727,-0.2951780730134727,-0.3215128395610835,0.8317527470283465,1.8921507985046493,-0.0572781392235315,-0.3896588173855383,-0.5008830907848736,1.2876540545931392,-0.1114058828564101,-0.9319670821314936,-0.881520874057129,9.537812630057488,-0.8826786695342369,0.0872765619719433,-1.042456829954597
0.38,-0.3180418684950672,0.8191782293815235,1.8916626018695848,0.1162535355539175,0.084553368956656,0.0412676135133401,-0.0077964167843729,-0.3230490947622934,-0.3147961462175885,-0.3226009263502817,0.8243595706865962,1.8825331366949123,-0.0630257387507713,-0.4296588179815847,-0.5408830913809201,1.374341990222963,-0.1706112669534482,-0.9473836134710368,-0.9809036602057896,9.489752431051784,-0.8821830076902131,0.0872123702856507,-1.0465945683274502
0.4,-0.3182429360594769,0.8125233569683847,1.8851515093075573,0.1123270978318275,0.083353014338538,0.0404012493204122,-0.0121596782944294,-0.3413662626354952,-0.33536494703456,-0.3184316893342859,0.8030257746434089,1.8759227945587056,0.01095383169249,-0.4230490962524095,-0.4139114359653035,1.3943029234607185,-0.2181630755028276,-0.9158583936600906,-1.0284400408485717,9.433111781864682,-0.881044679899227,0.0870109731601757,-1.0514076021832932
0.42,-0.3185783710050633,0.8054946498115932,1.8784907753727709,0.1090184327713427,0.0852521576651213,0.0399179643537254,-0.0206365353499642,-0.3608819562290277,-0.328274871413622,-0.3184316893342859,0.8030257746434089,1.8759227945587056,0.01095383169249,-0.4230490962524095,-0.4139114359653035,1.121370338344157,-0.4238428527767414,-0.9757846796766252,0.3545037810468998,9.387521157960691,-0.882885069780357,0.0838956260086178,-1.056187376048452
0.44,-0.3190335781022264,0.7984632126500617,1.8722954036169135,0.1068053289104101,0.0912427077175866,0.0399635846789724,-0.026260309365569,-0.3784659084370121,-0.3243862865372049,-0.3184316893342859,0.8030257746434089,1.8759227945587056,0.01095383169249,-0.4230490962524095,-0.4139114359653035,0.94332298521287,-0.2811887007802358,-0.8791976103992183,0.1944292438208511,11.186100915733732,-0.8801092138506567,0.0872696657619393,-1.05652918771501
0.46,-0.3195862089221414,0.7907034928308552,1.8657981292984047,0.1050958306724608,0.1001793421504563,0.0403125340725387,-0.0282439798829772,-0.3965724409613028,-0.3258006404814851,-0.318322151017361,0.7987952836808847,1.8717836801990528,0.0147038813878625,-0.4430490965504328,-0.4337344939148465,0.9134849011540004,-0.0991835258704108,-0.9053266262145364,-0.0707176972140066,10.761523545016644,-0.8723702873553056,0.089333844263019,-1.0620063913795463
0.48,-0.3201375361148756,0.7825886528192812,1.8592169955101032,0.103709257366864,0.1102199939513341,0.0407758068503215,-0.0264400426659194,-0.4139829955028812,-0.3322436360179631,-0.3181030743835112,0.7903343017558365,1.8635054514797469,0.0222039807786077,-0.4830490971464792,-0.4733806098139325,0.9325955586579804,0.0901968608528877,-0.870527727078918,-0.322149776823899,10.410054083784416,-0.8622776703764349,0.0901320759585843,-1.0703340188471957
0.5,-0.32059499424762,0.774564887296234,1.8528093185651664,0.1026356455161655,0.1196671637980869,0.041202220414407,-0.0216159088450388,-0.4297428878941452,-0.3419538222225931,-0.3178839977496614,0.7818733198307883,1.8552272227604407,0.0297040801693529,-0.5230490977425257,-0.5130267257130185,0.9564703228989544,0.2412066910440293,-0.7879946195632009,-0.4855093102314994,9.946413777525777,-0.8503651810180703,0.0898913579377998,-1.080937494928449
0.52,-0.3209501856254028,0.7658047829690137,1.8458339086403903,0.1018889555220166,0.1287406614698871,0.041568959060342,-0.0139926389775249,-0.4454331109391375,-0.3552461058894332,-0.3172899161462744,0.7714123378759379,1.8449666882461804,0.037204179560098,-0.5630490983385722,-0.5526728416121045,1.096565259975777,0.3811634933756972,-0.7845111522496145,-0.664614183342005,9.787986989986166,-0.8375583645227557,0.0885467439565409,-1.0928834784237969
0.54,-0.321128113281538,0.7567358645043603,1.8385751676972604,0.1016749823024363,0.136418275607843,0.0418146949334283,-0.0040915501944001,-0.4606962173411948,-0.3700400126591361,-0.3166958345428873,0.7609513559210873,1.83470615373192,0.0447042789508432,-0.6030490989346187,-0.5923189575111906,1.1724479238355368,0.4950544391562387,-0.7631553201028651,-0.7396953384851468,9.787986989986166,-0.8252585850574287,0.0860749257695739,-1.1049130118420882
0.56,-0.3210871485342746,0.7473529494914377,1.831008175663397,0.1016993760419835,0.1423403677183696,0.041885353187303,0.0076320216816138,-0.4767445381234014,-0.3859425660091781,-0.3159142504547316,0.7494903739513357,1.8234544663201824,0.0522043783415884,-0.643049099530665,-0.6319650734102765,1.2726762554864484,0.5861785938006993,-0.8024160391103319,-0.7951276675020991,9.737284336115408,-0.8150098644869078,0.0834659036621205,-1.1151216178687544
0.58,-0.3208202465775694,0.7381357837496141,1.823515817507801,0.1014859511031175,0.1462372112424742,0.0417474893629735,0.0197711043702056,-0.492560174435094,-0.4019376236682493,-0.3149451638818073,0.7370293919666828,1.811211626010968,0.0597044777323335,-0.6830491001267115,-0.6716111893093625,1.2780195127434582,0.6069541344295927,-0.7907818155846263,-0.7997528829535611,9.70638621778835,-0.8066476576639637,0.081251219977614,-1.1235830898149817
0.6,-0.3202869452578159,0.728107045206521,1.8152906379763587,0.1007135526880296,0.1486111238577769,0.0413747975047377,0.0328286067679448,-0.5093908428804544,-0.4197825314296453,-0.3198316913590592,0.7135077750278593,1.8034189363243884,0.0390178763018539,-0.5925601759252102,-0.4405622157936651,1.389433789532041,0.6528751198869559,-0.8415334222680232,-0.8922453880698011,9.67619335477866,-0.8001033358129513,0.0795524358762971,-1.130693752874826
0.62,-0.3193931829582452,0.7176643574778537,1.8070442334115504,0.0977273317372054,0.1479497201472016,0.0405310990978555,0.056161168970478,-0.5333219894923688,-0.4020416500708234,-0.3198316913590592,0.7135077750278593,1.8034189363243884,0.0390178763018539,-0.5925601759252102,-0.4405622157936651,1.89198778304976,1.1666281101266638,-1.1965573305957156,0.8870440679410979,9.632146163440666,-0.8100050114127985,0.0786817385494392,-1.1265014815012495
0.64,-0.3181071467724233,0.7073417417930413,1.7995768332085444,0.0930057258752737,0.1429372879078815,0.0391787101286252,0.0773075943831107,-0.551705048553685,-0.3849965481906764,-0.3198316913590592,0.7135077750278593,1.8034189363243884,0.0390178763018539,-0.5925601759252102,-0.4405622157936651,1.639850348574882,1.057321270631634,-0.9191529530658104,0.8522550940073453,12.042893579437076,-0.8145178164977114,0.0851307058620537,-1.12093205359341
0.66,-0.3163718926045293,0.6961342735465678,1.7920247402049232,0.0878108130224159,0.1342767181611587,0.03746356699274,0.0944967573612599,-0.5679521077951898,-0.3712629034245751,-0.3194415125960406,0.7075821732686073,1.7990133141664515,0.0428672306881835,-0.6125601762232333,-0.4482871342187483,1.3675226291069218,0.859458148907457,-0.8123529620752412,0.6866822383050669,11.722832177521925,-0.8225551648782038,0.0914153946194436,-1.1131086342714838
0.68,-0.3143491861978749,0.6846241378724433,1.7846983947896935,0.0830175256844566,0.1236996598308256,0.0356640435660898,0.1064284122860403,-0.5822661137057465,-0.3619854599977393,-0.3186611550700036,0.6957309697501031,1.7902020698505785,0.0505659394608428,-0.6525601768192798,-0.4637369710689146,1.0408243259426997,0.5965827462390202,-0.715700295527838,0.463872171341792,11.392438193458474,-0.8330281365165975,0.0968171249786122,-1.10380354001305
0.7000000000000001,-0.3121411549473779,0.6728426850652978,1.777519797986747,0.078834174271571,0.1125428385129091,0.0339172079942552,0.1134304021776757,-0.5952314708030794,-0.356296908844221,-0.3178807975439665,0.6838797662315989,1.781390825534705,0.0582646482335021,-0.6925601774153263,-0.4791868079190809,0.7897593958448934,0.3500994945817695,-0.648267854866641,0.284427557675912,10.865044824109646,-0.843907768087644,0.1009822789268049,-1.0945010099449557
0.72,-0.3099561946073859,0.6614200777162778,1.770776149562137,0.0754842544061794,0.1023728201734065,0.0323830872193233,0.1160318666867808,-0.606591510899226,-0.3538215896855001,-0.3167155045792964,0.6700285626832924,1.7718070893763234,0.0659633570061614,-0.7325601780113727,-0.4946366447692472,0.5957040656142195,0.1300732254552558,-0.5680020048073331,0.123765957936045,10.865044824109646,-0.8553394184391173,0.1043434808156279,-1.0849320389337918
0.74,-0.3076376974148369,0.6491705900141762,1.7637170924651853,0.072642921748895,0.0928356932567332,0.0309442086595792,0.1154990571802278,-0.6178418292151736,-0.3522475985475114,-0.3155502116146264,0.6561773591349858,1.7622233532179417,0.0736620657788208,-0.7725601786074192,-0.5100864816194135,0.5686189327723927,-0.0266404753276494,-0.5625159157973791,0.0786995568994364,10.604194716896927,-0.866367898745969,0.1066753552404102,-1.0758240527011689
0.76,-0.3053579983275416,0.6366919832450795,1.7566794815286886,0.0701987145364345,0.0849496315350342,0.0296835652863331,0.1123909316083128,-0.6293890932362282,-0.3516125175969625,-0.3141924509306398,0.6413261555717781,1.752253371138306,0.0813607745514801,-0.8125601792034656,-0.5255363184695798,0.5987551226429775,-0.1554062785957495,-0.5773632010527274,0.0317540475274435,10.604194716896927,-0.8754104229876799,0.1084230663718489,-1.0682886546500414
0.78,-0.3031663560151584,0.623984052710242,1.749643981408424,0.0678056246745631,0.0791143103984105,0.028595099942514,0.1068573832267815,-0.640705738557842,-0.3519460099290584,-0.3126422225273368,0.6254749519936693,1.741897143137416,0.0890594833241393,-0.852560179799512,-0.5409861553197461,0.6300750672767457,-0.2766774190765659,-0.5658322660806903,-0.016674616604792,10.547745858839336,-0.8825273364848316,0.1100198897116506,-1.0624795605411992
0.8,-0.3012082503768419,0.6117060960798298,1.7429448883332048,0.0655014859336856,0.0760155552449096,0.0277429011731683,0.0995138756342347,-0.6510309831834593,-0.3531901552785212,-0.2978234868538194,0.5919487657823499,1.7320466809119712,0.1431428320461804,-0.7228256653681066,-0.3755555922638152,0.6365643682912623,-0.3671753796273366,-0.5162622312808673,-0.0622072674731438,10.496644789617676,-0.8867744532651017,0.1115219789675306,-1.0591713427506433
0.8200000000000001,-0.2993333885688939,0.5985003838725363,1.7360332790154445,0.0610179781839899,0.0770979398499767,0.0269968435216048,0.0889388482650846,-0.6678131058721583,-0.336864484853775,-0.2978234868538194,0.5919487657823499,1.7320466809119712,0.1431428320461804,-0.7228256653681066,-0.3755555922638152,1.28452166254043,-0.5287513684575091,-0.8391061344349471,0.8162835212373099,10.446901700538548,-0.8936205487887601,0.1142658771112526,-1.053680422591987
0.84,-0.2976409456320388,0.5850260696866012,1.7294602123179832,0.0548110560429121,0.0828888627442077,0.0264109055756363,0.0813967226358576,-0.6784503996245282,-0.3214941125672805,-0.2978234868538194,0.5919487657823499,1.7320466809119712,0.1431428320461804,-0.7228256653681066,-0.3755555922638152,1.007824416263431,-0.3771062814613479,-0.5318646876184996,0.7685186143247258,11.688155061181533,-0.8936368743271048,0.1218469767907064,-1.0497352775785826
0.86,-0.2961369403872765,0.5720656546976656,1.723462368005802,0.0491147553487076,0.0911065239665002,0.0259891319169951,0.0777618962106397,-0.6852832816395561,-0.3106056663716478,-0.2963920585333576,0.5847205091286688,1.7282911249893331,0.1503999218100601,-0.7392496507301595,-0.3802775087307666,0.6679418019706928,-0.1817413212608962,-0.3416441007513926,0.5444223097816364,11.1354428143286,-0.8885928105193461,0.129239331325126,-1.0505793833523005
0.88,-0.2945874845656027,0.558306492019056,1.7173429702248424,0.0439462576156091,0.1011294882993108,0.0256319300157041,0.0777820372862108,-0.6903361136964644,-0.3020571276665967,-0.293529201892434,0.5702639958213067,1.7207800131440567,0.1649141013378197,-0.7720976214542653,-0.3897213416646694,0.4965104013261017,0.0010070537785553,-0.2526416028454159,0.4274269352525561,11.1354428143286,-0.8807159861849294,0.1353204208427787,-1.0545986885421688
0.9,-0.2929981736287058,0.5444618373852506,1.7113661625548633,0.0398301823994798,0.1113721502144525,0.0253232636402816,0.0814554569980125,-0.6940000668927678,-0.2961862296574261,-0.2906663452515103,0.5558074825139445,1.7132689012987803,0.1794282808655792,-0.8049455921783711,-0.3991651745985721,0.3917461194378277,0.1836709855900883,-0.1831976598151707,0.2935449004585283,10.940029669509386,-0.8716204282155746,0.1397781030481706,-1.0603790392445225
0.92,-0.2913002535713841,0.5305550085822804,1.7054820200953171,0.0367999292353457,0.1209025942456753,0.0250389360845306,0.0883194675367974,-0.696747002309572,-0.2925573100096399,-0.2870777796341988,0.539708570670377,1.705285597806809,0.1939424603933388,-0.837793562902477,-0.4086090075324748,0.4117928868701207,0.3432005269392419,-0.1373467708402076,0.1814459823893111,10.78689845369081,-0.8614688062936089,0.1430661324065145,-1.06752807395453
0.94,-0.2895336166464794,0.5172976214013947,1.6999505261857613,0.0348352251343261,0.1287342628416555,0.0247776813423793,0.0973539455074557,-0.6988594891429685,-0.2899222574069748,-0.2834892140168872,0.5236096588268097,1.6973022943148377,0.2084566399210984,-0.8706415336265828,-0.4180528404663776,0.4822548471565515,0.4517238985329151,-0.1056243416698243,0.1317526301332527,10.676837722922755,-0.8519385391788344,0.1450984957122431,-1.074598493833001
0.96,-0.2874669786766652,0.5032956665602241,1.6941760351082562,0.0334515522439449,0.1353262381918657,0.0244921948042667,0.1088819479280798,-0.7012429068445686,-0.2877072262981749,-0.2795377939113816,0.5066895477151395,1.6890828949995187,0.2229708194488579,-0.9034895043506886,-0.4274966734002803,0.5989196159819126,0.5764001210312077,-0.1191708850800055,0.1107515554399973,10.646952897248411,-0.8435934304637873,0.1463196691982651,-1.0809025860021853
0.98,-0.285152250285413,0.489248158317446,1.6884399468705218,0.0326258874016774,0.1399702452902161,0.0241858333374584,0.1219049133595805,-0.7034200907394254,-0.2860325464542492,-0.2752235193176821,0.4889482373353668,1.680627399860852,0.2374849989766174,-0.9363374750747944,-0.436940506334183,0.6654740996495224,0.6511482715750354,-0.1088591947428385,0.0837339921962831,10.615817983355557,-0.8371560007458709,0.1469192159694126,-1.0858226643462952
1.0,-0.2827045232612358,0.4758642369000173,1.6830171220180612,0.0323444259058816,0.1425573316027608,0.0238786207748664,0.1349587212149504,-0.7053346410471216,-0.2848843280935851,-0.279057004617434,0.4540771537804748,1.6741383195478092,0.1734203398463111,-0.7180121245503389,-0.2694050577964171,0.662166534584353,0.6526903927684902,-0.0957275153848136,0.0574109180332071,10.615817983355557,-0.8320457506115674,0.1469586058553336,-1.0898595922584913
1.02,-0.279818936501542,0.4614993706039438,1.677478308607531,0.0250676510828881,0.1430716252269153,0.0230123898320603,0.1528649656318569,-0.7271956093242344,-0.2680615122825745,-0.279057004617434,0.4540771537804748,1.6741383195478092,0.1734203398463111,-0.7180121245503389,-0.2694050577964171,1.6443407911243,0.8953122208453248,-1.0930484138556409,0.8411407905505291,11.714457755846524,-0.8364967665532916,0.1532678489337164,-1.0858934802799871
1.04,-0.276579296288017,0.4468857051995187,1.6723002453887672,0.0108529648949453,0.1409690021483631,0.0216454957219883,0.1699596458682624,-0.731853610484317,-0.2506179581547795,-0.279057004617434,0.4540771537804748,1.6741383195478092,0.1734203398463111,-0.7180121245503389,-0.2694050577964171,1.243184065013702,0.8547340118202768,-0.2329000580041262,0.8721777063897485,11.714457755846524,-0.8398564874467217,0.1692655546231775,-1.0786264263409726
1.06,-0.2730164734715923,0.4322901742268298,1.6674404850807094,-0.0038424707647379,0.1364861010031624,0.0203156145736194,0.1852159477069524,-0.7273045205592467,-0.2362076805094088,-0.2773228012189709,0.4468970325349714,1.671444268969845,0.1837234251436572,-0.7209305313125216,-0.2660795600648507,1.0736678568769098,0.7628150919345003,0.2274544962535152,0.720513882268535,11.559756812751402,-0.8441849059571785,0.1850683810956711,-1.0703490174342547
1.08,-0.2693786803375652,0.4185644257503449,1.6630635783250256,-0.016257081246909,0.1305688196653366,0.0192817407169244,0.1966282308459687,-0.7180070394451227,-0.2252152705318606,-0.2738543944220447,0.4325367900439646,1.6660561678139167,0.2043295957383495,-0.7267673448368871,-0.2594285646017178,0.9185810234092988,0.5706141569508161,0.4648740557061992,0.5496204988774108,11.342166655703297,-0.8496062622138196,0.1999011087699135,-1.0612306150179018
1.1,-0.2653518511102702,0.4043388451245205,1.65866156875734,-0.0270748723319859,0.1236880735192709,0.0184853709061572,0.2051882186269784,-0.7052692512391182,-0.2156349852060901,-0.2703859876251184,0.4181765475529578,1.6606680666579885,0.2249357663330417,-0.7326041583612525,-0.2527775691385849,0.9045807124232138,0.4279993890504832,0.6368894103002232,0.4790142662885271,11.161346422209135,-0.8561298018659917,0.2121814014509529,-1.0515804242655125
1.12,-0.2611867494815894,0.3903914481068555,1.6544324682930749,-0.0354757389656852,0.1170462619924252,0.0179614014271246,0.2107241997477891,-0.690431398411037,-0.2078024712623893,-0.2658872722984576,0.4035244643857328,1.6556125152752166,0.2455419369277339,-0.7384409718856179,-0.2461265736754521,0.8833986050985667,0.2767990560405345,0.7418926414040627,0.3916256971850357,11.034696396115578,-0.8622998999806545,0.2214482956789674,-1.0428188956892646
1.14,-0.2571532531853747,0.3774316035935997,1.650552950698448,-0.041246270984723,0.1116350341429425,0.0176645174473517,0.213485518318177,-0.6750129935328396,-0.2009227797931332,-0.2613885569717967,0.3888723812185077,1.6505569638924449,0.2661481075224262,-0.7442777854099834,-0.2394755782123192,0.8553979248679306,0.1380659285193958,0.7709202439098672,0.3439845734628077,10.931637314974978,-0.8678399388849881,0.2288262128975915,-1.0348158613117762
1.16,-0.2528721162909257,0.3641077020598004,1.646610350853606,-0.045414567694958,0.1075332348993902,0.0174771520437292,0.2143520752928611,-0.6584904497250967,-0.1936791649401483,-0.2563746873802686,0.3740743777131736,1.6456676873962517,0.2867542781171184,-0.7501145989343487,-0.2328245827491863,0.9030716070826552,0.0433278487342064,0.8261271903871437,0.3621807426492457,10.90871802723268,-0.8718465413161514,0.2340644678424105,-1.0286940241268732
1.18,-0.248591443350904,0.3511175866828774,1.6428127887608532,-0.0479644667114713,0.1056657859131786,0.0173413811410406,0.2137379253593005,-0.6416464210637595,-0.1864189036711709,-0.2508456635238731,0.3591304538697303,1.6409446857866363,0.3073604487118107,-0.7559514124587142,-0.2261735872860535,0.9176190323040618,-0.0307074966780285,0.8422014330668637,0.3630130634488693,10.913100962637143,-0.8745290319579252,0.2377783063856257,-1.0237349128977575
1.2,-0.2443179538799872,0.3384687023411478,1.6391619082722229,-0.049037409909172,0.1059723082343262,0.0172322446052362,0.2138616365617124,-0.6242454079699594,-0.179017099513249,-0.2379045470829389,0.3190352656296895,1.6334918435772947,0.2462263161626376,-0.6181865916737105,-0.1751142913996832,0.9455121177759076,0.0061855601205904,0.8700506546900022,0.3700902078960955,10.912321585691643,-0.8757444378145326,0.2400918446796957,-1.020151946970059
1.22,-0.2402084864051452,0.3266751903321235,1.635821646320225,-0.0518582007009741,0.1065003371876918,0.0170141873146809,0.218486453585337,-0.6163065111233414,-0.1730408623013639,-0.2379045470829389,0.3190352656296895,1.6334918435772947,0.2462263161626376,-0.6181865916737105,-0.1751142913996832,0.5480201338818877,0.2312408511812344,0.3969448423308985,0.2988118605942516,10.911498321427644,-0.8777658329290793,0.2445925529802195,-1.0145068227697265
1.24,-0.2357944012032212,0.3145010229534105,1.6324233328238318,-0.0569562821914013,0.1061505866499971,0.0167127508829836,0.2225779586549844,-0.6012349757232316,-0.1671103917481128,-0.2379045470829389,0.3190352656296895,1.6334918435772947,0.2462263161626376,-0.6181865916737105,-0.1751142913996832,0.8352575561386638,0.2045752534823683,0.753576770005493,0.2965235276625552,10.792455638365936,-0.877639814519618,0.2506933917673575,-1.0116138332508615
1.26,-0.2313069031465253,0.3026700432301062,1.6291397086204424,-0.0618366052479845,0.1053135797135346,0.0164894527762238,0.2259067764910232,-0.5826853914209082,-0.1615540419932586,-0.2354422839213126,0.3128533997129524,1.6317407006632978,0.2527239943233051,-0.6134946257957007,-0.1728533689453856,0.9823964685563548,0.1664408918019388,0.927479215116167,0.2778174877427097,10.79318802090529,-0.8778990548594352,0.2567094338317747,-1.0082445516022214
1.28,-0.2267602036780507,0.2912318382189436,1.6259643451093522,-0.0655981265896289,0.1042907226947315,0.0163909628708792,0.2285693526222069,-0.5623844548557005,-0.1562364049951487,-0.2305177575980598,0.3004896678794782,1.6282384148353042,0.2657193506446399,-0.6041106940396811,-0.1683315240367905,1.0577034087146129,0.1331288065591865,1.0150468282603853,0.2658818499054985,10.77990226422662,-0.8782727744778981,0.2614531222614501,-1.0051590783399045
1.3,-0.2223967436346827,0.2807499395655667,1.6230460411539682,-0.0679692388830959,0.1033503752821059,0.0164091217884316,0.2306074151958865,-0.542324969222276,-0.1511936851060732,-0.2255932312748071,0.2881259360460039,1.6247361290073106,0.2787147069659748,-0.5947267622836615,-0.1638096791281955,1.0391892113704266,0.1019031286839791,1.0029742816712262,0.252135994453774,10.77277423263604,-0.8787152811992988,0.2652575883868926,-1.002170560538099
1.32,-0.2177656711040206,0.2701311071074116,1.6200795672239308,-0.0692316715238183,0.10253697995514,0.0165298617812649,0.2323905736515843,-0.5207600306688251,-0.1456950698672625,-0.2200189371354876,0.2762314008003307,1.6214599354247468,0.2917100632873096,-0.5853428305276419,-0.1592878342196004,1.1163120066055894,0.0891579227848882,1.0782469276725437,0.2749307619405325,10.774901681008489,-0.8791564528698996,0.2678950248289428,-0.9994254036421442
1.34,-0.2131015910173961,0.2599516035588631,1.6172248577255235,-0.0689776055911556,0.1019891001549953,0.0167620038429683,0.2339415946264044,-0.4984302141623143,-0.1400263156589776,-0.2144446429961681,0.2643368655546574,1.6181837418421827,0.3047054196086444,-0.5759588987716223,-0.1547659893110053,1.1545141245917308,0.0775510487410077,1.1164908253255417,0.2834377104142485,10.787683909476073,-0.8794654034214703,0.2692601363108574,-0.9969820626011252
1.36,-0.208406118024156,0.2502266814724393,1.6144864931888865,-0.0667092960538823,0.1016872029829149,0.0171367597171964,0.2355505960677246,-0.475519109982332,-0.1340625862171518,-0.2085454649488152,0.2526769286028847,1.6150205943823337,0.3177007759299793,-0.5665749670156027,-0.1502441444024102,1.1864586478671206,0.0804500720660086,1.1455552089991132,0.2981864720912872,10.79865984013577,-0.8796836160908759,0.268945936256828,-0.9948976034196464
1.38,-0.2039139933346468,0.2413975497021618,1.612000689877842,-0.0628023585824988,0.1015395924030787,0.0176186811628768,0.2372441971270421,-0.4556141049481788,-0.1278527583928885,-0.202321402993429,0.2412515899450125,1.6119704930451997,0.3306961322513141,-0.5571910352595831,-0.1457222994938151,1.045991720288434,0.0846800529658728,0.9952502517076632,0.3104913912131662,10.814533427054812,-0.8797302099752754,0.266944568762534,-0.9933432914361962
1.4,-0.199148765195605,0.2324823024950066,1.609518010548703,-0.0580170230680835,0.1014507049647498,0.0181791893861985,0.2391983159291555,-0.437195081672992,-0.1207035115154371,-0.1920517834782947,0.2186168444547528,1.6056080519581977,0.2336692206623086,-0.4295878802306809,-0.1117147356273713,0.9927118534844256,0.0977059401056745,0.920951163759337,0.3574623438725714,10.834217078124311,-0.8800103404078533,0.2642154461555732,-0.9918370746162368
1.42,-0.194261009927879,0.2238911374061306,1.6071731709597388,-0.0540028314571145,0.0986873309526749,0.0188426643522276,0.2495875429740811,-0.4225193842438695,-0.1141942810540423,-0.1920517834782947,0.2186168444547528,1.6056080519581977,0.2336692206623086,-0.4295878802306809,-0.1117147356273713,0.9561409608704584,0.5194613522462754,0.7337848714561251,0.3254615230697359,10.857759625530887,-0.8889181157698853,0.2627721687340666,-0.9806397392940888
1.44,-0.1894407000191878,0.216007079032233,1.605067758031716,-0.0511627199673513,0.0911552064291221,0.0196634721437883,0.2565127762784467,-0.4080580216519496,-0.1077230661467144,-0.1920517834782947,0.2186168444547528,1.6056080519581977,0.2336692206623086,-0.4295878802306809,-0.1117147356273713,0.8645323688441334,0.3462616652182809,0.7230681295959968,0.3235607453663975,10.79202319868,-0.8927822746552996,0.2621520851156062,-0.9755416402166044
1.46,-0.1842850838922987,0.2080056143073612,1.6029868872242894,-0.0485985333564224,0.0803709393897682,0.0206276704943258,0.2581203478523581,-0.3928879748953503,-0.1006704845637159,-0.1897150912716716,0.214320965652446,1.604490904601924,0.2329542253693619,-0.4243826352871814,-0.1084871310742678,0.8403176660458623,0.0803785786955696,0.7585023378299638,0.3526290791499263,10.79202319868,-0.9017366607920808,0.2620461469888396,-0.965050512179902
1.48,-0.1791568911075956,0.2003042007371769,1.6010463701703708,-0.0462391175280682,0.0687113731111294,0.0216008891125688,0.2542665189249401,-0.3780788429022899,-0.093702906803194,-0.1850417068584254,0.2057292080478324,1.6022566098893765,0.2315242347834685,-0.4139721454001822,-0.1020319219680609,0.8406984114987489,-0.1926914463708989,0.7404565996530194,0.3483788880260955,10.790214913974523,-0.9127627674475002,0.2619922719322354,-0.9523511460063634
1.5,-0.1741570806732034,0.1928939555907252,1.5992429246193736,-0.0439865048295591,0.0577364026931345,0.0225165278899331,0.2457350083481919,-0.3637612567304261,-0.0869587348799242,-0.1803683224451793,0.1971374504432188,1.6000223151768291,0.2300942441975751,-0.4035616555131831,-0.095576712861854,0.8989769205053755,-0.4265755288374084,0.7158793085931897,0.337208596163488,10.776306221832783,-0.9242942245404522,0.262119296280614,-0.93854853833588
1.52,-0.1696018193358452,0.1861141972434415,1.597652633027302,-0.0419258904171773,0.0489162227498905,0.0232959466105132,0.2341838772578839,-0.3506698831405374,-0.0807504186759317,-0.1757664375612278,0.1890662173329551,1.598110780919592,0.2286642536116817,-0.393151165626184,-0.0891215037556471,0.926493229905477,-0.5775565545154001,0.6545686794944383,0.3104158101996254,10.760269439397234,-0.9357231794562124,0.2621915046349714,-0.9244770578915849
1.54,-0.1650723984503549,0.1792402860622753,1.5961049143051849,-0.0398647487381673,0.0419715827713787,0.0240007673242762,0.2192083739235783,-0.3374594804207106,-0.0743427999345273,-0.1711645526772763,0.1809949842226914,1.596199246662355,0.2272342630257883,-0.3827406757391848,-0.0826662946494402,1.048615775762268,-0.748775166715282,0.6605201359913354,0.3203809370702207,10.746527609119768,-0.944863593723988,0.2620942530935659,-0.9129100024840484
1.56,-0.1608751964264403,0.1726273682242799,1.5946829583242,-0.0378599831672426,0.0383460595172058,0.0245654772514855,0.2012896898568052,-0.32458188041804,-0.0681517028347646,-0.1665984175579721,0.1731840133596027,1.594449092632773,0.2258042724398949,-0.3723301858521857,-0.0762110855432333,1.1459073957047097,-0.8959342033386538,0.6438800001335315,0.3095548549881338,10.743745257907904,-0.9508063199102303,0.2617604304759492,-0.9051005522241318
1.58,-0.1572257587046121,0.1665797605629914,1.593447361241915,-0.0359578339688266,0.0384346639018163,0.0249706771951031,0.1841993667395781,-0.3127210665702792,-0.0621753436853582,-0.1620680322033153,0.165633304743689,1.5928603188308463,0.2243742818540015,-0.3619196959651866,-0.0697558764370264,1.0822140708579262,-0.854516155861354,0.5930406923880388,0.2988179574703206,10.745056458245926,-0.9553500190435308,0.2607313005813492,-0.8995564083013091
1.6,-0.1537146152604585,0.1604527276367513,1.5922731021582854,-0.0339746741447851,0.0413988462708036,0.0253018491446828,0.1681492149412198,-0.3006637878552276,-0.0555262961642263,-0.1480157903676332,0.1509437072344774,1.590338594057647,0.1800907436037432,-0.293017592674491,-0.0563645967622692,1.0573494877535186,-0.8025075899179154,0.6028639357525817,0.3324523760565925,10.73019678945002,-0.9568627896758424,0.2597879097904003,-0.8972173390258104
1.62,-0.150500802652621,0.1545726969616961,1.5912038055470308,-0.0316869931734257,0.0463022295959951,0.0256026442508083,0.1543369154848043,-0.2881899101218535,-0.0518721140347072,-0.1480157903676332,0.1509437072344774,1.590338594057647,0.1800907436037432,-0.293017592674491,-0.0563645967622692,0.9483278560399854,-0.690614972820773,0.6236938866687053,0.1827091064759561,10.72770315066282,-0.9551042915353872,0.2593449959390247,-0.8975990558529903
1.64,-0.1476805907382944,0.1492049201667048,1.5902526602040234,-0.0292855424515052,0.0519439178450582,0.0258902403564116,0.1434502349219405,-0.2775334985653474,-0.0484043005285311,-0.1480157903676332,0.1509437072344774,1.590338594057647,0.1800907436037432,-0.293017592674491,-0.0563645967622692,0.7811924402045423,-0.544334028143191,0.5328205778253048,0.1733906753088047,10.514204869782589,-0.9523010738849588,0.257742566309236,-0.9005696314711052
1.66,-0.1449111030963097,0.1437646298681276,1.5893261426294665,-0.0268578022867836,0.058229214300477,0.0261952683768067,0.1342840632100806,-0.2670877346191898,-0.0444162493951328,-0.1462148829315958,0.1480135313077325,1.5897749480900247,0.1792690189765762,-0.2890768978953334,-0.0552024473776514,0.7229060106831793,-0.458308585592998,0.5222881973078797,0.199402556669918,10.521610061558931,-0.9488571970048396,0.2564761210944219,-0.9038254432670804
1.68,-0.1423022819108237,0.1385277281223883,1.5884817240305826,-0.0246323613519435,0.0643269076381179,0.0265099821441013,0.1272132639827658,-0.2571424503820116,-0.0402221440935302,-0.1426130680595209,0.1421531794542427,1.588647656154779,0.1776255697222422,-0.2811955083370182,-0.0528781486084157,0.6451654817800444,-0.3535399613657369,0.497264211858911,0.2097052650801265,10.541938236534406,-0.9452041385201094,0.2555927252897882,-0.9069463370948052
1.7,-0.1398152051594924,0.133485394898681,1.5877223013411583,-0.0226274349960793,0.0698310134624799,0.0268401784154106,0.1219223974161679,-0.2475896124312004,-0.0359375397602454,-0.139011253187446,0.1362928276007529,1.587520364219534,0.1759821204679083,-0.2733141187787029,-0.0505538498391801,0.5865317899159561,-0.2645433283298984,0.4776418975405608,0.2142302166642403,10.541938236534406,-0.9419392119010256,0.255081571473308,-0.9094263984721072
1.72,-0.1375369405511656,0.1288690780094612,1.587080229281917,-0.0209117681878479,0.074294795956227,0.0271703818140682,0.1181841326149409,-0.2388167471048249,-0.0318693134640692,-0.1354916107780878,0.1308265452251788,1.5865092872227502,0.1743386712135743,-0.2654327292203876,-0.0482295510699445,0.5183827132431046,-0.1869132400613496,0.4386432663187722,0.2034113148088122,10.54558752106368,-0.938983618041809,0.2548651016213634,-0.9112751935948716
1.74,-0.135205560233664,0.1241866188485405,1.5864864172718485,-0.0192973906431736,0.078096510524806,0.0275336489728044,0.1151809319764523,-0.2299031585834015,-0.0277345225000657,-0.1319719683687297,0.1253602628496048,1.5854982102259667,0.1726952219592403,-0.2575513396620723,-0.0459052523007089,0.5137308894749107,-0.1501600319244268,0.4456794260711688,0.2067395482001728,10.54579757598094,-0.9368056111499878,0.2551999433016627,-0.9117199902265416
1.76,-0.1329267932843243,0.1196809998743443,1.58597300592042,-0.0178362949211573,0.0809693511682495,0.0279123004028206,0.1128217000646921,-0.2211462353207471,-0.023812721128105,-0.1284934121907299,0.1200910152129886,1.584545240698414,0.1710517727049063,-0.249669950103757,-0.0435809535314733,0.4940399939341944,-0.1179615955880127,0.4378461631327227,0.1960900685980353,10.537055543546558,-0.9353896752710538,0.2557415119895683,-0.9113125429258012
1.78,-0.1308023026285692,0.1155607767495516,1.5855560833904847,-0.0165499599908929,0.0829169353492805,0.0282846471032791,0.1108961683683015,-0.2130406017988156,-0.0202674236577195,-0.1250559422440884,0.1150188023153303,1.5836503786400922,0.1694083234505723,-0.2417885605454417,-0.0412566547622377,0.45270879508572,-0.0962765848195296,0.4052816760965735,0.1772648735192745,10.524978458650368,-0.9345460160196516,0.2564365653808363,-0.9101723597660278
1.8,-0.1286044790964766,0.1113871854923874,1.585188574418977,-0.0153097001339165,0.0842739576360312,0.0286847248010881,0.108965430024823,-0.2047822474513349,-0.016672361420775,-0.1252574942101542,0.1049087466596109,1.5845427122075988,0.1239782498203135,-0.1986874857559036,-0.0235695768576306,0.4605774624507711,-0.096536917173922,0.4129177173740381,0.1797531118472245,10.51334697556922,-0.9343879158453484,0.2572867523079809,-0.9082418404763206
1.82,-0.1264611144198448,0.1073922324469959,1.5848888018431284,-0.0136780402571715,0.08554927947816,0.0291172499020486,0.1055177026639655,-0.195320724794914,-0.0134947059445344,-0.1252574942101542,0.1049087466596109,1.5845427122075988,0.1239782498203135,-0.1986874857559036,-0.0235695768576306,0.5279789987737507,-0.1723863680428781,0.4730761328210417,0.158882773812033,10.503678968325405,-0.9338071196003964,0.2583127359859941,-0.906130613628111
1.84,-0.1243844326885452,0.1035727275034019,1.5846469300743946,-0.0115426986143846,0.0872753348794791,0.0295823571402119,0.1024361990295664,-0.1872317284322914,-0.0108431262746562,-0.1252574942101542,0.1049087466596109,1.5845427122075988,0.1239782498203135,-0.1986874857559036,-0.0235695768576306,0.4526543978275476,-0.1540751817199544,0.4044498181311307,0.1325789834939088,10.482034189692968,-0.9333931827966108,0.258115059723857,-0.9052493092465184
1.86,-0.1224623629576504,0.1000843665963338,1.5844624967871817,-0.0095189515437374,0.0891804808345579,0.0300245255202636,0.1001169884853282,-0.180390156184692,-0.0086998807566435,-0.124017711711951,0.1029218718020518,1.5843070164390225,0.126594666110716,-0.1958168625473212,-0.0242300074976129,0.3767603672034438,-0.1159605272119085,0.3420786123799701,0.1071622759006366,10.422790132169212,-0.9326000614564608,0.2577753313136472,-0.9049004583494896
1.88,-0.1204799340656069,0.0965466740699465,1.584309214830393,-0.0075641879276511,0.0913058864315354,0.0304805057521749,0.0983188808437359,-0.1737456947779474,-0.0067544779565681,-0.1215381467155447,0.0989481220869337,1.58383562490187,0.1318274986915208,-0.1900756161301564,-0.0255508687775773,0.3576543391705611,-0.0899053820796136,0.3322230703372314,0.0972701400037672,10.422790132169212,-0.9314883857965296,0.2575102295096452,-0.9049568388120088
1.9,-0.1185267405443565,0.0931376099483414,1.5841913080496417,-0.0058436849805252,0.0934184710608335,0.0309238202246388,0.0971458823602503,-0.1674754025583207,-0.0051319419983667,-0.1190585817191385,0.0949743723718157,1.583364233364717,0.1370603312723256,-0.1843343697129916,-0.0268717300575417,0.3291090734749907,-0.0586499241742817,0.313514610981333,0.0811267979100695,10.402593251678809,-0.9302656171955568,0.2574050036938797,-0.9051868361158012
1.92,-0.1166874660988869,0.0900119215980839,1.5841067803728814,-0.0044347213572744,0.0953157884209974,0.0313325933592987,0.0965564446575416,-0.1618591740434297,-0.0038467736723299,-0.116317375093692,0.0912876849775558,1.5828267987635665,0.1422931638531304,-0.1785931232958268,-0.0281925913375062,0.289573467202617,-0.0294718851354333,0.2808114257445523,0.0642584163018406,10.368704167162832,-0.9288211916950814,0.257434012851094,-0.9055726567818522
1.94,-0.1147586472520074,0.0868331120300336,1.5840418250134038,-0.0032584679631115,0.097133352244551,0.031744449426158,0.0963931652681081,-0.1563268922466154,-0.0027273930761877,-0.1135761684682454,0.087600997583296,1.5822893641624156,0.1475259964339353,-0.172851876878662,-0.0295134526174706,0.2823376301407387,-0.0081639694716757,0.2766140898407113,0.0559690298071087,10.368704167162832,-0.927518409280425,0.2576652171372288,-0.9059111337821216
1.96,-0.1128281647455998,0.0837631016183098,1.5839967406583992,-0.0024382703025408,0.0987079917561819,0.0321338534927194,0.0966865269147672,-0.1509601359601853,-0.0018471427363211,-0.1107041410282788,0.0840578413494653,1.5817189080292655,0.1527588290147401,-0.1671106304614972,-0.0308343138974351,0.2723186311772622,0.0146680823329539,0.2683378143215065,0.04401251699333,10.355023239084405,-0.926297956162498,0.2581971452784387,-0.9060325461741
1.98,-0.1108879504692114,0.0807997703457563,1.5839666619876436,-0.0019541339046628,0.0999822757117708,0.0325016245315125,0.0973200161864608,-0.1456496523726355,-0.0012034606454727,-0.1077012927737921,0.0806582162760637,1.5811154303641168,0.1579916615955449,-0.1613693840443324,-0.0321551751773995,0.2693365516647588,0.0316744635846806,0.2655241793774882,0.0321841045424218,10.341478198952244,-0.9253456692916197,0.2590313185900306,-0.9057663534634224
2.0,-0.1090309210668632,0.0780835444996951,1.5839480764649192,-0.0017611471787593,0.1009063139003371,0.032833698002504,0.0981178687885404,-0.1405457561461202,-0.0007837875433003,-0.1060219496598883,0.0735172877271246,1.58390648895537,0.1155518104245513,-0.1341535825315487,-0.0161620574338195,0.259144993094454,0.0398926301039798,0.2551948113257679,0.020983655108617,10.328762721912426,-0.9245657318900516,0.2601880899569606,-0.9051318645365012
2.02,-0.1070564887006388,0.0753405175517091,1.5839506954745188,-0.0014494760036406,0.1015629305695086,0.0331918897597548,0.0992826771269519,-0.1341127209684689,0.0011009079825582,-0.1060219496598883,0.0735172877271246,1.58390648895537,0.1155518104245513,-0.1341535825315487,-0.0161620574338195,0.3401940522970813,0.0582404169205755,0.3216517588825657,0.0942347762929305,10.316992844646848,-0.924782801842294,0.2614134445280295,-0.9033234853103908
2.04,-0.1050615178789827,0.072723785060941,1.5839843996362295,-0.0007774375749636,0.1019838128411463,0.0335754482750352,0.1001574869991468,-0.127947982776886,0.0021709758990808,-0.1060219496598883,0.0735172877271246,1.58390648895537,0.1155518104245513,-0.1341535825315487,-0.0161620574338195,0.3158889624109264,0.0437404936097444,0.3082369095791418,0.0535033958261304,10.4071823660297,-0.9245540550341514,0.2627278576181537,-0.9015022304356132
2.06,-0.1031519845115006,0.0703501679413948,1.584027646581422,0.0001101025910241,0.102313151330792,0.0339565967360606,0.1008140581631859,-0.1222643086664406,0.0023325594700949,-0.1048664315556428,0.0721757519018091,1.5837448683810318,0.1191981692721694,-0.1318543685633313,-0.0191537767914888,0.2861876409701182,0.0328285582019555,0.2841837055222694,0.0080791785507052,10.34702493245095,-0.9242344262724048,0.2635789134676177,-0.9001685096238786
2.08,-0.1011296919321146,0.0679652680384353,1.584069280973143,0.00126598500345,0.1026730582767688,0.0343720042176169,0.1013928394297175,-0.1165670022246746,0.0017919413329907,-0.1025553953471518,0.0694926802511781,1.5834216272323554,0.1264908869674056,-0.1272559406268966,-0.0251372155068275,0.2876045740945477,0.028939063326578,0.2848653220883013,-0.0270309068552065,10.29470365627276,-0.923674265641732,0.2639493348181677,-0.8995344113137449
2.1,-0.0990962756450959,0.065690849197941,1.5840934075337851,0.0025933951039958,0.1031049802436579,0.0347976800762836,0.1019402394938663,-0.1112016596511783,0.0006232672740685,-0.1002443591386608,0.0668096086005471,1.583098386083679,0.1337836046626419,-0.1226575126904618,-0.0311206542221662,0.2759182252824211,0.0273700032074414,0.2682671286748178,-0.0584337029461103,10.25206738354882,-0.922900089502436,0.2639401572422734,-0.8995277801315344
2.12,-0.0970516781043401,0.0635193637551935,1.5840881051096978,0.004015353480234,0.1036393386901012,0.0352280176337492,0.1025271128579278,-0.106249603611089,-0.0010936244697224,-0.0975686870454079,0.0643564583467379,1.5824759729992357,0.1410763223578781,-0.1180590847540271,-0.0371040929375049,0.2636996237650287,0.0293436682030738,0.247602802004463,-0.0858445871895502,10.21704167982989,-0.9218184929647314,0.2636071550811452,-0.9001430959397426
2.14,-0.0950972962057495,0.0615438169182262,1.584047787945143,0.005360546930486,0.1042435282700391,0.0356345427660726,0.1031996029070729,-0.1019699427477586,-0.0030656006582496,-0.0948930149521551,0.0619033080929286,1.5818535599147925,0.1483690400531143,-0.1134606568175923,-0.0430875316528436,0.237993855274877,0.0336245024572551,0.2139830431665219,-0.0985988094263594,10.188580495245333,-0.92049959690718,0.2630661103521871,-0.9012749919449362
2.16,-0.0930236683956641,0.0595483081626361,1.5839617271995816,0.0066858380410917,0.1049402128629534,0.0360538693600413,0.1041548434199867,-0.0978349803789611,-0.0054530167232521,-0.0920350249165213,0.0595651185375303,1.581081560862465,0.1556617577483505,-0.1088622288811576,-0.0490709703681824,0.2434653655877717,0.0477620256456881,0.2067481184398735,-0.1193708032501248,10.169788242879804,-0.9190287363228644,0.2624596282061708,-0.902719328968824
2.18,-0.0909281861693683,0.0576316446446676,1.583824605990246,0.0078451493524017,0.1056282465185651,0.0364586865673889,0.1053638331139424,-0.0940542940113523,-0.0081426133205086,-0.0889947169385067,0.0573418896805428,1.580159975842255,0.1629544754435867,-0.1042638009447228,-0.0550544090835211,0.2397351421167108,0.0604494846977894,0.1890343183804377,-0.1344798298628257,10.13861033082594,-0.9174194151290758,0.2618793203037787,-0.9043969811732506
2.2,-0.0888061465419377,0.0557873551233055,1.5836309183106734,0.0087749317940215,0.1062521213937199,0.0368439192961979,0.106790250392746,-0.0905728452849235,-0.0110957331705938,-0.0856599945136712,0.0529289299441,1.5834174753242207,0.1123229771399835,-0.0769612409237602,0.0013539358238786,0.2391446650930665,0.0713208639401774,0.1740724363214436,-0.1476559925042616,10.13861033082594,-0.9158230100094984,0.2614228303025784,-0.9061011858379744
2.22,-0.0867135557603081,0.0540749004821669,1.583470282499046,0.0086570940324253,0.1054855519300822,0.0371253770252759,0.1132099770635926,-0.0895472679242611,-0.0056428178960704,-0.0856599945136712,0.0529289299441,1.5834174753242207,0.1123229771399835,-0.0769612409237602,0.0013539358238786,0.4242610765855521,0.32098633354233,0.0512788680331173,0.2726457637261689,10.126036676608235,-0.9202798957947368,0.2600383476600952,-0.9041488797083328
2.24,-0.0843849839664644,0.0523013060301347,1.5834184684810375,0.0070224438015621,0.1019986673046101,0.0372956918821394,0.1191056146782906,-0.0877368838422621,0.0001507153475411,-0.0856599945136712,0.0529289299441,1.5834174753242207,0.1123229771399835,-0.0769612409237602,0.0013539358238786,0.4230870503012092,0.2947818807349004,0.0905192040999529,0.2896766621805835,10.64884528807579,-0.9245706649728996,0.2645568162152214,-0.8954242660830889
2.26,-0.0819617297226708,0.0505771574518644,1.5834764818261746,0.0042364650615141,0.0962986089704713,0.0373846863771217,0.122477647530229,-0.0844517515851644,0.0053606102169171,-0.0845367647422714,0.0521593175348624,1.5834310146824595,0.1137148059451917,-0.0735426303062418,0.003253245652756,0.3510901025774042,0.1686016425969196,0.1642566128548801,0.2604947434687979,10.608426814329505,-0.9302558361350844,0.2705412461246229,-0.8840593052656778
2.28,-0.079510613444431,0.0489441140320966,1.5836317107946516,0.0012771510927676,0.0896176448320036,0.0374817991094622,0.1222240843960779,-0.0790199006724178,0.0099337844771647,-0.0822903051994717,0.0506200927163872,1.583458093398937,0.1164984635556081,-0.0667054090712049,0.0070518653105109,0.3552577283321889,-0.0126781567075552,0.2715925456373342,0.2286587130123812,10.557750453777771,-0.9369998423234392,0.2759280851658761,-0.8722402311344682
2.3000000000000003,-0.0772178163140918,0.0475054573954176,1.5838584438839056,-0.0011291733506486,0.0833967169222432,0.0376253281249193,0.1190406102213805,-0.072799899487586,0.0137254305789074,-0.080043845656672,0.049080867897912,1.5834851721154146,0.1192821211660245,-0.0598681878361681,0.0108504849682658,0.3974905744830128,-0.1591737087348707,0.3110000592415888,0.1895823050871319,10.51124307945247,-0.9442696511846363,0.280711639209596,-0.8602830649954271
2.32,-0.074896792325419,0.0461235895525347,1.5841704133590837,-0.0030986748803689,0.0777930708481697,0.0378331994973254,0.1130452098887941,-0.0658016002867453,0.0172607453818307,-0.0776582032333516,0.0478835041411886,1.58370218181478,0.1220657787764409,-0.0530309666011312,0.0146491046260207,0.4935065035240994,-0.2997700166293179,0.3499149600420352,0.1767657401461644,10.469961335478729,-0.9505569047693644,0.2845657932387198,-0.8500070180102997
2.34,-0.0727255106544306,0.0448869558813149,1.58455078163616,-0.0044201975313182,0.0741042093765721,0.0380920383966575,0.104322386583003,-0.058322600687125,0.0206131591180266,-0.0752725608100311,0.0466861403844653,1.5839191915141453,0.1248494363868573,-0.0461937453660944,0.0184477242837756,0.598460022252546,-0.4361411652895545,0.3739499799810121,0.1676206868097969,10.438509161044747,-0.9550102561063468,0.2873697369447994,-0.8425371803289975
2.36,-0.07084169989164,0.0438564161133761,1.5849733646204145,-0.004901814933858,0.0731530703542957,0.0383849615517523,0.0947089636060287,-0.0506340315432398,0.0237191396958641,-0.0728173269464502,0.0456597071586178,1.5842311667049545,0.1276330939972738,-0.0393565241310575,0.0222463439415305,0.634781679328464,-0.4806711488487158,0.3844284571942621,0.1552990288918762,10.438509161044747,-0.958614355719008,0.289054488656128,-0.8371246377767414
2.38,-0.0690441438168786,0.0429324948604786,1.5854825398254175,-0.0043891684890167,0.0745647863756523,0.038752922203542,0.0858106394555462,-0.0422414543438818,0.0270475992191791,-0.0702925016426088,0.0448042044636463,1.5846381073872076,0.1304167516076902,-0.0325193028960207,0.0260449635992854,0.6338260162153915,-0.4449162075241257,0.4196288599678972,0.1664229761657499,10.42771193406952,-0.9602213509018834,0.2897707177048552,-0.8345308640445278
