t,x,y,z,roll,pitch,yaw,v_x,v_y,v_z,ref_x,ref_y,ref_z,ref_v_x,ref_v_y,ref_v_z,a_com,a_x,a_y,a_z,thrust,wind_x,wind_y,wind_z
0.0,0.9195559997463147,-1.135305710007264,2.7604931802007657,0.0298343235092801,0.0997200313816165,0.0420902058368033,0.0005506398422985,-0.0063691459429507,-0.0008106230027804,0.9195662983006349,-1.1354159156380663,2.7604706739769145,-0.0996010964479664,0.0956015336936094,-0.1007669069527077,0.3222046474337758,0.027531992114928,-0.3184572971475379,-0.0405311501390233,10.25996591463263,-0.9396768837402486,0.2515011618854894,-0.882463446729837
0.02,0.9197312255960384,-1.1356752600535691,2.7603676244748256,0.019609078819348,0.0943978575871494,0.0412529085052085,0.016306079578829,-0.0261108975229207,-0.0120415750234154,0.9195662983006349,-1.1354159156380663,2.7604706739769145,-0.0996010964479664,0.0956015336936094,-0.1007669069527077,1.3821223896841546,0.7877719868265239,-0.9870875789984974,-0.5615476010317506,10.26064014106123,-0.9461175402828456,0.2544871249180921,-0.8805172612935706
0.04,0.920173789693366,-1.1362074781353442,2.7599397900586933,0.002738382660942,0.07907749102023,0.0399670845516077,0.0255487824170442,-0.0253871632644409,-0.0300458436773588,0.9195662983006349,-1.1354159156380663,2.7604706739769145,-0.0996010964479664,0.0956015336936094,-0.1007669069527077,1.0125525132009403,0.4621351419107598,0.0361867129239863,-0.9002134326971686,9.221010054348426,-0.9512675340376404,0.2693393301243415,-0.8674813529419856
0.06,0.9206570129576016,-1.1366268542625906,2.759183488528103,-0.0135808172782049,0.0589697853248316,0.0390594604372075,0.0239615508623902,-0.0184937251336874,-0.0486324331260558,0.9185702873361552,-1.1344599003011302,2.759463004907388,-0.1196010967459896,0.1156015339916326,-0.1207669072507309,0.9943592165372528,-0.0793615777327004,0.3446719065376782,-0.9293294724348504,9.221010054348426,-0.9618618657526536,0.2826870226090494,-0.8511885957611773
0.08,0.92102998248467,-1.1368906516664334,2.7579965052835687,-0.0300702127696898,0.0358232681609609,0.0386157162884845,0.0126433049612827,-0.0079201750618741,-0.0691548630943526,0.9165782654071958,-1.1325478696272582,2.7574476667683334,-0.159601097342036,0.1556015345876791,-0.1607669078467774,1.2855667847322507,-0.5659122950553741,0.5286775035906647,-1.0261214984148412,9.114971629362117,-0.9762055919060892,0.2939713345242841,-0.832623345607689
0.1,0.9210844538144352,-1.1369138088827049,2.756389950732229,-0.0457457211666467,0.0135570030737717,0.0386416091259226,-0.0071174973356033,0.0053833528166319,-0.0905450409597156,0.9145862434782364,-1.130635838953386,2.7554323286292792,-0.1996010979380825,0.1956015351837255,-0.2007669084428238,1.600791109531998,-0.9880401148443068,0.6651763939253057,-1.069508893268149,9.069670884990046,-0.9915180651555324,0.3034073026498867,-0.8143634750153219
0.12,0.9206688141598856,-1.136644102963346,2.7543492257130224,-0.060643079408356,-0.0057244704911729,0.0389724088516376,-0.0335229657135512,0.0212259775378354,-0.1125062565803062,0.9105942215194748,-1.1267238082497115,2.751416990460423,-0.2396010985341289,0.235601535779772,-0.2407669090388703,1.8911190535300555,-1.3202734188973937,0.7921312360601723,-1.0980607810295313,9.080574434189655,-1.005249756011378,0.3109238605073852,-0.7990410838988392
0.14,0.9197391822717668,-1.1360713619493237,2.7519966681659462,-0.0741152753081713,-0.020281110046462,0.0393970922513771,-0.0628974061245442,0.0385256325652474,-0.1340665679898406,0.9066021995607132,-1.122811777546037,2.747401652291566,-0.2796010991301754,0.2756015363758185,-0.2807669096349168,2.0167937683378394,-1.4687220205496505,0.8649827513705987,-1.0780155704767185,9.087969541440998,-1.0172698199766108,0.3174783103972866,-0.7871522869844685
0.16,0.9181243675320409,-1.135065201025911,2.7490672005453125,-0.0868297114491132,-0.0311587939116579,0.0398385607864621,-0.0970120103114779,0.0610271302256566,-0.1577809259768738,0.9016101775870504,-1.1178997468274612,2.7423863141078084,-0.3196010997262218,0.3156015369718649,-0.3207669102309632,2.362463962968388,-1.7057302093466835,1.1250748830204624,-1.1857178993516595,9.087969541440998,-1.0258454331717834,0.3229881300638685,-0.7799094230001135
0.18,0.9157961157731328,-1.1335768837594,2.7456556074649865,-0.0972037496396655,-0.0368913593806344,0.0401296322817878,-0.1341400970302314,0.0863200489233146,-0.1821985706376381,0.8956181555984863,-1.1119877160939844,2.73637097590915,-0.3596011003222683,0.3556015375679113,-0.3607669108270096,2.556583623911493,-1.8564043359376736,1.264645934882901,-1.220882233038216,9.088293199471993,-1.029967524167594,0.326882268696029,-0.7793054221843889
0.2,0.9127139761573828,-1.1315637188385523,2.741753317424508,-0.1050014557489181,-0.0369253399314074,0.0400955595644919,-0.1714526898003963,0.113158191104242,-0.2066791228233464,0.9090891109216211,-1.1292608813132343,2.7365456789331044,-0.2341400985203475,0.1863200504134308,-0.2821985721277543,2.6037534878867787,-1.8656296385082485,1.3419071090463677,-1.224027609285415,9.11412270583378,-1.031429343666684,0.328175450193197,-0.7840576772272361
0.22,0.9090656386083544,-1.128993513145498,2.737799372098719,-0.1060737246771281,-0.0314534495798809,0.0399298179944194,-0.2096942322300323,0.1534315001933821,-0.2078815506109807,0.9090891109216211,-1.1292608813132343,2.7365456789331044,-0.2341400985203475,0.1863200504134308,-0.2821985721277543,2.7774992461617063,-1.912077121481799,2.0136654544570054,-0.0601213893817134,9.124982171910233,-1.0345810053719855,0.3260095321841619,-0.7853556398943904
0.24,0.9045023456053876,-1.125570784570041,2.7336239785188146,-0.1007046951271591,-0.0206841730908966,0.0397036269045377,-0.2438290068672991,0.1854390403679511,-0.2096070533073757,0.9090891109216211,-1.1292608813132343,2.7365456789331044,-0.2341400985203475,0.1863200504134308,-0.2821985721277543,2.341283209651765,-1.70673873186334,1.6003770087284512,-0.0862751348197507,10.61215680483656,-1.0320956589024697,0.3219054472558288,-0.7904037704036901
0.26,0.8993210447815965,-1.1215890841693976,2.729373208048818,-0.0934745096311397,-0.007121852253024,0.0394015874487091,-0.2719683665526008,0.2107758571570585,-0.2152619139888468,0.9067477099364176,-1.1273976808091,2.733723693211827,-0.2541400988183707,0.206320050711454,-0.3021985724257775,1.914259189497612,-1.4069679842650853,1.266840839455366,-0.2827430340735556,10.311071577963048,-1.0261808630354727,0.3171272243811334,-0.7997855373233369
0.28,0.8939321379183751,-1.1173768410068032,2.725193527693153,-0.0866960622742499,0.0066820511336072,0.0391131865594745,-0.2934979054011353,0.2313575633880715,-0.2243990762659762,0.9020649079660108,-1.1236712798008317,2.728079721769272,-0.2941400994144172,0.2463200513075004,-0.3421985730218239,1.5577350616270345,-1.076476942426724,1.0290853115506524,-0.4568581138564676,10.005239847038863,-1.0174227006406902,0.3118846323966624,-0.8133180092547275
0.3,0.8878680868425408,-1.1125453763486937,2.72056938565826,-0.0803935440992047,0.020837285022399,0.0388748436873875,-0.3114292989463512,0.2507660115254538,-0.2377340059125433,0.8973821059956039,-1.1199448787925628,2.7224357503267167,-0.3341401000104637,0.2863200519035469,-0.3821985736178704,1.479901248608976,-0.8965696772607917,0.970422406869116,-0.6667464823283564,9.739806858511656,-1.007064360966405,0.3070802522704263,-0.8286269782571997
0.32,0.8814880552050363,-1.107340830036298,2.7156403669390405,-0.0751499374154513,0.0336483332832325,0.0387444505017022,-0.32546350915911,0.2688142358963614,-0.25468371263207,0.8906993039953947,-1.114218477754492,2.714791778854359,-0.3741401006065101,0.3263200524995933,-0.4221985742139168,1.4230161779794457,-0.7017105106379401,0.9024112185453764,-0.8474853359763335,9.32166126633456,-0.9959713729719468,0.3029694001368219,-0.8442700880656157
0.34,0.8748619804587564,-1.1017861693049182,2.7103462457093053,-0.0709630035967811,0.0444763654254758,0.0387401250832092,-0.336417107913375,0.2859467217477957,-0.2739247044161593,0.8840165019951853,-1.1084920767164208,2.707147807382002,-0.4141401012025566,0.3663200530956398,-0.4621985748099633,1.399749229285752,-0.5476799377132496,0.8566242925717144,-0.962049589204464,9.32166126633456,-0.9860356507104044,0.2995136913934461,-0.8582467527818476
0.36,0.868380973123308,-1.096189047666324,2.704943801821157,-0.0675805062597024,0.0528080357772626,0.0388627058242881,-0.3452454055709483,0.3023445063740698,-0.2938206370251687,0.8763336999800749,-1.1017656756634486,2.6985038358947437,-0.454140101798603,0.4063200536916863,-0.5021985754060098,1.3626025783061555,-0.4414148828786685,0.8198892313137057,-0.994796630450473,9.222265887872709,-0.9762631481344672,0.2963425745608786,-0.8716741624781721
0.38,0.8613891472540367,-1.08996507521887,2.6988327129634038,-0.0643329697120952,0.0597047294363548,0.039115542894076,-0.3534471732760428,0.319135866506236,-0.3163307409189562,0.8676508979500633,-1.0940392745955754,2.688859864392584,-0.4941401023946494,0.4463200542877327,-0.5421985760020561,1.4628085536781097,-0.4100883852547227,0.8395680066083128,-1.1255051946893715,9.149143760712832,-0.967516006769415,0.2933016752569464,-0.8837623835670222
0.4,0.8542416268037903,-1.0834097279575323,2.6922563247597617,-0.0612671817930423,0.0649133731510925,0.0394755001274416,-0.3609281379863459,0.3354735255121872,-0.3401971615508331,0.8437167885902346,-1.0740082818935583,2.683016175917456,-0.4534471747661589,0.4191358679963521,-0.4163307424090723,1.4937285300291507,-0.3740482355151536,0.8168829502975594,-1.193321031593847,9.0762030696078,-0.960791029228374,0.2905317993299361,-0.8932297759540552
0.42,0.8473495816353875,-1.076872748645332,2.685840198018552,-0.0586472978182422,0.0680571459371271,0.0399110072812821,-0.3643660949110104,0.3518621700062801,-0.3340012642078087,0.8437167885902346,-1.0740082818935583,2.683016175917456,-0.4534471747661589,0.4191358679963521,-0.4163307424090723,0.89274346826917,-0.1718978462332265,0.8194322247046443,0.3097948671512196,9.021328864770112,-0.9664872642800628,0.287710565158445,-0.8888590702149898
0.44,0.8400275578025995,-1.0696736055759166,2.6791866790372465,-0.0566807855386648,0.0691461308318578,0.0404411134959675,-0.3678023300856508,0.3673578316079369,-0.3320967747529606,0.8437167885902346,-1.0740082818935583,2.683016175917456,-0.4534471747661589,0.4191358679963521,-0.4163307424090723,0.7992970673224775,-0.1718117587320183,0.7747830800828415,0.0952244727424056,10.76745376758754,-0.9646884613064118,0.2879542097352617,-0.8889179773093598
0.46,0.8326297735777578,-1.0621662636108549,2.6725047453969824,-0.0556088929827959,0.0680647693184254,0.0410243234196434,-0.3719268066482122,0.3826316706026476,-0.3364342955145783,0.8391823168425729,-1.0698169232135948,2.678852868493365,-0.4734471750641821,0.4391358682943754,-0.4363307427070955,0.8202370860137425,-0.2062238281280715,0.7636919497355316,-0.2168760380808848,10.01851534375146,-0.9642117943868466,0.2884116026360996,-0.8881815151614711
0.48,0.825140695359266,-1.0543584679325324,2.6656797179724507,-0.0553255519114908,0.0649382975438297,0.0416583909451168,-0.3769377123495287,0.3974521297469629,-0.3458193815779784,0.8301133733472498,-1.061434205853668,2.670526253645184,-0.5134471756602286,0.4791358688904218,-0.4763307433031419,0.9121883380273418,-0.2505452850658257,0.7410229572157673,-0.4692543031700052,10.01851534375146,-0.965441028816796,0.2890465300118676,-0.8861125138658447
0.5,0.8179200499646738,-1.0466694530467386,2.658987940235798,-0.0558121134327771,0.0602487529032935,0.0422989364858087,-0.383161598040852,0.4112371935346434,-0.3580991486258273,0.8210444298519266,-1.0530514884937408,2.662199638797002,-0.553447176256275,0.5191358694864683,-0.5163307438991884,0.9741116664409109,-0.3111942845661658,0.6892531893840259,-0.6139883523924444,9.762253972819051,-0.9681818987636645,0.2900867682513777,-0.8825910709465562
0.52,0.8101645960751388,-1.03829540427418,2.651664074329616,-0.0571987150088647,0.054172043886903,0.042977829431051,-0.3923352148960634,0.4255086001292776,-0.3737616435641833,0.8099754863268012,-1.0426687711040117,2.6518730239190185,-0.5934471768523215,0.5591358700825148,-0.5563307444952349,1.1544934387964445,-0.4586808427605698,0.7135703297317109,-0.7831247469178015,9.57300522132391,-0.972151849206868,0.2915296893521877,-0.8779790029784317
0.54,0.8021980564871537,-1.029632658561355,2.6440143916139,-0.0594777298994041,0.0477747396913516,0.0436231490223801,-0.4040434246934884,0.4402576793498852,-0.390414624000219,0.7989065428016756,-1.032286053714282,2.6415464090410348,-0.633447177448368,0.5991358706785612,-0.5963307450912814,1.2569201167131332,-0.5854104898712492,0.7374539610303793,-0.8326490218017818,9.423845388298105,-0.9772435480116304,0.2933974472492524,-0.8720878579216318
0.56,0.7939682563299383,-1.0206501149463478,2.6360259298704167,-0.0618433600491575,0.0418548530753283,0.0442487819246105,-0.4184220414911241,0.4571505629090343,-0.4075845170892649,0.786837599261649,-1.0209033363096514,2.6302197941481498,-0.6734471780444143,0.6391358712746076,-0.6363307456873277,1.40260415357068,-0.7189308398817873,0.8446441779574515,-0.8584946544522992,9.387617881499864,-0.9826795531111264,0.2954863668113624,-0.8655968228664854
0.58,0.7858602787081742,-1.0117930354258282,2.628113425266033,-0.0634803765901143,0.0374015796704556,0.0448223238426829,-0.4343929902773244,0.4741208038451449,-0.4244377871619685,0.7737686557067212,-1.00852061889012,2.6178931792403635,-0.7134471786404608,0.679135871870654,-0.6763307462833742,1.437961225750335,-0.7985474393100128,0.8485120468055302,-0.8426635036351798,9.372161260935172,-0.9871199074484855,0.2970169411668442,-0.8603958209799903
0.6,0.7769760293850286,-1.002118375685908,2.6194293437665115,-0.064327541551723,0.0347671035412438,0.0453578158133557,-0.4532875252746449,0.4923603027955395,-0.4431198752692608,0.764140629194308,-0.988086995233571,2.6068915359079345,-0.5343929917674406,0.574120805335261,-0.5244377886520847,1.611445927401107,-0.9447267498660232,0.9119749475197336,-0.9341044053646108,9.353396908357354,-0.9898099275974376,0.297749717777626,-0.8574824427464933
0.62,0.7676766977842779,-0.99201876980926,2.610649383958824,-0.0627749737954791,0.0358845379831617,0.045813692859651,-0.4751600093519373,0.5163826561106619,-0.43234354557532,0.764140629194308,-0.988086995233571,2.6068915359079345,-0.5343929917674406,0.574120805335261,-0.5244377886520847,1.7114382111111195,-1.0936242038646238,1.2011176657561184,0.5388164846970356,9.312356064879625,-1.0004497338987537,0.2966878055077093,-0.8455103375155301
0.64,0.7584637525667844,-0.9820071329093264,2.6025128218940177,-0.0587414617717261,0.0405673463452144,0.0461963390354337,-0.493037272039021,0.5356397680736196,-0.4247586977005157,0.764140629194308,-0.988086995233571,2.6068915359079345,-0.5343929917674406,0.574120805335261,-0.5244377886520847,1.3674454281805937,-0.8938631343541809,0.9628555981478826,0.3792423937402173,11.210002820963382,-1.000106390512692,0.2955363762489421,-0.8439515142189387
0.66,0.7484362440760013,-0.9711174978310144,2.5940386276763188,-0.0539088503640758,0.0476816998225518,0.0465253849245615,-0.5083912749097411,0.5521738644926099,-0.4233487177740779,0.7587966992766336,-0.9823457871802184,2.6016471580214136,-0.5543929920654638,0.5941208056332842,-0.5444377889501079,1.1303868717606236,-0.767700143536007,0.8267048209495143,0.070498996321891,10.753877637774169,-0.9961478545146716,0.2933661722602971,-0.8478011971180431
0.68,0.7381354772127363,-0.9599200749490856,2.5855253030559737,-0.0493597446888439,0.0557792106581137,0.0468036507908034,-0.5206277134264107,0.5667193080589771,-0.4283090328481707,0.7481088394412848,-0.9708633710735132,2.591158402248372,-0.5943929926615102,0.6341208062293306,-0.5844377895461543,0.9822233474990304,-0.6118219258334778,0.7272721783183611,-0.2480157537046418,9.948660322248545,-0.98991010133799,0.2907871002765502,-0.8551942771232217
0.7000000000000001,0.7276197338750376,-0.9484469203691392,2.576850186397195,-0.0454036246767197,0.0639051573587002,0.047060366179455,-0.530150569305472,0.5799612207487984,-0.4389409700038463,0.737420979605936,-0.959380954966808,2.5806696464753305,-0.6343929932575567,0.6741208068253771,-0.6244377901422008,0.973487446581182,-0.476142793953066,0.6620956344910667,-0.531596857783781,9.948660322248545,-0.983151381169328,0.288375126276336,-0.863488325884111
0.72,0.7174753678392252,-0.9373108071240792,2.5683700312505118,-0.0422612041719943,0.0710410938321746,0.0473021577329447,-0.5371199311779299,0.5917089752801603,-0.4531866857648188,0.7247331197407848,-0.9458985388303004,2.5681808906724863,-0.6743929938536032,0.7141208074214236,-0.6644377907382473,0.9868157869896792,-0.3484680936228945,0.5873877265680949,-0.712285788048625,9.657317141385647,-0.9758898169791284,0.2859589360259377,-0.8726096294030717
0.74,0.70667314028593,-0.9253540139069374,2.5591268334719484,-0.0396271864012429,0.0775125306973334,0.0475614170424249,-0.5426649356994593,0.6034475074752198,-0.4704983479392131,0.7120452598756337,-0.9324161226937928,2.555692134869642,-0.7143929944496497,0.7541208080174701,-0.7044377913342937,1.0819356039970465,-0.2772502260764697,0.5869266097529746,-0.8655831087197113,9.429669254235703,-0.9690898193067308,0.2837105533678383,-0.8814315897208971
0.76,0.695770497762483,-0.913157170156068,2.549516720880371,-0.0373589864796931,0.0827802811479097,0.0478442335853242,-0.5473059625248398,0.6155774380725224,-0.4896534368071202,0.6983573999955814,-0.9179337065423842,2.542203379051897,-0.754392995045696,0.7941208086135164,-0.7444377919303401,1.1571427913471812,-0.2320513412690239,0.6064965298651304,-0.957754443395356,9.313821165759691,-0.9631228754376356,0.2817413757499342,-0.8891780349645289
0.78,0.6853330124325433,-0.9013463225067276,2.5400183037218085,-0.0352180614251268,0.086796739819764,0.0481465419045469,-0.5511374688609743,0.6269537241798866,-0.5092293073657119,0.683669540100628,-0.9024512903760744,2.527714623219251,-0.7943929956417425,0.8341208092095629,-0.7844377925263866,1.148167055056868,-0.1915753168067246,0.5688143053682093,-0.9787935279295862,9.167139731112002,-0.9575711768436346,0.2795482091068714,-0.8966024598754528
0.8,0.6742718964554304,-0.8886856822809022,2.5296033562299143,-0.0329275081065241,0.0901260106331019,0.0484939188797111,-0.5547588749733381,0.6384196894341302,-0.5313077343012602,0.6577761389894946,-0.8699986362977333,2.514556838353523,-0.6511374703510904,0.7269537256700027,-0.609229308855828,1.2570201643077683,-0.1810703056181917,0.5732982627121797,-1.1039213467774145,9.167139731112002,-0.9527040595839804,0.2772650534215963,-0.9032688433826228
0.8200000000000001,0.6631635359597636,-0.8757832195590121,2.519047533805207,-0.0303909855399978,0.0928253694488348,0.0488718217545086,-0.5557135977676169,0.6510976518098616,-0.5215474379512536,0.6577761389894946,-0.8699986362977333,2.514556838353523,-0.6511374703510904,0.7269537256700027,-0.609229308855828,0.8014137671239632,-0.0477361397139386,0.6338981187865689,0.4880148175003318,9.09285106493553,-0.9565826241095264,0.2739330331348505,-0.9022924839359664
0.84,0.6520499318243936,-0.8626511839050354,2.5086856079131423,-0.0280688789887133,0.0948677211536895,0.0492454966516041,-0.5556795603743137,0.6616381843116381,-0.5153212601184686,0.6577761389894946,-0.8699986362977333,2.514556838353523,-0.6511374703510904,0.7269537256700027,-0.609229308855828,0.6121055349582584,0.0017018696651605,0.5270266250888278,0.3113088916392503,11.067997038659996,-0.9544450638007962,0.2739741753576323,-0.9025564117469088
0.86,0.641493214237771,-0.8499854872959338,2.4988897816581512,-0.0263867033610509,0.0959117720644852,0.0495788135203735,-0.5556529495499141,0.6711550209971584,-0.5161173346568886,0.6512647642859837,-0.8627290990410333,2.5084645452649648,-0.6711374706491136,0.7469537259680259,-0.6292293091538512,0.4775055583591684,0.0013305412199793,0.475841834276014,-0.0398037269210005,10.219068807277836,-0.9522646840066336,0.2737868047456153,-0.9036083506247408
0.88,0.6303786008732853,-0.8364644052973739,2.488506980726635,-0.0252062084961743,0.0959834451810037,0.0499032466898872,-0.5559074041894434,0.6804771930103227,-0.5223575470748346,0.6382420148789619,-0.8481900245276333,2.496279959087848,-0.71113747124516,0.7869537265640724,-0.6692293097498977,0.5610434235148158,-0.0127227319764666,0.466108600658216,-0.3120106208973017,10.219068807277836,-0.9508340970360696,0.2735906577336369,-0.9044610163429158
0.9,0.6192549748237953,-0.8227629708752828,2.4779512684293765,-0.0248183561866189,0.0949511548496382,0.0501876156980436,-0.5565136809380022,0.6892458815995754,-0.5330711949991221,0.6252192654719401,-0.8336509500142332,2.484095372910732,-0.7511374718412065,0.8269537271601188,-0.7092293103459442,0.6928919881856127,-0.0303138374279421,0.4384344294626363,-0.5356823962143764,9.910051206456046,-0.95062341623723,0.2737898519449868,-0.9042268982073518
0.92,0.6081160031924221,-0.8088904512161955,2.467141744118905,-0.0253989943999897,0.0926631037715869,0.0504254283835604,-0.5574625764218715,0.697677985822406,-0.5473239240892678,0.6101965160351159,-0.8171118754710308,2.469910786703813,-0.791137472437253,0.8669537277561653,-0.7492293109419906,0.8293688425258515,-0.0474447741934613,0.4216052111415291,-0.7126364545072816,9.497069236813331,-0.9513653215332676,0.2744187374673676,-0.9032352126331
0.94,0.5975125590617757,-0.7955555559073383,2.456597567668945,-0.0269474260570173,0.0891861618283708,0.0506106327619903,-0.5587656371378752,0.7056894863445837,-0.5618650038927038,0.5951737665982918,-0.8005728009278285,2.4557262004968936,-0.8311374730332994,0.9069537283522118,-0.7892293115380371,0.8326540543592216,-0.0651530358001861,0.4005750261088847,-0.7270539901717998,9.497069236813331,-0.9536088602556946,0.2756441674068293,-0.9008459783810268
0.96,0.5863107002931,-0.7813409820738578,2.4451934643361395,-0.0293425847146338,0.0842214626268144,0.0507909103508556,-0.5616036673504865,0.7155073318071725,-0.5778037132157217,0.5791510171465666,-0.7830337263697249,2.440541614275073,-0.8711374736293458,0.946953728948258,-0.8292293121340835,0.9466875935315556,-0.1419015106305654,0.4908922731294396,-0.7969354661508943,9.444403319283085,-0.956711807029784,0.2776580727898968,-0.897106779733476
0.98,0.5750265787875252,-0.7669102621691367,2.433466405771012,-0.0316618423056975,0.0785362626301606,0.0510060776406682,-0.5668809615518705,0.7270084404234658,-0.5941062237173403,0.5621282676799402,-0.7644946517967203,2.4243570280383526,-0.9111374742253924,0.9869537295443046,-0.8692293127301299,1.0318638259808368,-0.2638647100692004,0.5750554308146638,-0.8151255250809342,9.392796662570618,-0.9611088868782356,0.2797170825957362,-0.8918133147578587
1.0,0.563612241842498,-0.7522395916312943,2.4214090649084965,-0.0333496730418426,0.0728932674223456,0.0512702720843006,-0.5743924348994277,0.7392926409706664,-0.6107949592343392,0.5466825307099317,-0.7305598401479634,2.4037610945851444,-0.6668809630419866,0.8270084419135819,-0.6941062252074565,1.102086326123373,-0.3755736673778598,0.6142100273600293,-0.8344367758499449,9.392796662570618,-0.9659474057381732,0.2812937729360739,-0.8860121635330929
1.02,0.5525772603265529,-0.7380244968565238,2.40994259670058,-0.0329587755427466,0.0697528910267258,0.0515832017183919,-0.586826040598145,0.7557788497939156,-0.5953245810151504,0.5466825307099317,-0.7305598401479634,2.4037610945851444,-0.6668809630419866,0.8270084419135819,-0.6941062252074565,1.2900796819186302,-0.621680284935866,0.8243104411624624,0.773518910959442,9.37278825903286,-0.9735772282277996,0.2785692495896328,-0.8820307296142157
1.04,0.540706182598521,-0.7227517916847158,2.3981640205351527,-0.0300763079475503,0.0707046624973361,0.0519312832289851,-0.5991129451896656,0.7703901433404916,-0.5837355797961064,0.5466825307099317,-0.7305598401479634,2.4037610945851444,-0.6668809630419866,0.8270084419135819,-0.6941062252074565,1.1166499818657896,-0.6143452295760299,0.7305646773287988,0.5794500609522024,11.437510569476215,-0.976626147311463,0.2789801320030741,-0.8755146692376232
1.06,0.5286178053901027,-0.7072193066800871,2.3865378631659087,-0.0260477938685808,0.0744438723849322,0.0522680838374674,-0.6087884703255659,0.7818596307903943,-0.5797577697781554,0.5400137210795118,-0.7222897557288276,2.39682003233307,-0.6868809633400098,0.8470084422116051,-0.7141062255054796,0.7761892513392363,-0.4837762567950154,0.5734743724951363,0.1988905008975472,10.934774323835882,-0.9752668950104268,0.2777059035488659,-0.8753415511734913
1.08,0.5163616734543205,-0.6914834543250037,2.3749124495116725,-0.0220885423129163,0.0796104483169908,0.0525646443746852,-0.616088225430986,0.7911721246988863,-0.5829453643246013,0.5266761018186721,-0.7057495868905559,2.382937907828921,-0.7268809639360563,0.8870084428076516,-0.7541062261015261,0.6127187902850247,-0.3649877552710012,0.465624695424599,-0.1593797273222952,10.45495200670848,-0.971731654734788,0.2759372777644964,-0.878514570240382
1.1,0.5046038394741845,-0.6763742398183399,2.363755579920673,-0.0188033703976232,0.0849200306565627,0.0528085742107692,-0.6210803673450466,0.798901571669651,-0.5912990747583549,0.5133384825578323,-0.6892094180522843,2.369055783324772,-0.7668809645321027,0.927008443403698,-0.7941062266975726,0.6213901941915955,-0.2496070957030305,0.386472348538236,-0.4176855216876773,10.062652201252604,-0.9668072147807746,0.2741257119555373,-0.8834570593248113
1.12,0.4921427838637335,-0.6603192340418852,2.351794712242747,-0.0159954721933931,0.0902510141299564,0.0530273346478266,-0.6246637541454703,0.8062855020123467,-0.6045569166801684,0.4980008632671903,-0.6706692491842103,2.35317365879082,-0.8068809651281492,0.9670084439997444,-0.834106227293619,0.7796368717086019,-0.1791693400211846,0.3691965171347844,-0.6628920960906781,9.508576354042816,-0.9613904706283668,0.2723628442832077,-0.8893508763477348
1.14,0.4796262224972509,-0.6441213935828285,2.3395379559283405,-0.0138884190686956,0.0948220276634541,0.053207652252964,-0.6268100807857353,0.8132833452463265,-0.6204535616656892,0.4826632439765482,-0.6521290803161364,2.337291534256869,-0.8468809657241957,1.007008444595791,-0.8741062278896655,0.8750426414891896,-0.1073163320132519,0.3498921616989892,-0.7948322492760396,9.508576354042816,-0.9564990583491289,0.2706898331998998,-0.8951714256970965
1.16,0.4677015164462726,-0.6285974415181013,2.3275836713285223,-0.0121840444943665,0.0983348863625346,0.0533645420175767,-0.628309808180505,0.8204077517956859,-0.6371032147450386,0.4663256246710049,-0.6325889114331612,2.320409409708016,-0.886880966320242,1.0470084451918371,-0.914106228485712,0.9085941043748124,-0.0749863697384833,0.3562203274679709,-0.8324826539674701,9.392487280978456,-0.9517285564543624,0.2689838106983094,-0.9009943481846576
1.18,0.4551225003888148,-0.6121115231243994,2.3146428666418,-0.0104306235475275,0.101237058193372,0.0535288455637093,-0.6295036906897008,0.8277407376174065,-0.6561767155120297,0.4489880053505606,-0.612048742535285,2.3025272851442624,-0.9268809669162884,1.0870084457878837,-0.9541062290817584,1.023470160795772,-0.0596941254597915,0.3666492910860297,-0.9536750383495552,9.31526896995183,-0.9475035696721414,0.2672156646147767,-0.9062748089821444
1.2,0.4425223524017359,-0.595481165893847,2.3013059085273064,-0.0086335637148576,0.1034121046657835,0.0536943189149778,-0.6304527042391831,0.8348394067890129,-0.6766236270465787,0.4236473158543298,-0.5707244862435291,2.2818340308661984,-0.722300746530193,0.9277407391075226,-0.7561767170021458,1.0832450346374662,-0.0474506774741145,0.3549334585803199,-1.0223455767274514,9.235747541218188,-0.9439455391887304,0.2653625505301446,-0.910948703018502
1.22,0.4299070422557225,-0.5786951932221479,2.2879059535703448,-0.0062599267277545,0.1060427482168038,0.0538862882571194,-0.6306830851194662,0.8429615688173411,-0.6623284827495304,0.4236473158543298,-0.5707244862435291,2.2818340308661984,-0.722300746530193,0.9277407391075226,-0.7561767170021458,0.8221522697132362,-0.0115190440141577,0.4061081014164081,0.7147572148524184,9.170356484042712,-0.9446145981569682,0.258371738530004,-0.9183814990087716
1.24,0.4179367392062897,-0.5626262426097811,2.2754054454422508,-0.0039775059606628,0.1093661760301516,0.0540576239205579,-0.6292288646830662,0.8482488242856675,-0.6543291631311802,0.4236473158543298,-0.5707244862435291,2.2818340308661984,-0.722300746530193,0.9277407391075226,-0.7561767170021458,0.4849199465414726,0.0727110218200044,0.2643627734163212,0.3999659809175104,11.251124624681324,-0.9419104971966018,0.2586090575608857,-0.9185477213035568
1.26,0.4053804486744792,-0.5456107463288997,2.26233849662684,-0.002167521334006,0.1128071179079936,0.0541896027318893,-0.6264302874521906,0.8531256446653862,-0.6531138503629268,0.4164243083890279,-0.5614470788524539,2.2742722636961767,-0.7408601576982915,0.947740739405546,-0.776176717300169,0.2876299560976491,0.1399288615437754,0.2438410189859352,0.0607656384126686,10.317749335788903,-0.9380384988692272,0.259051689110386,-0.9200868319728074
1.28,0.392889679542649,-0.5285035383884082,2.2492227977708064,-0.0011419141267812,0.1155274138984899,0.0542594981395937,-0.6228380373430965,0.8574667750659677,-0.658490533548321,0.401978293458424,-0.5428922640703034,2.259148729356134,-0.7779789800344884,0.9877407400015924,-0.8161767178962155,0.3894175011386887,0.179612505454707,0.2170565200290741,-0.2688341592697096,10.317749335788903,-0.9345967650697918,0.2594412354882888,-0.9219892822713252
1.3,0.3810939420099112,-0.5121759243774832,2.236617530573569,-0.0010867504332657,0.1171290335216415,0.0542533063702379,-0.6190961387378584,0.8611315357932714,-0.6681030625652916,0.3875322785278201,-0.524337449288153,2.244025195016091,-0.8150978023706853,1.0277407405976389,-0.856176718492262,0.5473412794189124,0.1870949302619051,0.1832380363651853,-0.4806264508485314,9.977767378519276,-0.9315699655722224,0.259989881934751,-0.9240499195957196
1.32,0.3687540168441689,-0.4949169140826649,2.22311523480938,-0.0022423903385715,0.1176471444148674,0.0541537867492266,-0.6151937594826268,0.8646924316787287,-0.681775988961476,0.3712303224804064,-0.5037826344762002,2.226901660646246,-0.8522166247068822,1.0677407411936852,-0.8961767190883084,0.732900845261832,0.1951189627615812,0.1780447942728635,-0.6836463198092169,9.531496921787948,-0.9292991666567566,0.2611339189799357,-0.9256527361746936
1.34,0.3564938570149548,-0.477585464984914,2.2093220537603644,-0.0048347189664283,0.1168245755487984,0.0539513075434421,-0.6111357709513118,0.8686027997386873,-0.6968397090980817,0.3549283664329927,-0.4832278196642474,2.2097781262764005,-0.8893354470430791,1.1077407417897318,-0.9361767196843548,0.8041671369165264,0.2028994265657502,0.1955184029979295,-0.7531860068302865,9.531496921787948,-0.9287184124561604,0.2628953018013471,-0.925959949295446
1.36,0.3443102899994106,-0.4601457438940045,2.195223221585763,-0.0080273665223901,0.1145586883246154,0.0537152795151858,-0.607541576909786,0.8752339066578317,-0.7122815960961193,0.337698439827174,-0.4616730048373934,2.191654591891654,-0.926454269379276,1.1477407423857782,-0.9761767202804011,0.8592753979973881,0.1797097020762861,0.331555345957224,-0.7720943499018806,9.474439672157132,-0.929532565694466,0.265381981556525,-0.9245747095643848
1.38,0.33279607952049,-0.4434390438029958,2.18154084312674,-0.0107191538241547,0.1110792032751728,0.0535314346010419,-0.6047762640711938,0.882911477220915,-0.7271843159347854,0.3195405426629505,-0.4391181899956383,2.1725310574920065,-0.9635730917154728,1.1877407429818243,-1.0161767208764476,0.84953384781917,0.1382656419296135,0.3838785281541634,-0.7451359919333045,9.455634602521968,-0.9319902909628895,0.2677372244533619,-0.9213980727998544
1.4,0.3207213747593467,-0.4256898084025822,2.166827441185727,-0.0129577693697795,0.1060966708582703,0.0534015729310372,-0.603087840404674,0.8915021870052313,-0.7433836197172115,0.3025572663169303,-0.3992934699419501,2.1451816273300004,-0.6647123069462453,0.9829114787110312,-0.8271843174249015,0.9206906539540514,0.0844211833259889,0.4295354892158154,-0.8099651891213033,9.405763209371798,-0.9356122937022854,0.2696630662121065,-0.9170229289955784
1.42,0.3085598349153043,-0.4077070194429537,2.152130550420788,-0.0126037482130585,0.1044513960638425,0.0534090000670663,-0.6124935865718648,0.905454101905276,-0.7254641578127056,0.3025572663169303,-0.3992934699419501,2.1451816273300004,-0.6647123069462453,0.9829114787110312,-0.8271843174249015,1.2290556387799847,-0.4702873083595404,0.697595745002233,0.8959730952252942,9.405763209371798,-0.934882114191154,0.2628898704858613,-0.9272194446417562
1.44,0.2968657278366071,-0.3903940522501943,2.138468295807938,-0.009395401748888,0.1086276605135273,0.0535386773786149,-0.6173480784018929,0.9158560033960462,-0.7136336587078529,0.3025572663169303,-0.3992934699419501,2.1451816273300004,-0.6647123069462453,0.9829114787110312,-0.8271843174249015,0.8242062160367051,-0.2427245915014031,0.5200950745385124,0.5915249552426338,11.600044571930994,-0.9360674925080388,0.2639579931430127,-0.9214202076570812
1.46,0.2845021929593721,-0.371997710081792,2.124252028078692,-0.0049035936273481,0.1162033845022102,0.0537347098317461,-0.6182922832865444,0.9230346680399234,-0.708978697305033,0.2959101432474678,-0.3894643551548398,2.136909784155751,-0.6766995155212556,1.0029114790090543,-0.8471843177229247,0.4303876583825171,-0.0472102442325761,0.3589332321938587,0.2327480701409923,11.032458306633998,-0.9312808989950228,0.2630899040325829,-0.9232250735939016
1.48,0.272153789801449,-0.3534818648607179,2.110049921470799,-0.0006018673124514,0.1253458488217405,0.0539345993064489,-0.6161501350909396,0.9282055481410464,-0.7117776884296744,0.2826158971085429,-0.3698061255806192,2.120366097807253,-0.7006739326712762,1.0429114796051009,-0.8871843183189712,0.3128943560850231,0.1071074097802382,0.2585440050561549,-0.1399495562320662,10.096951049821657,-0.9228743688103628,0.2611874024201465,-0.9300988357811252
1.5,0.2598738971504752,-0.3348754751479149,2.095720225651631,0.0030613649647596,0.1350940033132572,0.0541159194309059,-0.6116215530288758,0.9323125079146468,-0.7210541823840501,0.269321650969618,-0.3501478960063985,2.103822411458755,-0.7246483498212968,1.0829114802011472,-0.9271843189150176,0.5554919309953689,0.2264291031031928,0.2053479886800102,-0.4638246977187843,10.096951049821657,-0.9128543600638804,0.2589036131552397,-0.939552355159766
1.52,0.2483182805137773,-0.3171290171733616,2.08188833208453,0.0058637105673509,0.1442172957791295,0.054260041751212,-0.6048103205080738,0.935678726195428,-0.7344933840258383,0.2548286839731921,-0.3284896664023756,2.085278725080455,-0.7486227669713174,1.1229114807971936,-0.967184319511064,0.771907466499289,0.3405616260400979,0.1683109140390659,-0.6719600820894123,9.774745966660705,-0.9016630868511027,0.2564770200264398,-0.9504869791353556
1.54,0.2363226640143268,-0.2983829030778256,2.0670255238623407,0.0080906664695787,0.1529284978135672,0.0543687211466871,-0.594972097346523,0.9388820713058978,-0.7512080137973067,0.2403357169767661,-0.3068314367983527,2.0667350387021544,-0.772597184121338,1.1629114813932402,-1.0071843201071105,0.9828922922560034,0.4919111580775404,0.1601672555234912,-0.8357314885734213,9.5307494421495,-0.890669413052085,0.2540919628593852,-0.961540943802058
1.56,0.2245453872632001,-0.2795655269377059,2.051808905695027,0.0098955305197673,0.1601870954108605,0.0544411660629522,-0.5831864504575698,0.9426683382350028,-0.7697016327958754,0.2252433895515896,-0.2841732071794285,2.047191352308953,-0.7965716012713586,1.2029114819892863,-1.0471843207031568,1.1127120399206492,0.5892823444476614,0.1893133464552499,-0.924680949928436,9.414815803836063,-0.8808938429756409,0.2519848147570412,-0.9713011406703675
1.58,0.2130199849892794,-0.2606712008984649,2.0362063810320503,0.0116273119536114,0.1657184486639283,0.0544914345392005,-0.5700057915269311,0.9464899915547516,-0.7896399383732545,0.2095517016976627,-0.2605149775456033,2.0266476659008505,-0.8205460184213792,1.242911482585333,-1.0871843212992032,1.2102384405966435,0.6590329465319344,0.1910826659874409,-0.996915278868954,9.344890339123594,-0.8730561112013795,0.2499518494887138,-0.9790602300948024
1.6,0.202323468212852,-0.2426525825121014,2.0210036222403973,0.0132936346240758,0.1693136647442303,0.0545180789530099,-0.5567014556054237,0.9499279391680668,-0.8096612905932016,0.1845196954129328,-0.2133467013207273,1.9967243841133877,-0.6065758376239713,1.046489993044868,-0.8896399398633706,1.214165745295292,0.6652167960753685,0.1718973806657531,-1.0010676109973526,9.289226018443514,-0.8666864064998374,0.247799005457572,-0.9855034492476634
1.62,0.1913377696950073,-0.2236032628241984,2.004891134064501,0.0157704682349731,0.173199803573776,0.0545935289208615,-0.5420798189292462,0.9543681171821552,-0.7989671180993733,0.1845196954129328,-0.2133467013207273,1.9967243841133877,-0.6065758376239713,1.046489993044868,-0.8896399398633706,0.9325673772102048,0.7310818338088776,0.2220089007044179,0.5347086246914157,9.241652472891474,-0.8551302238370929,0.2380995490693419,-1.0050835946976255
1.64,0.1806684036506356,-0.2044979271184071,1.9889983516865155,0.0185439749881362,0.1785191396912656,0.0547107628374564,-0.5253724558884747,0.9559985762972388,-0.7913756392590605,0.1845196954129328,-0.2133467013207273,1.9967243841133877,-0.6065758376239713,1.046489993044868,-0.8896399398633706,0.9211744238810206,0.8353681520385736,0.0815229557541818,0.3795739420156374,11.271655977895534,-0.849531360405084,0.2383774053099642,-1.006686132016383
1.66,0.1703575530062442,-0.185370649212942,1.973173731262776,0.0207180159033607,0.1839139583623714,0.054787349012399,-0.5064792816557627,0.956832992752702,-0.7914578831967325,0.1784539370366931,-0.2028818013902786,1.9878279847147535,-0.6138898468433793,1.066489993342891,-0.9096399401613938,0.94558850388798,0.9446587116355988,0.0417208227731669,-0.0041121968835988,10.829635592884188,-0.841975857585462,0.2382038886259717,-1.0108003775368255
1.68,0.1609278656754036,-0.1671885799901436,1.958082931184037,0.0220512687148411,0.188076221259266,0.0547857509389338,-0.4871320311468874,0.95716908297324,-0.797036033470612,0.1663224202842136,-0.1819520015293812,1.9700351859174865,-0.6285178652821953,1.1064899939389377,-0.9496399407574404,1.006907169712655,0.9673625254437656,0.0168045110269021,-0.2789075136939767,10.416635310280071,-0.8358715291592553,0.2382286761111651,-1.014163939141873
1.7,0.151406159116862,-0.1480475541836457,1.942039871015658,0.0224354757736468,0.1908644878252724,0.0546701215540745,-0.4661635830119364,0.9570102555049768,-0.8071545054433442,0.1541909035317342,-0.1610222016684839,1.952242387120219,-0.6431458837210114,1.146489994534984,-0.9896399413534868,1.1641354285646632,1.0484224067475512,-0.0079413734131672,-0.5059235986366095,10.108275122313898,-0.8311655455892663,0.2386630239777525,-1.0168044366450588
1.72,0.1423091626461286,-0.1289143075396863,1.925756527959383,0.0214235702517518,0.1916318932166644,0.0544023773104276,-0.4447657549830365,0.9565180604000664,-0.8206410677010522,0.141327985857314,-0.1380924017777842,1.9324495882931492,-0.6577739021598276,1.1864899951310304,-1.0296399419495332,1.2649077653199674,1.0698914014449916,-0.0246097552455193,-0.6743281128853973,9.87730572147848,-0.8285107833824789,0.2399004896676527,-1.0180782657081169
1.74,0.1336467255916418,-0.1097905293373135,1.9091942906130048,0.0187888945686977,0.1899629512523524,0.0539650219030765,-0.4227219186416453,0.9562191424727224,-0.8348750600131426,0.1284650681828938,-0.1151626018870845,1.9126567894660795,-0.6724019205986436,1.226489995727077,-1.0696399425455796,1.3120848007217158,1.1021918170695617,-0.0149458963672022,-0.7116996156045219,9.71605102729609,-0.8282279218886751,0.2420262079361711,-1.01771606740717
1.76,0.1258278831580011,-0.0916017063795733,1.893198038494654,0.0154362764713377,0.185620608851068,0.0534469525737427,-0.4017954028840908,0.9585473728368336,-0.8481777361530342,0.1152364500475031,-0.0912328019814837,1.8918639906241088,-0.6870299390374597,1.266489996323123,-1.109639943141626,1.2452920449259952,1.0463257878777248,0.1164115182055669,-0.6651338069945778,9.685977953705333,-0.8304612528044506,0.2455249863886554,-1.014539030658665
1.78,0.1180030500713429,-0.0723902230576789,1.8760899418971744,0.0120173653904038,0.178397796486062,0.0528904621159673,-0.3822409235909423,0.96247523361168,-0.8618752496419814,0.1016421314511421,-0.0663030020609817,1.8700711917672368,-0.7016579574762757,1.3064899969191697,-1.1496399437376723,1.209780585966561,0.9777239646574232,0.1963930387423096,-0.6848756744473605,9.693046316237089,-0.8354307003605362,0.2492878335836199,-1.0086313450322983
1.8,0.1105401795878952,-0.0530897216460617,1.858712329422829,0.0090806405215819,0.1692544615966285,0.0523735719732502,-0.3654870287915329,0.967264291647599,-0.8751393130297185,0.0988910038917958,-0.0242664613770949,1.832996179415075,-0.4027778734490118,1.0285741248103148,-0.9618752511320976,1.094946854161182,0.837694739970471,0.2394529017959556,-0.6632031693868556,9.687502065846274,-0.8424441838058746,0.25245313539902,-1.0011273041866642
1.82,0.1036784339310908,-0.03448460452691,1.842266310768757,0.0127418418535251,0.1625353638492267,0.0523549410194012,-0.3573311754416987,0.987510193702918,-0.8553710895867561,0.0988910038917958,-0.0242664613770949,1.832996179415075,-0.4027778734490118,1.0285741248103148,-0.9618752511320976,1.4724105677327717,0.4077926674917104,1.0122951027659477,0.988411172148118,9.687502065846274,-0.8366438351268868,0.2420880339303529,-1.0156339514693793
1.84,0.0966189366260191,-0.0146380425811992,1.8253292659444245,0.0234643661197016,0.1607577634412462,0.0528322644193088,-0.3484812385504179,0.994861897813645,-0.8398516214704633,0.0988910038917958,-0.0242664613770949,1.832996179415075,-0.4027778734490118,1.0285741248103148,-0.9618752511320976,0.9659487912461534,0.4424968445640387,0.3675852055363526,0.7759734058146395,11.889146248106044,-0.8422468433933891,0.237961212483053,-1.0054129584373557
1.86,0.0897638992716401,0.0052639219996764,1.8086073198397536,0.0356773437752721,0.1624112033608226,0.0534647074022117,-0.3371882289804056,0.9945909777573364,-0.8335222338383703,0.0948632251573057,-0.0139807201289917,1.8233774269037544,-0.4068852634206256,1.0417939030500418,-0.9818752514301208,0.6474307117804045,0.5646504785006168,-0.0135460028154343,0.3164693816046504,11.29746631994567,-0.8440285085394184,0.2316844965462169,-1.0005227847416902
1.88,0.0834797213013468,0.0241212937564849,1.7927537929807904,0.0467237231471746,0.165408613966909,0.0540789498046507,-0.3247159324765508,0.9904066421313652,-0.8355692608297909,0.0868076676883254,0.0065907623672145,1.804139921881112,-0.4151000433638534,1.068233459529496,-1.0218752520261671,0.6656898005348371,0.6236148251927393,-0.2092167812985601,-0.1023513495710282,10.713127065157096,-0.8427316858404215,0.2232528080066,-1.0009055372271063
1.9,0.0771362437363138,0.0438576316175616,1.775961873550406,0.0570549949709496,0.1688580236857841,0.0546600897137374,-0.3102183076303306,0.9834927267834874,-0.8437883640065678,0.0787521102193452,0.0271622448634208,1.7849024168584702,-0.4233148233070812,1.09467301600895,-1.0618752526222135,0.902132208506415,0.7248812423110124,-0.3456957673938832,-0.4109551588388438,10.25632329700602,-0.8392833496153506,0.2145718764834099,-1.0044627104346495
1.92,0.0710941126793506,0.0634357353888469,1.7589516471615083,0.0658224846758334,0.1718237378694725,0.0551113237533482,-0.2947255327224343,0.9747863528543814,-0.8570149131309854,0.0702858137532036,0.0490557051835998,1.763664911806026,-0.431529603250309,1.121112572488404,-1.10187525321826,1.107664912192302,0.774638745394815,-0.4353186964553002,-0.6613274562208837,9.9215208292635,-0.8350193179747952,0.2061532689751015,-1.0095704248507935
1.94,0.0653719077031904,0.0828227305970663,1.7416463131797912,0.0729299958908368,0.1737759047500923,0.0553760355137695,-0.2783798529280987,0.964633632891218,-0.8728306542389082,0.0618195172870619,0.0709491655037788,1.7424274067535817,-0.4397443831935367,1.147552128967858,-1.1418752538143064,1.2453881296429294,0.81728398971678,-0.5076359981581735,-0.790787055396136,9.67305742017561,-0.830549012879445,0.1983127724511861,-1.0157050725100474
1.96,0.060243344111359,0.1010471587038997,1.7249005181151034,0.0783840197554772,0.1744577665232503,0.0554378752368953,-0.2624169372608422,0.9544017500674165,-0.8890816337457716,0.0531478513223396,0.0935036147359442,1.720189901686236,-0.4479591631367645,1.173991685447312,-1.1818752544103528,1.2485996532640518,0.7981457833628247,-0.5115941411900748,-0.8125489753431747,9.57073898269482,-0.8265157845867749,0.1907652084814982,-1.0218059431376594
1.98,0.0551738618856211,0.120015008385983,1.7069277787547477,0.0830215947087912,0.1737944637637266,0.0552951171548754,-0.2454265746151793,0.9430199562788492,-0.9073819793490524,0.0442708158590366,0.1167190528800958,1.6969523966039897,-0.4561739430799922,1.2004312419267662,-1.2218752550063992,1.3721518701260098,0.8495181322831432,-0.5690896894283648,-0.9150172801640376,9.516131871747348,-0.8240127713532711,0.1840271693175644,-1.0266388905360668
2.0,0.0504480980602827,0.1387479721308905,1.6885788606311778,0.086631617869994,0.1713751455456549,0.0549057489779385,-0.2280756148516265,0.9309650420562812,-0.9266117199686554,0.0429025331548621,0.1671660061999255,1.661558679787295,-0.2625636140679706,0.9155198949605708,-0.9777751765874976,1.4284254320116896,0.8675479881776388,-0.6027457111284051,-0.9614870309801516,9.458495539498472,-0.8232648192196227,0.1779250848465781,-1.030169317915812
2.02,0.0461020715612238,0.1573697098493263,1.670237159597759,0.0948226910084695,0.1677086554345324,0.0546858699539137,-0.2074318078888057,0.9280974478928442,-0.9068467124186655,0.0429025331548621,0.1671660061999255,1.661558679787295,-0.2625636140679706,0.9155198949605708,-0.9777751765874976,1.4361801642338812,1.0321903481410404,-0.1433797081718424,0.9882503774994944,9.418656505784384,-0.8113138698750421,0.1574680766822584,-1.0540788880669647
2.04,0.0423503550431343,0.17486760191126,1.6531321561265422,0.1059381181915615,0.1637534440055857,0.0545893653397696,-0.1886546079006895,0.9135383110088594,-0.8947949490421387,0.0429025331548621,0.1671660061999255,1.661558679787295,-0.2625636140679706,0.9155198949605708,-0.9777751765874976,1.3321005092373015,0.9388599994058112,-0.7279568441992401,0.6025881688263401,11.789785694862983,-0.816399984292701,0.1500298146432651,-1.0469036441333477
2.06,0.0387783673773627,0.1929404434545241,1.6353073187882297,0.1176965385268202,0.1585622114621378,0.0542836273413889,-0.1697385233388578,0.8942077853742822,-0.8886030972248574,0.0402768970141824,0.1763212051495312,1.65178092802142,-0.2659910219585288,0.9100198826969152,-0.9918538160351869,1.3872873759486375,0.945804228091586,-0.9665262817288578,0.3095925908640662,10.8347444492465,-0.8212111806773977,0.1399846972045979,-1.0425650930651205
2.08,0.035566381948748,0.2106009306094162,1.6175491241959103,0.1289335853893529,0.1519365108898733,0.0536569114997144,-0.1527758843257627,0.8725333736576119,-0.8877271605841897,0.035025624732823,0.1946316030487426,1.63222542448967,-0.2728458377396453,0.8990198581696038,-1.020011094930565,1.376842865535842,0.8481319506547554,-1.0837205858335195,0.0437968320333881,10.8347444492465,-0.8261523110642204,0.1296039917485024,-1.0392737900424802
2.1,0.0326681356476689,0.2278068748019549,1.5997621723614792,0.1395797920471063,0.1440301465920902,0.0526957966727637,-0.1382867433181766,0.8488607471839139,-0.8909945498888598,0.0297743524514636,0.212942000947954,1.61266992095792,-0.2797006535207618,0.8880198336422925,-1.048168373825943,1.3973226937336365,0.7244570503793041,-1.1836313236848972,-0.1633694652335093,10.535726919761146,-0.8318773501017642,0.1176734114810977,-1.0367050091241152
2.12,0.0301582864267484,0.2436954654100211,1.582775925330384,0.1491673219162557,0.1356233150067292,0.0514955924479482,-0.1269590842122176,0.824573756816377,-0.8968713578202335,0.0241803393810483,0.2307023976207999,1.5917065534814012,-0.2865554693018782,0.8770198091149812,-1.0763256527213212,1.371778620437625,0.5663829552979477,-1.214349518376845,-0.2938403965686842,10.31957177793356,-0.8379891896591337,0.1048170564283891,-1.035003176061864
2.14,0.0277227181755339,0.2599003281156147,1.5647652648189516,0.1587420338379278,0.1261818183984364,0.0499730605570857,-0.1175203401987718,0.7969393011434317,-0.9039283054513472,0.0185863263106331,0.2484627942936458,1.5707431860048824,-0.2934102850829947,0.8660197845876699,-1.1044829316166993,1.5021264417148943,0.4719372006722927,-1.3817227836472656,-0.352847381555682,10.161620517337724,-0.8440450356289242,0.0907886350445249,-1.0347049266742672
2.16,0.025449256322073,0.2755305961261475,1.5466074102484155,0.1678242299869476,0.116485578763012,0.048239528589366,-0.1106079670413004,0.767228647218335,-0.9115294997888342,0.0128209428456899,0.2659481903533088,1.549075886555979,-0.3002651008641112,0.8550197600603585,-1.1326402105120774,1.5718476506020256,0.3456186578735677,-1.4855326962548376,-0.3800597168743536,10.126695635804026,-0.8500143362466347,0.0770980444565191,-1.0347733310988636
2.18,0.0232874162712337,0.2905457422834251,1.5282914213876788,0.1764500208461561,0.1068733063295197,0.0463575518079869,-0.1061887838919862,0.7355433128287625,-0.919725203765454,0.0068841889862189,0.2831585857997891,1.5267046551346912,-0.3071199166452277,0.8440197355330472,-1.1607974894074555,1.6512564600619926,0.2209591574657124,-1.584266719478622,-0.4097851988309864,10.11144502213483,-0.8561753317053288,0.0622709213661033,-1.0355099677187114
2.2,0.0212930793799083,0.3041931243394558,1.5107307739259022,0.1838509343613679,0.0980832023543369,0.044462380833089,-0.1041646032302471,0.7026983782977788,-0.928344396957446,0.0179779770766344,0.3273229079248633,1.482305161199406,-0.1208483739798172,0.6355433113386464,-0.9353516231010576,1.700865605343972,0.1012090330869547,-1.642246726549185,-0.4309596595996057,10.093622648165365,-0.8617428904262873,0.0471973444538497,-1.0374746113980813
2.22,0.0191920186873371,0.3178425976494868,1.492311812389668,0.1913557169035676,0.0908806205293604,0.0427305879591517,-0.1061649022788371,0.6633254006540296,-0.911908683430416,0.0179779770766344,0.3273229079248633,1.482305161199406,-0.1208483739798172,0.6355433113386464,-0.9353516231010576,2.1356294411493564,-0.1000149524295002,-1.9686488821874624,0.8217856763514997,10.074602002823667,-0.8588283131242432,0.0234122314915281,-1.0546948973961627
2.24,0.017033952884311,0.3306728718008861,1.474240606620072,0.1988551593154276,0.0875272410454004,0.0416656531344703,-0.1094288475869302,0.6215070088406185,-0.8963949926851122,0.0179779770766344,0.3273229079248633,1.482305161199406,-0.1208483739798172,0.6355433113386464,-0.9353516231010576,2.2361271393723987,-0.1631972654046569,-2.0909195906705533,0.7756845372651922,11.6297164317848,-0.8611723977726261,0.0116979225333246,-1.0561064085448777
2.26,0.0148223949727196,0.3426516789926285,1.4564489020840954,0.2060814971703724,0.0872574186857311,0.0411553174724196,-0.1112549800849476,0.5782706232492855,-0.8835916897145875,0.0167694933368363,0.3336783410382498,1.4729516449683957,-0.1237802919973834,0.6155433110406232,-0.9384769069681784,2.256459818974069,-0.0913066249008713,-2.161819279566651,0.6401651485262394,11.6297164317848,-0.8601301461808466,-0.000190201915861,-1.0609288904892
2.28,0.0127067536120756,0.3532176407489302,1.4397664107433068,0.2126455843916052,0.0886491110382068,0.0409694249536771,-0.111184762134769,0.5359389888191668,-0.873148627224186,0.0143525258572399,0.3463892072650227,1.4542446125063742,-0.1296441280325158,0.5755433104445767,-0.94472747470242,2.180039998637735,0.0035108975089327,-2.1165817215059333,0.522153124520075,11.482246894564923,-0.8569814991099683,-0.0127709252986408,-1.067821502383921
2.3000000000000003,0.010499478186629,0.3634568700319786,1.4224074304501295,0.2192304377409741,0.0909152928809427,0.0409085502596489,-0.109409729080184,0.4900448453864278,-0.8633908696805737,0.0119355583776436,0.3591000734917956,1.435537580044353,-0.1355079640676482,0.5355433098485303,-0.9509780424366614,2.34767809550714,0.0887516527292485,-2.2947071716369503,0.487887877180615,11.336313209570108,-0.8530243573451846,-0.024765747854295,-1.0749044180286125
2.32,0.0083443999837802,0.3727581167597978,1.4052308915532497,0.2252816904711231,0.0933172132329935,0.0408271437856131,-0.1061367484052347,0.4423511616364063,-0.8547770215441683,0.0092253990962906,0.3698109396887662,1.4165180191956197,-0.1413718001027806,0.4955433092524838,-0.9572286101709028,2.4287848051354315,0.1636490337474636,-2.384684187501071,0.4306924068202655,11.336313209570108,-0.8488934997691261,-0.0357160115835067,-1.0814503878134532
2.34,0.0062696568968063,0.3810602847802378,1.3882231915150822,0.2297166608965679,0.0953945783866952,0.0405414461796716,-0.1015252861557035,0.3909003476884322,-0.8463012029447546,0.0065152398149376,0.3805218058857368,1.3974984583468866,-0.147235636137913,0.4555433086564373,-0.9634791779051444,2.617389606515466,0.2305731124765633,-2.572540697398709,0.4237909299706854,11.303261403662871,-0.8450558466530362,-0.0451379246215935,-1.0879433679738393
2.36,0.0043933887145933,0.3879646844829596,1.3722256751379844,0.231311672132926,0.0968187301373669,0.039938142505284,-0.0962727831033906,0.3392454133092971,-0.83790925633922,0.0036584846327063,0.3902326720678063,1.378322633304797,-0.1530994721730454,0.4155433080603909,-0.969729745639386,2.6297555978918714,0.262625152615642,-2.582746718956755,0.419597330276733,11.363321539203753,-0.841395109834241,-0.05258052712849,-1.0947100596340846
2.38,0.0025317053406437,0.3941561725089004,1.355565059306578,0.2293011049265107,0.0976207504149402,0.0388583244045616,-0.0902275595836245,0.2831001632168806,-0.82844070415024,0.0006551335495968,0.3989435382349746,1.358990544069352,-0.1589633082081779,0.3755433074643445,-0.9759803133736272,2.862903821253589,0.3022611759883067,-2.807262504620822,0.4734276094490008,11.441813559203185,-0.8384473627028831,-0.0562224742757845,-1.1011452408440707
2.4,0.0007938517834144,0.3992300162148372,1.3391071302301067,0.2229773761994274,0.0976428754855176,0.0372794928510522,-0.0839635112995525,0.2284454894920575,-0.8174655517107746,-0.0019796726385375,0.4083111806697444,1.314143024099066,-0.1116691254101597,0.1831001617267645,-0.8051494236570997,2.8048287077563034,0.3132024142035984,-2.7327336862411564,0.548757621973267,11.523779360732988,-0.8367883638821141,-0.0551914029938012,-1.106348445239164
2.42,-0.0007959061958254,0.4032669356879526,1.3229854524597189,0.2149167424421805,0.0963425620402562,0.0352851887267081,-0.0754826742039347,0.1783159257037363,-0.7951841590637317,-0.0019796726385375,0.4083111806697444,1.314143024099066,-0.1116691254101597,0.1831001617267645,-0.8051494236570997,2.7754991540898843,0.4240418547808912,-2.506478189416059,1.1140696323521435,11.593889367696647,-0.8395095716766046,-0.0509679362589501,-1.1074089523000086
2.44,-0.0021479460610831,0.4061801189717611,1.3080960964155977,0.206558768451878,0.093269867652895,0.032966174245471,-0.067443132019522,0.1315233156729817,-0.7730982523180594,-0.0019796726385375,0.4083111806697444,1.314143024099066,-0.1116691254101597,0.1831001617267645,-0.8051494236570997,2.6181911068540065,0.4019771092206365,-2.33963050153773,1.1042953372836173,12.282304055504028,-0.8429301925602001,-0.0447542128722624,-1.1068235301705562
2.46,-0.0034148728383473,0.4083077035200804,1.2928851576743583,0.1968349256538129,0.0878745247390955,0.0300637152853976,-0.0600778803846504,0.0843247356746812,-0.7489956831731875,-0.0030963638926391,0.410142182287012,1.3060915298624949,-0.1159574385754668,0.1631001614287413,-0.8004911675584717,2.675297518447377,0.3682625817435759,-2.3599289999150246,1.2051284572435927,12.303571686751638,-0.849015543301337,-0.0370866280386739,-1.1037315982382156
2.48,-0.004565342161508,0.4095159054707388,1.2781626860054616,0.1862061745217917,0.080719400423399,0.0268361738874982,-0.0557593188141268,0.0395126982492284,-0.7243126819578629,-0.0053297464008423,0.4138041855215473,1.289988541389353,-0.1245340649060809,0.1231001608326948,-0.7911746553612156,2.5671088900036487,0.2159280785261813,-2.240601871272642,1.2341500607662317,12.303571686751638,-0.8572809216912515,-0.0285681599814226,-1.098403381765508
2.5,-0.0056101669365403,0.4098600493979825,1.2646369041176226,0.1753902649973363,0.0730494624335447,0.0236637903164418,-0.0547639100415546,-0.0003839920129712,-0.7005467150679615,-0.0075631289090455,0.4174661887560826,1.273885552916211,-0.133110691236695,0.0831001602366484,-0.7818581431639595,2.322476003489756,0.0497704386286101,-1.994834513109982,1.18829834449507,12.298461564304487,-0.8676182776683806,-0.018519760010163,-1.090968243128227
2.52,-0.0067233514633426,0.4094404330532238,1.2508909355485214,0.163662444249899,0.0647389696738183,0.0203895374182144,-0.0569230940808403,-0.0389530093709946,-0.6752139214339419,-0.0102253427337794,0.4191281919608156,1.2582483900529318,-0.1416873175673091,0.0431001596406019,-0.7725416309667035,2.309751939593755,-0.1079592019642857,-1.928450867901172,1.2666396817009815,12.276804198560969,-0.8788514026801637,-0.0077866058141183,-1.0821574030370424
2.54,-0.0079130554139315,0.4082838040575236,1.2376532363156114,0.1518922767056036,0.0567666292553295,0.0173069212363526,-0.0621881886513323,-0.0743085013874855,-0.6497489121073807,-0.0128875565585133,0.4207901951655486,1.2426112271896526,-0.1502639438979232,0.0031001590445554,-0.7632251187694473,2.1944240340954027,-0.2632547285245978,-1.767774600824541,1.2732504663280575,12.249772101245073,-0.8912202462443306,0.0036553466695133,-1.0712237685205424
2.56,-0.0092393245554429,0.4064475525537995,1.2249227105273723,0.1400717723253538,0.0496594485971708,0.0144870010752922,-0.070359921792888,-0.1070129450918889,-0.6245094525031382,-0.0157641860415125,0.4214521983553804,1.2272069771313048,-0.1588405702285372,-0.0368998415514909,-0.7539086065721913,2.105580787850162,-0.4085866570777832,-1.6352221852201705,1.2619729802121282,12.2190043134824,-0.9026603744621928,0.0147683022322346,-1.0603888214053323
2.58,-0.0106785821856785,0.4041269024354761,1.2132920358339083,0.1287818324649794,0.044250612946691,0.0121067694083416,-0.0808518039952124,-0.1351480578010851,-0.6009502811529496,-0.0188552311827771,0.421114201530311,1.2120356398778884,-0.1674171965591513,-0.0768998421475373,-0.7445920943749351,1.9083361299926795,-0.5245941101162235,-1.406755635459811,1.1779585675094295,12.172866951097603,-0.9132194961504072,0.0264860451121274,-1.0498158409090228
2.6,-0.0124359488967597,0.4011428179286159,1.2015293163349186,0.1170984950393646,0.0407026202254402,0.0099906721643626,-0.0944865760283841,-0.1613805600273602,-0.5765425745280925,-0.0147211723854391,0.3973694995454219,1.1832445217762608,-0.0973301711450423,-0.2351480592912012,-0.5009502796628335,1.916890270811802,-0.6817386016585831,-1.311625111313755,1.2203853312428514,12.123572484115355,-0.9216781383448942,0.0380372148488575,-1.0406093976463748
2.62,-0.0144939895556967,0.3977261318175137,1.190365988475068,0.1081142814450207,0.0404601234489894,0.008516339905656,-0.110224475144089,-0.1799373922671103,-0.5405516739464065,-0.0147211723854391,0.3973694995454219,1.1832445217762608,-0.0973301711450423,-0.2351480592912012,-0.5009502796628335,2.1722007365982225,-0.7868949557852452,-0.9278416119875038,1.799545029084304,12.08011477256423,-0.9323452171525056,0.0480362025445424,-1.0274579302756075
2.64,-0.016848331522277,0.3939079564493493,1.1799434518504643,0.1018573724450354,0.0434088430189472,0.0076056824220111,-0.123998866594959,-0.2010545501074493,-0.5035296878003489,-0.0147211723854391,0.3973694995454219,1.1832445217762608,-0.0973301711450423,-0.2351480592912012,-0.5009502796628335,2.239584600598104,-0.6887195725434981,-1.0558578920169497,1.851099307302878,12.90681573177426,-0.9365446505643554,0.055436229751941,-1.0200590377106715
