t,x,y,z,roll,pitch,yaw,v_x,v_y,v_z,ref_x,ref_y,ref_z,ref_v_x,ref_v_y,ref_v_z,a_com,a_x,a_y,a_z,thrust,wind_x,wind_y,wind_z
0.0,0.4475884759206384,1.159956383337239,2.6897038767811825,0.0313714171424641,0.0997418850140874,0.0421679606933337,0.0006586827999333,-0.0065695401994135,-0.0007677072120343,0.4476010204616861,1.159857521174514,2.6896834276868504,-0.0995179730453205,-0.1041657366884759,-0.1007047753745766,0.3323480698982938,0.0329341399966697,-0.3284770099706781,-0.0383853606017187,10.259772840464391,-0.9395819152958496,0.2501889967631461,-0.882965437582862
0.02,0.4477618261695965,1.1600801577505764,2.689599611133928,0.0376812891029144,0.093872661888358,0.0423901831254235,0.0162274606467133,0.0151627039135928,-0.0102175209288154,0.4476010204616861,1.159857521174514,2.6896834276868504,-0.0995179730453205,-0.1041657366884759,-0.1007047753745766,1.4177237540433916,0.7784388923389988,1.086612205650322,-0.4724906858390562,10.260720779987423,-0.9525979208155048,0.2498494055133671,-0.8653248641244586
0.04,0.4482037346958374,1.1604173102658095,2.689210273904392,0.0514744391736087,0.0773616554889049,0.0425545061033351,0.0255835652046378,0.0165460205469512,-0.0281508699396298,0.4476010204616861,1.159857521174514,2.6896834276868504,-0.0995179730453205,-0.1041657366884759,-0.1007047753745766,1.0137248938329062,0.4678052278962215,0.0691658316679199,-0.8966674505407154,9.671050836980156,-0.9556879500619542,0.2397752280834018,-0.8626364360476171
0.06,0.4486903130565302,1.1606831257441994,2.688487475726991,0.0651420371777368,0.0559681990303527,0.0421472564617409,0.0242511855316302,0.0110304330308042,-0.0470210763031426,0.4466058407312329,1.1588158638076294,2.6886763799331046,-0.1195179733433437,-0.1241657369864991,-0.1207047756725998,0.985243154559929,-0.0666189836503794,-0.2757793758073495,-0.9435103181756408,9.207732700849649,-0.9659565889920732,0.2253576893027413,-0.8565285323109507
0.08,0.4490748324155865,1.1608091327392631,2.687330300778949,0.0790294126610007,0.0312726717713598,0.0411515255587802,0.0134577999870137,0.0015054422998763,-0.0677810137920025,0.4446154812703265,1.1567325490738598,2.6866622844256134,-0.1595179739393902,-0.1641657375825456,-0.1607047762686463,1.263128679589268,-0.5396692772308255,-0.4762495365463963,-1.0379968744429962,9.10274564500196,-0.9806190088365448,0.2087953119014843,-0.848595725635109
0.1,0.4491476972007068,1.1607113281396149,2.6857502224731453,0.0922750195466605,0.0072777582270681,0.0397689743132256,-0.0061576798961245,-0.0111326808337992,-0.089274428706576,0.4426251218094201,1.1546492343400905,2.6846481889181217,-0.1995179745354366,-0.204165738178592,-0.2007047768646927,1.586234607551607,-0.9807739941569126,-0.6319061566837825,-1.0746707457286755,9.071306292689314,-0.9963286815422798,0.1907201816113213,-0.8416249416470423
0.12,0.4487492437118227,1.1603304357092663,2.683733474339916,0.104895822383639,-0.0137287499997669,0.038263661279634,-0.0327897226282513,-0.0266189801999126,-0.1114031115141476,0.4386347623187113,1.1505659195765183,2.680634093380828,-0.2395179751314831,-0.2441657387746384,-0.2407047774607392,1.8965559383661916,-1.3316021366063395,-0.7743149683056673,-1.106434140378581,9.083682323972424,-1.0111438196975084,0.173104489532052,-0.8359804015007392
0.14,0.4478289404806027,1.1596566114641331,2.681400601868001,0.1163273719620775,-0.0298195488720152,0.0369301858214364,-0.0626439659807245,-0.0437758740561299,-0.1331081844901747,0.4346444028280026,1.1464826048129466,2.676619997843534,-0.2795179757275295,-0.284165739370685,-0.2807047780567857,2.035156656032196,-1.49271216762366,-0.8578446928108664,-1.0852536488013549,9.11447213195106,-1.0249402685865256,0.153920883653182,-0.8331985088340429
0.16,0.4462145091348616,1.1585700549521163,2.678491815689349,0.1277860867145705,-0.0422014293810494,0.0358042995035301,-0.0971517850485155,-0.0642460302296661,-0.1566784523258724,0.4296540433223927,1.1413992900344736,2.671605902291339,-0.319517976323576,-0.3241657399667314,-0.3207047786528321,2.3266791766544053,-1.7253909533895515,-1.0235078086768108,-1.178513391784883,9.137839945818088,-1.0357653752305838,0.1346112456512844,-0.8343250354864603
0.18,0.4438815601164892,1.1570414377497535,2.675106186645792,0.1384234249322372,-0.0495342091209954,0.0351216521525142,-0.1344912326409528,-0.0877125147033186,-0.1807330051108905,0.4236636838018817,1.1353159752410995,2.6655918067242426,-0.3595179769196224,-0.3641657405627778,-0.3607047792488785,2.5117383172554835,-1.8669723796218616,-1.1733242236826251,-1.2027276392509056,9.201332648383868,-1.04276205406516,0.1180454321687117,-0.8370399594589663
0.2,0.4407829318925775,1.1549975969124278,2.6712344984559504,0.147347696930456,-0.0511339386331204,0.0350445181347508,-0.172959384847078,-0.1151973689679122,-0.2050989528254349,0.4371569984844415,1.1526558120145876,2.666069536390248,-0.2344912341310689,-0.1877125161934348,-0.2807330066010066,2.659377444124598,-1.923407610306263,-1.3742427132296755,-1.218297385727217,9.231303192330415,-1.0472585424678469,0.1030866813111167,-0.8426638843166195
0.22,0.4370981322333075,1.152361634770645,2.667292841596294,0.1494668061394898,-0.0465764132289387,0.0354106573682671,-0.2121309516179934,-0.1580784268152646,-0.2079881001604145,0.4371569984844415,1.1526558120145876,2.666069536390248,-0.2344912341310689,-0.1877125161934348,-0.2807330066010066,2.907552208353056,-1.958578338545769,-2.144052892367624,-0.1444573667489845,9.231303192330415,-1.053089306958268,0.0913038510485488,-0.8487069164053548
0.24,0.4324723592341581,1.1488060231591135,2.6631061957238864,0.1448747689651227,-0.0362535600152887,0.0361219420809295,-0.2476689113012131,-0.1938292697642029,-0.2104084933289289,0.4371569984844415,1.1526558120145876,2.666069536390248,-0.2344912341310689,-0.1877125161934348,-0.2807330066010066,2.523354737792525,-1.7768979841609869,-1.7875421474469146,-0.1210196584257181,10.685301359894764,-1.0524313737859663,0.0939266904322228,-0.8511830023668899
0.26,0.427197399237857,1.144619481855517,2.658841309290033,0.1376916207757538,-0.0228830154202862,0.0370171858804181,-0.2774516915734061,-0.2224103333068653,-0.2157783129293423,0.4348120861431309,1.1507786868526533,2.6632622063242377,-0.2544912344290921,-0.207712516491458,-0.3007330068990299,2.0813013696437683,-1.4891390136096458,-1.4290531771331174,-0.2684909800206719,10.421489277950968,-1.0466337785959527,0.0975424083912043,-0.860134104908492
0.28,0.4216876851987409,1.1401611696448477,2.65465947226338,0.1304730479561522,-0.0091493884634319,0.0378811041158592,-0.3006485606198639,-0.2452792306969119,-0.2240998854411826,0.4301222614605094,1.1470244365287845,2.657647546192217,-0.2944912350251386,-0.2477125170875045,-0.3407330074950763,1.6810188654985476,-1.1598434523228922,-1.1434448695023305,-0.4160786255920118,10.13792707986886,-1.037955104351191,0.1013531415825631,-0.8726613155133107
0.3,0.4154617225902583,1.1350338993289475,2.650053447177997,0.1233828269535263,0.0049789188896471,0.0386741199131983,-0.3203742650857251,-0.2661778995550259,-0.2362479760900902,0.4254324367778881,1.1432701862049155,2.6520328860601974,-0.334491235621185,-0.2877125176835509,-0.3807330080911227,1.5599950986538995,-0.9862852232930596,-1.044933442905699,-0.6074045324453811,9.882202399016933,-1.0280098648991784,0.1049218379531176,-0.8861089946746965
0.32,0.4088846974499229,1.1295142527223934,2.6451651044399167,0.1172012828857801,0.0177315392099901,0.0392653944992008,-0.3361951117745849,-0.284844946414006,-0.2520140663955346,0.4187426120654644,1.1375159358512448,2.644418225898375,-0.3744912362172314,-0.3277125182795973,-0.4207330086871692,1.455444461244733,-0.7910423344429873,-0.9333523429490036,-0.7883045152722173,9.65536171909389,-1.018565773958483,0.1076579414490321,-0.8985662824473923
0.34,0.4020237833100279,1.12363807079529,2.6399390556374094,0.1119964018351071,0.0285144519179318,0.0396217504331785,-0.3490609675624281,-0.3019916402575789,-0.2698639480905518,0.4120527873530407,1.1317616854975738,2.6368035657365523,-0.414491236813278,-0.3677125188756439,-0.4607330092832157,1.3947738449699605,-0.6432927893921636,-0.8573346921786462,-0.8924940847508639,9.462204728371944,-1.008837181456251,0.1090961718600136,-0.9119170865467764
0.36,0.3952841044234835,1.117740576281646,2.634626040223964,0.1076833891434227,0.0368242280628894,0.0397398993024423,-0.3597323500343681,-0.3179190238723899,-0.2885392888493289,0.4043629626257158,1.1250074351290016,2.6281889055598286,-0.4544912374093244,-0.4077125194716903,-0.5007330098792621,1.338215514343838,-0.5335691235969969,-0.7963691807405526,-0.9337670379388512,9.356988806363006,-0.9998392941333974,0.1096433092987917,-0.9245745899224656
0.38,0.3879816759558275,1.111213522576306,2.6286335819447,0.1035500933530001,0.0437374785616654,0.039659156876519,-0.369923331793451,-0.333895923319064,-0.3098171226975698,0.3956731378834898,1.1172531847455285,2.618574245368204,-0.4944912380053708,-0.4477125200677367,-0.5407330104753085,1.4246610460180007,-0.5095490879541476,-0.7988449723337038,-1.0638916924120445,9.27576857890108,-0.9920641532732332,0.1098546831657002,-0.935750058917031
0.4,0.3804827229244365,1.10437419427869,2.6222007518910435,0.0997248875679549,0.0490334430268301,0.0394057411660126,-0.3794600163219196,-0.3491721233780668,-0.3324688611754685,0.3694855093661549,1.0945187264103529,2.613142725809822,-0.4407004798017976,-0.4338959248091801,-0.4098171241876859,1.4469035006776778,-0.476834226423431,-0.7638100029501382,-1.1325869238949375,9.197362463403806,-0.9858459003764832,0.1099017742834292,-0.9449572811159614
0.42,0.3727799212179158,1.0972219103990144,2.6156133922909137,0.0966732968622202,0.0540574056893627,0.0391583570841864,-0.3900154900765409,-0.3655755076279086,-0.3251395165833399,0.3694855093661549,1.0945187264103529,2.613142725809822,-0.4407004798017976,-0.4338959248091801,-0.4098171241876859,1.041883310623868,-0.5277736877310618,-0.820169212492089,0.3664672296064319,9.136852344498038,-0.98627461521503,0.1097409136887146,-0.9476305450886436
0.44,0.3652847112334461,1.0901331631843671,2.609462512676203,0.0947783904778691,0.0592025135413787,0.0390147389408526,-0.3982755844819297,-0.3800406642680921,-0.3227985717083257,0.3694855093661549,1.0945187264103529,2.613142725809822,-0.4407004798017976,-0.4338959248091801,-0.4098171241876859,0.8410557935102102,-0.4130047202694414,-0.7232578320091748,0.1170472437507091,10.901170811524024,-0.9824049035361904,0.1113140258418384,-0.9512395214851478
0.46,0.3572418114602269,1.082376954108322,2.60297544918399,0.0936293912204633,0.0643977534919852,0.0388900184192291,-0.4054688946161879,-0.3948362810954406,-0.3263078945585277,0.3650785045681369,1.090179767162261,2.609044554567945,-0.4548559094034669,-0.4538959251072034,-0.4298171244857091,0.8410846194888675,-0.3596655067129112,-0.7397808413674295,-0.1754661425101028,10.492880215825608,-0.9775895355319424,0.1113966090664368,-0.9566215291177428
0.48,0.3490676012654469,1.0743309268932144,2.596362718794524,0.0932172598226868,0.0689950866357437,0.0387523434610803,-0.4115309123420554,-0.4090431645489533,-0.3350033272589447,0.356264494972101,1.0815018486660777,2.600848212084191,-0.4831667686068055,-0.4938959257032498,-0.4698171250817555,0.8862761226303895,-0.3031008862933754,-0.710344172675631,-0.4347716350208475,10.142078625880458,-0.9725296579468634,0.110234698135618,-0.9629009768193156
0.5,0.3407812965576302,1.0660066919123352,2.5895280100266262,0.0935620003771914,0.0727782983045342,0.038585839693513,-0.416790897862866,-0.4227475059278656,-0.3480342791911339,0.347450485376065,1.072823930169894,2.592651869600437,-0.5114776278101442,-0.5338959262992963,-0.509817125677802,0.9814302427680852,-0.2629992760405264,-0.685217068945615,-0.6515475966094586,9.866520275735638,-0.9678530794084292,0.1080635426316924,-0.9692144544091222
0.52,0.3328169583791182,1.0578468080242578,2.582762977057958,0.0946238797727636,0.0755574206373722,0.0383985646176849,-0.4213164517504622,-0.43558375812915,-0.3634369026169926,0.3372209328198621,1.062146011643908,2.5824555270868816,-0.5397884870134828,-0.5738959268953427,-0.5498171262738485,1.0277290705279856,-0.2262776943798089,-0.6418126100642213,-0.7701311712929343,9.49291470593107,-0.9633502420637252,0.1047053587016419,-0.9758611781243144
0.54,0.324344519130758,1.0489933566406,2.575310693337318,0.0965656875266587,0.0776314712406971,0.0381738172512858,-0.4257062474097983,-0.4491814231341821,-0.3810533339152651,0.3269913802636592,1.051468093117922,2.5722591845733254,-0.5680993462168215,-0.6138959274913892,-0.589817126869895,1.1341356303442671,-0.2194897829668085,-0.6798832502516033,-0.8808215649136253,9.49291470593107,-0.9596515264948584,0.1003163519269366,-0.9820283600106592
0.56,0.3157837529858375,1.0398480367854206,2.567494891805894,0.098882195408976,0.0789902085979091,0.0379000030272433,-0.4301698305108778,-0.4647504783999701,-0.3996921343740736,0.3160540562273729,1.0397901745770348,2.561062842044868,-0.59641020542016,-0.6538959280874356,-0.6298171274659413,1.234629436827791,-0.2231791550539735,-0.7784527632894,-0.9319400229404252,9.427735533792656,-0.9562730508813604,0.0952651124473772,-0.988181198291706
0.58,0.3071323677473479,1.0303748132067498,2.559297262742318,0.1006973327494261,0.0799066703600687,0.0375397249835719,-0.4347581210030731,-0.4816650004581214,-0.4191629729416311,0.3044089607110031,1.027112256021247,2.54886649950151,-0.6247210646234986,-0.693895928683482,-0.6698171280619878,1.3098349329403547,-0.2294145246097667,-0.845726102907568,-0.9735419283778772,9.39425361638314,-0.9533723670157678,0.0907431465800239,-0.993781054533096
0.6,0.298387778621164,1.0205529297537017,2.550701021360386,0.1015640698436132,0.0805879339423279,0.0370815490759883,-0.4394695353362115,-0.4994979485333296,-0.4394803197309605,0.2853944616971943,1.0062915631838438,2.5383391140952365,-0.4592228549017128,-0.5816650019482376,-0.5191629744317472,1.372047778531643,-0.2355707166569187,-0.8916474037604094,-1.0158673394664697,9.36524577633736,-0.9505589772580944,0.0866962054761049,-0.9994632551709126
0.62,0.2899291623680595,1.0108214819519854,2.542430012103922,0.1001274236162102,0.0839838549549034,0.0367596492098702,-0.449792400339441,-0.5233056690325103,-0.4300238782727332,0.2853944616971943,1.0062915631838438,2.5383391140952365,-0.4592228549017128,-0.5816650019482376,-0.5191629744317472,1.3809357174529235,-0.5161432501614743,-1.1903860249590337,0.4728220729113663,9.334177495032236,-0.9470888241447524,0.0836407501209668,-1.0070801272630905
0.64,0.2808608796594387,1.0001267031395285,2.533897307460865,0.0960452762383463,0.0918464711659697,0.0366494199024873,-0.455927550153523,-0.5441789030692986,-0.4240690542475966,0.2853944616971943,1.0062915631838438,2.5383391140952365,-0.4592228549017128,-0.5816650019482376,-0.5191629744317472,1.127820787587851,-0.3067574907041015,-1.0436617018394156,0.2977412012568264,11.250081001551736,-0.942168504834734,0.0876672953235674,-1.0107117747665162
0.66,0.2717123660476063,0.9890625024159996,2.5254140103480776,0.0912144516662118,0.1018587666150717,0.0366514864890886,-0.4581921242257452,-0.5609636719762809,-0.4248414930503301,0.2808022331481771,1.0004749131643615,2.533147484350919,-0.4641158016814408,-0.6016650022462607,-0.5391629747297704,0.8477225735660077,-0.1132287036111096,-0.8392384453491164,-0.0386219401366738,10.78652755267467,-0.93258390009064,0.0916041801425198,-1.0193389938401831
0.68,0.2625508910823511,0.9776933031181344,2.516845944828004,0.0865480395909492,0.1127526259836644,0.0366944077227746,-0.4574559080065417,-0.5750866265413537,-0.431921936585411,0.2716177760501429,0.9888416131253968,2.5227642248622844,-0.4739016952408966,-0.6416650028423072,-0.5791629753258168,0.7907789523975638,0.036810810960175,-0.7061477282536366,-0.354022176754043,10.03132694775286,-0.9210776386873988,0.0947528619513037,-1.0300432035338227
0.7000000000000001,0.2538880847730109,0.9666495656289612,2.5085282853758346,0.0826243560553837,0.1231952551442932,0.0367330495944082,-0.454191525582537,-0.5867750410428197,-0.4432940261893451,0.2624333189521086,0.977208313086432,2.5123809653736493,-0.4836875888003525,-0.6816650034383537,-0.6191629759218633,0.8315642610889116,0.1632191212002337,-0.5844207250733036,-0.568604480196705,9.772914997138288,-0.9085470478426672,0.0975496961501753,-1.0415362640848962
0.72,0.2448673057529155,0.9547991190366536,2.499499384396215,0.079196822506647,0.1335662474893199,0.0367309695176248,-0.4478474627516694,-0.597725371176866,-0.4592103965886282,0.2527595671761016,0.9635750130176648,2.499997705855212,-0.4934734823598083,-0.7216650040344001,-0.6591629765179098,1.01671986054883,0.3172031415433818,-0.5475165067023113,-0.795818519964156,9.772914997138288,-0.8960815601661314,0.0994386211446102,-1.0530441317482166
0.74,0.2360018927921489,0.9427387247642626,2.490127284639177,0.0765313892190637,0.1426131095449532,0.0366463434677979,-0.4388903248844497,-0.6078702577892781,-0.4773098511824436,0.2430858154000945,0.9499417129488978,2.487614446336775,-0.5032593759192642,-0.7616650046304466,-0.6991629771139563,1.129977101255446,0.4478568933609844,-0.5072443306206043,-0.90497272969077,9.56643122139758,-0.8850259520885191,0.100306716333888,-1.063434153424401
0.76,0.2273375227701639,0.9304726030630196,2.480376344004028,0.0743066636720142,0.1499107626541777,0.0364376303694653,-0.4280160638450772,-0.6182115752709367,-0.4969048008987043,0.2331674162851011,0.9353084128652296,2.4742311868034363,-0.5130452694787201,-0.801665005226493,-0.7391629777100026,1.2340527286056928,0.5437130519686278,-0.5170658740829337,-0.9797474858130372,9.480461983251187,-0.8745278181113441,0.1006070806507421,-1.0734773351298097
0.78,0.2193200541304568,0.9186298626789862,2.4707392238711288,0.0723045926611935,0.1551265999712748,0.0361057509772908,-0.4165379863520945,-0.6278228886360772,-0.5165674168628246,0.2230043698311212,0.91967511276666,2.4598479272551965,-0.5228311630381759,-0.8416650058225394,-0.7791629783060491,1.2356598177596425,0.5739038746491315,-0.4805656682570214,-0.9831307982060112,9.38711202102877,-0.8651494482786476,0.1005061843049405,-1.0827892956397764
0.8,0.2111220811224829,0.9059712595344468,2.460180291631148,0.0702595073942876,0.1588814580822214,0.0356254299832132,-0.4039188944789476,-0.6374849360878542,-0.5383465498404614,0.1984931548128521,0.8872387182471823,2.4449108530279875,-0.393090519337901,-0.7278228901261933,-0.6165674183529407,1.3480794430604777,0.6309545936573457,-0.4831023725888506,-1.0889566488818392,9.38711202102877,-0.8577368558059363,0.1004120979455877,-1.0903680077664757
0.8200000000000001,0.2031672632551059,0.8930979032388708,2.4494354798286544,0.0680675605177939,0.1627522451791759,0.0351345700279777,-0.3918260583995878,-0.6494166675160694,-0.5322439346602956,0.1984931548128521,0.8872387182471823,2.4449108530279875,-0.393090519337901,-0.7278228901261933,-0.6165674183529407,0.9025586010815532,0.6046418039679924,-0.5965865714107621,0.3051307590082874,9.339466972991431,-0.8512531200229354,0.0986307935858698,-1.0992785218342316
0.84,0.1958509630372294,0.8806652007853806,2.439372926053001,0.0661830290749014,0.168178344833201,0.0347926912203557,-0.3786109865016431,-0.6588266519436526,-0.5275689480454381,0.1984931548128521,0.8872387182471823,2.4449108530279875,-0.393090519337901,-0.7278228901261933,-0.6165674183529407,0.8441585041393322,0.6607535948972315,-0.4704992213791614,0.2337493307428773,10.834533615883627,-0.8441628917864378,0.1003925781009584,-1.1042316222551525
0.86,0.1884380993576102,0.8673943517900217,2.428817051839788,0.0648086338179846,0.1747660304291677,0.0345239948737607,-0.36314152448823,-0.6677836596000919,-0.5285563685366824,0.1945622496194731,0.8799604893459203,2.4387451788444583,-0.3884010259350623,-0.7478228904242165,-0.6365674186509639,0.8951358002678578,0.7734731006706547,-0.4478503828219626,-0.0493710245622169,10.48406687050192,-0.8346734655888772,0.1012078224423963,-1.111470937895663
0.88,0.1813487400852448,0.8539537985786853,2.418186399303153,0.064220532683446,0.1816799955318385,0.0343248058633729,-0.3463685779889577,-0.6758624283615491,-0.5346902480109368,0.1867004392327151,0.8654040315433965,2.4264138304773994,-0.3790220391293848,-0.7878228910202629,-0.6765674192470104,0.9800799921093512,0.838647324963615,-0.4039384380728594,-0.3066939737127183,10.48406687050192,-0.8238336517636441,0.1008493799128038,-1.1201378537914484
0.9,0.1746135217964223,0.8403599189615544,2.4073858296221835,0.064651784753796,0.1883833243646375,0.0341818433599954,-0.3278448686976532,-0.6832559467654139,-0.5450874283125563,0.1788386288459571,0.8508475737408726,2.4140824821103406,-0.3696430523237075,-0.8278228916163094,-0.7165674198430568,1.124603572955193,0.9261854645652268,-0.3696759201932409,-0.5198590150809757,10.0103812660318,-0.8120487263799625,0.0991773548127399,-1.129779624682808
0.92,0.1685768143445395,0.8273120058255192,2.396902863178115,0.0661715735135274,0.1939706588762195,0.0340766201359936,-0.3084978110949077,-0.6899905320244673,-0.5578932286592504,0.1714457677994829,0.8342911159085464,2.39975113371348,-0.3602640655180301,-0.8678228922123559,-0.7565674204391033,1.2079443271678545,0.9673528801372732,-0.3367292629526675,-0.6402900173347048,10.0103812660318,-0.8005742754659012,0.095985086334305,-1.1394315576677656
0.94,0.1626347901257615,0.813435268456742,2.385592296389007,0.0690042387515432,0.1985919681394019,0.0339752781596252,-0.2866975458734352,-0.697731248269622,-0.5725709310468089,0.1640529067530088,0.8177346580762201,2.385419785316618,-0.3508850787123526,-0.9078228928084024,-0.7965674210351498,1.3698587510143934,1.0900132610736246,-0.3870358122577355,-0.733885119377925,9.86456808218918,-0.7901240849535606,0.0911295814597166,-1.1486409950428036
0.96,0.1571436740490375,0.7993729654788234,2.3739811697220063,0.0721460397095179,0.2016436934764795,0.0337918709402129,-0.2635532960448844,-0.7081401914942276,-0.5878281062156238,0.1568945203766766,0.8001782002289929,2.370088436904856,-0.3415060919066752,-0.9478228934044488,-0.8365674216311961,1.4805267587174331,1.157212491427542,-0.5204471612302808,-0.7628587584407431,9.82484705942352,-0.781536570607543,0.0858934922285909,-1.1566670372269934
0.98,0.1521257313509679,0.7850857942712587,2.362061131906064,0.0747343499524111,0.2028931363604633,0.0334375730452543,-0.2395724211918232,-0.7199021067935347,-0.6034074795471088,0.1499706086704863,0.7816217423668643,2.3537570884781926,-0.3321271051009978,-0.9878228940004952,-0.8765674222272426,1.5460772002297023,1.1990437426530596,-0.5880957649653573,-0.7789686665742535,9.828856000062842,-0.7741507911912076,0.0806662010592938,-1.164145336730177
1.0,0.1478077043739852,0.7712882521361585,2.3504455786264318,0.0764716057279004,0.2022760903016624,0.0329085616466142,-0.216270169267173,-0.7316982556611236,-0.6184868206678695,0.1401471102913767,0.7490906889315819,2.3318907579287087,-0.2219671369629023,-0.8089928266126036,-0.703407481037225,1.5079212525049563,1.1651125962325106,-0.589807443379442,-0.7539670560380352,9.828856000062842,-0.7703471661833112,0.0767229066917145,-1.1685276819698356
1.02,0.1437980361941941,0.7564166548426016,2.3381715415638387,0.0748250928038438,0.1994966409294222,0.0319398783506698,-0.1857914201367221,-0.7542036966760967,-0.6066299688512568,0.1401471102913767,0.7490906889315819,2.3318907579287087,-0.2219671369629023,-0.8089928266126036,-0.703407481037225,1.984964709281065,1.523937456522542,-1.1252720507486549,0.592842590830639,9.825223055815512,-0.7722839210744856,0.0742649687183962,-1.1712189736273542
1.04,0.1403960437885668,0.7411447534654071,2.3261437819244204,0.0686943402036233,0.1942569183845603,0.0304984522070421,-0.1564176086955256,-0.770685202700212,-0.5967573293977002,0.1401471102913767,0.7490906889315819,2.3318907579287087,-0.2219671369629023,-0.8089928266126036,-0.703407481037225,1.7549429115970112,1.468690572059825,-0.8240753012057678,0.4936319726778271,11.720618624324745,-0.7721580599779607,0.0795363899234408,-1.1718832380513236
1.06,0.1375448394526734,0.7256101421209292,2.314253132802316,0.061456217882013,0.1867854649733885,0.0288875792002597,-0.1306578198366059,-0.7816819371735958,-0.5927129468189469,0.1379274389217477,0.7410007606654558,2.3248566831183366,-0.2184460801171181,-0.8268109705764174,-0.7234074813352481,1.4149663614177854,1.287989442945986,-0.5498367236691892,0.202219128937664,10.923416484154586,-0.7746618402754049,0.0862627692755867,-1.1709085161440227
1.08,0.1352754582497026,0.7106818411603087,2.302983155732458,0.0548373204206542,0.1782404117162375,0.0273615821730421,-0.1098868022294715,-0.7891610062102146,-0.5937422440082767,0.1334880961824897,0.7248209041332038,2.310788533497592,-0.2114039664255497,-0.862447258504045,-0.7634074819312946,1.105023867156679,1.038550880356722,-0.3739534518309384,-0.0514648594664879,10.923416484154586,-0.7802822553761373,0.0929271301065068,-1.1675729110387194
1.1,0.1332720280277886,0.6948367404385624,2.291057793865968,0.0486772162576959,0.1684142045753643,0.0258499412646347,-0.0919385694385962,-0.7949900519771856,-0.5989004071709828,0.1290487534432316,0.7086410476009517,2.2967203838768477,-0.2043618527339813,-0.8980835464316725,-0.8034074825273411,0.9781659906196803,0.8974116395437638,-0.2914522883485537,-0.257908158135306,10.590194257262738,-0.7882842062257087,0.0989266043656491,-1.162250262838435
1.12,0.1315874371274665,0.6788912399766037,2.2789870259270524,0.0435516912780164,0.1583751164737574,0.0244794898312241,-0.0777037791995028,-0.7994370131917781,-0.6078723178066278,0.124961516388552,0.6906793766723183,2.2806522342263005,-0.1973197390424129,-0.9337198343593,-0.8434074831233875,0.8702009791552147,0.7117395119546711,-0.2223480607296213,-0.4485955317822476,10.318478524097372,-0.7965141005898018,0.1035065088997878,-1.1568192203230163
1.14,0.1302203691784646,0.6636699160401124,2.2673363874693253,0.0396356381106997,0.1491274119134297,0.0233190467739218,-0.0670969541840783,-0.8027697414061196,-0.6180407146371978,0.1208742793338723,0.6727177057436848,2.2645840845757537,-0.1902776253508446,-0.9693561222869276,-0.883407483719434,0.7533394128187656,0.5303412507712241,-0.1666364107170748,-0.5084198415285013,10.097631520751747,-0.8051303205366904,0.1070284781050642,-1.1513823296562622
1.16,0.1289723879021835,0.6475777886776983,2.25484993606787,0.0362347825670268,0.140058286352713,0.0222273341108147,-0.0584650076541406,-0.8062791595239376,-0.6301192331001215,0.1169630951214819,0.6538651276168607,2.247515934910305,-0.1832355116592762,-1.004992410214555,-0.9234074843154804,0.7627534409633332,0.4315973264968836,-0.1754709058909009,-0.6039259231461869,9.990797552514778,-0.8134058194641991,0.1096829449188821,-1.1461975418333064
1.18,0.1278727993812223,0.6314182625974868,2.2421078414647826,0.0332752166988778,0.1318962268347208,0.0212448665922271,-0.0520803141625597,-0.8094799944496682,-0.6435308100617565,0.1132279637513807,0.6341216422918459,2.229447785229957,-0.1761933979677078,-1.0406286981421828,-0.963407484911527,0.7597368817575453,0.3192346745790476,-0.1600417462865322,-0.6705788480817487,9.90068057994904,-0.820853917560224,0.1117869204937355,-1.1416561140409902
1.2,0.1268796435775654,0.6151993484092486,2.2290820586485256,0.0306349997827127,0.1247958843813658,0.0203590315964521,-0.0476253101315634,-0.8122419127525063,-0.6583593746156168,0.1252687836730943,0.5909442628750033,2.2099313009616948,-0.0516916218257042,-0.8140033262147537,-0.7435308115518726,0.7863866421102065,0.2227502015498116,-0.1380959151419059,-0.741428227693014,9.81911249692712,-0.8270851576020011,0.113487501349581,-1.137876955468454
1.22,0.1260359705963029,0.599487088605033,2.216740600520161,0.0204098843691135,0.1194872002305736,0.0190758505855519,-0.041615410344119,-0.8358455634703528,-0.6397432634869483,0.1252687836730943,0.5909442628750033,2.2099313009616948,-0.0516916218257042,-0.8140033262147537,-0.7435308115518726,1.5328167015499194,0.30049498937222,-1.1801825358923212,0.9308055564334228,11.96278250222531,-0.8337184071630831,0.1184336916353113,-1.1392454758937771
1.24,0.1252423408824181,0.5827215386896581,2.2040984725131727,0.0034006979579775,0.1161297033033675,0.0174432379297354,-0.038233696295222,-0.8386275892054449,-0.6259673053629149,0.1252687836730943,0.5909442628750033,2.2099313009616948,-0.0516916218257042,-0.8140033262147537,-0.7435308115518726,0.722759779135407,0.1690857024448513,-0.1391012867546059,0.6887979062016714,11.96278250222531,-0.8366295365842314,0.1374603060539266,-1.1337039250968532
1.26,0.1244976312863206,0.5659919897659336,2.191631498415867,-0.0139441326243451,0.1152307018668119,0.0158846114318397,-0.0361836873712735,-0.8337274437595773,-0.6218237753547757,0.1247518674548373,0.5828042296128558,2.2024959928461763,-0.0516138833583331,-0.8149079925677708,-0.7635308118498958,0.3368337976928494,0.1025004461974236,0.2450072722933793,0.2071765004069581,11.329315186610984,-0.8384371643496267,0.1574122056332011,-1.1273342631006418
1.28,0.1238303662329762,0.5502312878581573,2.1797812026072507,-0.0297967146220932,0.1160091797482793,0.0144731224665751,-0.0339913953640889,-0.8251902293462653,-0.6257520984320494,0.1237180350183232,0.5665241630885607,2.187625376615139,-0.0514584064235909,-0.8167173252738049,-0.8035308124459423,0.4824984362230318,0.1096146003592295,0.4268607206656005,-0.1964161538636821,10.72545647172774,-0.8382747072635138,0.1752079640269553,-1.1230365649088738
1.3,0.1231789177339747,0.5338504776311105,2.1671677490042494,-0.0456976128988807,0.1178582426540728,0.013037686355832,-0.0311596328258233,-0.8129736112106074,-0.6356536940325288,0.1226842025818091,0.5502440965642657,2.1727547603841013,-0.0513029294888488,-0.8185266579798391,-0.8435308130419887,0.7989152539240996,0.1415881269132815,0.6108309067828943,-0.4950797800239714,10.279110138224496,-0.8362674940052768,0.1926577320267415,-1.1204902233443217
1.32,0.1225896840005504,0.5177605022105866,2.1543024569651403,-0.0603126185109241,0.1202655892074176,0.0116818945839113,-0.0278123633365227,-0.7965699057604401,-0.6505866362707263,0.1216581439920321,0.5338735634046688,2.1558841441232617,-0.0511474525541066,-0.8203359906858734,-0.8835308136380352,1.1216935069563296,0.1673634744650293,0.8201852725083669,-0.7466471119098761,9.95320357984656,-0.8330159952587683,0.2084898498960508,-1.1194129324989464
1.34,0.122074765160972,0.5020406763535868,2.1411061933594318,-0.0728763077097086,0.1228610173208136,0.0104707745666171,-0.0237553523987511,-0.776569069682986,-0.668277457243702,0.1206320854022551,0.517503030245072,2.1390135278624216,-0.0509919756193644,-0.8221453233919075,-0.9235308142340816,1.3504239410683812,0.2028505468885813,1.0000418038727032,-0.8845410486487848,9.70071597631886,-0.8290770469203204,0.2212380930087913,-1.1198876182445083
1.36,0.1216683129346077,0.4875000747796365,2.128226695819146,-0.0826966940017395,0.1252432505278927,0.0094889932141334,-0.0191823463251349,-0.7554057688568201,-0.6865631079786181,0.1196099137358467,0.5010872637678244,2.1211429115866807,-0.0508364986846222,-0.8239546560979417,-0.963530814830128,1.4170062713406222,0.2286503036808088,1.0581650413082957,-0.914282536745803,9.592893673023354,-0.8244884134092922,0.2323033092991341,-1.1213319884402135
1.38,0.1213405804622897,0.4726412507434197,2.1142803693830907,-0.0909423728343552,0.1274790059480273,0.0086456394795246,-0.0137906105858432,-0.7318433174045575,-0.7071536122147283,0.1185916289928069,0.4846262639729259,2.102272295296039,-0.05068102174988,-0.8257639888039758,-1.0035308154261744,1.5876309374504016,0.2695867869645836,1.1781225726131273,-1.0295252118055098,9.530832060650935,-0.819691167083828,0.2411898460764986,-1.1234140904012817
1.4,0.1211263350441217,0.4582667748662956,2.0999111645048463,-0.0971756006351138,0.1293145845106182,0.0080070602022411,-0.0078818379355201,-0.7070887008726571,-0.7287528368466152,0.1206510499329975,0.4360490848731918,2.078922688772354,-0.0191783759412514,-0.6938023851366533,-0.7390892667953214,1.6690050468567768,0.2954386325161552,1.2377308265950238,-1.0799612315943452,9.47192206820364,-0.8150373842613954,0.2479986767754803,-1.1259064111305237
1.42,0.1211219591539639,0.4443751510155466,2.0855136600634614,-0.1034938140206054,0.1295891559531523,0.007551231214049,0.0068855174633923,-0.6823278135320476,-0.7100018214861006,0.1206510499329975,0.4360490848731918,2.078922688772354,-0.0191783759412514,-0.6938023851366533,-0.7390892667953214,1.7195761864645602,0.7383677699456291,1.238044367030472,0.93755076802573,11.924904360937036,-0.8129198456128649,0.2502495071680808,-1.1335065184286448
1.44,0.1213899393281454,0.4316841319229338,2.0721742563489576,-0.109679699945692,0.1274973655204604,0.0073967297844898,0.0204015043372221,-0.6548236059373174,-0.6951833825559762,0.1206510499329975,0.4360490848731918,2.078922688772354,-0.0191783759412514,-0.6938023851366533,-0.7390892667953214,1.7020204676452793,0.675799343691489,1.3752103797365134,0.7409219465062178,11.924904360937036,-0.8129392739113643,0.259418638461903,-1.12931127297082
1.46,0.1219384154042354,0.4189188300717055,2.058391472560972,-0.1150584015361121,0.1227711559268747,0.0076564776767037,0.0334427845972942,-0.6233925367507244,-0.6840183636418505,0.120459266173585,0.4291110610218253,2.071531796104401,-0.0202559290123331,-0.6861941986830724,-0.74547639771144,1.7907015024753057,0.6520640130036061,1.5715534593296498,0.5582509457062845,11.593763960580873,-0.815506462927067,0.2671965014039629,-1.124003417522257
1.48,0.1227182965362798,0.406797001984049,2.044792896476304,-0.1186746609871422,0.1157978681507275,0.0083688428480367,0.0434519229364314,-0.5907502012458032,-0.6764637152572179,0.1200756986547599,0.4152350133190922,2.0567500107684946,-0.0224110351544963,-0.6709778257759107,-0.7582506595436772,1.7484118720450643,0.5004569169568553,1.6321167752460564,0.37773241923163,11.318572969164052,-0.8210423949798031,0.2732747280955916,-1.1164765585255516
1.5,0.1236616510110795,0.39533447229799,2.031317097866891,-0.1203351431765833,0.1075052005453915,0.009434461484124,0.0500179531237391,-0.5574947473340602,-0.6715314663435171,0.1196921311359349,0.4013589656163591,2.041968225432588,-0.0245661412966596,-0.655761452868749,-0.7710249213759145,1.712720822728709,0.3283015093653862,1.6627726955871502,0.2466124456850404,10.94459421123338,-0.8275996956314898,0.2769188213341751,-1.109180255150639
1.52,0.1247008438796966,0.3845463375719513,2.0179167323641467,-0.1196253645337826,0.0986896640837122,0.0107655712877391,0.05327960626136,-0.5234549941956521,-0.6686587977781125,0.1192008083100017,0.3882437365589841,2.02654772700507,-0.0267212474388229,-0.6405450799615873,-0.7837991832081518,1.7158054956787656,0.1630826568810472,1.7019876569204062,0.1436334282702289,10.94459421123338,-0.8356188009795991,0.2781608670412029,-1.10129066166075
1.54,0.125720605449331,0.3749325046333388,2.005241201942589,-0.1162865921747877,0.0904191290474504,0.0122084539136734,0.0537179873602297,-0.4909926562896831,-0.6656355462615119,0.1187094854840685,0.3751285075016091,2.011127228577552,-0.0288763535809862,-0.6253287070544256,-0.796573445040389,1.6302880190642577,0.0219190549434828,1.6231168952984487,0.1511625758300327,10.829963898260758,-0.8438149809319184,0.2760939994809097,-1.0944005427246015
1.56,0.1267779539291229,0.3654460510430292,1.991969816074345,-0.1106514487137143,0.0822704284232749,0.0137846536919062,0.0518096557775555,-0.4599854058460145,-0.6615558302092674,0.1181642850045813,0.3623936877669132,1.9953873736042276,-0.0310314597231495,-0.6101123341472638,-0.8093477068726262,1.566632848318937,-0.0954165791337068,1.550362522183432,0.2039858026122221,10.8453886299676,-0.8519069427768726,0.2716169136748998,-1.0880661178479616
1.58,0.1277739271415742,0.356552674190616,1.9787864779008373,-0.1038952860133624,0.0750196961289755,0.0152977451116664,0.0477541667025951,-0.4313837664670024,-0.656910019114821,0.1175652068715399,0.3500392773548963,1.979328162085097,-0.0331865658653127,-0.5948959612401021,-0.8221219687048634,1.4629459384487355,-0.20277445374802,1.4300819689506057,0.2322905547223197,10.868751158298435,-0.859656024962866,0.2659637824431008,-1.081949361221569
1.6,0.1286669683094907,0.3482087546650692,1.965698519900363,-0.0964555737006682,0.0689719898802238,0.016687947513348,0.0416547850056054,-0.4049422944319833,-0.6520556951978812,0.130161635476704,0.3349834858672658,1.9459409769450964,0.0054886956315903,-0.4419141330293092,-0.6173738447280813,1.3783308394166862,-0.3049690848494872,1.3220736017509531,0.2427161958469925,10.873265531024115,-0.8658862244777494,0.2599039570337048,-1.077151808471327
1.62,0.1294502664294589,0.3408581144803538,1.9535337741828516,-0.0861966349408496,0.0628889765991553,0.0182067039079751,0.0407028831815767,-0.372571808977194,-0.6284245056012605,0.130161635476704,0.3349834858672658,1.9459409769450964,0.0054886956315903,-0.4419141330293092,-0.6173738447280813,2.004487195901203,-0.0475950912014338,1.6185242727394633,1.1815594798310347,10.873265531024115,-0.8783786627611742,0.2489937581782277,-1.0678836206564042
1.64,0.1302254944650026,0.3336791311477117,1.9412397445635463,-0.0727000842775584,0.0550178799641934,0.0200138851639746,0.0364759040711758,-0.3478180179837927,-0.602244129816807,0.130161635476704,0.3349834858672658,1.9459409769450964,0.0054886956315903,-0.4419141330293092,-0.6173738447280813,1.81385611141014,-0.2113489555200468,1.237689549670068,1.3090187892226768,12.18762201822028,-0.88645911393496,0.2375548521827321,-1.0611994908838047
1.66,0.1308802173605286,0.326936040124251,1.9294638583939552,-0.0587016049566633,0.0466969165933284,0.0217498908677441,0.028930946105292,-0.3283468211565065,-0.5765900043029286,0.1302165224330199,0.3305643445369727,1.9397672384978155,-0.0029643985826106,-0.4440202063417706,-0.6094666098507334,1.6539256728127896,-0.3772478982941876,0.9735598413643076,1.2827062756939178,12.125806066243968,-0.896469240146297,0.2263667528283192,-1.051937295228466
1.68,0.1313513024899993,0.3205335556644079,1.9181952813173608,-0.0450240590496402,0.0386550866463696,0.0233039678187622,0.0183596201613711,-0.3132816947796901,-0.5515082822110086,0.1303262963456517,0.3217260618763865,1.927419761603254,-0.0198705870110125,-0.4482323529666934,-0.5936521400960375,1.5554772162092043,-0.5285662971960451,0.7532563188408198,1.2540861045960028,12.063315829378553,-0.9078451490751472,0.2149649429179636,-1.0408188113652674
1.7,0.1315771625332166,0.3146919801468175,1.9079488922959889,-0.0327444918707342,0.0317840594256548,0.0245740606332757,0.0058413914830557,-0.3025824391084373,-0.5282875208171697,0.1304360702582835,0.3128877792158003,1.9150722847086925,-0.0367767754394145,-0.4524444995916161,-0.5778376703413416,1.4233621121055526,-0.6259114339157703,0.5349627835626397,1.1610380696919442,12.006087035956623,-0.9188471496069596,0.2042743711737291,-1.0297236473700533
1.72,0.1315339280029351,0.308727533245321,1.8976348060998411,-0.0208227388376872,0.0258093830827841,0.0256931722478358,-0.009704455883876,-0.2946160543830707,-0.5043600156174567,0.1297005347494952,0.303838889223968,1.9035155313018652,-0.0536829638678164,-0.4566566462165389,-0.5620232005866457,1.4812681737541544,-0.777292368346591,0.3983192362683296,1.1963752599856492,11.917321617796915,-0.9287665564297524,0.1945760631489492,-1.0193173149999817
1.74,0.1311517369895574,0.302888387434481,1.8877979421253108,-0.0101418645640281,0.0218495944669507,0.0266032641681782,-0.0278259390192396,-0.289704776862311,-0.4805091944218176,0.1289649992407069,0.2947899992321356,1.8919587778950384,-0.0705891522962184,-0.4608687928414616,-0.5462087308319498,1.5177042445891216,-0.9060741567681816,0.2455638760379852,1.192541059781954,11.917321617796915,-0.936698380717702,0.1864312795820916,-1.0105538251301789
1.76,0.1303871006077389,0.2971184692995284,1.8784372382791332,-0.0008298554275383,0.020686293648432,0.0273432522468092,-0.0473870485889164,-0.287421032403219,-0.4567067274247386,0.1278068090212086,0.2856358055746802,1.8807973862320797,-0.0874953407246204,-0.4650809394663844,-0.530394261077254,1.5446762860696457,-0.978055478483838,0.1141872229546009,1.190123349853947,11.928431935395563,-0.9435929078306536,0.1793360877956608,-1.0018931870504697
1.78,0.1293062021719725,0.2916587749045272,1.8699850144138173,0.006683029261682,0.02198542661181,0.0279358950774488,-0.0651316625269498,-0.2872201858457594,-0.4341540656405656,0.1262259640910002,0.2763763082516018,1.8700313563129871,-0.1044015291530223,-0.4692930860913071,-0.514579791322558,1.4348642938452334,-0.887230696901671,0.0100423278729805,1.1276330892086517,11.918495298340533,-0.9479871694350728,0.17368888812559,-0.9953309076698575
1.8,0.1278201299981639,0.2859008833407682,1.8615504904306557,0.0132321732925912,0.0252457665193109,0.0284812244655534,-0.0822846677468995,-0.2884682503586555,-0.4104616483725583,0.126049619045625,0.2772977656122393,1.8482773111317887,-0.0646874138299278,-0.3079755029078989,-0.4272514081913202,1.46382537304262,-0.8576502609974862,-0.0624032256448053,1.184620863400368,11.892827638841482,-0.9509457067143944,0.1695511847409124,-0.98970969715747
1.82,0.1259325586152767,0.2800556926961547,1.853507444928915,0.0169177905538354,0.0323400049473007,0.0288953453629935,-0.1045908930369959,-0.2946400388918392,-0.3948992442370048,0.126049619045625,0.2772977656122393,1.8482773111317887,-0.0646874138299278,-0.3079755029078989,-0.4272514081913202,1.39449550274388,-1.115311264504817,-0.3085894266591865,0.7781202067776716,11.867728082932445,-0.9441200517451764,0.1668576421297651,-0.9957867753832468
1.84,0.1237828685781521,0.2744221514797079,1.8461443699774855,0.0182220738458047,0.0429732601371796,0.0292148804908584,-0.1199833294817603,-0.2979163514122746,-0.3809273678806881,0.126049619045625,0.2772977656122393,1.8482773111317887,-0.0646874138299278,-0.3079755029078989,-0.4272514081913202,1.0522293622992491,-0.7696218222382194,-0.1638156260217682,0.6985938178158346,11.297667436150732,-0.940326026813316,0.1673159241084939,-0.9963132262830188
1.86,0.1212601592507827,0.2684340028439763,1.8386742963968996,0.0181940055815743,0.0560179857845944,0.0294913421322625,-0.1309296270799686,-0.3006067641822767,-0.3668329808570065,0.1254027449073257,0.2742180105831603,1.844004797049876,-0.0645985640905234,-0.3121265663203268,-0.4258708767014711,0.9023739490295276,-0.5473148799104168,-0.1345206385001046,0.7047193511840827,11.297667436150732,-0.932386104992402,0.1687766035902498,-1.0011828279814303
1.88,0.1185664819529,0.262398073557992,1.831477382873376,0.0169816877904885,0.0696923657268432,0.0296858713785523,-0.1374308140024189,-0.3027424356560074,-0.3536073688535758,0.1241089966307272,0.2680585005250023,1.8354597688860497,-0.0644208646117147,-0.3204286931451826,-0.4231098137217729,0.7445524442737977,-0.3250593461225151,-0.1067835736865363,0.6612806001715321,11.228520123033377,-0.922122959044474,0.1711079954266262,-1.0084853040586543
1.9,0.1157834368943937,0.2563280519991398,1.824534561229204,0.0147390312758474,0.0832973254883274,0.0297819724089339,-0.1401426328984688,-0.3040035420049075,-0.3413492387410223,0.1228152483541286,0.2618989904668443,1.8269147407222237,-0.0642431651329059,-0.3287308199700384,-0.4203487507420747,0.6308845076646359,-0.1355909448024925,-0.0630553174450043,0.612906505627675,11.112444429878453,-0.911374058794462,0.1741283073394821,-1.0162848756311695
1.92,0.1131316088541269,0.2505572115674243,1.818157515236911,0.0121345434344674,0.0954796906245435,0.029797203689971,-0.1386504141219882,-0.3032706197459149,-0.3305638246968093,0.1215303850514705,0.2553243740674435,1.8185077657073816,-0.0640654656540971,-0.3370329467948942,-0.4175876877623765,0.5456396430331025,0.0746109388240295,0.0366461129496314,0.5392707022106535,11.112444429878453,-0.9002769875043598,0.1778814052269167,-1.0239828650545004
1.94,0.1104081989555769,0.2445149462733048,1.8116554571467385,0.0095975437500277,0.106765081097054,0.0297772271925607,-0.1335670679121019,-0.3010067861312307,-0.3202908334951456,0.1202455217488124,0.2487497576680428,1.8101007906925404,-0.0638877661752883,-0.3453350736197501,-0.4148266247826783,0.5841654293819497,0.2541673104943145,0.1131916807342092,0.5136495600831847,11.062892739828383,-0.8892642253169225,0.1813156066441312,-1.031781190002806
1.96,0.1078178069506086,0.238526535084454,1.805347180242815,0.0074935271979372,0.115970929158796,0.0297440241410604,-0.1256370933583595,-0.29798733906426,-0.3111205205155802,0.1189651009331245,0.2419675880980206,1.8017628422521912,-0.0637100666964795,-0.3536372004446058,-0.4120655618029802,0.6246923185785642,0.3964987276871196,0.1509723533485329,0.4585156489782693,10.96369950609369,-0.8796828044286269,0.1844181416961798,-1.038215463661442
1.98,0.1054092906174689,0.2326052232067541,1.799212594833332,0.0058784766265982,0.1227961357130888,0.0297130892082207,-0.1157001203790625,-0.2943820308328007,-0.302822099490976,0.1176891226044068,0.234977865357377,1.7934939203863347,-0.0635323672176707,-0.3619393272694616,-0.409304498823282,0.6719476745563966,0.4968486489648475,0.180265411572969,0.4149210512302104,10.96369950609369,-0.8726389943694953,0.1871676130728448,-1.0422603292853585
2.0,0.1033165954745745,0.2270521567062351,1.793532681673771,0.0048641248625404,0.1270714495873866,0.0297009439550453,-0.1052135659164843,-0.2903959539904145,-0.2954927877453,0.0996242845985158,0.2178861216651141,1.784071489858783,-0.0933793338880261,-0.2855326512262557,-0.3164930599322077,0.6700288123568479,0.5243277231289145,0.1993038421193055,0.3664655872837985,10.93099381230968,-0.8670282726273135,0.1894422227925753,-1.0452299409970924
2.02,0.1013255737347451,0.2212058306076419,1.787724840104811,0.0017059374642629,0.1298346647556779,0.0295317888112226,-0.0945206519757549,-0.2931550404728736,-0.2855467494751624,0.0996242845985158,0.2178861216651141,1.784071489858783,-0.0933793338880261,-0.2855326512262557,-0.3164930599322077,0.7430925985914769,0.534645697036467,-0.1379543241229547,0.4973019135068784,10.90876193337499,-0.8633218320374271,0.1926877159475938,-1.0473808128356263
2.04,0.0996304154331996,0.215657812556536,1.782380639884874,-0.0034663845720144,0.1313709919360967,0.0292168852242835,-0.0845353053240824,-0.2903273932060951,-0.2775122082270265,0.0996242845985158,0.2178861216651141,1.784071489858783,-0.0933793338880261,-0.2855326512262557,-0.3164930599322077,0.6562327900360245,0.4992673325836277,0.1413823633389294,0.4017270624067953,11.07179400660425,-0.8612363138237087,0.1995431644178079,-1.0460818264638192
2.06,0.0980473673938152,0.2099155428745452,1.7769043097868875,-0.0090213656404503,0.132016826781651,0.0288863113017135,-0.0743703852509807,-0.2839769414333396,-0.2706136794425529,0.0986904912596355,0.2150307951528515,1.780906559259461,-0.0889151765898189,-0.2837627753049467,-0.319227252020454,0.6914541510484432,0.5082460036550822,0.3175225886377725,0.3449264392236834,10.957494980816591,-0.8596921723543033,0.2063841574403205,-1.0445226335106
2.08,0.09666288550287,0.2043230490370834,1.7715506275483608,-0.013881634910408,0.1318491859920792,0.0286226072831788,-0.0646641762740695,-0.2756577880475614,-0.2651543262617751,0.096822904581875,0.2093201421283264,1.7745766980608169,-0.0799868619934043,-0.2802230234623287,-0.3246956361969467,0.6950239976289376,0.4853104488455606,0.4159576692889077,0.2729676590388863,10.780440237263065,-0.8586606504835377,0.2124119781165112,-1.0428587532525946
2.1,0.0954667973829689,0.198911185953966,1.7662927370750636,-0.0177419850531265,0.1310457000610075,0.0284515835528365,-0.0555093822899142,-0.2661576375126214,-0.2608966459673107,0.0949553179041145,0.2036094891038013,1.7682468368621729,-0.0710585473969897,-0.2766832716197107,-0.3301640203734394,0.6931647613820231,0.4577396992077671,0.4750075267470011,0.2128840147232219,10.780440237263065,-0.858082052117787,0.2171122096781393,-1.041301104687059
2.12,0.0944944165502928,0.1939525603945106,1.7613683981633692,-0.0204834928190743,0.1298574435649823,0.0283746533355489,-0.0473568362102731,-0.2564880162015489,-0.2576591092109055,0.0935341469561747,0.1980758236714071,1.761643556454704,-0.0621302328005752,-0.2731435197770927,-0.3356324045499321,0.6527771980723855,0.407627303982051,0.4834810655536287,0.16187683782026,10.667328710443144,-0.8578641342693947,0.2210087965421086,-1.0396896963866438
2.14,0.0936320749175155,0.1889336859333842,1.7562460978381762,-0.0225072721369221,0.1283078598334893,0.0283728588088154,-0.0393672244547836,-0.2460487308946417,-0.2547566665482534,0.0921129760082349,0.1925421582390128,1.7550402760472352,-0.0532019182041606,-0.2696037679344747,-0.3411007887264248,0.6731209904847087,0.3994805877744748,0.5219642653453566,0.1451221331326052,10.667328710443144,-0.8578878066941662,0.2239361273938161,-1.038216852156336
2.16,0.0929243001679065,0.184130155834613,1.75117676117046,-0.0236167015685846,0.1265507609449699,0.0284505360758269,-0.0318670275130871,-0.2349858677738786,-0.252311957558764,0.0909150129252055,0.1870969866026841,1.748300286035354,-0.044273603607746,-0.2660640160918567,-0.3465691729029175,0.6793682665466955,0.375009847084826,0.5531431560381563,0.122235449474467,10.636735972891074,-0.8582078306444385,0.2258659197248348,-1.036779662382883
2.18,0.0923857795908,0.1797773291658689,1.7464025698704313,-0.0236085992319131,0.1247382747786343,0.0286086974641117,-0.0252444175512548,-0.2239202727332557,-0.250348104038813,0.0899402577070864,0.1817403087624208,1.7414235864190606,-0.0353452890113315,-0.2625242642492388,-0.3520375570794102,0.6522328513603144,0.3311304980916182,0.5532797520311424,0.0981926759975521,10.611106560468215,-0.8586077005884619,0.2267078675440836,-1.035633697793397
2.2,0.0919487358648289,0.1754235204305375,1.741414363793898,-0.0222681827854583,0.1227620365064278,0.0288719797842142,-0.0188705545642117,-0.2121769246740228,-0.2485816341038336,0.0911235587132373,0.1685813155292061,1.7338851646684907,-0.0338257085041161,-0.2077643778875316,-0.2465278917137318,0.6738931091966154,0.3186931493521536,0.5871674029616442,0.088323496748971,10.56869837664908,-0.8590531881462482,0.2263266066623796,-1.0346047483496972
2.22,0.0917152757700096,0.1712786902264973,1.7365628236406785,-0.0203226303480168,0.118571398189962,0.0292211875311751,-0.0050770415290786,-0.2027358423603986,-0.2366299129360969,0.0911235587132373,0.1685813155292061,1.7338851646684907,-0.0338257085041161,-0.2077643778875316,-0.2465278917137318,1.0274223522660242,0.6896756517566542,0.4720541156812127,0.5975860583868342,10.56869837664908,-0.8692248518847276,0.2253529903095813,-1.024653367453517
2.24,0.0917264382674485,0.1675163140295111,1.7321740247423418,-0.0183740793225303,0.1109196152781609,0.0296228528828852,0.0049272870586501,-0.1938718334749951,-0.2259278726610289,0.0911235587132373,0.1685813155292061,1.7338851646684907,-0.0338257085041161,-0.2077643778875316,-0.2465278917137318,0.8561409201482794,0.50021642938644,0.4432004442701726,0.5351020137534009,11.194110037837165,-0.8753360734507327,0.2258046045203494,-1.0168313859212472
2.26,0.0918912743385494,0.1637285085661445,1.7277642120144432,-0.0162441015206618,0.1007589907247561,0.0300691620466096,0.0105364104681535,-0.1854642257431407,-0.2156310437956047,0.0907853016281961,0.1665036717503308,1.7314198857513534,-0.0355419666946883,-0.2045331989183868,-0.2457638492487155,0.7214132274217254,0.2804561704751722,0.4203803865927238,0.5148414432712106,11.091766343884956,-0.8853395632237047,0.2260884495092193,-1.0054630534942437
2.28,0.0921168024004458,0.1601001033010564,1.7235482013899164,-0.0142229094542341,0.0900014528112325,0.0304934047585973,0.0114100878005373,-0.1778311138949048,-0.2064414726791106,0.0901087874581138,0.1623483841925802,1.7264893279170788,-0.0389744830758329,-0.1980708409800972,-0.244235764318683,0.5989071836977394,0.0436838666191897,0.3816555924117948,0.459478555824705,11.009350185637231,-0.8963473589316444,0.2263744891966652,-0.993099909406006
2.3000000000000003,0.0923150734662213,0.1566177688604347,1.7195058351165264,-0.012379737969081,0.0798411697664074,0.0308742505139531,0.0081898146909605,-0.1707961548819984,-0.1982223608270787,0.0894322732880315,0.1581930966348295,1.721558770082804,-0.0424069994569774,-0.1916084830418075,-0.2427076793886505,0.5643903942523862,-0.1610136554788411,0.3517479506453175,0.4109555926015903,10.932301464427836,-0.9080633657981996,0.2266013011978249,-0.9799281713015168
2.32,0.0924111276543125,0.1534348914325323,1.7158093170349324,-0.0108200514556185,0.0714985066499013,0.0311894705279209,0.0020360042698574,-0.1645908157221938,-0.1912707105867341,0.0885841332988919,0.1543609269739934,1.716704616495031,-0.0458395158381219,-0.1851461251035179,-0.241179594458618,0.558348139271472,-0.3076905210551573,0.3102669579902309,0.3475825120172318,10.86544642944773,-0.9188729150780028,0.2267295469642232,-0.9676674771463032
2.34,0.0923599048518737,0.150206649267903,1.7120573123212282,-0.0094267581125967,0.0646086628004403,0.0314707504017824,-0.0069896554332688,-0.1585815992962669,-0.1842974244402132,0.0877359933097524,0.1505287573131572,1.7118504629072582,-0.0492720322192664,-0.1786837671652282,-0.2396515095285855,0.6445927683652829,-0.4512829851563117,0.3004608212963458,0.3486643073260478,10.80620165860455,-0.927877575468172,0.2268093441882708,-0.9572741783521254
2.36,0.0920983616703583,0.1470945021112449,1.7084398067266315,-0.0083470613355303,0.0603930865628667,0.0316977171527036,-0.0187489124115455,-0.1529442724763944,-0.1777857763552874,0.0868020404110842,0.1468581466007783,1.707034511442736,-0.0527045486004109,-0.1722214092269386,-0.2381234245985531,0.7288023379784131,-0.5879628489138357,0.2818663409936264,0.3255824042462857,10.786024304487,-0.9342179270312472,0.227029767260928,-0.949497808951028
2.38,0.0915855771725008,0.1440920507912619,1.7049480897519351,-0.0076021669064687,0.0595213273072159,0.0318715031223034,-0.0315085779628752,-0.1475739928991441,-0.1716771684374256,0.0857822746028874,0.1433490948368566,1.7022567621014646,-0.0561370649815555,-0.1657590512886489,-0.2365953396685206,0.7565779180193313,-0.6379832775664859,0.2685139788625126,0.3054303958930943,10.769244742908995,-0.9386540162974042,0.2272237232089699,-0.943880270865362
2.4,0.0908754363761212,0.1413383108228618,1.7017411696344042,-0.0072211712738443,0.0613062845581824,0.0319952264308104,-0.042299567133395,-0.1425506228148737,-0.1661758750789057,0.0900101482743571,0.1367133511463047,1.696364231330064,-0.0376844526953099,-0.1411285515040998,-0.1686358034863663,0.6556369477430196,-0.5395494585259907,0.2511685042135184,0.2750646679259935,10.733420018533252,-0.9405318727875158,0.2277046642183209,-0.940734760443504
2.42,0.0899197536437456,0.1385748731208965,1.698508709198645,-0.0061445492522902,0.0653091499556541,0.0321603913970928,-0.0523747791125516,-0.1343028711050895,-0.1571794280249461,0.0900101482743571,0.1367133511463047,1.696364231330064,-0.0376844526953099,-0.1411285515040998,-0.1686358034863663,0.7913143564442138,-0.5037605989578319,0.41238758548921,0.4498223526979802,10.696788277302405,-0.9411956280061234,0.2278383143942378,-0.9385933921096437
2.44,0.0887878557921407,0.1359651226159155,1.6954533630784565,-0.0038000311019509,0.0708509939195644,0.0324127797277579,-0.0599971241975426,-0.1274060256203545,-0.1488105244501009,0.0900101482743571,0.1367133511463047,1.696364231330064,-0.0376844526953099,-0.1411285515040998,-0.1686358034863663,0.6627691326549008,-0.3811172542495456,0.3448422742367507,0.4184451787422605,10.820568111581451,-0.9392698900734864,0.2271573128193706,-0.9391628172951938
2.46,0.0875958296916407,0.1335951165689322,1.6926966951992342,-0.0012143592839919,0.0767247656894036,0.0326878708755535,-0.0649044376321027,-0.1224895128296907,-0.1417812571242243,0.089633303747404,0.1353020656312637,1.6946778732952004,-0.0389196276417969,-0.1398394632250909,-0.1680275304961545,0.4941265584453309,-0.2453656717280046,0.2458256395331919,0.3514633662938277,10.820568111581451,-0.9361884406407308,0.2259598032603837,-0.9411577957454784
2.48,0.0862637180533188,0.1311899386905647,1.6899314227265736,0.0013803692839428,0.0828867895141382,0.0329829772030041,-0.0678738738343496,-0.1183021702239168,-0.1351560712754771,0.0888796146934978,0.1324794946011817,1.691305157225473,-0.0413899775347708,-0.1372612866670732,-0.1668109845157308,0.4190598912678958,-0.1484718101123494,0.2093671302886943,0.3312592924373594,10.754967183689589,-0.9324431958062068,0.2247882773196346,-0.9439354683543272
2.5,0.0848930145517938,0.1288616472097657,1.687290393536482,0.0036681357207845,0.0885329872525059,0.0332685332735164,-0.068935330648212,-0.1147217593656787,-0.1293171853764357,0.0881259256395916,0.1296569235710997,1.6879324411557457,-0.0438603274277447,-0.1346831101090554,-0.1655944385353071,0.3465494951067926,-0.0530728406931177,0.1790205429119055,0.291944294952072,10.705698842491074,-0.928564836718374,0.223823538765764,-0.9468716688600852
2.52,0.0835180668106092,0.1266003306816437,1.6847581972149666,0.0056011865568395,0.0933138722809883,0.0335352263249985,-0.0684851695970506,-0.11154129174514,-0.1242017713778139,0.0872487190910367,0.1269632613689185,1.6846205523850395,-0.0463306773207186,-0.1321049335510377,-0.1643778925548834,0.3020160576632191,0.0225080525580685,0.1590233810269334,0.2557706999310883,10.661699186748592,-0.9251530075368304,0.2231379488039734,-0.9493986574881929
2.54,0.0822309150247897,0.1245079774558597,1.682443119120837,0.0071213885345638,0.096902893575193,0.0337663902340633,-0.0670465784676629,-0.108834578899641,-0.1197526276947665,0.0863715125424818,0.1242695991667374,1.6813086636143333,-0.0488010272136925,-0.12952675699302,-0.1631613465744597,0.2701421772786633,0.0719295564693862,0.1353356422749502,0.2224571841523685,10.625595454491304,-0.922169945886168,0.2226548945595752,-0.9514577007634148
2.56,0.0809118897741221,0.1223581252355765,1.6800942293529304,0.008373249186052,0.0996618397539452,0.0339808092667544,-0.0649419445966449,-0.1063003010740151,-0.1153874325170273,0.0854325472466026,0.1216403913785068,1.678027188493138,-0.0512713771066664,-0.1269485804350023,-0.161944800594036,0.2734363580810586,0.1052316935508994,0.126713891281293,0.2182597588869628,10.605125718313502,-0.9199129857665131,0.2224485588980222,-0.9527842165859916
2.58,0.0796387262104174,0.1202555226488319,1.6778291156352467,0.0091994644909923,0.1014494886681095,0.0341581471851416,-0.0625137558366778,-0.104084109179506,-0.1113570383658121,0.084431823203399,0.1190756380042266,1.674776127021453,-0.0537417269996403,-0.1243704038769845,-0.1607282546136124,0.260056167882383,0.1214094379983543,0.1108095947254569,0.2015197075607593,10.589765398432064,-0.9184570141869136,0.222586809434838,-0.9532881366804772
2.6,0.0784152416803522,0.1181949419652896,1.6756411412365997,0.0095292577875605,0.1023772236125659,0.0342926656387048,-0.0600272162741638,-0.102058977968892,-0.1076402918922712,0.0765130384185835,0.1150513171898566,1.672261263716956,-0.0557081314894977,-0.106698520239273,-0.1170592685138295,0.2454497900015851,0.1243269781257026,0.1012565605306992,0.1858373236770433,10.572748895826408,-0.9177730067974602,0.2230936451445833,-0.953039129603004
2.62,0.0772274660659769,0.1162036896490072,1.6735446812535597,0.0102918180614034,0.103039004344473,0.0344540110791758,-0.0587964893282208,-0.0975285140811522,-0.102189649683556,0.0765130384185835,0.1150513171898566,1.672261263716956,-0.0557081314894977,-0.106698520239273,-0.1170592685138295,0.3596849049550599,0.0615363472971499,0.2265231943869891,0.2725321104357601,10.556818466446202,-0.917587768622472,0.2238262853735884,-0.9516293025640536
2.64,0.0761231130936393,0.1143872846379051,1.6716468595792042,0.0118642457139468,0.1038055787492278,0.0346661525911733,-0.0574735654526996,-0.0940143698944967,-0.0978568243978931,0.0765130384185835,0.1150513171898566,1.672261263716956,-0.0557081314894977,-0.106698520239273,-0.1170592685138295,0.2866736467706328,0.0661461937760597,0.1757072093327788,0.2166412642831475,10.664601010404112,-0.917517246368752,0.2236433547310168,-0.9504435079111372
