t,x,y,z,roll,pitch,yaw,v_x,v_y,v_z,ref_x,ref_y,ref_z,ref_v_x,ref_v_y,ref_v_z,a_com,a_x,a_y,a_z,thrust,wind_x,wind_y,wind_z
0.0,-0.6529901499772213,1.8813373106622944,1.919362191452026,0.0332908311996822,0.0997190859825356,0.0423490516493584,0.0013138519108988,0.000226741342254,-0.0006497229809423,-0.6529567988235014,1.8814375217156925,1.9193456710976933,-0.025825703967695,-0.0974682331357081,-0.1005761715137272,0.0741579131317809,0.0656925955449422,0.0113370671127032,-0.0324861490471163,10.256660710168944,-0.939845405418386,0.2499415617335425,-0.8814906774586828
0.02,-0.6529512260690071,1.8815581036873013,1.9192578530470212,0.0409925233605033,0.0987131828616624,0.0428307679886353,0.0027282192070624,0.0180493039805089,-0.0104277437056461,-0.6529567988235014,1.8814375217156925,1.9193456710976933,-0.025825703967695,-0.0974682331357081,-0.1005761715137272,1.0188889330242434,0.0707183648081783,0.8911281319127434,-0.4889010362351902,10.257699985977524,-0.9415445869337076,0.2492843134908347,-0.8748253962704905
0.04,-0.6528836094903896,1.8819135631536104,1.9189006318583408,0.0542283493335617,0.0956222950626062,0.0435632749840231,0.0042098560449409,0.0178510552592541,-0.026674741323128,-0.6529567988235014,1.8814375217156925,1.9193456710976933,-0.025825703967695,-0.0974682331357081,-0.1005761715137272,0.8157810396443734,0.0740818418939265,-0.009912436062737,-0.8123498808740973,9.609045845129913,-0.937427898298701,0.2344843982980219,-0.8857771452519861
0.06,-0.6527956040298846,1.8822092019486896,1.9181662156481785,0.0685919281454915,0.0903700132894473,0.0441609594019097,0.0041653847805511,0.0113445202765325,-0.0460208061005517,-0.6532150558631784,1.8804628393843357,1.918339909382556,-0.0312236462574051,-0.1174682334337313,-0.1205761718117504,1.020547889061323,-0.0022235632194902,-0.3253267491360833,-0.9673032388711824,9.288706250861653,-0.9343950675473924,0.2175435401936393,-0.8971653130851901
0.08,-0.6527388825794289,1.882336336739796,1.9170315630127104,0.0824104312626318,0.0841045998953193,0.0445302669541997,0.0012894390960065,0.0013689725882221,-0.066552404473423,-0.6537315699425322,1.8785134747216208,1.9163283859522813,-0.0420195308368252,-0.1574682340297778,-0.1605761724077969,1.1503577128518536,-0.1437972842272286,-0.4987773844155188,-1.0265799186435682,9.20270511754552,-0.9326520493092948,0.1993355554731084,-0.9086530258677378
0.1,-0.6527667577544791,1.8822336843291276,1.9154771751531023,0.0955513701367514,0.0778883693506023,0.0447303550632143,-0.0040177830030428,-0.0114392930565432,-0.087913751775195,-0.6542480840218862,1.876564110058907,1.9143168625220068,-0.0528154154162453,-0.1974682346258242,-0.2005761730038433,1.2733081262821222,-0.2653611049524688,-0.6404132822382681,-1.0680673650885986,9.171384228517129,-0.9319361782588116,0.1817408920032994,-0.9190529627011056
0.12,-0.652911155508542,1.881874064278612,1.913598403916247,0.1074213370458083,0.0727076439509982,0.0448383571029222,-0.0109723527191789,-0.0260253118142304,-0.1088358748310379,-0.6553043923302111,1.8726147453663904,1.91030533906193,-0.0636112999956654,-0.2374682352218707,-0.2405761735998898,1.3217916026174774,-0.3477284858068071,-0.7293009378843605,-1.0461061527921425,9.15855998583811,-0.9314016215565328,0.1634485269607999,-0.9296076099272802
0.14,-0.6532241696883097,1.881171538745999,1.911180184076568,0.119305749527976,0.0686509772292018,0.0449634350536877,-0.020069455473799,-0.0437351267298356,-0.131983485071016,-0.656360700638536,1.868665380673874,1.9062938156018527,-0.0744071845750855,-0.2774682358179172,-0.2805761741959363,1.5266029957843104,-0.4548551377310048,-0.8854907457802625,-1.157380511998908,9.124684433495986,-0.9295082062854346,0.1446403946084734,-0.9420806590971476
0.16,-0.653736972219537,1.8800900574251675,1.908290329344994,0.1306037918501937,0.066739935090915,0.0452303087822366,-0.0307706884439892,-0.0637879578850938,-0.1559203753864319,-0.6576869060613464,1.8637160159664563,1.9012822921268755,-0.0852030691545055,-0.3174682364139636,-0.3205761747919827,1.6504598922692943,-0.5350616485095112,-1.0026415577629104,-1.196844515770791,9.124684433495986,-0.9258549159055808,0.1248879105520108,-0.9572751968448794
0.18,-0.6544630698788215,1.8785821849391404,1.9049157937766417,0.141287945953643,0.0672807269489526,0.0457300441060829,-0.0409662071801566,-0.0861835750517265,-0.1803790910555245,-0.6592830085986423,1.857766651244137,1.895270768636996,-0.0959989537339256,-0.35746823701001,-0.3605761753880291,1.734748571663504,-0.5097759368083703,-1.1197808583316315,-1.2229357834546304,9.122582285077442,-0.9226144092474138,0.1082572389297297,-0.9692680267124844
0.2,-0.6553251821780136,1.876690484906001,1.901250145317648,0.1500461885269263,0.0694430698743756,0.0463204996596814,-0.0490764631803121,-0.1114077522530648,-0.2042244981059664,-0.6565113802378294,1.874273006186554,1.895896839223865,-0.0722794700600051,-0.1861835765418426,-0.2803790925456406,1.7823010444884448,-0.4055128000077741,-1.2612088600669151,-1.1922703525220983,9.124437906837557,-0.9172311218043347,0.0917537199840337,-0.983352091897482
0.22,-0.6563460049317102,1.8740039010918212,1.897100092451092,0.1531626998769073,0.0723876412765697,0.0465995464324207,-0.052447152548286,-0.1541653427599243,-0.2080731977782504,-0.6565113802378294,1.874273006186554,1.895896839223865,-0.0722794700600051,-0.1861835765418426,-0.2803790925456406,2.153128875575669,-0.1685344683986966,-2.1378795253429783,-0.1924349836141967,10.584316248739016,-0.9186413446896972,0.0784217134834317,-0.993503578685472
0.24,-0.657420399016314,1.870533475478273,1.8929022707707168,0.1493829664742917,0.0750608579260919,0.0463296655151553,-0.0548596573623072,-0.1894938877995928,-0.2116277529452671,-0.6565113802378294,1.874273006186554,1.895896839223865,-0.0722794700600051,-0.1861835765418426,-0.2803790925456406,1.7794389119417129,-0.1206252407010558,-1.7664272519834223,-0.1777277583508346,10.584316248739016,-0.9170060707982725,0.07975489404393,-0.9965080094357548
0.26,-0.6584839185585377,1.8666531594503812,1.888813544679869,0.1431862978626565,0.0770574454380342,0.0457856741670558,-0.0570143459113636,-0.2166456364794711,-0.2184963718688536,-0.6572341749384295,1.872411170421136,1.8930930482984087,-0.0785421226359748,-0.2061835768398658,-0.3003790928436639,1.4044910688895107,-0.1077344274528196,-1.3575874339939162,-0.3434309461793267,10.097760899760942,-0.9143095779249448,0.0833917411905719,-1.0005985599402234
0.28,-0.6596488623046642,1.8620621363044887,1.884335748608033,0.1361971640298846,0.0785112095541807,0.0450676523068701,-0.0594046346378851,-0.2408336389955643,-0.2290847756789413,-0.6586797643396296,1.8686874988902988,1.8874854664474965,-0.0910674277879142,-0.2461835774359123,-0.3403790934397103,1.3256010345878433,-0.1195144363260784,-1.2094001258046576,-0.5294201905043844,9.875920070415305,-0.9115213724872878,0.0869856607897564,-1.0052573290851847
0.3,-0.6608643434162256,1.85701758941479,1.8796116378382957,0.1296476763659585,0.0793406209212535,0.044281116665337,-0.0620684907064088,-0.2623562190018857,-0.2429405717231388,-0.6601253537408297,1.864963827359462,1.881877884596584,-0.1035927329398536,-0.2861835780319587,-0.3803790940357567,1.2867601401394886,-0.1331928034261815,-1.0761290003160728,-0.6927898022098768,9.875920070415305,-0.9096359262612238,0.090232436656388,-1.0088338215252626
0.32,-0.6621371492518858,1.851563937281532,1.874578280717429,0.1238750946493576,0.0796505382116018,0.0434723466502669,-0.0651197967697486,-0.2820206304615681,-0.2597149801626207,-0.6621972083996268,1.8592401557988227,1.8742703027158685,-0.116118038091793,-0.3261835786280052,-0.4203790946318032,1.3013265589797418,-0.1525653031669921,-0.9832205729841198,-0.8387204219740915,9.541191702278413,-0.907578400991518,0.0924543017559583,-1.0132790700973977
0.34,-0.6634060215643468,1.8460310461347775,1.869472652717834,0.1191892560466542,0.0795895645089068,0.0427099004681581,-0.0683216704087404,-0.2995288617839657,-0.2769042094782024,-0.6642690630584239,1.853516484238184,1.8666627208351532,-0.1286433432437324,-0.3661835792240517,-0.4603790952278497,1.237194167564562,-0.1600936819495878,-0.8754115661198797,-0.859461465779085,9.541191702278413,-0.9056632839994524,0.0934281807940024,-1.0182095072585038
0.36,-0.6648117045013942,1.8398487182141496,1.863733265680013,0.1148462838344812,0.0793140624866633,0.0419183524902307,-0.0721051831294204,-0.3177317633112974,-0.2961864707774728,-0.6666540503460194,1.8467928126626436,1.858055138939537,-0.1411686483956718,-0.4061835798200981,-0.5003790958238961,1.3392779708994536,-0.189175636034003,-0.9101450763665836,-0.9641130649635204,9.474863374500272,-0.9036994194367728,0.0936308399580736,-1.0235065014998104
0.38,-0.6662971617098669,1.833306748964776,1.8575976341200255,0.1107948108661244,0.0789979590919212,0.0411380279114508,-0.0762637230874135,-0.3354602638751783,-0.3164499618568063,-0.6693521702624136,1.8390691410722015,1.8484475570290195,-0.1536939535476112,-0.4461835804161445,-0.5403790964199425,1.3621694622439442,-0.2079269978996559,-0.8864250281940461,-1.013174553966678,9.416111950757111,-0.9017222162082924,0.0935385560477341,-1.0289275286118669
0.4,-0.6678692453480801,1.826417031201772,1.8510462294372003,0.1068925631094303,0.078777934427448,0.040374662998779,-0.0807217444904535,-0.3525144315621651,-0.3376750998531701,-0.6701103478642375,1.8165337357710167,1.8417751360271852,-0.1073069135964944,-0.4354602653652945,-0.4164499633469224,1.3795153798440516,-0.2229010701520005,-0.8527083843493377,-1.0612568998181886,9.325549300637247,-0.8996263491819728,0.093262698111128,-1.0344079985566306
0.42,-0.6694327070012254,1.8195501002990635,1.8446650941852716,0.1037115058602476,0.078873447547843,0.0397141311499309,-0.083491521562673,-0.3697266346776717,-0.3315844241344169,-0.6701103478642375,1.8165337357710167,1.8417751360271852,-0.1073069135964944,-0.4354602653652945,-0.4164499633469224,0.9233470796919476,-0.138488853610974,-0.8606101557753321,0.3045337859376607,11.062257696302368,-0.9047754521399484,0.0914630411924342,-1.0349501802354557
0.44,-0.6711313570008399,1.8119782818928056,1.838081420019991,0.1013526403649475,0.0793561551188943,0.0391209629145349,-0.0862128250355278,-0.3867027063928189,-0.327572037639322,-0.6701103478642375,1.8165337357710167,1.8417751360271852,-0.1073069135964944,-0.4354602653652945,-0.4164499633469224,0.8827396967045409,-0.1360651736427361,-0.8488035857573573,0.2006193247547444,11.062257696302368,-0.906105073233956,0.0944549355393926,-1.032238116214128
0.46,-0.6728856458332739,1.8040681864348629,1.8315080228687368,0.0997024183371946,0.0799806667894793,0.0385839308757023,-0.0890558441697196,-0.4035072028248732,-0.3299422249624284,-0.6711834170002025,1.812179133117364,1.837610636393716,-0.1135155516983106,-0.4554602656633177,-0.4364499636449457,0.8603656869013928,-0.142150956709592,-0.8402248216027169,-0.1185093661553199,10.677640358336248,-0.9059706069143484,0.0957708196780561,-1.0319710029978726
0.48,-0.6746979457788809,1.7958274434562658,1.824836175874269,0.0984298153486739,0.0806087361907838,0.0380660054506155,-0.0920201745143591,-0.4197290668951076,-0.3371146391164072,-0.6733295552721323,1.8034699278100583,1.8292816371267775,-0.125932827901943,-0.4954602662593641,-0.4764499642409922,0.899137994277726,-0.148216517231977,-0.8110932035117202,-0.3586207076989423,10.063569690346412,-0.9053777431077488,0.0960120989581908,-1.0330343695240165
0.5,-0.676475750020433,1.7877045138708514,1.8183281622479013,0.0975611674253835,0.0811402280133985,0.0375845359912686,-0.0949634973422417,-0.4345161259375,-0.3475776099393491,-0.6754756935440622,1.7947607225027524,1.8209526378598395,-0.1383501041055753,-0.5354602668554106,-0.5164499648370386,0.9175974373793564,-0.1471661413941297,-0.7393529521196179,-0.5231485411470921,10.063569690346412,-0.9039847559941862,0.095250597644167,-1.0355962261181082
0.52,-0.6784089719447608,1.7788585980982117,1.811228498597812,0.0971437795458819,0.081596142508711,0.0370952436250285,-0.098200292418219,-0.4493526132842498,-0.3618444837344329,-0.6782426956261738,1.784051517165644,1.8106236385630985,-0.1507673803092077,-0.5754602674514571,-0.5564499654330851,1.0418035887812391,-0.1618397537988612,-0.7418243673374902,-0.7133436897541923,9.681365095370891,-0.9019858037777226,0.0934669028397078,-1.03935880376041
0.54,-0.6803056421936154,1.770182085533431,1.8042055618057813,0.0973149744333523,0.0819221600157804,0.0366525499608914,-0.1012868664567167,-0.4632734989674139,-0.3767053887483834,-0.6810096977082852,1.773342311828536,1.8002946392663577,-0.1631846565128401,-0.6154602680475035,-0.5964499660291316,1.0297627097206783,-0.1543287019248898,-0.6960442841582065,-0.7430452506975216,9.681365095370891,-0.9000049310862397,0.0907923696264964,-1.0435485852504196
0.56,-0.6823664815495044,1.7607544772408668,1.7964959558932565,0.0978429198613102,0.0821945695480016,0.0361958928794838,-0.1046335854025354,-0.4787338605565768,-0.3935265545021668,-0.6840871316954876,1.7616331064765265,1.7889656399547158,-0.1756019327164724,-0.6554602686435499,-0.6364499666251779,1.1545290441195306,-0.1673359472909322,-0.7730180794581459,-0.8410582876891726,9.56115580567075,-0.897724035268939,0.0873888708807246,-1.048436490308997
0.58,-0.684495238079062,1.7510072303593034,1.788437829436083,0.0981950667406917,0.0824742878661261,0.035719419367043,-0.1080599534847627,-0.4950916632926681,-0.411439365329864,-0.6874749975877807,1.748923901109616,1.7766366406281726,-0.1880192089201047,-0.6954602692395964,-0.6764499672212244,1.2249352027113996,-0.171318404111366,-0.8178901368045638,-0.8956405413848595,9.56115580567075,-0.8953118486263735,0.0839602829335207,-1.053636671697631
0.6,-0.6866929131883562,1.7409254337844997,1.7800108870574434,0.0979154349816034,0.082817843955513,0.0351976402866792,-0.1115162582269574,-0.5121045918694332,-0.4303525653352336,-0.6898982357533001,1.72625264719467,1.76786586116959,-0.1376832086183916,-0.5950916647827842,-0.5114393668199801,1.2836421967122886,-0.1728152371097364,-0.8506464288382559,-0.945660000268478,9.516963871814369,-0.8929183154525097,0.0812175192117805,-1.0586775770859362
0.62,-0.6888257035703171,1.7309709921942027,1.7719391152694857,0.095780207772567,0.0834192334544653,0.0345929646393225,-0.1127588059079684,-0.5342268834014101,-0.4182810250065162,-0.6898982357533001,1.72625264719467,1.76786586116959,-0.1376832086183916,-0.5950916647827842,-0.5114393668199801,1.261607895973636,-0.062127384050549,-1.1061145765988434,0.6035770164358661,9.47340221407103,-0.9031924257541196,0.0816413189015391,-1.0507972948259257
0.64,-0.6910936812357251,1.7200859608514971,1.763667774215393,0.0918452648092935,0.0843579873914704,0.0338651503186965,-0.1139672796904539,-0.5527418876512958,-0.4098719506244135,-0.6898982357533001,1.72625264719467,1.76786586116959,-0.1376832086183916,-0.5950916647827842,-0.5114393668199801,1.0185508372437504,-0.0604236891242719,-0.9257502124942862,0.4204537191051377,11.406266507392502,-0.9021668181112776,0.0853996268998463,-1.050927660219969
0.66,-0.693387472453974,1.708862941557059,1.755486845337325,0.0877229469102827,0.085333773889032,0.0331261985303158,-0.1153349153381786,-0.5685261230289098,-0.4085969760997574,-0.691275067839484,1.7203017305468422,1.76275146750139,-0.1436078596451173,-0.6150916650808074,-0.5314393671180033,0.7947296297473909,-0.0683817823862363,-0.7892117688806988,0.063748726232804,10.959014993300116,-0.9003449291063836,0.0887171511172314,-1.0522926326542177
0.68,-0.69559371790349,1.6979277065164278,1.7476854291498685,0.0840522659838543,0.0861635738867495,0.0324325898251154,-0.1168278847771423,-0.5817655273675714,-0.4126562723973695,-0.6940287320118519,1.7083998972511865,1.7525226801649905,-0.1554571616985689,-0.6550916656768538,-0.5714393677140498,0.6963990799463646,-0.0746484719481868,-0.6619702169330777,-0.2029648148806045,10.230855077045817,-0.8995831330785283,0.0919918916511752,-1.0526804863964592
0.7000000000000001,-0.6979487988105845,1.6861602682039365,1.7393456136516876,0.0806768058441063,0.0868748171133829,0.0317238956986807,-0.1186111578074172,-0.5943045672011082,-0.4213163105199567,-0.6967823961842197,1.6964980639555307,1.742293892828591,-0.1673064637520204,-0.6950916662729003,-0.6114393683100963,0.7671437983393236,-0.0891636515137427,-0.626951991676844,-0.4330019061293599,9.974822402142308,-0.8978959359824528,0.0940363354488104,-1.0548357643693278
0.72,-0.700341973515219,1.6741521708783291,1.7307918226901098,0.0778815341289328,0.0874113400218581,0.0310434152894691,-0.1206260506999766,-0.6059255814818155,-0.4337892942663138,-0.7001285254592601,1.6825962306300726,1.730065105462389,-0.179155765805472,-0.7350916668689468,-0.6514393689061427,0.8583167973099688,-0.1007446446279709,-0.5810507140353638,-0.623649187317854,9.7725222058707,-0.895618812377952,0.0949698105682634,-1.0582477984625058
0.74,-0.7027765449668292,1.6619191035641216,1.7219655181520133,0.0756781944169877,0.0877876236442773,0.0303940449437943,-0.1227299934188279,-0.6169263911711352,-0.4482207384135788,-0.7034746547343005,1.6686943973046149,1.717836318096187,-0.1910050678589235,-0.7750916674649933,-0.6914393695021892,0.913387881680706,-0.1051971359425654,-0.5500404844659856,-0.7215722073632497,9.685259306915214,-0.8932948929658618,0.09487097401364,-1.0622455016995649
0.76,-0.70512993454048,1.6500891708617431,1.7133001866684103,0.0738268404088523,0.0880562084758372,0.0297895735885113,-0.1248835959938495,-0.627707635713818,-0.4631986406528774,-0.7071170165606772,1.6537925639642554,1.704607530715084,-0.202854369912375,-0.8150916680610396,-0.7314393700982356,0.928992456145708,-0.1076801287510781,-0.5390622271341405,-0.7488951119649312,9.685259306915214,-0.8906633631719739,0.0942814555021712,-1.0669478076316925
0.78,-0.707652791521529,1.6374180842196528,1.7038576229389886,0.0718931539967085,0.0883255879875494,0.0291561662369997,-0.1272848027557324,-0.638756686464826,-0.4803329876209667,-0.7110556109383901,1.6378907306089951,1.6903787433190798,-0.2147036719658266,-0.8550916686570861,-0.771439370694282,1.0264418668810866,-0.1200603380941467,-0.5524525375503964,-0.8567173484044649,9.621713444720626,-0.8882800848054416,0.0937936855947567,-1.0713108163766047
0.8,-0.7102249565856742,1.6245292361320574,1.694058989653893,0.0699042659211046,0.0886373857765972,0.0285252648787338,-0.1298027464117133,-0.6494798555954309,-0.4987203783371192,-0.7140170316593156,1.6054802498964116,1.6798409735579405,-0.1473235788554143,-0.7387566879549421,-0.5803329891110829,1.071707205591509,-0.1258971827990437,-0.5361584565302446,-0.9193695358076264,9.549078865798949,-0.8864704420978295,0.0935577924085707,-1.074928095754976
0.8200000000000001,-0.7128414981204871,1.6113952085445729,1.6841957946612147,0.0674088634740088,0.0897057242572473,0.0279146328934594,-0.1314756416739005,-0.6631507530108944,-0.4850206045813534,-0.7140170316593156,1.6054802498964116,1.6798409735579405,-0.1473235788554143,-0.7387566879549421,-0.5803329891110829,0.971308158698294,-0.0836447631093612,-0.6835448707731784,0.6849886877882932,9.486740769982134,-0.8935903253280904,0.0936847632073697,-1.0703179739935382
0.84,-0.7153506818566915,1.5986902994772203,1.675080578612003,0.0649341231465111,0.0918331977347462,0.027403699979567,-0.1324128455004825,-0.6735865627779049,-0.4753447245038857,-0.7140170316593156,1.6054802498964116,1.6798409735579405,-0.1473235788554143,-0.7387566879549421,-0.5803329891110829,0.7131043608395016,-0.0468601913290983,-0.5217904883505209,0.4837940038733834,11.560638537172965,-0.8913667846915433,0.0966896080187424,-1.0709146876981797
0.86,-0.7180024967311711,1.5851156737835206,1.6656154135913663,0.0627724649487175,0.094657997202415,0.026934792105978,-0.1326145234543379,-0.6833619493543109,-0.4719936637260787,-0.7154902674478698,1.5980926830168622,1.6740376436668294,-0.1513313340753506,-0.7587566882529653,-0.6003329894091061,0.5167892826186697,-0.0100838976927711,-0.4887693288203043,0.1675530388903473,11.079718956948454,-0.8876897228161394,0.0986928568827602,-1.0734982648742553
0.88,-0.7206508410708533,1.571354723355447,1.6561525049361732,0.0611200810036181,0.0976143441682816,0.0265099115352494,-0.1321378955723622,-0.6922792727646303,-0.474708703950172,-0.7184367390249781,1.5833175492577634,1.662430983884608,-0.1593468445152234,-0.7987566888490117,-0.6403329900051525,0.4666831750785291,0.0238313940987874,-0.4458661705159683,-0.1357520112046623,10.651613165615345,-0.8836657695784801,0.0996809314577919,-1.0770020818770096
0.9,-0.7232837604574281,1.557425030545352,1.6465787804420864,0.0600847373075632,0.1003760736188893,0.0261175770622932,-0.131130275959881,-0.700326725618017,-0.4825168188029483,-0.7213832106020863,1.5685424154986645,1.650824324102386,-0.1673623549550961,-0.8387566894450582,-0.680332990601199,0.562901972516274,0.0503809806240596,-0.4023726426693352,-0.3904057426388163,10.311601472378245,-0.8789454123535773,0.0996316574384525,-1.081792166612226
0.92,-0.7257623107784545,1.5440500176218683,1.6373028555849756,0.0598619741752042,0.1026477786146734,0.0257792415885128,-0.12980259985926,-0.707269329666591,-0.4935136599798734,-0.7247304577011883,1.5517672817097632,1.6372176642903622,-0.1753778653949689,-0.8787566900411047,-0.7203329911972455,0.6536302293230313,0.0663838050310505,-0.3471302024286971,-0.549842058846256,10.04984422409052,-0.8741322643678865,0.0984194709841187,-1.08717492777471
0.94,-0.7283399193855691,1.529833434656286,1.627294874644032,0.0606802171275481,0.1045747162042985,0.02547203727792,-0.1280172537834548,-0.7141268566155127,-0.5067850174551982,-0.7280777048002902,1.534992147920862,1.623611004478338,-0.1833933758348416,-0.9187566906371512,-0.760332991793292,0.7522334506378969,0.0892673037902566,-0.3428763474460861,-0.6635678737662382,9.849564605021442,-0.8701838688860531,0.0959436067900327,-1.092095262703749
0.96,-0.7308788909577848,1.515469076603552,1.6170085830071166,0.0624338635477611,0.1060037779300449,0.0252029660283052,-0.1259724834448848,-0.7220159385562467,-0.5212299375665024,-0.7316253396603889,1.5172170141170598,1.6090043446514128,-0.1914088862747144,-0.9587566912331976,-0.8003329923893383,0.829268377286676,0.1022385169285017,-0.3944540970367005,-0.722246005565208,9.712870182924236,-0.8666119360834733,0.0923030336619156,-1.0970261953086595
0.98,-0.7333752273793132,1.5009344754064395,1.6064215789617058,0.0646064934486739,0.1069640967226566,0.0249356780052469,-0.1237865430493705,-0.7311073639389323,-0.5367575330553961,-0.7353733622814845,1.498441880298356,1.5933976848095863,-0.1994243967145871,-0.998756691829244,-0.8403329929853848,0.9062816512657548,0.1092970197757156,-0.4545712691342796,-0.7763797744446854,9.712870182924236,-0.8637792999489283,0.0884623310628608,-1.1012184273007193
1.0,-0.7357059952585422,1.4869440548506547,1.5960669035444088,0.0664983399705539,0.1074951681033599,0.0246455772797826,-0.1216958466951614,-0.7410173385268728,-0.5524281095363683,-0.7395645545317817,1.464379107209493,1.579583702308936,-0.1295835492391936,-0.8311073654290484,-0.6367575345455122,0.9329329756541068,0.1045348177104513,-0.4954987293970259,-0.7835288240486127,9.666598634020374,-0.8622349387226164,0.0850687848302432,-1.1037659928294898
1.02,-0.7381100507521648,1.4719452060593874,1.5851514101390018,0.0666637723362183,0.1085948156901876,0.0242497065296457,-0.1185444514620921,-0.7580573835920759,-0.5366333029991434,-0.7395645545317817,1.464379107209493,1.579583702308936,-0.1295835492391936,-0.8311073654290484,-0.6367575345455122,1.172359097383912,0.1575697616534643,-0.8520022532601534,0.7897403268612491,9.62281193729359,-0.8659538751563314,0.0817097919367566,-1.1036545347209958
1.04,-0.740442082356519,1.4566234274467995,1.5745519140262838,0.0642819114527413,0.1108739372417008,0.0237564840751758,-0.1146515978798691,-0.7730270773429817,-0.5242750845487173,-0.7395645545317817,1.464379107209493,1.579583702308936,-0.1295835492391936,-0.8311073654290484,-0.6367575345455122,0.9899136367342704,0.1946426791111538,-0.7484846875452922,0.6179109225213031,11.759657355544732,-0.8630241035192182,0.0843436597034828,-1.104959045448005
1.06,-0.7426879682395016,1.4410332082902624,1.5641223304007306,0.0604227229965047,0.1136565843098248,0.0231926489997812,-0.1100330704689179,-0.784796523321146,-0.5192632790083157,-0.7408603900241737,1.4560680335552023,1.573216126963481,-0.1307429504771582,-0.8511073657270716,-0.6567575348435354,0.6800162660801496,0.2309263705475579,-0.5884722989082158,0.2505902770200796,11.277063247049227,-0.8586463109881484,0.0882577591034149,-1.1077805890711936
1.08,-0.7447306546674594,1.426036309209502,1.5542473715655312,0.0566326256842649,0.1162834313116642,0.0226466291720477,-0.1051704828316177,-0.7932246465139304,-0.5204488292652458,-0.7434520610089576,1.4394458862466215,1.5604809762725709,-0.1330617529530875,-0.891107366323118,-0.6967575354395819,0.4901110805084976,0.2431293818650128,-0.4214061596392204,-0.0592775128465061,10.820765034362012,-0.8542711932730639,0.0920739427430421,-1.110918264442201
1.1,-0.7467775851618663,1.4100963806228963,1.5437779426987632,0.0531279440420995,0.1187349157555703,0.0220887887233239,-0.0997601936053538,-0.8003724230974946,-0.5266626666903015,-0.7460437319937414,1.4228237389380405,1.5477458255816603,-0.1353805554290168,-0.9311073669191644,-0.7367575360356283,0.5453753641882726,0.2705144613131905,-0.3573888291782068,-0.3106918712527828,10.453412822324026,-0.849997533688504,0.095184901470831,-1.1142803922166062
1.12,-0.748714371975736,1.3940248942363247,1.533138534273952,0.0503301009971336,0.1207033165791259,0.0215580900789021,-0.0941934684993181,-0.8065111103651218,-0.5371435627004207,-0.7487513431023217,1.404201591599657,1.533010674860948,-0.137699357904946,-0.971107367515211,-0.7767575366316748,0.6680589250785267,0.2783362553017851,-0.3069343633813615,-0.5240448005059628,9.934677776837816,-0.8464099690218586,0.0975093975144983,-1.1172195941782763
1.14,-0.7505376418399691,1.377838349609153,1.5222638755916214,0.0482944290883109,0.1220979645301877,0.0210575950750472,-0.0884383230087636,-0.8120305673602314,-0.5497981668268974,-0.751458954210902,1.385579444261274,1.5182755241402357,-0.1400181603808753,-1.0111073681112577,-0.8167575372277213,0.7478721661088786,0.2877572745277251,-0.2759728497554792,-0.6327302063238338,9.934677776837816,-0.8436781866191748,0.0987051535015635,-1.1198837526700876
1.16,-0.7521621715920123,1.3623536579884017,1.5116851386137673,0.0467557838220284,0.1228840798755424,0.0205906321620235,-0.0828929549937227,-0.8176447567308998,-0.5631223878535013,-0.7542245353813807,1.3659572969079894,1.5025403734046217,-0.1423369628568045,-1.0511073687073038,-0.8567575378237676,0.7742820782469366,0.2772684007520447,-0.2807094685334188,-0.6662110513301955,9.83641663293838,-0.8410858842634489,0.0992672935963694,-1.122877708707278
1.18,-0.7537598026465886,1.3459404037545804,1.5002623209135972,0.0453106466946601,0.1231916234090151,0.0200953897050599,-0.077205652997344,-0.8233479245389822,-0.5785210801545024,-0.7570480866137574,1.3453351495398038,1.4858052226541067,-0.1446557653327338,-1.0911073693033502,-0.8967575384198141,0.8688947744492318,0.2843650998189388,-0.2851583904041221,-0.7699346150500552,9.692948723188238,-0.8393203181446337,0.0997841834280421,-1.125070159395899
1.2,-0.7552458974245473,1.329415338141836,1.4885169460193666,0.0439861276538098,0.1230282633093283,0.0195967510435525,-0.0717463393640373,-0.8288266111713657,-0.595240864690804,-0.7576200852964557,1.3047730075276311,1.471336266905872,-0.0630879557435207,-0.9233479260290984,-0.635761353957975,0.9211016603814864,0.2729656816653311,-0.2739343316191744,-0.8359892268150759,9.692948723188238,-0.8380888511314004,0.1001513482805798,-1.126858745545958
1.22,-0.7566061744793131,1.312734720999133,1.4768421483917986,0.0417928260977397,0.123497679409004,0.0190747825775634,-0.0643034525444017,-0.838260876480762,-0.5713682874232894,-0.7576200852964557,1.3047730075276311,1.471336266905872,-0.0630879557435207,-0.9233479260290984,-0.635761353957975,1.3363213231961066,0.3721443409817809,-0.4717132654698142,1.1936288633757286,12.202442877453905,-0.8406419210787461,0.0975380879258201,-1.12990231394822
1.24,-0.7577522572584346,1.2967453449254436,1.4661720310118802,0.0391663423659834,0.1250332423312244,0.0185950794374952,-0.0565893096410365,-0.8443103299556738,-0.5531073188175925,-0.7576200852964557,1.3047730075276311,1.471336266905872,-0.0630879557435207,-0.9233479260290984,-0.635761353957975,1.0362997424694644,0.3857071451682608,-0.3024726737455907,0.9130484302848464,12.202442877453905,-0.8380290989155132,0.101305478128018,-1.130275155993839
1.26,-0.7587929926823276,1.2798111844565907,1.4552525954371387,0.0367500548212961,0.1271122684273536,0.0181399229814643,-0.0478220974481785,-0.8488556084482962,-0.5400818945118256,-0.758250964853891,1.29553952826734,1.4649786533662923,-0.060264416292756,-0.9433479263271216,-0.6472094087186695,0.817290102343341,0.4383606096429022,-0.2272639246311214,0.6512712152883404,11.717939831832156,-0.8344275546495273,0.1044530149200083,-1.131796439762704
1.28,-0.7596529575212712,1.262798645393398,1.4445296389939903,0.0350564795591016,0.1291177766596687,0.0177402281988977,-0.0385868142328873,-0.8523452745396937,-0.532845662210424,-0.7595127239687613,1.2770725697467582,1.4522634262871328,-0.0546173373912267,-0.983347926923168,-0.6701055182400585,0.6120279475153423,0.4617641607645582,-0.1744833045698723,0.3618116150700845,11.308117646378378,-0.8319122389021846,0.1070994606799211,-1.1320423691475232
1.3,-0.7602957711294188,1.246580477552018,1.4344358947529272,0.0343016592850329,0.1306385247701119,0.0174147280954273,-0.0295561963648697,-0.8547981603469512,-0.5300134263557575,-0.7607744830836318,1.2586056112261763,1.4395481992079733,-0.0489702584896974,-1.0233479275192146,-0.6930016277614475,0.4888513777163307,0.4515308934008789,-0.1226442903628777,0.1416117927333204,10.978658643688505,-0.8290638014704934,0.1084032566202083,-1.1333153635028237
1.32,-0.760786703104623,1.2294659475826872,1.4238368202463014,0.0347391780113176,0.1316771222932135,0.0171476761402168,-0.0200479046547456,-0.8566492111518034,-0.5301867135807103,-0.7617538882534258,1.238138652675792,1.4256881666527443,-0.0433231795881681,-1.063347928115261,-0.7158977372828365,0.484417249871663,0.4754145855062044,-0.0925525402426075,-0.00866436124764,10.730694726078582,-0.827218061149061,0.1082826706462871,-1.1340270605744125
1.34,-0.761086161167731,1.2123169408795618,1.4132209026951548,0.0367549511883347,0.1320725900447558,0.0169760141896746,-0.0104181650057666,-0.8583321080706194,-0.5314232873601366,-0.7627332934232197,1.2176716941254078,1.4118281340975154,-0.0376761006866388,-1.1033479287113075,-0.7387938468042256,0.4926792629552314,0.481486982448952,-0.0841448459408034,-0.0618286889713104,10.54214395143572,-0.8256269882072792,0.105927761792239,-1.1354724732689443
1.36,-0.7611915524579675,1.1951131164668185,1.4025744092058814,0.0399628888682374,0.131767695802234,0.0168655165437882,-0.0006995801979929,-0.8623134136778017,-0.5331737811090425,-0.7635715216204755,1.1962047355601224,1.3973956988042515,-0.0320290217851095,-1.1433479293073538,-0.7616899563256145,0.5323671509602855,0.4859292403886835,-0.1990652803591119,-0.087524687445295,10.49690746197939,-0.82454764693079,0.1022717521038884,-1.1369461862217949
1.38,-0.7611121416469051,1.1786716062838056,1.392423715035462,0.042998783325231,0.1308098567956861,0.016733017410895,0.0085007385929265,-0.868133540853884,-0.5352299530140351,-0.7642685728451929,1.1737377769799358,1.3823908607729534,-0.0263819428835802,-1.1833479299034002,-0.7845860658470035,0.5539575550148184,0.4600159395459733,-0.2910063588041134,-0.1028085952496316,10.45734097800505,-0.8244424364112218,0.0983539195904683,-1.137767244115523
1.4,-0.7608418987720516,1.1612345541057545,1.3816909276797726,0.0457283864949014,0.1290297550422744,0.0165256454547675,0.0179719359080059,-0.8752149810839981,-0.5379602771069798,-0.7606871047172588,1.1352649292411114,1.36566221738476,0.0195041071270742,-0.968133542344,-0.5389977793756168,0.6068464467358303,0.4735598657539713,-0.3540720115057072,-0.1365162046472356,10.45734097800505,-0.8253679695062972,0.0949429906798764,-1.137760487616089
1.42,-0.7603357390850303,1.143569607972379,1.3711713894116286,0.0457168909150337,0.1259184372222473,0.0160665947938871,0.0322491648533387,-0.8903118175974609,-0.5123561150350888,-0.7606871047172588,1.1352649292411114,1.36566221738476,0.0195041071270742,-0.968133542344,-0.5389977793756168,1.6487319782755276,0.7138614472666404,-0.7548418256731415,1.280208103594549,10.4242960939182,-0.8352941137363955,0.0925086537994406,-1.1321161843463683
1.44,-0.7595468386983192,1.1256309732713887,1.361192196622197,0.0419551674793919,0.1208125106803803,0.0152779196283952,0.0456233945113533,-0.9019966601991014,-0.4869212635864254,-0.7606871047172588,1.1352649292411114,1.36566221738476,0.0195041071270742,-0.968133542344,-0.5389977793756168,1.5510780394503063,0.6687114829007305,-0.5842421300820244,1.271742572433168,12.41743383071389,-0.8435843585738029,0.0986901736625437,-1.1218264958982604
1.46,-0.7585775638957266,1.1084263241929475,1.3521434585812473,0.037191116792326,0.1143592145636143,0.0144230228787016,0.0553629457720047,-0.9082681365889216,-0.4667979332228405,-0.760492063645988,1.1255835938176717,1.360272239591004,0.0217047808339037,-0.9881335426420232,-0.5397513446479331,1.1609680225881611,0.4869775630325694,-0.3135738194910031,1.0061665181792467,12.138278241697662,-0.8528137966167063,0.1061625453799404,-1.1109556373826237
1.48,-0.7573949465104293,1.0902209848078233,1.3429956092594244,0.032549604431148,0.1067193518787843,0.0135748100201795,0.0620481762007195,-0.9119806521827044,-0.4491888546849997,-0.7601019815034465,1.106220922970791,1.3494922840034915,0.0261061282475628,-1.0281335432380698,-0.5412584751925658,0.9598889582536874,0.334261521435741,-0.1856257796891414,0.8804539268920386,11.559475488369571,-0.8628978164575672,0.1128198789606241,-1.0997433971089323
1.5,-0.7561156255800466,1.0719604666322686,1.3341600954511683,0.0288911010313192,0.0989946037832503,0.0128469173879866,0.0653324627579274,-0.9141263857094688,-0.4352025990812333,-0.759711899360905,1.0868582521239114,1.3387123284159792,0.0305074756612219,-1.0681335438341162,-0.5427656057371985,0.7263023756873316,0.1642143278603919,-0.1072866763382196,0.6993127801883214,11.559475488369571,-0.8728968700018881,0.1180816467148518,-1.0889399572007763
1.52,-0.7548679366217553,1.0545819438525368,1.3259994120980576,0.0264218271511091,0.092144436546476,0.0122805697304951,0.0657270729995034,-0.91534462126797,-0.42449422547035,-0.7591017498476805,1.065495581247229,1.327857016301235,0.034908823074881,-1.1081335444301623,-0.5442727362818311,0.5392334385704769,0.0197305120788041,-0.06091177792506,0.5354186805441669,11.332081177981308,-0.8817742572323682,0.1217220972601343,-1.0795159389893203
1.54,-0.7535705272657843,1.0362693460570829,1.3176200640852278,0.0249118974483862,0.0858951025949002,0.0118171000515927,0.0638187717060962,-0.9159980885502094,-0.4140235245457395,-0.7584916003344562,1.0441329103705468,1.3170017041864914,0.0393101704885401,-1.1481335450262091,-0.5457798668264638,0.5331608837115125,-0.0954150646703622,-0.0326733641119736,0.5235350462305249,11.157128579906384,-0.8902780417910067,0.1240695445426026,-1.0707086459282131
1.56,-0.75233670346933,1.017940742196066,1.309442669245254,0.0244221905431122,0.0811832431299991,0.0114841321758583,0.0595593891064239,-0.9169122937420178,-0.4042230242961855,-0.7577714171358902,1.0217702394789632,1.3061087138081315,0.0437115179021992,-1.1881335456222557,-0.5472869973710964,0.5362553412429284,-0.2129691299836127,-0.0457102595904201,0.4900250124776989,11.106663157167532,-0.8969721765768065,0.1252492434663392,-1.0636342907480876
1.58,-0.7512097413523695,0.999592017334917,1.3014551450660443,0.0247436019361866,0.0786567580943454,0.0112751479681728,0.053335903487029,-0.9179721815458384,-0.3950080844663941,-0.7569412002519829,0.9984075685724786,1.295178045166156,0.0481128653158583,-1.2281335462183018,-0.5487941279157291,0.5585030247863008,-0.3111742809697462,-0.0529943901910356,0.460746991489569,11.070414198338767,-0.9012243011505648,0.1255018673872425,-1.058889419241069
1.6,-0.7502574390902119,0.9821385522341572,1.2940331327955463,0.025717140846208,0.0785150425927783,0.0111894980429002,0.0474857881705384,-0.9192271526191012,-0.38669988083521,-0.7485429461780181,0.953693408257625,1.281704740842725,0.0806751887266063,-1.0179721830359547,-0.3627663563095891,0.5119205240762092,-0.29250576582453,-0.0627485536631389,0.4154101815592032,11.03761950369153,-0.9044057012556808,0.1252147621767109,-1.0546965285505947
1.62,-0.7493775553141956,0.963681856376554,1.28651841178823,0.0257219395831216,0.0809488831523826,0.0111064704331653,0.0411794194701246,-0.9260248157923522,-0.3644919073081747,-0.7485429461780181,0.953693408257625,1.281704740842725,0.0806751887266063,-1.0179721830359547,-0.3627663563095891,1.203300252410045,-0.3153184350206901,-0.3398831586625461,1.1103986763517648,10.995448937325818,-0.9084229602821792,0.1252393646189777,-1.0500671250819125
1.64,-0.7485985956181627,0.9451121884723668,1.2794647547604767,0.0239451428374253,0.0859379464115087,0.0109748605506009,0.0374313667943488,-0.9304853644535482,-0.3420372714208004,-0.7485429461780181,0.953693408257625,1.281704740842725,0.0806751887266063,-1.0179721830359547,-0.3627663563095891,1.15990847274025,-0.1874026337887902,-0.2230274330598025,1.122731794368717,11.832742637283443,-0.9085811014274128,0.1289513080992304,-1.0461487649081664
1.66,-0.747901181075551,0.9274100901897876,1.2731634540858427,0.0216953055273364,0.0919501976902767,0.0108447389347829,0.0364330343452554,-0.9326063358451568,-0.3223706369270288,-0.747736194290752,0.9435136864272656,1.278077077279629,0.0861430457745218,-1.037972183333978,-0.3563180106782281,0.9902925068313672,-0.0499166224546713,-0.1060485695804247,0.9833317246885798,11.832742637283443,-0.906623882105094,0.1334546554036265,-1.043950267210027
1.68,-0.7471605169858012,0.9087555786302935,1.2669202502439385,0.0197154082354644,0.0987338515735551,0.0107462608166694,0.0379259452856229,-0.9328675231735204,-0.3030542730789818,-0.7461226905162199,0.9231542427665465,1.2708217501534371,0.0970787598703527,-1.0779721839300245,-0.3434213194155061,0.968786501514269,0.0746455470183756,-0.0130593664181888,0.9658181924023485,11.697750215328597,-0.9035693300875024,0.1374761872576687,-1.0430136571462034
1.7,-0.7463645786691236,0.8901089106420355,1.2610486756455188,0.0187128920402161,0.1052940239437571,0.0107168565205102,0.0417624225333143,-0.931891600291537,-0.2851342696436257,-0.7445091867416878,0.9027947991058272,1.2635664230272454,0.1080144739661836,-1.1179721845260708,-0.330524628152784,0.9176021826843148,0.191823862384571,0.0487961440991779,0.8960001717678051,11.59683132448663,-0.9000229880593226,0.1404292305671004,-1.0429052808902712
1.72,-0.7454697967680656,0.8714941620810993,1.2555234688747188,0.0192569559127531,0.111093267583788,0.0107933121858579,0.0475881095852836,-0.9299028922330834,-0.268289668500563,-0.7423488972623641,0.8804353554153058,1.2569559304641895,0.1189501880620145,-1.1579721851221172,-0.317627936890062,0.8967081144917077,0.2912843525984646,0.0994354029226762,0.8422300571531344,11.4481467867854,-0.8967930769152814,0.1417564140347895,-1.0430816846682738
1.74,-0.7444958189017422,0.8538502759292593,1.2505860955415251,0.0215795069596012,0.1155915350604259,0.0109900303759277,0.0546410836274202,-0.9277455646549948,-0.2522826726984652,-0.7401886077830404,0.8580759117247845,1.250345437901134,0.1298859021578454,-1.1979721857181638,-0.30473124562734,0.8812241765388233,0.3526487021068312,0.1078663789044254,0.80034979010489,11.453917426946646,-0.8943013697235236,0.1412462456456419,-1.0428939924744238
1.76,-0.7433132222980036,0.8352934806570353,1.2457209501735718,0.0253938001133067,0.1190799925585815,0.0112868512411545,0.0632445330268033,-0.9284171920685456,-0.2350615651561893,-0.737754925451321,0.8347164680193618,1.2440573626196465,0.1408216162536764,-1.23797218631421,-0.291834554364618,0.963115997599732,0.4301724699691537,-0.0335813706775323,0.8610553771137965,11.453917426946646,-0.8931100634584633,0.1393672549059955,-1.0418137596000416
1.78,-0.7419496269638745,0.8166939188935578,1.241204489236307,0.02925422672415,0.12120096334803,0.0115700180795026,0.072624866817738,-0.9315366100589528,-0.2174248820821515,-0.7350478502672058,0.8103570242990381,1.2380917046197268,0.1517573303495072,-1.2779721869102565,-0.278937863101896,1.0109080330107671,0.4690166895467327,-0.1559708995203579,0.8818341537018922,11.483424294871838,-0.8933788247313281,0.137420558555614,-1.0395729463872054
1.8,-0.7403944352188314,0.798015607433788,1.2370441846278808,0.0325581602888348,0.1219483760842828,0.0117856568534755,0.082270760056304,-0.9360218262251097,-0.1994772032593716,-0.7383183836229875,0.7701170883906101,1.230333245132199,0.1224899449987663,-1.0315366115490687,-0.1504951021353474,1.0431677664122745,0.4822946619283043,-0.2242608083078412,0.8973839411389919,11.512926821546898,-0.8949625539624217,0.1361086512303043,-1.0362373567041092
1.82,-0.7387486410762552,0.780100131221337,1.2334430658521272,0.0324805025075798,0.1218842448600011,0.0117500213848252,0.0904423191293138,-0.9482750248302296,-0.1804299509844287,-0.7383183836229875,0.7701170883906101,1.230333245132199,0.1224899449987663,-1.0315366115490687,-0.1504951021353474,1.2038615711176262,0.4085779536504894,-0.6126599302559987,0.9523626137471444,11.530842538837533,-0.8977634280411327,0.1376175561639872,-1.0316540438209156
1.84,-0.7368516389487682,0.7610479385378721,1.2300581148948462,0.0285843243955152,0.1215038558781892,0.0114528877185676,0.0987824808485628,-0.955575084397809,-0.1589829316654923,-0.7383183836229875,0.7701170883906101,1.230333245132199,0.1224899449987663,-1.0315366115490687,-0.1504951021353474,1.2070872015520118,0.4170080859624482,-0.3650029783789754,1.0723509659468209,11.697331433579166,-0.9018005950466174,0.1432142958794812,-1.0250697997993672
1.86,-0.7347920902300574,0.7419118253040913,1.22710538948974,0.0238777842378417,0.1209087588295983,0.0111160313686304,0.1067094467860543,-0.957661293167521,-0.1373522504950157,-0.7370934841729998,0.7598017222751194,1.228828294110846,0.132462960634972,-1.051536611847092,-0.1371091461459866,1.1565848692419711,0.3963482968745761,-0.1043104384855997,1.0815340585238322,11.73962654740808,-0.9054234991531472,0.1496029782933408,-1.0184141776325817
1.88,-0.7326931006567984,0.723722912304629,1.224698974402184,0.0201682886884619,0.1202485069340092,0.0108689733702023,0.113813701900577,-0.9571382201894784,-0.1170298515918384,-0.7346436852730245,0.739170990044138,1.225818392068139,0.1524089919073833,-1.0915366124431385,-0.110337234167265,1.0767357420143056,0.3552127557261329,0.0261536489021274,1.0161199451588616,11.73962654740808,-0.90917001952917,0.1556642825052217,-1.0114013649793123
1.9,-0.7303419305859224,0.7045998525524577,1.222583536172565,0.0175369871013654,0.1195555665341487,0.0107190107577696,0.1209049260921411,-0.95546525215842,-0.0955752343821337,-0.7321938863730492,0.7185402578131567,1.222808490025432,0.1723550231797947,-1.1315366130391848,-0.0835653221885434,1.132899909726063,0.3545612095782073,0.083648401552927,1.0727308604852388,11.712187621867088,-0.9129684855392464,0.1604808363655879,-1.004478402102006
1.92,-0.7278522513835203,0.6855183057630111,1.2208975907370745,0.0163636032277001,0.1189374434712428,0.0106905837227147,0.1276917673738947,-0.952956038470865,-0.0740838881512936,-0.7287467859094533,0.695909525552373,1.2211371835816611,0.192301054452206,-1.1715366136352312,-0.0567934102098217,1.1338378750149534,0.3393420640876769,0.1254606843777483,1.0745673115420025,11.708496472635488,-0.9167511680799122,0.1639564581863742,-0.997723314362012
1.94,-0.7252291520480593,0.666496890385164,1.2196446171265398,0.0170418288760882,0.1184265003972684,0.0108074393198575,0.1342740745139872,-0.9496338460918052,-0.052274516373918,-0.7252996854458573,0.6732787932915892,1.21946587713789,0.2122470857246174,-1.2115366142312778,-0.0300214982311001,1.151099937900465,0.3291153570046265,0.1661096189529809,1.0904685888687795,11.701877585011973,-0.9203525920652588,0.1657002666063097,-0.991516619451486
1.96,-0.7226144124458481,0.6484798375115605,1.2188633045105317,0.0193884383536275,0.1179833679499509,0.0110468841260577,0.1406101783646085,-0.9472558430466,-0.0310442896695678,-0.7213539342004511,0.6496480610159043,1.2184638684935871,0.2321931169970287,-1.251536614827324,-0.0032495862523785,1.114140516729115,0.3168051925310639,0.118900152260265,1.0615113352175098,11.71445223452156,-0.9244848606823198,0.1661502979085809,-0.984627206874674
1.98,-0.7197314165007619,0.6295389783451765,1.2184852998283917,0.02296689867602,0.1174645927881032,0.0113807945860013,0.1473331342069815,-0.9472761561197288,-0.0078253944796708,-0.7169095321732347,0.6250173287253183,1.2181311576487526,0.2521391482694401,-1.2915366154233705,0.023522325726343,1.2086310869314705,0.336147792118649,-0.0010156536564331,1.16094475949485,11.738749838906188,-0.9287054602594292,0.1654978277118431,-0.9779560575699876
2.0,-0.716713848475761,0.6105713375781219,1.2185795610292625,0.0265259570481562,0.1168276290508097,0.0117144627890424,0.1540505941297835,-0.9495044565853468,0.0161309256620282,-0.7123647597904128,0.58217517053919,1.218094030104408,0.2211027036039541,-1.0472761576098448,0.070269348712525,1.2489944610676846,0.3358729961401005,-0.1114150232809085,1.197816007084954,11.78898184679474,-0.9328471865579396,0.164804376043443,-0.9716582446206872
2.02,-0.7137561370713102,0.5924337486736968,1.2190231637022504,0.0272817289334358,0.1168068656650909,0.011870180242295,0.1569427932463052,-0.9588651988218256,0.0288589403530767,-0.7123647597904128,0.58217517053919,1.218094030104408,0.2211027036039541,-1.0472761576098448,0.070269348712525,0.803104396892073,0.1446099558260846,-0.4680371118239324,0.6364007345524281,11.827748212941517,-0.9313803267139036,0.1665970935366323,-0.9699428422237156
2.04,-0.710581343884705,0.5731946493885081,1.2197534852253316,0.0246044020177699,0.1180898260565125,0.0118400847741995,0.160568681210725,-0.964238224053248,0.0437092224161611,-0.7123647597904128,0.58217517053919,1.218094030104408,0.2211027036039541,-1.0472761576098448,0.070269348712525,0.8101656327893545,0.1812943982209922,-0.2686512615711178,0.7425141031542164,11.110853771891016,-0.9336016560754724,0.1700516946507956,-0.9662774023146916
2.06,-0.7073220873573581,0.5538961709166997,1.2208048522584647,0.0209258691788804,0.1203208524899641,0.0117753658369265,0.1653373624698818,-0.9652620555637124,0.0606766611020362,-0.7101537327543732,0.5717024089630915,1.2187967235915331,0.2358566174833486,-1.067276157907868,0.0858882973509642,0.8827266387055864,0.2384340629578374,-0.0511915755232239,0.8483719342937571,11.270630361595067,-0.9347338297868508,0.1750010492822876,-0.9627248107002546
2.08,-0.7039542254245056,0.5346087457290719,1.222209916887012,0.0179594346014824,0.1231143355019816,0.0117814904066173,0.1713479573598607,-0.9637472986106144,0.07897187575816,-0.7057316786822941,0.5507568858108947,1.2202021105657836,0.2653644452421377,-1.1072761585039146,0.1171261946278425,0.9658372260273036,0.3005297444989452,0.0757378476548942,0.914760732806191,11.375170095864632,-0.9349866246971444,0.1794095766639274,-0.9598627384179088
2.1,-0.7006310839925645,0.5163264846040754,1.223894684321421,0.0163595190267426,0.1259735368287167,0.011884758624389,0.1782468378866372,-0.9611119250750144,0.0974496856710918,-0.7013096246102151,0.5298113626586978,1.2216074975400342,0.2948722730009268,-1.147276159099961,0.1483640919047209,0.9949487491490662,0.3449440263388281,0.131768676780003,0.9238904956465872,11.449266962814365,-0.9349857916130612,0.1831181287414661,-0.9570867230310326
2.12,-0.6969792600803497,0.4971438057348426,1.226060308457925,0.0162987765898687,0.1289326238093972,0.0121169400437154,0.1866655245801044,-0.9574805978209496,0.1181979460349787,-0.6954121791501966,0.5068658394766985,1.2245747793781283,0.3243801007597158,-1.1872761596960073,0.1796019891815992,1.1341859761482225,0.420934334673359,0.1815663627032449,1.0374130181943475,11.518209670559372,-0.934951519560702,0.1855073543355517,-0.9544555989025644
2.14,-0.693147517174697,0.4780392189273761,1.2286500644181215,0.0183435563979175,0.1316185427545313,0.012505156253423,0.196148180783036,-0.9533992981164868,0.1397687900304059,-0.689514733690178,0.4839203162946993,1.227542061216223,0.3538879285185049,-1.227276160292054,0.2108398864584776,1.1956996765656704,0.4741328101465797,0.2040649852231291,1.0785421997713582,11.603352831812115,-0.9350035494013706,0.1862684239880475,-0.9518542436887806
2.16,-0.6891125073985368,0.458993628396691,1.2316813770608075,0.0221557482020507,0.133736063362221,0.013020607092273,0.2068515987266565,-0.9519089092172484,0.1622789458004496,-0.6828795925361898,0.4599747930977989,1.2312902904862393,0.383395756277294,-1.2672761608881002,0.242077783735356,1.248490616242693,0.5351708971810254,0.074519444961929,1.1255077885021862,11.64963847630588,-0.935979597987368,0.1857999392740566,-0.94851531061501
2.18,-0.6850723538899172,0.4408954889227874,1.2349886939667014,0.0259907817103124,0.1349903290160438,0.0135195189472588,0.217819160129768,-0.9532412438860184,0.1847433543765512,-0.6755067556882318,0.4350292698859974,1.2358194671881777,0.412903584036083,-1.3072761614841466,0.2733156810122343,1.2517110004656178,0.5483780701555765,-0.0666167334384959,1.12322042880508,11.70353645670275,-0.938158122447434,0.1856034151678132,-0.9433803610755108
2.2,-0.6805909814871334,0.421801100052481,1.2389430130464143,0.0295675142948845,0.1354373695662758,0.0139975933906521,0.2296739754276682,-0.956090319210784,0.2095739311921291,-0.6741813958834287,0.3932334267284865,1.244225861685529,0.3099872156045262,-1.0532412453761344,0.2434356308543649,1.3831227539049362,0.5927407648950084,-0.1424537662382818,1.2415288407788938,11.776209087815914,-0.9415113960843756,0.1858988759994486,-0.9370124367858296
2.22,-0.6759007935638203,0.4025649616978709,1.2432125703836288,0.0298671061145462,0.1351608925611715,0.0142332775594124,0.2385479823825594,-0.9664738156874808,0.2151938456425158,-0.6741813958834287,0.3932334267284865,1.244225861685529,0.3099872156045262,-1.0532412453761344,0.2434356308543649,0.7384924457072938,0.4437003477445578,-0.5191748238348393,0.2809957225193338,11.851929563033991,-0.938642708479846,0.1895591988402169,-0.9348488704950804
2.24,-0.6712934899175781,0.3841485797262126,1.2473617792651537,0.0266161053955718,0.1346872328631338,0.0142184589017699,0.2460047250846177,-0.9711291235358231,0.2214111464353704,-0.6741813958834287,0.3932334267284865,1.244225861685529,0.3099872156045262,-1.0532412453761344,0.2434356308543649,0.5383533505894841,0.3728371351029172,-0.2327653924171224,0.3108650396427298,10.555015636846292,-0.9392111562097152,0.1927517002094299,-0.9335779800126572
2.26,-0.6662948455754906,0.3647222456435238,1.2518802968355358,0.0225593990148638,0.1344131865850292,0.0141836265978965,0.2534948196889533,-0.971256600182612,0.2302055294932184,-0.6710815237273835,0.3827010142747251,1.246660217994073,0.3284208266994778,-1.0732412456741576,0.2551740861499277,0.5776221534133242,0.3745047302167792,-0.0063738323394402,0.4397191528924024,10.725022934675508,-0.9403605768398308,0.1973517078524694,-0.930653238263105
2.28,-0.6611480740861307,0.3453230098764336,1.2565941233641518,0.0195162669222884,0.1346063997388889,0.0142477216359674,0.2608892463346737,-0.969057533039153,0.2407226716960662,-0.6648817794152929,0.3616361893672025,1.25152893061116,0.3652880488893811,-1.1132412462702042,0.2786509967410532,0.652157423164266,0.3697213322860215,0.1099533571729483,0.5258571101423872,10.850959095384496,-0.9414724036796922,0.2013697561105985,-0.92747527447059
2.3000000000000003,-0.6558512664518727,0.3259796017029642,1.2615331683401338,0.0179703030839527,0.1353318730605206,0.014440789656107,0.2685175387552175,-0.9657851234651652,0.2526499516442717,-0.6586820351032024,0.3405713644596798,1.256397643228247,0.4021552710792844,-1.1532412468662503,0.3021279073321787,0.726566439900918,0.3814146210271874,0.1636204786993889,0.5963639974102763,10.940586863357566,-0.9424828752487991,0.2046777429295961,-0.9241922906264848
2.32,-0.6506734247420487,0.3076714312813889,1.2664599670673355,0.0181968316410279,0.1364733342189616,0.0147612859009216,0.2762237250764177,-0.96186083691349,0.2653611976805935,-0.6506389296816167,0.3175065395223547,1.2624402013748908,0.4390224932691876,-1.1932412474622969,0.3256048179233042,0.7687020039531232,0.3853093160600118,0.1962143275837602,0.6355623018160894,11.021539204000874,-0.943344849008102,0.2067557278339485,-0.9210547821608992
2.34,-0.6450591505735076,0.2884827352381797,1.271915732524061,0.0205990005551122,0.1380549786698307,0.0152666125244154,0.2848870453661353,-0.9574734726059244,0.2795818987549439,-0.642595824260031,0.2944417145850297,1.2684827595215344,0.475889715459091,-1.2332412480583437,0.3490817285144297,0.861002937067529,0.4331660144858779,0.219368215378285,0.7110350537175208,11.106681523757288,-0.9438661946310576,0.2072619558181893,-0.9183390547463446
2.36,-0.6392595453836428,0.2693517983138293,1.2776647202928533,0.0246557249952356,0.1397633876724542,0.0159000173213747,0.294707195688287,-0.9562592273665246,0.2946368603708699,-0.6336310382836977,0.2703768896328035,1.275112240432956,0.5127569376489942,-1.2732412486543898,0.3725586391055552,0.900779680482507,0.4910075161075861,0.0607122619699862,0.7527480807963005,11.153974267335798,-0.9444399229729192,0.2064634674720165,-0.9158518090943534
2.38,-0.6332514709110687,0.250211707808829,1.2837271305816105,0.0287712542656039,0.1412073525124812,0.0165400807040334,0.3055930086198131,-0.9577919601178604,0.3108534870377928,-0.6237445717526169,0.2453120646656762,1.282328644109156,0.5496241598388975,-1.3132412492504362,0.3960355496966806,0.9795779363092442,0.5442906465763037,-0.0766366375667848,0.8108313333461431,11.202245085944924,-0.9453103717821412,0.2057304376178223,-0.9131414926090128
2.4,-0.6273347897596675,0.2319844828030168,1.2897965592720375,0.032113134273352,0.1421060567999623,0.0171013039242619,0.3166206649116242,-0.9606475448058598,0.3272315058099164,-0.617971820480078,0.202322109802936,1.2992698049335,0.4055930101099292,-1.0444845541096166,0.3634501753083616,0.9975007093991116,0.5513828145905592,-0.1427792343999756,0.8189009386061791,11.272515664592902,-0.9466275080194544,0.2055600569690067,-0.9096760404571662
2.42,-0.6208698231838728,0.2126153286465853,1.296387992119146,0.0309500520691113,0.1416411601060184,0.0173274639388694,0.3291781793935934,-0.9748445587887684,0.3303992761686051,-0.617971820480078,0.202322109802936,1.2992698049335,0.4055930101099292,-1.0444845541096166,0.3634501753083616,0.9608344616024536,0.6278757240984562,-0.7098506991454256,0.1583885179344352,10.432122510176669,-0.9476050877200698,0.2103701546953217,-0.9041056470986834
2.44,-0.6141667803059138,0.1930601040244427,1.30304314359285,0.0246767613476532,0.1391646521282453,0.0171609285758142,0.3403258544349478,-0.9791034690290384,0.335081313698205,-0.617971820480078,0.202322109802936,1.2992698049335,0.4055930101099292,-1.0444845541096166,0.3634501753083616,0.6409571957059556,0.5573837520677222,-0.2129455120135071,0.2341018764799973,10.432122510176669,-0.9486099970898696,0.2161414685399456,-0.9012554243422696
2.46,-0.6072626694964128,0.1734972251402455,1.3098076264569782,0.018216510612214,0.1356189436956867,0.0169978039004726,0.3493793575231155,-0.9771739895328962,0.3411394266445275,-0.6139158903789788,0.1918772642618398,1.3029043066865835,0.4255930104079524,-1.0618230729079678,0.3739695129624754,0.5531490345374722,0.4526751544083829,0.0964739748071097,0.3029056473161262,10.635823323860675,-0.951374735716163,0.2228746011781797,-0.8953033449106101
2.48,-0.6005600365194458,0.1549793201049208,1.3163541814225657,0.013469789608754,0.1322038834646003,0.0169785925155037,0.3556065313210108,-0.9726464126926267,0.3476726066225879,-0.6058040301767802,0.1709875731796475,1.3101733101927506,0.4655930110039988,-1.0965001105046706,0.3950081882707029,0.5048739599629445,0.311358689894764,0.2263788420134693,0.3266589989030177,10.635823323860675,-0.9546008002913832,0.2290566714568312,-0.8885808118900903
2.5,-0.5934017120191413,0.1355894855218934,1.3233883287920092,0.0103072017318316,0.1296653757250986,0.0171309718811735,0.3597626821814828,-0.966964616275968,0.3554413180700022,-0.5976921699745816,0.1500978820974551,1.317442313698918,0.5055930116000453,-1.131177148101373,0.4160468635789305,0.5241881295120705,0.2078075430236026,0.284089820832939,0.3884355723707156,10.676655131981532,-0.9571402448782662,0.2336627496331491,-0.88300264692566
2.52,-0.5861761674414713,0.1163187213518797,1.3305875747122975,0.0090306908236005,0.1291445638064588,0.0174541937480307,0.3628334529354207,-0.960659366247638,0.3641285046996255,-0.5875803097425807,0.1274743391354277,1.3257632509704966,0.5455930121960918,-1.1658541856980755,0.437085538887158,0.5582405898913626,0.1535385376968928,0.3152625014165078,0.4343593314811628,10.733129111599736,-0.958953788825136,0.2364592622454133,-0.8790828115572511
2.54,-0.5792487701969432,0.0981357545554542,1.3375943342756735,0.0098286017931952,0.1304540568590341,0.0179278356741726,0.3664509787819064,-0.9539932979794232,0.3729858233295984,-0.5774684495105799,0.1048507961734002,1.3340841882420753,0.5855930127921383,-1.2005312232947782,0.4581242141953856,0.5830417067400907,0.180876292324289,0.3333034134107404,0.4428659314986483,10.809326419085664,-0.9592876881964696,0.2378747776722601,-0.8769500362717333
2.56,-0.5718635778110015,0.0791221003920625,1.3451611239555628,0.01272060387655,0.1331059986070684,0.0185922192235367,0.3720770399337446,-0.9480417508291752,0.383268601481248,-0.5663565892636777,0.0813603272714552,1.3429310923963595,0.6255930133881846,-1.2352082608914807,0.4791628895036131,0.6572841928760488,0.2813030575919084,0.2975773575123963,0.5141389075824759,10.809326419085664,-0.9585930040649197,0.2376147979160673,-0.8764364710745909
2.58,-0.5643440807221151,0.0601952561743315,1.352946509716165,0.0167120652523354,0.136299400588882,0.0193537128345894,0.3797360572308115,-0.9451823414609326,0.39480262797636,-0.5542447290018745,0.0570029324295926,1.3523039634333496,0.6655930139842311,-1.2698852984881834,0.5002015648118406,0.7068778803334939,0.382950864853343,0.1429704684121291,0.5767013247556019,10.93955941059994,-0.9573868796629988,0.2364985910448944,-0.8767243586335561
2.6,-0.5566511672607021,0.0413002129454723,1.3609777144723048,0.0205663879150119,0.1393783294395646,0.0201179180367699,0.3892432782166846,-0.944459211138188,0.4077287603667773,-0.5453572778605745,0.0129361391012849,1.372686641114983,0.4797360587209276,-0.975627654542078,0.4396100955860039,0.8031112421584198,0.4753610492936572,0.0361565161372368,0.6463066195208672,10.93955941059994,-0.95616435427632,0.2355629360918723,-0.8770203772365004
2.62,-0.5491236567696205,0.0231170619491959,1.3687105545112208,0.0159975714501797,0.1403367521183606,0.0202418940791875,0.4023081227657947,-0.9647732540289128,0.4057233722937718,-0.5453572778605745,0.0129361391012849,1.372686641114983,0.4797360587209276,-0.975627654542078,0.4396100955860039,1.2117880208414953,0.6532422274555028,-1.0157021445362513,-0.1002694036502743,11.02264113695037,-0.954901794600154,0.2411648150224598,-0.8751980765155264
2.64,-0.5409483340197293,0.003783762396976,1.3768228149008377,0.0034704533330709,0.1381162247338382,0.0198200554275082,0.4143006164199336,-0.966416015612114,0.4058107895884099,-0.5453572778605745,0.0129361391012849,1.372686641114983,0.4797360587209276,-0.975627654542078,0.4396100955860039,0.6052400586692978,0.5996246827069479,-0.082138079160049,0.0043708647319007,10.150543619472955,-0.95490858447316,0.2519540585718705,-0.8714768403747509
