t,x,y,z,roll,pitch,yaw,v_x,v_y,v_z,ref_x,ref_y,ref_z,ref_v_x,ref_v_y,ref_v_z,a_com,a_x,a_y,a_z,thrust,wind_x,wind_y,wind_z
0.0,2.1414808056656027,-2.1966896803743685,2.1687423518939046,0.0214806760707418,0.0994637779318258,0.0415605358942538,-0.0003214887343767,0.0038649225407843,0.0001831177651994,2.141488610649514,-2.196807988437743,2.16874027134374,-0.0999587327195091,0.0987202341736481,0.020352326027955,0.1941295531888807,-0.0160744367188384,0.1932461270392177,0.0091558882599704,10.256972391760428,-0.941302711386001,0.2603770106525343,-0.8761919414844236
0.02,2.14168177268434,-2.1968855921658,2.168768688255823,0.0132406739816825,0.0932333254398711,0.0408981412401941,0.0195648241443592,-0.0183176040343414,0.0028652644346972,2.141488610649514,-2.196807988437743,2.16874027134374,-0.0999587327195091,0.0987202341736481,0.020352326027955,1.4955967336851232,0.9943156439368026,-1.1091263287562894,0.1341073334748936,10.256179885059282,-0.9538765458408472,0.2596001903184886,-0.8715909998204198
0.04,2.1422007799965463,-2.197262198226214,2.16885109643703,-0.0030223677985014,0.0762228151041723,0.039753971849499,0.0297644731207378,-0.0173424677396071,0.0052361887376332,2.141488610649514,-2.196807988437743,2.16874027134374,-0.0999587327195091,0.0987202341736481,0.020352326027955,0.5258445875087567,0.5099824488189303,0.0487568147367155,0.1185462151467992,10.53096609220256,-0.96562947635873,0.2790693430243311,-0.844650575597387
0.06,2.1427968200013856,-2.1975259990416878,2.168991818433424,-0.0198334663125957,0.0533957173457838,0.0389914654042742,0.028180646991579,-0.0086778727991123,0.0088152527070792,2.140489023322319,-2.1958207860960064,2.1689437946040195,-0.1199587330175323,0.1187202344716713,0.0244119808747425,0.4753772438486091,-0.0791913064579402,0.4332297470247387,0.1789531984722971,10.30886993099557,-0.983263551216175,0.2956221691619471,-0.8131933314281306
0.08,2.143225438318406,-2.1975770888142803,2.1692049498844024,-0.035201132942503,0.0300699768392175,0.0387750365021204,0.0163649121179777,0.0031947079955775,0.013445358241231,2.1384898486679287,-2.1938463814125337,2.169350841124579,-0.1599587336135788,0.1587202350677177,0.0325312905683174,0.8689183543162461,-0.590786743680068,0.5936290397344935,0.2315052767075907,10.331615168527604,-1.0049818945587572,0.3111741147331741,-0.7759918555482564
0.1,2.143336894620365,-2.1973509467282453,2.1695339308411303,-0.0505076579654513,0.0066863255332906,0.03901044483486,-0.0051911007651752,0.0191046653610347,0.0192366023655372,2.1364906740135385,-2.1918719767290606,2.169757887645138,-0.1999587342096253,0.1987202356637642,0.0406506002618923,1.3705171864086878,-1.077800644157649,0.7954978682728588,0.2895622062153128,10.39818049045516,-1.0273062927171386,0.3246825931437191,-0.7374458517210224
0.12,2.1429309426834093,-2.1967511249916067,2.1699846849237487,-0.0641210760776865,-0.0134260477917819,0.0395878591190591,-0.0346141379708804,0.0399568358962823,0.0255773959526795,2.132491499329346,-2.1878975720157854,2.170570899650376,-0.2399587348056717,0.2387202362598106,0.0487699099554672,1.8308015988591604,-1.471151860285258,1.0426085267623804,0.3170396793571126,10.569055301696608,-1.0471700255625436,0.3356705126176164,-0.701584298047633
0.14,2.1419394349150203,-2.195761010631619,2.170537652568603,-0.0747546627262963,-0.0281673504335974,0.0402784119196396,-0.0681003293850203,0.0627786766273178,0.0323560355031783,2.128492324645153,-2.18392316730251,2.1713839116556137,-0.2799587354017182,0.2787202368558572,0.0568892196490421,2.054331633362028,-1.6743095707069977,1.1410920365517754,0.3389319775249392,10.569055301696608,-1.065129502847214,0.3443491447007776,-0.6688041637817161
0.16,2.1401660373763662,-2.194227872498033,2.171265914585548,-0.0834153080738292,-0.0383854555957497,0.0409513581341535,-0.1075596253150229,0.0889456561614867,0.0401923670042055,2.12349314994606,-2.1789487625743336,2.1723999064031907,-0.3199587359977646,0.3187202374519036,0.065008529342617,2.399559826628171,-1.9729647965001305,1.3083489767084462,0.39181657505136,10.663748438251789,-1.0787527780914756,0.3510644804566628,-0.6424725137712122
0.18,2.1375644171758617,-2.1921549738997097,2.17215765117143,-0.0894481539232518,-0.0421694432403307,0.0413497531416783,-0.1501814549232365,0.116587237194338,0.048748373249119,2.117493975232065,-2.172974357831256,2.1736188838931074,-0.359958736593811,0.35872023804795,0.0731278390361919,2.5757924042953624,-2.131091480410676,1.3820790516425665,0.4278003122456776,10.76522801952251,-1.0888310482485517,0.3551756729102558,-0.6242274804923157
0.2,2.134309949092777,-2.1896637989341934,2.1731745133841964,-0.0928443772861963,-0.0399443752194719,0.0413884713152421,-0.1895414634474435,0.1436610064080558,0.0580317720498608,2.1300553444297,-2.186325612039993,2.174595069833886,-0.2501814564133526,0.2165872386844541,0.081464613982981,2.433300610157382,-1.9680004262103503,1.3536884606858888,0.4641699400370895,10.862750336674251,-1.0952311870058908,0.3570575913396329,-0.6145096621929613
0.22,2.130077053754197,-2.186378879882052,2.1743484233663906,-0.0906734566112656,-0.0318475737979494,0.0413018234900931,-0.2308389391589782,0.1819069519834424,0.058711876710146,2.1300553444297,-2.186325612039993,2.174595069833886,-0.2501814564133526,0.2165872386844541,0.081464613982981,2.814558755581934,-2.0648737855767347,1.9122972787693275,0.0340052330142604,10.862750336674251,-1.0950086405799675,0.3589115366882554,-0.6116475889736416
0.24,2.125087911271799,-2.18243246525646,2.1755601417862125,-0.0827671423344537,-0.0190101933597025,0.0412496732815634,-0.2652108265165654,0.209853545558499,0.0627786638210789,2.1300553444297,-2.186325612039993,2.174595069833886,-0.2501814564133526,0.2165872386844541,0.081464613982981,2.2242849920692,-1.71859436787936,1.3973296787528344,0.2033393555466448,10.42931592050354,-1.09268560536376,0.3520940160612704,-0.625914267875286
0.26,2.119777108088085,-2.1782344987992164,2.176814525572779,-0.0744614367625629,-0.0049053245444979,0.0412057887982367,-0.2916172722485559,0.2305698590715954,0.0690811212336558,2.1275535298655663,-2.184159739653148,2.175409715973716,-0.2701814567113759,0.2365872389824773,0.0880078621297533,1.7074740050779706,-1.3203222865995234,1.0358156756548191,0.3151228706288429,10.477385047403004,-1.08799051023127,0.3463586559509821,-0.6409175351241592
0.28,2.1137079577855147,-2.173427332197484,2.178276737648213,-0.066607594167816,0.0100369487184377,0.0412113675920046,-0.3134801797774365,0.2491637816346872,0.0768227742282344,2.122549900737299,-2.179827994879459,2.1770390082533755,-0.3101814573074223,0.2765872395785238,0.1010943584232981,1.4863158084565238,-1.0931453764440324,0.929696128154589,0.3870826497289307,10.49815855536599,-1.0823558803978786,0.3417869602714608,-0.6551496887935803
0.3,2.1072564455419287,-2.168267585906747,2.179896872084836,-0.0602021557367235,0.023648186443725,0.0413055449316936,-0.3303234358777612,0.2660693169620571,0.084766573557524,2.117546271609032,-2.17549625010577,2.178668300533035,-0.3501814579034688,0.3165872401745703,0.1141808547168429,1.2575734059589725,-0.8421628050162361,0.8452767663684954,0.3971899664644812,10.49815855536599,-1.0768635980995445,0.3389657838491566,-0.666497474939782
0.32,2.1005119241942487,-2.1627809970126552,2.1816744647327995,-0.055293780184772,0.034955987754944,0.0415025073941651,-0.3432926109633557,0.2820550948319336,0.0925451531715383,2.110542642450963,-2.169164505302279,2.180951917627372,-0.3901814584995152,0.3565872407706167,0.1272673510103877,1.100285073648409,-0.6484587542797238,0.7992888934938214,0.3889289807007138,10.478419462678175,-1.0722960582461052,0.3377175273230953,-0.6743123559967387
0.34,2.093889802108135,-2.1572767827686943,2.183501936106091,-0.0518151755784414,0.0431722685426949,0.0417840339441341,-0.3532261392149571,0.2967838223691253,0.0993951091536468,2.103539013292893,-2.162832760498788,2.1832355347217085,-0.4301814590955617,0.3965872413666632,0.1403538473039324,0.9520140431566873,-0.4966764125800688,0.7364363768595866,0.3424977991054262,10.447592837695083,-1.0688638279949187,0.337720059005979,-0.6788031745977783
0.36,2.0867248598496744,-2.151174684881226,2.185562198977638,-0.048937934585983,0.0492595583585207,0.0421782573025913,-0.3627994441504256,0.312679792111357,0.1062507509048765,2.095535384119923,-2.155501015680395,2.185846314223384,-0.4701814596916081,0.4365872419627096,0.1534403435974772,0.989102933539549,-0.478665246773427,0.7947984871115865,0.3427820875614842,10.447592837695083,-1.0670081435146894,0.3386751255644483,-0.6797545458713966
0.38,2.079371739893656,-2.144753677534757,2.1877577298383923,-0.0464255118282725,0.0531539057671796,0.042664013798282,-0.3721116879591611,0.3285873874271766,0.1129575299745428,2.086531754932051,-2.147169270847101,2.188784256132398,-0.5101814602876545,0.476587242558756,0.166526839891022,0.9807527198210192,-0.4656121904367732,0.7953797657909795,0.3353389534833127,10.433004048505609,-1.0666814395486206,0.3399679808727523,-0.6780959947354229
0.4,2.071830903152546,-2.138016712950481,2.190087838228537,-0.0440598404805347,0.0553516803013512,0.0432216079118319,-0.3816152998865455,0.3442419223363637,0.1197269529209304,2.060766155495698,-2.128324308163398,2.1934056063371195,-0.4721116894492772,0.4285873889172927,0.1261746382987129,0.9762276756939952,-0.4751805963692207,0.7827267454593556,0.3384711473193795,10.426421861524432,-1.0675291501750752,0.3412184310666967,-0.674868790432944
0.42,2.064486170573724,-2.1313291387256297,2.1923381637813453,-0.0417288786098106,0.0561984214799916,0.0438110771872807,-0.3911468984764643,0.3587523533412872,0.1168102644510258,2.060766155495698,-2.128324308163398,2.1934056063371195,-0.4721116894492772,0.4285873889172927,0.1261746382987129,0.8802145352958871,-0.4765799294959405,0.7255215502461748,-0.1458344234952301,10.428695831388724,-1.066732482423071,0.3435104089811854,-0.6713939514494448
0.44,2.0565612647039258,-2.1240174654577757,2.194645071743884,-0.0397296734888537,0.0558527168181586,0.0444474154889985,-0.4009123674255052,0.3718340642722121,0.1140961557985165,2.060766155495698,-2.128324308163398,2.1934056063371195,-0.4721116894492772,0.4285873889172927,0.1261746382987129,0.8274387144263098,-0.4882734474520422,0.6540855465462431,-0.1357054326254644,9.845886986878211,-1.0675581802077254,0.342515023404499,-0.671337610841091
0.46,2.0484365879096806,-2.1164481704283493,2.1969089317655106,-0.0386494178564034,0.0542848361121616,0.0450629641065872,-0.4111682321510387,0.3845144654379789,0.1124714987963768,2.056045038601205,-2.124038434274225,2.1946673527201064,-0.4921116897473004,0.448587389215316,0.1288180599635469,0.8194736807363393,-0.512793236276679,0.6340200582883398,-0.0812328501069853,9.894882717535438,-1.069324089656006,0.3423988119539184,-0.6690124023498545
0.48,2.0400983364669725,-2.1086300499159925,2.1991527393784005,-0.0386398690032459,0.0517679007273844,0.0456370299960667,-0.4222662333835326,0.3968014060796461,0.1119882130338257,2.04660280481222,-2.1154666864958798,2.1971908454860807,-0.5321116903433468,0.4885873898113624,0.1341049032932149,0.8282030349144043,-0.5549000616246913,0.6143470320833594,-0.0241642881275531,9.954211597124411,-1.0718614751155529,0.3429844044897853,-0.665057738535255
0.5,2.0319601813501618,-2.1009754191436243,2.201284910624441,-0.0397180681050382,0.0488220217198771,0.0461290753650987,-0.4339353834838922,0.4084576733405395,0.1124765025854661,2.037160571023234,-2.106894938717533,2.199714338252055,-0.5721116909393933,0.5285873904074089,0.139391746622883,0.8250394796740657,-0.5834575050179841,0.5828133630446708,0.024414477582018,10.065499764676131,-1.0751737436721964,0.3443535624278757,-0.6594518177358697
0.52,2.023140621778484,-2.0926751552194087,2.203548372864906,-0.0420267776908806,0.0455389111322592,0.0465796400062554,-0.447546110628131,0.4211365274516901,0.113884525656452,2.025718337204446,-2.096323190909385,2.2025021731845125,-0.6121116915354398,0.5685873910034553,0.1446785899525511,0.9327215071166594,-0.6805363572119388,0.6339427055575331,0.0704011535492966,10.065499764676131,-1.0789828626075944,0.34656407612272,-0.6525416624953378
0.54,2.014031085416117,-2.084100576916023,2.205845356931439,-0.0450176333353451,0.0425682884604494,0.0469818334385924,-0.4628607398219659,0.4358552619874691,0.1157600593105201,2.0142761033856584,-2.085751443101237,2.20529000811697,-0.6521116921314862,0.6085873915995018,0.1499654332822191,1.0661808478946389,-0.765731459691743,0.7359367267889466,0.0937766827034038,10.116521388578803,-1.0827849989545208,0.349502812764933,-0.6448735509391417
0.56,2.004592084221667,-2.075206439237691,2.2081832870054448,-0.0476112567977257,0.0406921991558384,0.0473731926953739,-0.4803563759101877,0.4526727908511485,0.1179664427131698,2.001833869551969,-2.074179695278188,2.208210014132669,-0.6921116927275326,0.6485873921955482,0.1552522766118871,1.2183951400630133,-0.87478180441109,0.8408764431839716,0.1103191701324862,10.145098718949155,-1.0857329232539787,0.3521775186184712,-0.6385711475036204
0.58,1.995290246133636,-2.066433277120072,2.2104485721810327,-0.0491163365334328,0.0405816057250132,0.0477362610139642,-0.4976642391689108,0.4697215327481433,0.1204048747944162,1.988391635703379,-2.0616079474402373,2.2112621912316106,-0.7321116933235791,0.6885873927915946,0.1605391199415552,1.2208272624207053,-0.8653931629361539,0.8524370948497395,0.1219216040623201,10.175128244810368,-1.088207927559081,0.3542380930577701,-0.6338644933912374
0.6,1.9851499410237403,-2.056843400315063,2.2128853565640574,-0.0494646936644376,0.0420491104174923,0.048125684993993,-0.5152696664314764,0.4882520948255524,0.1231743219122195,1.9704070341751907,-2.042947200482665,2.216468815920753,-0.5976642406590269,0.5697215342382594,0.1309044145795033,1.2854985777321095,-0.8802713631282821,0.9265281038704554,0.138472355890163,10.193033186625144,-1.089913695880869,0.355913443213652,-0.6304863230336651
0.62,1.9746434683491625,-2.0468351053189977,2.215337557625671,-0.0468034801412765,0.045443598363403,0.0486289652822614,-0.5341916913396,0.5110005011202963,0.1217649963646707,1.9704070341751907,-2.042947200482665,2.216468815920753,-0.5976642406590269,0.5697215342382594,0.1309044145795033,1.4811475399781775,-0.946101245406178,1.137420314737192,-0.0704662773774372,10.197507312839662,-1.0888273604994052,0.357245375530371,-0.6298291196110014
0.64,1.9637898732000656,-2.0364334550715584,2.2177604923291483,-0.0415492985228448,0.0505498837986311,0.0492424609617961,-0.5499103800403049,0.5276109511236093,0.1206615743084487,1.9704070341751907,-2.042947200482665,2.216468815920753,-0.5976642406590269,0.5697215342382594,0.1309044145795033,1.1447726455680935,-0.785934435035246,0.8305225001656535,-0.0551711028111016,9.956639497679134,-1.0875118160709083,0.3543269377140682,-0.6356099700724729
0.66,1.953214809924383,-2.026282575015199,2.220041569721004,-0.0366448542925981,0.0558868492377313,0.0498152544792332,-0.5623294581442072,0.540181907172638,0.1194957886690288,1.9644303917686003,-2.0372499851402823,2.2177778600665485,-0.6176642409570501,0.5897215345362826,0.1330043225365207,0.8854680867971955,-0.6209539051951152,0.6285478024514346,-0.0582892819709933,9.938161757356283,-1.0850538592724217,0.3516856852252278,-0.642331579237267
0.68,1.941851841938036,-2.015357689645181,2.222415942846209,-0.0323779875307365,0.0612786068835122,0.0503792514404921,-0.5731971941249393,0.5518054186823642,0.1179724398266023,1.95247710695542,-2.025855554455517,2.2203959483581386,-0.6576642415530966,0.6297215351323291,0.1372041384505556,0.7992720076096722,-0.5433867990366048,0.581175575486309,-0.0761674421213276,9.938161757356283,-1.0824043721714227,0.3496034484774056,-0.6487125404655992
0.7000000000000001,1.9302910815464696,-2.004209377571401,2.2247558868719053,-0.0292501142968665,0.0658909768520239,0.0508978815033196,-0.5823419744797073,0.5627228760548876,0.1160797387791298,1.9405238221422396,-2.014461123770752,2.2230140366497286,-0.697664242149143,0.6697215357283756,0.1414039543645904,0.7183317486943585,-0.4572390177383978,0.5458728686261682,-0.0946350523736219,9.898763851185322,-1.0799643947441429,0.3483084597946891,-0.6539067876754451
0.72,1.9191506029354493,-1.9934183390630191,2.226942171629253,-0.0272127630382049,0.0692911553827282,0.0513559537848669,-0.5899347944256385,0.5728560750963974,0.1141364909781417,1.9265705372992563,-2.0010666930561847,2.2258421157370205,-0.7376642427451895,0.709721536324422,0.1456037702786253,0.6405248815663418,-0.3796409972965597,0.5066599520754889,-0.0971623900494066,9.898763851185322,-1.078217908295861,0.3476956776797794,-0.6573865535351896
0.74,1.90727507511312,-1.9818538142787945,2.2292026829881206,-0.025975353580418,0.0717353169184511,0.0518028537759824,-0.5972581463219475,0.5831412840817536,0.1120071843937019,1.9126172524562737,-1.9876722623416168,2.2286701948243124,-0.777664243341236,0.7497215369204685,0.1498035861926601,0.6402166691834976,-0.366167594815453,0.5142604492678116,-0.1064653292219906,9.89331456743821,-1.0770669672702995,0.3476036660544333,-0.6595306991138098
0.76,1.8952512116704336,-1.9700773884847576,2.231420908454868,-0.0254888474040526,0.0731906816852042,0.0522176254353544,-0.6048056398487641,0.5939893520041354,0.1099255407682808,1.8976639675983895,-1.9732778316121489,2.231603269309455,-0.8176642439372823,0.7897215375165149,0.154003402106695,0.6689141880114439,-0.3773746763408303,0.5424033961190899,-0.1040821812710535,9.890657182700124,-1.0765059160395276,0.348205787761795,-0.6600249700417041
0.78,1.88307272628236,-1.9580784832918623,2.2336003948108014,-0.0253523259320352,0.0740365571834651,0.0526173151566106,-0.6126873389650532,0.605305112218828,0.108129008731495,1.8817106827256045,-1.9578834008677788,2.234641339192448,-0.8576642445333288,0.8297215381125613,0.1582032180207298,0.6953329014855586,-0.3940849558144554,0.5657880107346303,-0.0898266018392893,9.897383478210031,-1.076465440181343,0.3489605314090519,-0.6596612117610267
0.8,1.8713538346441403,-1.9464652902095767,2.235640757701833,-0.0252712399602188,0.0745665536222622,0.0529947122472796,-0.6204800220233551,0.61649421281654,0.1067395829783613,1.852438359334107,-1.9278132276809208,2.2390068452473764,-0.7126873404551693,0.7053051137089441,0.1060217908235894,0.6852962595774471,-0.3896341529150915,0.5594550298856027,-0.0694712876566874,9.915045581525192,-1.0767420188664962,0.3498443924994975,-0.6587227206819568
0.8200000000000001,1.858835055857988,-1.93398476934498,2.2377166722153463,-0.0241897920403615,0.0755854936936249,0.0534433266638541,-0.6309009776615506,0.6307009216653553,0.1007066052650373,1.852438359334107,-1.9278132276809208,2.2390068452473764,-0.7126873404551693,0.7053051137089441,0.1060217908235894,0.9311601806586628,-0.5210477819097781,0.7103354424407626,-0.3016488856661996,9.93442314830827,-1.0755159597494823,0.3512155963343135,-0.6581921479247372
0.84,1.8461222769823544,-1.9212464492608403,2.2396666091405013,-0.0220581408414474,0.0772857978843077,0.0539416113712965,-0.639744281178965,0.6423713603715798,0.0946320203796203,1.852438359334107,-1.9278132276809208,2.2390068452473764,-0.7126873404551693,0.7053051137089441,0.1060217908235894,0.7926281256475084,-0.4421651758707179,0.5835219353112264,-0.3037292442708478,9.667060564544045,-1.0749944259670228,0.3496007167913991,-0.6611845784195228
0.86,1.833244495971884,-1.908291361098725,2.241497477700344,-0.0199575805255695,0.0790370591819728,0.0544298667875215,-0.647564446071563,0.6526052086927798,0.0887504094289882,1.8453114859295552,-1.9207601765438316,2.240067063155612,-0.7326873407531925,0.7253051140069673,0.1056003472420083,0.7079547615902914,-0.3910082446299034,0.51169241606,-0.2940805475316034,9.686163565944298,-1.0739987887848117,0.3481967320107302,-0.6643349416432469
0.88,1.8208734190761824,-1.8958040464596515,2.243129098614655,-0.0184309914065956,0.0804939581936936,0.0548584919748301,-0.6542722479646994,0.6614559940290119,0.0832859118667108,1.831057739120452,-1.9066540742696525,2.242187498972084,-0.772687341349239,0.7653051146030138,0.1047574600788461,0.6188532558566704,-0.3353900946568178,0.4425392668116035,-0.2732248781138729,9.693111648170998,-1.0730354660605064,0.3470914195102537,-0.6671600702852425
0.9,1.8077195359041227,-1.8824848938850367,2.244735741349367,-0.0176107777662681,0.0816258946761242,0.0552546295923475,-0.6607734035979507,0.6700611681047309,0.0776670925315813,1.8168039923113484,-1.8925479719954736,2.244307934788556,-0.8126873419452855,0.8053051151990602,0.1039145729156839,0.6080402457115954,-0.3250577816625632,0.4302587037859517,-0.2809409667564759,9.700406559363728,-1.0722855699725855,0.3464228575035948,-0.6693805613663386
0.92,1.794439097282615,-1.8689979269598265,2.246232708830304,-0.0178671002802425,0.0822479321712575,0.0555770157781053,-0.6669794918855974,0.6782950795658705,0.0723192782394953,1.8005502454724427,-1.8764418696914924,2.246386226246869,-0.8526873425413319,0.8453051157951067,0.1030716857525216,0.5807580121844861,-0.3103044143823341,0.4116955730569804,-0.2673907146042972,9.709082686030342,-1.0718611152213646,0.3464157478148486,-0.670673862100022
0.94,1.7810357876219918,-1.8553466631659412,2.24762573397586,-0.0193510476903811,0.0823446742954269,0.0558169756069855,-0.6731138544214836,0.6865671594604753,0.067245655041234,1.784296498633537,-1.8603357673875112,2.2484645177051834,-0.8926873431373784,0.8853051163911532,0.1022287985893594,0.5740195159189818,-0.3067181267943142,0.4136039947302383,-0.2536811599130654,9.72583829271025,-1.071820377529408,0.3471463840246321,-0.6708779521590792
0.96,1.7681829416260677,-1.842209095993932,2.248858991368564,-0.0215290538057423,0.0821378034041264,0.0559935206072723,-0.6795291968011442,0.6959573105952351,0.0628241486113163,1.7670427517797302,-1.8432296650686288,2.250521736984418,-0.9326873437334248,0.9253051169871996,0.1013859114261972,0.6100845746527771,-0.3207671189830285,0.4695075567379914,-0.2210753214958859,9.74071420529981,-1.0720569103765856,0.3487910361019466,-0.6698258672013667
0.98,1.7545168724966749,-1.8281677954916489,2.250071031321938,-0.0237990645944543,0.0818825309837611,0.0561790797793984,-0.6867444421144162,0.7076445897756446,0.0586366694715554,1.7487890049110222,-1.8251235627348452,2.252557884084573,-0.9726873443294712,0.965305117583246,0.1005430242630349,0.7179610733136205,-0.3607622656636,0.584363959020473,-0.2093739569880431,9.766373304280933,-1.0725519664496015,0.3505060910198078,-0.6683682073093201
1.0,1.740701965593233,-1.813877359247293,2.251205037155896,-0.0253253617105996,0.0817972294508678,0.0564087600606753,-0.6943386131634263,0.7205889591833851,0.0549780712466903,1.720179650390954,-1.7927855660028666,2.253002864795516,-0.7867444436045323,0.8076445912657607,0.0498466244262392,0.7723559319650748,-0.3797085524505028,0.6472184703870232,-0.1829299112432545,9.795665466337596,-1.073047207790008,0.3518447412419923,-0.6670512489985714
1.02,1.7267009145107233,-1.7992795489294289,2.252245351591503,-0.0243752955989571,0.08292005506924,0.0567741826147778,-0.7050060760671041,0.7377954188301122,0.0492615855494595,1.720179650390954,-1.7927855660028666,2.253002864795516,-0.7867444436045323,0.8076445912657607,0.0498466244262392,1.0518260634516028,-0.5333731451838908,0.860322982336359,-0.2858242848615425,9.825025575215475,-1.071927512559029,0.353057842918785,-0.6667219845606381
1.04,1.7132241964126484,-1.7851260645305151,2.253127768982276,-0.0210276700095833,0.0852813908596882,0.0572538534048721,-0.7129017685927415,0.7508158639630663,0.0439240745168366,1.720179650390954,-1.7927855660028666,2.253002864795516,-0.7867444436045323,0.8076445912657607,0.0498466244262392,0.806788348860847,-0.3947846262818688,0.6510222566477042,-0.2668755516311447,9.724083292015166,-1.071143024787724,0.3506795927517689,-0.6705326045562942
1.06,1.698895456921644,-1.770000357416044,2.2539420638505385,-0.0169033933192158,0.0881972408048801,0.0577881579387069,-0.7194430672295357,0.7609943455575033,0.0377479865209877,1.7123122059549087,-1.784709120090209,2.2535013310397782,-0.8067444439025555,0.8276445915637839,0.048088615417176,0.6792167149674829,-0.3270649318397101,0.5089240797218508,-0.3088043997924447,9.719353219893492,-1.0692949187635163,0.3480424765245856,-0.6755420136164689
1.08,1.684451642067508,-1.7546932092345504,2.254624972535397,-0.0133349218606619,0.0909784500641226,0.0582827106983891,-0.7245922598700344,0.7693864091323273,0.0308413656338802,1.6965773170828182,-1.768556228264894,2.254498263528303,-0.846744444498602,0.8676445921598304,0.0445725973990495,0.601336694313348,-0.2574596320249367,0.4196031787411958,-0.3453310443553738,9.679668043047968,-1.0672867318472083,0.3458120757696662,-0.6803102558922229
1.1,1.670644806942516,-1.740004532816942,2.255140961571516,-0.0107459816408066,0.0931522248657386,0.0586977769413132,-0.728532912310748,0.7765782337523792,0.0238084497463155,1.6808424282107275,-1.7524033364395786,2.255495196016828,-0.8867444450946484,0.9076445927558768,0.041056579380923,0.5401689293768399,-0.197032622035681,0.3595912310025984,-0.3516457943782377,9.643130406017915,-1.065314349188308,0.3439061038260608,-0.6847497840423831
1.12,1.6560374273190772,-1.7243993883730946,2.255536993040348,-0.0089084659693267,0.0947312671457958,0.0590723609867952,-0.7320287233441187,0.7836937294598657,0.016147719195875,1.6631075393088346,-1.734250444584461,2.2563163276044462,-0.9267444456906948,0.9476445933519232,0.0375405613627965,0.5512208416568335,-0.1747905516685355,0.3557747853743243,-0.3830365275220243,9.620102336345552,-1.0637334352934296,0.3424444295301537,-0.6883383158852648
1.14,1.641363891308711,-1.7086557907641018,2.2557790401637208,-0.0080368051014408,0.0954900728848562,0.0593770681671276,-0.73520787700179,0.7903853091319908,0.0084355799414656,1.6453726504069417,-1.7160975527293434,2.257137459192065,-0.9667444462867414,0.9876445939479696,0.03402454334467,0.534699327582531,-0.1589576828835648,0.334578983606254,-0.3856069627204687,9.611615432956569,-1.0626505984554404,0.3415134960618503,-0.6908650342117119
1.16,1.6266226332937102,-1.692772011802321,2.2558694121070912,-0.0079552745395118,0.0955892551060898,0.0596220454439289,-0.7388137152213274,0.7976572748447085,0.0009840629808759,1.6266377614901473,-1.6969446608593248,2.2578706903292303,-1.0067444468827875,1.027644594544016,0.0305085253265435,0.550927988956756,-0.1802919109768708,0.3635982856358855,-0.3725758480294832,9.629439389887011,-1.0620021009577802,0.3411882056580106,-0.6922464747629258
1.18,1.6125471487239855,-1.6775422521773578,2.25582140455868,-0.0082489816367031,0.0953661833327817,0.059822796448501,-0.7426569400825108,0.8050690687095897,-0.0056667342710319,1.606902872558452,-1.676791768974405,2.258516021015942,-1.046744447478834,1.0676445951400624,0.026992507308417,0.5337091195470968,-0.192161243059169,0.3705896932440611,-0.3325398625953959,9.629439389887011,-1.0617265119273018,0.3411156427576319,-0.6930011186794706
1.2,1.5976484317034785,-1.6613546704271256,2.2556381454054906,-0.0086908661582138,0.0950171816136803,0.0600172466145241,-0.7470266778703055,0.8132743048265977,-0.0122929203469694,1.5754143017198603,-1.6372887987418785,2.255538067845128,-0.8426569415726269,0.9050690701997058,-0.031925232701284,0.5708039286455583,-0.2184868893897351,0.4102618058503982,-0.331309303796877,9.656318517041656,-1.061679915917415,0.3411861534524075,-0.693349573709959
1.22,1.5826249990869703,-1.6449707304862822,2.2553081538454265,-0.0080905444954487,0.0956987696054733,0.0602661440622275,-0.7549433178807243,0.8244369545231458,-0.0204524535746966,1.5754143017198603,-1.6372887987418785,2.255538067845128,-0.8426569415726269,0.9050690701997058,-0.031925232701284,0.7966428305658605,-0.3958320005209403,0.5581324848274061,-0.4079766613863615,9.67869884837637,-1.059936443681373,0.341453905614865,-0.6948197299243944
1.24,1.5674626727786485,-1.628389702525958,2.2548088237415245,-0.0063103251191324,0.0978872328660314,0.0605753077245691,-0.7606977423549003,0.8330866147504817,-0.0290867077409177,1.5754143017198603,-1.6372887987418785,2.255538067845128,-0.8426569415726269,0.9050690701997058,-0.031925232701284,0.6754264728381962,-0.2877212237087978,0.4324830113667965,-0.4317127083110547,9.597666973414562,-1.058617281121289,0.3394469797769388,-0.6990790673178093
1.26,1.552968714282101,-1.6124881718681752,2.254166145630122,-0.0044344239361598,0.1004012228604267,0.0608713969190312,-0.7646271048435639,0.8403596879825701,-0.0381406186735323,1.566987732304134,-1.6282381080398811,2.2552188155181154,-0.8626569418706501,0.925069070497729,-0.0371769323873344,0.6130064987060797,-0.19646812443318,0.3636536616044183,-0.452695546630729,9.573085268817522,-1.0562770956462917,0.3374793454801805,-0.7042635640763836
1.28,1.5376454097952847,-1.5956118398086636,2.253295658142281,-0.0026887438046852,0.1029290732712281,0.061159680963285,-0.7674480128666327,0.8469344136539484,-0.0484765513703172,1.5501345934726816,-1.610136726635887,2.25458031086409,-0.9026569424666966,0.9650690710937756,-0.0476803317594352,0.6285221643684521,-0.141045401153439,0.3287362835689145,-0.5167966348392443,9.525742976333277,-1.0536046717518863,0.3354914611822235,-0.7098161358686684
1.3,1.522276523402788,-1.5786123033977555,2.2522119586015705,-0.0015722415134086,0.1049319981810969,0.0613963316848658,-0.7693006048645828,0.852738874822439,-0.0594061473978869,1.533281454641229,-1.592035345231893,2.253941806210064,-0.9426569430627432,1.0050690716898218,-0.058183731131536,0.6256595238091794,-0.092629599897509,0.2902230584245324,-0.5464798013784837,9.485078006009644,-1.0510513230001184,0.3337830822009141,-0.7149670254920172
1.32,1.506878304795436,-1.5615039404322384,2.2509061783787776,-0.0014206549280094,0.1061615067677,0.0615567308512911,-0.770511374938056,0.8579375074195994,-0.0706346673807733,1.514428315779974,-1.5719339637980965,2.2527781315874336,-0.9826569436587894,1.0450690722858682,-0.0686871305036369,0.621633746785751,-0.0605385036736572,0.2599316298580179,-0.5614259991443219,9.46046262865184,-1.0487571099682158,0.3325110532904724,-0.7194591910043373
1.34,1.4922304926023011,-1.5451569341543654,2.2494574553702456,-0.0023660805571021,0.1065364233234678,0.0616252264138659,-0.7713990336536234,0.8626692042034405,-0.0813092938133627,1.495575176918719,-1.5518325823643,2.251614456964803,-1.022656944254836,1.0850690728819148,-0.0791905298757377,0.5855009434767627,-0.0443829357783698,0.2365848391920555,-0.5337313216294708,9.457665541185634,-1.046568280473454,0.3317261944650978,-0.7235474249607046
1.36,1.4767885502923987,-1.527840825394664,2.2477155540614704,-0.0042936354624822,0.106242743060632,0.0616266076111039,-0.7728141684212164,0.868734323330996,-0.0923111096631099,1.4757220380425633,-1.5307312009156024,2.2501881973578697,-1.0626569448508822,1.1250690734779611,-0.0896939292478385,0.6321159475002135,-0.0707567383796514,0.3032559563777737,-0.5500907924873566,9.47592988091128,-1.0449417311687166,0.3317677394127725,-0.7262644252394325
1.38,1.4628619400152518,-1.5121402468608287,2.2459644424119216,-0.0063501222612908,0.1056186345651829,0.0616025337306302,-0.7745556719785529,0.8755558850718184,-0.1016818461838108,1.454868899151506,-1.5086298194520036,2.248499352766634,-1.1026569454469286,1.1650690740740075,-0.1001973286199394,0.5860401909520903,-0.0870751778668244,0.3410780870411189,-0.4685368260350451,9.47592988091128,-1.0441256927163225,0.3322330489463525,-0.7275700436935505
1.4,1.4473466236840224,-1.494536957438744,2.243825629568028,-0.0082917214628147,0.1047349329727887,0.0615967450390014,-0.7769094785771186,0.8842599393584017,-0.1116865255827373,1.424134156416324,-1.468362452607238,2.240880350102731,-0.874555673468669,0.9755558865619344,-0.1414978904548031,0.6734140190153219,-0.1176903299282827,0.4352027143291692,-0.5002339699463281,9.53448982153168,-1.0435444197555588,0.3326883580076091,-0.728528512152988
1.42,1.4325241959417363,-1.4776061031893848,2.2416386956453658,-0.0082221840139738,0.1049962791376413,0.061708898346218,-0.7828493223224173,0.8968438969623631,-0.1180118819470328,1.424134156416324,-1.468362452607238,2.240880350102731,-0.874555673468669,0.9755558865619344,-0.1414978904548031,0.764277217101549,-0.2969921872649383,0.629197880198068,-0.3162678182147743,9.53448982153168,-1.0422949441645712,0.3326457225246004,-0.729954037426083
1.44,1.4168232802770275,-1.4595590823695737,2.2392003878223283,-0.0059005190416656,0.1069017258474994,0.06196033192004,-0.7867350743439372,0.9071051422996614,-0.1255543919301806,1.424134156416324,-1.468362452607238,2.240880350102731,-0.874555673468669,0.9755558865619344,-0.1414978904548031,0.665735836294802,-0.194287601075993,0.5130622668649165,-0.3771254991573873,9.666051864051951,-1.041078717867185,0.3307215668267798,-0.7332046673054387
1.46,1.4010635139328604,-1.4413283133547248,2.236590941347881,-0.0025504379982475,0.1093668611455974,0.0622717183912018,-0.7889439034751692,0.9151603218032258,-0.1350195016910272,1.415388599681637,-1.4586068937416186,2.239465371198183,-0.8945556737666922,0.9955558868599576,-0.1494610993090015,0.6311757793010132,-0.1104414565615996,0.402758975178219,-0.4732554880423303,9.563934241293282,-1.0382600528782726,0.3279485813014878,-0.7387129364706418
1.48,1.3860645181604296,-1.4238836439140756,2.233920014775403,0.0005007461053131,0.1116307548881755,0.0625516147091038,-0.7897787362764942,0.9208114939748652,-0.1456680824168247,1.397897486212264,-1.4390957760103795,2.236635413389087,-0.9345556743627388,1.0355558874560042,-0.1653875170173984,0.6042039477558598,-0.0417416400662506,0.2825586085819676,-0.5324290362898776,9.563934241293282,-1.0347009231317668,0.3247101468901877,-0.745464891929227
1.5,1.3702689866990498,-1.4054162047797687,2.230875662608676,0.0030615440915146,0.1135061456732133,0.0627918017462962,-0.7897400264114666,0.9257588328939536,-0.1582782662961731,1.3804063727428906,-1.4195846582791412,2.233805455579991,-0.9745556749587851,1.0755558880520506,-0.1813139347257953,0.6773005210114542,0.0019354932513815,0.2473669459544247,-0.630509193967417,9.47611382863306,-1.0310362187631752,0.3215691354120045,-0.7523172677152774
1.52,1.3544806738793838,-1.3868551631379515,2.2275685452054064,0.004820075441424,0.1146006615935168,0.0629625403295524,-0.7891441267506218,0.930207580423862,-0.1718440714852708,1.3609152592437148,-1.3980735405181002,2.230179176885475,-1.0145556755548315,1.115555888648097,-0.1972403524341923,0.7144534999200659,0.0297949830422361,0.2224373764954212,-0.6782902594548875,9.406576512129504,-1.0281987618819992,0.3191616317704681,-0.75755650552011
1.54,1.338708102962244,-1.3682111985224084,2.223985615661115,0.0056537538185375,0.1147827387446018,0.063052087281428,-0.7882612384443154,0.934098059157886,-0.1857760563967734,1.3414241457445393,-1.3765624227570592,2.2265528981909597,-1.054555676150878,1.1555558892441435,-0.2131667701425892,0.7245956115579941,0.0441444153153225,0.1945239367012019,-0.6965992455751288,9.365571114935848,-1.0259939803982296,0.3173870418940355,-0.7616016811721654
1.56,1.323736249393324,-1.350421439888001,2.2203248744989765,0.0057459193320277,0.1142327761386668,0.0630732720645136,-0.7878278587898456,0.9383058324392402,-0.1988732448589211,1.3209330322304624,-1.354051304981117,2.2225284590537333,-1.0945556767469244,1.19555588984019,-0.2290931878509861,0.6881669846868571,0.0216689827234883,0.210388664067701,-0.6548594231073859,9.355544807598562,-1.0241136078366306,0.3159308916873465,-0.7651011860718763
1.58,1.3079809282956567,-1.3316057447387009,2.2162044439447,0.0053959458305254,0.1131113055422587,0.0630508548229165,-0.7877801570217101,0.9430339286888738,-0.2124763657967394,1.2994419187014845,-1.3305401871902736,2.218105859473798,-1.1345556773429708,1.2355558904362365,-0.245019605559383,0.7200730324998154,0.0023850884067755,0.2364048124816831,-0.6801560468909118,9.368599172707036,-1.022510356423627,0.3146122092146106,-0.7682782618649376
1.6,1.2922214917031238,-1.3126904836577489,2.211815980664855,0.0048289572864685,0.1116090321523393,0.0630017330841239,-0.7882211826840251,0.9482308012203686,-0.2256741035633218,1.2685919204445713,-1.2844540483042572,2.205580625654863,-0.8877801585118262,1.04303393017899,-0.2683473048428839,0.7095461047368609,-0.0220512831157482,0.2598436265747406,-0.6598868883291198,9.382460164336408,-1.021427070697401,0.3135140006616262,-0.7707038496063418
1.62,1.2764082254354965,-1.2936383928623667,2.207228362670369,0.0053057843152791,0.1113273883034926,0.0630209901528646,-0.7929102653999617,0.95644068334103,-0.2320924067411345,1.2685919204445713,-1.2844540483042572,2.205580625654863,-0.8877801585118262,1.04303393017899,-0.2683473048428839,0.5713673880139867,-0.2344541357968299,0.4104941060330658,-0.3209151588906347,9.40828151337064,-1.01997596036301,0.3114680624067162,-0.7745034691742125
1.64,1.26131602693898,-1.2754116669158737,2.202747853609751,0.0068605754568777,0.1130154857550471,0.0631153121124812,-0.7953173634784713,0.9618059995512992,-0.2392664112543367,1.2685919204445713,-1.2844540483042572,2.205580625654863,-0.8877801585118262,1.04303393017899,-0.2683473048428839,0.4638078264518289,-0.1203549039254792,0.2682658105134572,-0.3587002256601135,9.827035736989274,-1.0188500741754871,0.3099976640060747,-0.7769825727688828
1.66,1.2453997052624863,-1.2561259380882412,2.1978590089333743,0.008672609658128,0.1155973465526147,0.0632225757062464,-0.7960668932266434,0.9664940673083212,-0.2493695306665756,1.259714118859453,-1.2740237090024673,2.2028971526064343,-0.9077801588098494,1.0630339304770131,-0.2795214926521128,0.5581505083662064,-0.0374764874086053,0.2344033878511009,-0.5051559706119424,9.565828338001666,-1.0155512841399137,0.3080648061792895,-0.7821619627417564
1.68,1.2294848665568918,-1.2367564881051885,2.192741579625457,0.0102309339586199,0.1181767052428262,0.0633028622204632,-0.7953580313135816,0.9702935119216716,-0.2618738802413191,1.2419585156892166,-1.2531630303988877,2.1975302065095765,-0.947780159405896,1.1030339310730597,-0.3018698682705705,0.6544024428230232,0.0354430956530871,0.1899722306675233,-0.6252174787371764,9.565828338001666,-1.0115844520242987,0.3060275870401724,-0.7882040213976348
1.7,1.214389670186662,-1.2182927262313303,2.1876316922006542,0.011141226578253,0.1201270056257688,0.063325045480507,-0.7936876065572954,0.9731647639301542,-0.2753943812986019,1.22420291251898,-1.2323023517953078,2.192163260412719,-0.9877801600019424,1.143033931669106,-0.3242182438890283,0.6961292189719758,0.0835212378143102,0.1435626004241297,-0.6760250528641376,9.452319782442828,-1.0072050371040495,0.3039263148632651,-0.79486583592728
1.72,1.1985410571948512,-1.1988047122732486,2.181962223130599,0.0111559071266404,0.1213477989902002,0.0632628242901079,-0.7913140322865502,0.9755684130149194,-0.2909030796821564,1.2044473093189412,-1.2094416731619255,2.185678895534938,-1.0277801605979888,1.1830339322651524,-0.3465666195074861,0.7936168932386436,0.1186787135372624,0.1201824542382601,-0.7754349191777254,9.3700508676784,-1.0035167179154372,0.3022976741102716,-0.800637752986248
1.74,1.1827441024959509,-1.17927132947589,2.1759773619751166,0.0099305919979394,0.1215486107236665,0.0630928540590771,-0.7885716286867861,0.9777613031760878,-0.3068183629455183,1.1846917061189022,-1.1865809945285437,2.1791945306571576,-1.0677801611940352,1.223033932861199,-0.3689149951259439,0.8149015064963301,0.1371201799882038,0.1096445080584207,-0.7957641631680945,9.309165903017856,-1.000727193606732,0.3013734921095327,-0.8052175956474766
1.76,1.1669997092714277,-1.159681453145368,2.169676684502396,0.0076937487154053,0.1207368685546345,0.0628357650975895,-0.7860917179475844,0.981160903050186,-0.3224565247604851,1.163936102903962,-1.16272031588026,2.1721514563889155,-1.1077801617900815,1.2630339334572454,-0.3912633707444017,0.8097211580684183,0.1239955369600864,0.1699799937049106,-0.7819080907483428,9.299398200956604,-0.9989086208622086,0.3012340843464841,-0.8082435527422843
1.78,1.1520846120425796,-1.1409908503424946,2.163406429520786,0.0053112670642201,0.1191508023031686,0.0625649782726384,-0.7841154475512914,0.9861045175101988,-0.3367889882967931,1.142180499674121,-1.1378596372170755,2.164549672730212,-1.147780162386128,1.3030339340532917,-0.4136117463628595,0.7644679189281098,0.09881351981465,0.2471807230006451,-0.716623176815398,9.35082801810222,-0.9982222833229306,0.3017667185315116,-0.8093952660778206
1.8,1.13641947899054,-1.1212033108432984,2.156515736077881,0.0031934756579973,0.1167212076848886,0.0623026908439812,-0.7825797085566598,0.9923006980113608,-0.3515074379992994,1.112878839665015,-1.0916856244669846,2.1465669801059466,-0.8841154490414075,1.086104519000315,-0.4056656049535733,0.802159442860048,0.0767869497315776,0.3098090250580887,-0.7359224851253149,9.35082801810222,-0.9986876210944718,0.3025115540047391,-0.8087281799620825
1.82,1.1207348903107304,-1.1012451106924117,2.149445163800149,0.0031100764266192,0.1153234602710298,0.06218125144567,-0.7859966218464398,1.0027718475941028,-0.3542110153838713,1.112878839665015,-1.0916856244669846,2.1465669801059466,-0.8841154490414075,1.086104519000315,-0.4056656049535733,0.5670749524719018,-0.1708456644889999,0.5235574791371045,-0.1351788692285971,9.370563709740964,-0.9993220059851864,0.3004338637137181,-0.8106305954126184
1.84,1.1049929024126135,-1.0811053494541214,2.142321687800173,0.0055018612886354,0.1164386491515167,0.0622291887144919,-0.7877528756454545,1.0105645606062357,-0.3582028435629768,1.112878839665015,-1.0916856244669846,2.1465669801059466,-0.8841154490414075,1.086104519000315,-0.4056656049535733,0.4465016677111063,-0.0878126899507336,0.3896356506066456,-0.1995914089552741,10.11274119643167,-0.9993135466189512,0.299640740239537,-0.8102008189016816
1.86,1.0900239258941034,-1.061849879731389,2.1354418091005902,0.0087965091725505,0.1185552054199026,0.062343253077039,-0.7877172393786378,1.015682254460374,-0.3657903834479143,1.104037685174601,-1.0808245792769815,2.1425103240564107,-0.9041154493394308,1.106104519298338,-0.4194409282849294,0.4576101556830703,0.0017818133408342,0.2558846927069091,-0.3793769942468744,9.935634981816293,-0.9973493100329754,0.2978711275176351,-0.812282850280019
1.88,1.074283849370625,-1.041501358997634,2.1280100171787906,0.0120965571523928,0.1210025821192083,0.0624470568890637,-0.7862327902581594,1.0189583133142264,-0.3771478222339594,1.086355376193773,-1.0591024888969751,2.1343970119573394,-0.9441154499354772,1.1461045198943849,-0.4469915749476414,0.595666783075816,0.0742224560239201,0.1638029426926257,-0.5678719393022558,9.717598154527876,-0.9940542801801954,0.2953009265613039,-0.8167887628650748
1.9,1.0585854704806286,-1.0210986746373871,2.1203179435967545,0.0146896297727071,0.1230239934593008,0.0624891619430704,-0.7837227568393439,1.0213313030950428,-0.3914878200293147,1.0686730672129447,-1.037380398516969,2.126283699858268,-0.9841154505315236,1.186104520490431,-0.4745422216103536,0.7375074322239501,0.1255016709407752,0.1186494890408229,-0.7169998897677665,9.532080407348984,-0.9905729310400682,0.2927283989157248,-0.8218713207009111
1.92,1.043724926815354,-1.0016767292628337,2.112725253199659,0.0164158633325489,0.1242039639525251,0.0624583633739501,-0.7807582039437033,1.023133576696054,-0.4070274457303413,1.0489907582023144,-1.0136583081071604,2.116792855426061,-1.02411545112757,1.2261045210864774,-0.5020928682730657,0.7961104366417365,0.1482276447820285,0.090113680050563,-0.7769812850513286,9.293373580627303,-0.9870965037074936,0.2900987832613279,-0.8272457619013275
1.94,1.0281465543646566,-0.981200574679868,2.1044033995731497,0.0173577857078773,0.1244771689713679,0.0623386651326545,-0.7773060725670744,1.0244586016777366,-0.4243829511665012,1.0293084491916835,-0.9899362176973516,2.107302010993854,-1.0641154517236169,1.266104521682524,-0.5296435149357779,0.8872520374563303,0.1726065688314459,0.066251249084126,-0.867775271807994,9.293373580627303,-0.9842947732207388,0.2877877992714981,-0.831962546006611
1.96,1.0126348827389844,-0.9606932850841424,2.095731091636554,0.017476172714757,0.1237526690045707,0.062134000934025,-0.7740935134242515,1.0262168207061222,-0.441985602692039,1.008626140166152,-0.965214127272642,2.097122400395079,-1.104115452319663,1.3061045222785703,-0.5571941615984899,0.8989788806298965,0.1606279571411462,0.0879109514192788,-0.880132576276893,9.247860182510522,-0.9822756816001752,0.2859448517752431,-0.8357085616264848
1.98,0.997184924206958,-0.9401469242659688,2.086707366402313,0.0170748239731818,0.1221123653944562,0.0618684090029274,-0.7711441291409884,1.0283141387592531,-0.4595085780385836,0.9869438311257194,-0.939492036833031,2.0862540236297367,-1.1441154529157094,1.346104522874617,-0.584744808261202,0.8946399773958726,0.1474692141631539,0.1048659026565479,-0.8761487673272256,9.24285001764656,-0.9812181622931422,0.2845538085028137,-0.8381849698684601
2.0,0.982558124928291,-0.920585462427274,2.077811989652885,0.016404391584395,0.1197536603237607,0.0615760684313388,-0.7687460941659218,1.0306532910509614,-0.4759706161936145,0.9586277177499086,-0.888731217328006,2.063731937500384,-0.8711441306311045,1.1283141402493693,-0.5189227971497877,0.8399715849407366,0.1199017487533316,0.1169576145854112,-0.8231019077515472,9.250308859482177,-0.9809814386088486,0.2834022367985012,-0.8396427269469624
2.02,0.9671759209482764,-0.8999168912046565,2.068291172853684,0.016580820349639,0.1180260085672308,0.0613351421994198,-0.7696973041859637,1.0357989482509251,-0.4742919765683819,0.9586277177499086,-0.888731217328006,2.063731937500384,-0.8711441306311045,1.1283141402493693,-0.5189227971497877,0.2747745417299782,-0.0475605010020974,0.2572828599981869,0.0839319812616284,9.261624761281382,-0.9820189710199608,0.2795533626215764,-0.8431537668157251
2.04,0.9517821431938616,-0.8791684084180911,2.0588168504851567,0.017886561563115,0.1184876706330824,0.0611984069072342,-0.7694020601627144,1.038777475692454,-0.4734825885269506,0.9586277177499086,-0.888731217328006,2.063731937500384,-0.8711441306311045,1.1283141402493693,-0.5189227971497877,0.1550314786972045,0.0147622011624659,0.1489263720764411,0.0404694020715662,10.433154724148151,-0.982483069602876,0.2793762580776966,-0.841789861732247
2.06,0.9364117847278848,-0.8583721426193849,2.049313887946176,0.0193451393754954,0.1198536329796425,0.0610787336808659,-0.767580478411587,1.0407668071472378,-0.4768445854142794,0.9499162764435976,-0.8774480759255123,2.0585427095288864,-0.8911441309291277,1.1483141405473924,-0.5308056409720285,0.2155146328178251,0.0910790875563671,0.099466572739193,-0.1680998443664372,10.003838158139844,-0.981185817654119,0.2787693742560249,-0.8427075502950964
2.08,0.9218553544830518,-0.8385874298005754,2.040191428091526,0.0204458897456765,0.1211745161561994,0.0609376452880387,-0.7647855488373818,1.0418292562447633,-0.483242462706772,0.9324933938309756,-0.8548817931205249,2.0481642535858904,-0.9311441315251742,1.188314141143439,-0.5545713286165103,0.3531050242470131,0.139746478710262,0.0531224548762754,-0.3198938646246346,10.003838158139844,-0.9790602879288351,0.277749537119429,-0.8450706567646146
2.1,0.9065976987671612,-0.8177473266766012,2.0304310226860736,0.0208813696559229,0.122040013307449,0.0607199208148108,-0.7611734758152513,1.0422049444130657,-0.4925761111424941,0.9150705112183534,-0.8323155103155375,2.037785797642895,-0.9711441321212206,1.2283141417394854,-0.5783370162609919,0.5007624342906074,0.1806036511065256,0.0187844084151178,-0.4666824217861021,9.82242971607866,-0.976831095173534,0.2768431561115635,-0.8477963001091048
2.12,0.8914173170875163,-0.7969056121171153,2.020461319190083,0.0201736677986918,0.1219950842097746,0.0603964119292001,-0.7571694470359879,1.0421231243684017,-0.5039150230520602,0.895647628575929,-0.8077492274807478,2.026219057317675,-1.011144132717267,1.2683141423355315,-0.6021027039054735,0.6012692081708849,0.2002014389631712,-0.0040910022331974,-0.566945595478302,9.680920999134289,-0.9752708099236772,0.2765664316231995,-0.8497296271736846
2.14,0.8770736358315699,-0.7771084725408582,2.0107761839627,0.0182223248784596,0.1208589898370032,0.0599748669053464,-0.7529856640540085,1.0419722454816347,-0.5149974053126742,0.8762247459335045,-0.7831829446459581,2.0146523169924557,-1.0511441333133136,1.3083141429315783,-0.6258683915499552,0.5923385878219196,0.2091891490989705,-0.0075439443383507,-0.5541191130307044,9.585998808196564,-0.9747139076075676,0.2769897224968856,-0.8506433211036122
2.16,0.8620577527513673,-0.7562526790575941,2.000355667364921,0.015205231004841,0.1183136786679613,0.0594435108202195,-0.7489288944428054,1.0438921445200304,-0.5264516825338916,0.855801863276179,-0.7576166617962672,2.002491434476123,-1.09114413390936,1.348314143527625,-0.6496340791944368,0.6151094590731656,0.2028384805601524,0.0959949519197866,-0.5727138610608695,9.574199809578204,-0.9751867808694312,0.2782175510832162,-0.8500578470991056
2.18,0.8471164048378823,-0.7353358908828687,1.989712412234028,0.0122695348565849,0.1143553345712121,0.0589069126126537,-0.7455335228422527,1.047656150416406,-0.5372634658535802,0.8343789806039523,-0.7310503789316752,1.9897364097686796,-1.1311441345054063,1.388314144123671,-0.6733997668389184,0.59705725698145,0.1697685800276349,0.1882002948187744,-0.5405891659844286,9.584238242602623,-0.9773972288791226,0.2797650595368216,-0.847118015609452
2.2,0.8322307646567807,-0.7143338804451084,1.9788597939854984,0.0098690507628647,0.1090894740263868,0.0584047432842581,-0.7434821809615922,1.0522495958414366,-0.5474202207583267,0.8098397286957697,-0.6829530833620484,1.9628492389413488,-0.8455335243323688,1.147656151906522,-0.5937677042504632,0.5667173338163837,0.1025670940330236,0.2296722712515353,-0.5078377452373273,9.61652308405428,-0.9806545530109833,0.2811281833651754,-0.8427458286303326
2.22,0.8180647104233327,-0.6942458242873248,1.9685279689118813,0.009860459055071,0.1051911104730543,0.0581021218335283,-0.7477757206114082,1.0612299649225998,-0.5396242771105351,0.8098397286957697,-0.6829530833620484,1.9628492389413488,-0.8455335243323688,1.147656151906522,-0.5937677042504632,0.632175309779646,-0.2146769824907968,0.4490184540581587,0.389797182389584,9.64601954124555,-0.9843153887940168,0.278454089738528,-0.8419911186535295
2.24,0.8030587635399543,-0.6729540288602118,1.9578015252532,0.0125309799850554,0.1044748819728935,0.0579942992691488,-0.7522051556294294,1.0673096436643967,-0.5336417469124797,0.8098397286957697,-0.6829530833620484,1.9628492389413488,-0.8455335243323688,1.147656151906522,-0.5937677042504632,0.4805545123942092,-0.2214717509010588,0.3039839370898467,0.2991265099027695,10.77128832575545,-0.9874671339259768,0.2781548941215808,-0.8368568549243777
2.26,0.7879865910085965,-0.6515732175405672,1.9471437523825288,0.0162407312832307,0.1059634624293425,0.0579776571625098,-0.754565414321254,1.0702832137915523,-0.5324221014805337,0.801384393452446,-0.6714765218429832,1.9569115618988449,-0.865533524630392,1.1676561522045452,-0.6050685519298398,0.1993770007618273,-0.1180129345912328,0.14867850635778,0.0609822715972985,10.529045550004412,-0.9874379797271944,0.2766690485456298,-0.8361067981417323
2.28,0.7736425782292835,-0.6312289346288755,1.937001640589216,0.0194685839430038,0.1082632482542716,0.0579525274183809,-0.7551244557709701,1.0712105688003013,-0.5352265298481805,0.7844737229657986,-0.6485233988048528,1.9450362078138352,-0.9055335252264384,1.2076561528005918,-0.627670247288593,0.1503107874040873,-0.027952072485804,0.0463677504374482,-0.1402214183823413,10.016850723426614,-0.9855890892388252,0.2743615078629771,-0.8384368908659247
2.3000000000000003,0.7585471011715935,-0.6098047439171449,1.926234672092576,0.022085746759518,0.110757321909262,0.0578716488377981,-0.7543489494649259,1.0713175338144534,-0.5414714072335396,0.7675630524791512,-0.6255702757667223,1.933160853728826,-0.945533525822485,1.2476561533966382,-0.6502719426473462,0.3146877226042344,0.0387753153022085,0.0053482507076041,-0.312243869267953,10.016850723426614,-0.9829687415357612,0.2722338204891614,-0.8418303556583452
2.32,0.7434780565619606,-0.5883831518129755,1.91531395432372,0.0237753976247122,0.112740354016247,0.0577122262829721,-0.7526103598959413,1.0709728253120308,-0.5503929299338377,0.7486523819627016,-0.6006171526987896,1.920155414875879,-0.9855335264185312,1.2876561539926843,-0.6728736380060995,0.454794142807928,0.0869294784492324,-0.0172354251211315,-0.4460761350149056,9.832135442554318,-0.9802264262974536,0.2703683279060594,-0.8455470085063821
2.34,0.7284521696847607,-0.5669750213279001,1.90419952178928,0.0243578282340622,0.1138301703039076,0.057450425888312,-0.7501777938845601,1.07003323098168,-0.5605970933999234,0.7297417114462518,-0.5756640296308567,1.907149976022932,-1.0255335270145778,1.327656154588731,-0.6954753333648527,0.5266050867299696,0.1216283005690599,-0.0469797165175367,-0.5102081733042829,9.6961592977068,-0.9780414369199978,0.268931971010918,-0.848839477980601
2.36,0.7142213555774698,-0.546649211870519,1.8934477251063655,0.0239707498701558,0.1140144088462411,0.057111902803101,-0.7480131497410389,1.0696150201063128,-0.5706612857800049,0.7098310409149009,-0.5497109065480228,1.8935794947860165,-1.065533527610624,1.3676561551847777,-0.7180770287236058,0.5151420990067841,0.1082322071760566,-0.0209105437683598,-0.5032096190040747,9.643406278686598,-0.9762814611451982,0.2680044225181612,-0.8516120575824883
2.38,0.6992831831458951,-0.5252583914790423,1.8819207791437575,0.0227927749425008,0.1134608599141157,0.0566820227006964,-0.7459767017153965,1.0695323220293282,-0.5815151208096981,0.688920370368649,-0.5227577834502878,1.879443971165132,-1.1055335282066705,1.4076561557808238,-0.740678724082359,0.552176815849952,0.10182240128212,-0.0041349038492288,-0.5426917514846641,9.627471614272508,-0.9753256607113806,0.2676999922914364,-0.8532973647481904
2.4,0.6843836292550578,-0.5038628098579794,1.8701766439935268,0.0210073231209492,0.1121890276695521,0.0561944304268058,-0.744155831517034,1.0700573399932822,-0.5923537201348315,0.6619843480601253,-0.4717817753775759,1.852845023103273,-0.8459767032055127,1.1695323235194444,-0.6439198129827023,0.5501509962558904,0.0910435099181261,0.0262508981976994,-0.5419299662566657,9.614797152047686,-0.9751111864809676,0.2678451549569711,-0.8540152956805561
2.42,0.6702310657373788,-0.4834822241586588,1.858984452633361,0.0203678996049176,0.111767964658744,0.0558219773370775,-0.7453750274979738,1.0746908130970327,-0.5852334224012001,0.6619843480601253,-0.4717817753775759,1.852845023103273,-0.8459767032055127,1.1695323235194444,-0.6439198129827023,0.4291099849067671,-0.060959799046989,0.2316736551875253,0.356014886681566,9.61726648236072,-0.9747858674504586,0.2640526534907179,-0.8595399934256128
2.44,0.6553280409701734,-0.4619623931372741,1.8473338817789189,0.0211541865826868,0.1129274816289656,0.0555612279184639,-0.7447124328468079,1.0770389927797852,-0.580435456845497,0.6619843480601253,-0.4717817753775759,1.852845023103273,-0.8459767032055127,1.1695323235194444,-0.6439198129827023,0.2691349706372187,0.0331297325582957,0.1174089841376235,0.2398982777851555,10.717825712556078,-0.9753644205233092,0.2649990432380167,-0.856940744702951
2.46,0.6404534706022638,-0.4404058236952421,1.835732752177407,0.0223954584343914,0.1145347921650147,0.0553386536745411,-0.7427310089929098,1.07851747877155,-0.5801029358366042,0.6535245810280702,-0.4600864521423814,1.8464058249734456,-0.8659767035035358,1.1895323238174675,-0.6564007514173031,0.1247250129083571,0.099071192694905,0.0739242995882349,0.0166260504446402,10.466137283210628,-0.97440000234202,0.2650701841269692,-0.8566396612515583
2.48,0.6256288754060696,-0.4188292321136329,1.8240937563106956,0.0236111005455584,0.1158298636905736,0.0551047495872146,-0.739878776357378,1.079152090758818,-0.5837955302478421,0.6366050469639599,-0.4366958056719925,1.833527428713792,-0.9059767040995824,1.229532324413514,-0.6813626282865047,0.2354422268173382,0.1426116317765902,0.0317305993634109,-0.1846297205618963,10.207151569044072,-0.9730171627777496,0.2646371708962659,-0.8573980769308044
2.5,0.6116031796775521,-0.3983273151138728,1.812939858471272,0.0243592270705719,0.116370277761651,0.0548354216214571,-0.7367520806840735,1.0790177750863486,-0.5901072150953355,0.6196855128998496,-0.4133051592016036,1.8206490324541376,-0.9459767046956288,1.2695323250095605,-0.7063245051557064,0.3522486059142353,0.156334783665224,-0.0067157836234787,-0.3155842423746668,9.998518499662168,-0.9716269388736836,0.2639422269365595,-0.8586319554760541
2.52,0.596905138961239,-0.3767559255864887,1.8010469544423646,0.0243261770429443,0.1159715655163291,0.0544690373080384,-0.7332829272733832,1.078223486021531,-0.5989441248716799,0.6007659788059371,-0.3879145127014125,1.806522542351024,-0.9859767052916752,1.3095323256056068,-0.7312863820249081,0.4763320661593259,0.1734576705345158,-0.0397144532408799,-0.4418454888172218,9.84098689862276,-0.970813032416618,0.2634545789706947,-0.8595359768106818
2.54,0.582280209015902,-0.3552054220259589,1.7889664588011132,0.0230666642085288,0.114264808234964,0.0539863680718816,-0.7295006391043162,1.0770628849212065,-0.6086459476515413,0.5818464447120245,-0.3625238662012212,1.7923960522479097,-1.0259767058877218,1.3495323262016534,-0.7562482588941097,0.5238751376992818,0.1891144084533502,-0.0580300550162227,-0.4850911389930712,9.720138331545968,-0.9710069869444458,0.2633885896325799,-0.859670391947911
2.56,0.5684527138075329,-0.3347435283559445,1.7773104365585433,0.0208671288344214,0.1112581126263945,0.0534331511076912,-0.7263350982379455,1.0769733633755934,-0.617807282350421,0.5619269106032108,-0.3361332196861288,1.7776455152230657,-1.0659767064837682,1.3895323267976998,-0.7812101357633114,0.4846615224790618,0.1582770433185332,-0.0044760772806573,-0.4580667349439848,9.686258809928404,-0.972311637684218,0.2640471083199689,-0.8584272080881201
2.58,0.5539535618994431,-0.3131891740103658,1.764854705417996,0.0181235981464629,0.1066486014408044,0.0528062745100202,-0.7239200758705466,1.0785767362491638,-0.6272645091444329,0.5410073764794959,-0.3087425731561354,1.7622709312764913,-1.1059767070798143,1.429532327393746,-0.806172012632513,0.494576273794331,0.1207511183699439,0.0801686436785242,-0.4728613397005921,9.686258809928404,-0.9751304172100967,0.2653382094707535,-0.8550369923558677
2.6,0.5394833179861052,-0.2915885178856787,1.7522149224041224,0.0156335188579422,0.1008609683650991,0.0521958316611346,-0.7235134471433893,1.081320889639025,-0.6362267812682422,0.5177575581059157,-0.2592603371979076,1.7334914799607744,-0.8239200773606628,1.17857673773928,-0.6493033842921332,0.4690896672546863,0.0203314363578677,0.1372076694930557,-0.4481136061904645,9.690868282566043,-0.9790318059600696,0.2665915019026116,-0.8502311362813777
2.62,0.5249711839414845,-0.2698815548169606,1.7396570814528562,0.0152993742228621,0.0961629933456569,0.0517655633891164,-0.7277546324107007,1.088412636698732,-0.6190981636710581,0.5177575581059157,-0.2592603371979076,1.7334914799607744,-0.8239200773606628,1.17857673773928,-0.6493033842921332,0.9508812618054452,-0.2120592633655715,0.3545873529853471,0.8564308798592046,9.712231334292484,-0.983507509918172,0.2615077805882477,-0.8521784271433922
2.64,0.5110947558456914,-0.2491565802313395,1.728040985363552,0.0173132607749895,0.0944744865091122,0.051557949366126,-0.7325263981711353,1.0926849761583082,-0.6045608197438143,0.5177575581059157,-0.2592603371979076,1.7334914799607744,-0.8239200773606628,1.17857673773928,-0.6493033842921332,0.7942874186799151,-0.2385882880217293,0.213616972978814,0.7268671963621909,11.332777762348089,-0.988516035786174,0.2624308266567839,-0.8437320778307957
2.66,0.4964050904089573,-0.2272793861275138,1.716073340346587,0.0205700941993089,0.0948132135008552,0.0514490158135559,-0.7359932985389012,1.0945104208143894,-0.5931458594365141,0.5095183573323091,-0.2474745698205148,1.726998446117853,-0.8439200776586859,1.1985767380373031,-0.6537111593216732,0.6034338513243785,-0.1733450183882934,0.0912722328040627,0.570748015365008,11.10206783816011,-0.9910815728993624,0.2621852723940056,-0.8386837035316868
