t,x,y,z,roll,pitch,yaw,v_x,v_y,v_z,ref_x,ref_y,ref_z,ref_v_x,ref_v_y,ref_v_z,a_com,a_x,a_y,a_z,thrust,wind_x,wind_y,wind_z
0.0,1.03887761365402,1.3072314679485963,1.7221848269845597,0.0307643270240924,0.0996519071008233,0.0421708876741739,-0.0002401831886558,0.0050678812809759,-0.0005445716423334,1.0388679735312123,1.307437912949896,1.722169586819307,-0.1002938678327085,-0.0937389243336657,-0.0868091453152013,0.2551355860900858,-0.0120091594327906,0.2533940640487955,-0.027228582116672,10.254920942334138,-0.9404874134208808,0.2526808511216267,-0.8793808320102272
0.02,1.0390347664351631,1.3075411373234007,1.7220860684455646,0.0392026033274154,0.0938804873180163,0.0425403485536234,0.0155123604354232,0.0222422560029163,-0.0098701592962224,1.0388679735312123,1.307437912949896,1.722169586819307,-0.1002938678327085,-0.0937389243336657,-0.0868091453152013,1.255058128941154,0.7876271812039535,0.8587187360970208,-0.4662793826944525,10.255517755357689,-0.9527061417970772,0.2493515175904139,-0.8646983352552893
0.04,1.0394619200708115,1.3080006751995907,1.7217147822354648,0.0532867781488871,0.077547836861271,0.0427041228435346,0.0249721799622012,0.0221208858557968,-0.0270362227032041,1.0388679735312123,1.307437912949896,1.722169586819307,-0.1002938678327085,-0.0937389243336657,-0.0868091453152013,0.9800212358468756,0.4729909763388993,-0.0060685073559722,-0.8583031703490803,9.671230857853516,-0.9561443194695722,0.2392500628905098,-0.8614830093829254
0.06,1.039938922309322,1.3083668146669414,1.721017273601892,0.0669254571051526,0.0562404439995191,0.0422607395936294,0.0238328627457301,0.0160939740765678,-0.0454925908130169,1.0378650348528853,1.3065005237065594,1.721301495366155,-0.1202938681307317,-0.1137389246316889,-0.1040700305538487,0.9724443854525472,-0.0569658608235535,-0.3013455889614538,-0.9228184054906404,9.230585833613986,-0.9663808091643088,0.2249714452605287,-0.8552011271812116
0.08,1.0403165337872546,1.3085901124323005,1.7198952392282538,0.0807323324108779,0.0315872342463015,0.0412189314679252,0.0131708550053097,0.0062009102745319,-0.0658171154401077,1.035859157496231,1.3046257452198862,1.719565312459851,-0.1602938687267781,-0.1537389252277354,-0.1385918010311436,1.2496373691647116,-0.533100387021022,-0.4946531901017923,-1.0162262313545434,9.125363975388607,-0.9810401231773198,0.2085655989083632,-0.8470714631222092
0.1,1.0403848172654533,1.3085827527979297,1.7183588584627845,0.0938932547307741,0.0076089429341404,0.039791779628192,-0.0063382313413041,-0.0067639480370442,-0.0868916214370248,1.0338532801395768,1.302750966733213,1.7178291295535468,-0.2002938693228246,-0.1937389258237818,-0.1731135715084386,1.5754577145491533,-0.9754543173306937,-0.6482429155788102,-1.0537252998458542,9.093155825189116,-0.9957903594485528,0.1914449087229738,-0.8405534836875102
0.12,1.0399865384303846,1.3082860740138618,1.7163937064182464,0.1064330379654075,-0.0134927924222106,0.0382379048282048,-0.0327843827359843,-0.022555245335125,-0.1086480202524534,1.0298474027531204,1.2988761882167372,1.714366858123378,-0.240293869918871,-0.2337389264198283,-0.2076353419857335,1.8855402961503525,-1.3223075697340096,-0.7895648649040403,-1.087819940771431,9.104339509534384,-1.0114583572116278,0.1729239924842691,-0.834489353580442
0.14,1.0390660673066554,1.3076865527248855,1.7141169061632733,0.1177918637515711,-0.0296398167601593,0.0368688093630263,-0.0626643042335589,-0.0400014141018148,-0.1299790607309109,1.025841525366664,1.2950014097002616,1.710904586693209,-0.2802938705149175,-0.2737389270158748,-0.2421571124630284,2.032358113885587,-1.493996074878729,-0.8723084383344905,-1.066552023922872,9.133514038180692,-1.0253863594723185,0.1538447561445721,-0.8314363697423782
0.16,1.0374508383931544,1.3066723695425142,1.7112749139288896,0.1291779672301731,-0.0420491691881484,0.0357169237727541,-0.0972099577467921,-0.0607671439944131,-0.1531484515219655,1.0208356479653062,1.2901266311688848,1.706579271001108,-0.3202938711109639,-0.3137389276119212,-0.2766788829403234,2.324563606495484,-1.7272826756616622,-1.0382864946299124,-1.1584695395527282,9.158421840699248,-1.0362638049850412,0.1345380381564627,-0.8325156028833374
0.18,1.0351126459758837,1.3052039194895442,1.7079631441647625,0.1395456816882794,-0.0492504693241014,0.0350245631333631,-0.1347698776698483,-0.0849726677022151,-0.1768764017390999,1.0148297705490474,1.284251852622607,1.7013909110470746,-0.3602938717070104,-0.3537389282079676,-0.3112006534176182,2.5296593565647174,-1.8779959961528097,-1.2102761853900992,-1.1863975108567224,9.22275710517124,-1.0427738225097438,0.1186403590502953,-0.8356192430318147
0.2,1.0321801145085778,1.3033215379204133,1.7043734249271718,0.1476167653521573,-0.0506840192789434,0.0349360748745625,-0.1714068294628153,-0.1114583696043096,-0.199648286198303,1.028374152092391,1.3009552861044331,1.6991193240778075,-0.2347698791599644,-0.1849726691923312,-0.2549116445946487,2.5309668921926325,-1.8318475896483488,-1.3242850951047256,-1.138594222960153,9.22275710517124,-1.0476948140647269,0.1033299297196668,-0.8411610098131467
0.22,1.028320904692757,1.3006108036353554,1.7003326969534955,0.1495818450231331,-0.0460246810695054,0.0352868529716955,-0.2120328610189208,-0.1564610418453893,-0.2015734289812351,1.028374152092391,1.3009552861044331,1.6991193240778075,-0.2347698791599644,-0.1849726691923312,-0.2549116445946487,3.0329116058543515,-2.031301577805278,-2.2501336120539865,-0.0962571391466091,9.251823674216212,-1.0541689474818627,0.0919593417647933,-0.8465162231965427
0.24,1.0236979677503637,1.2970812627591854,1.696307927502027,0.1442436806572146,-0.035793814845959,0.0359327856556109,-0.2475203751846848,-0.192680060707784,-0.20068866942311,1.028374152092391,1.3009552861044331,1.6991193240778075,-0.2347698791599644,-0.1849726691923312,-0.2549116445946487,2.535726616029168,-1.7743757082881964,-1.8109509431197368,0.0442379779062571,10.82359578850992,-1.0542466893597298,0.0955148064399618,-0.8477447377441027
0.26,1.01842587347929,1.2929156657815577,1.6922783405579025,0.1363837069492313,-0.0225653263288045,0.0367516352018021,-0.2773184980748437,-0.2214467112365563,-0.2021400607411403,1.0260264533007917,1.29910555941251,1.696570207631861,-0.2547698794579877,-0.2049726694903544,-0.2705186931657585,2.0721696643733014,-1.4899061445079478,-1.4383325264386153,-0.0725695659015146,10.351838416466308,-1.048961874936733,0.1000464276954298,-0.8556202488498211
0.28,1.0129184195767322,1.2884751414494704,1.688396293756086,0.1286033170218955,-0.0090029719313894,0.0375363063799133,-0.3005465366684128,-0.244365440036582,-0.2063777099683004,1.021331055717592,1.2954061060286637,1.691471974739968,-0.2947698800540341,-0.2449726700864009,-0.301732790307978,1.645271693129975,-1.1614019296784543,-1.1459364400012817,-0.2118824613580039,10.351838416466308,-1.0411439891673744,0.1049350686717688,-0.8664991326189149
0.3,1.0066940234734068,1.2833663584630142,1.684192954859508,0.1210006269127401,0.0049167544837127,0.0382433808375647,-0.3203189685330834,-0.2652400533373277,-0.2139050450149965,1.0166356581343927,1.2917066526448169,1.686373741848075,-0.3347698806500806,-0.2849726706824473,-0.3329468874501976,1.4860680630475251,-0.9886215932335296,-1.0437306650372846,-0.3763667523348044,10.11029224242975,-1.0315994966328734,0.1089044109030469,-0.8795357535568392
0.32,1.0001166574901863,1.277865525144865,1.6798052995181594,0.1143591249961023,0.0174745204959335,0.0387535535736793,-0.3362118035748679,-0.2838157103275451,-0.2246540150789897,1.0099402605213912,1.286007199231168,1.679714804099071,-0.374769881246127,-0.3249726712784938,-0.3641609845924172,1.335269257228866,-0.7946417520892257,-0.928782849510873,-0.5374485031996612,9.710479295804362,-1.022533155244992,0.1125583295127602,-0.89127094086066
0.34,0.9932553876955096,1.2720121167670833,1.6751796439404063,0.1087880761375567,0.0280171519341029,0.0390337274799677,-0.3490880693170884,-0.3007584558549848,-0.237426552916323,1.0032448629083894,1.280307745817519,1.6730558663500672,-0.4147698818421735,-0.3649726718745403,-0.3953750817346367,1.2409598787611642,-0.6438132871110225,-0.8471372763719842,-0.6386268918666671,9.710479295804362,-1.0142629490340025,0.1147178052244699,-0.9023768002029856
0.36,0.9865149767119554,1.266140717603303,1.6705332463260607,0.1041934224102081,0.0360653211868998,0.0390864364137909,-0.3597893483928744,-0.3164260785801445,-0.2510603857107923,0.9955494652804868,1.2736082923889689,1.6656165761725077,-0.45476988243822,-0.4049726724705867,-0.4265891788768562,1.168196443650788,-0.5350639537892998,-0.7833811362579823,-0.6816916397234626,9.613612165113407,-1.0062755362121212,0.1159386734408005,-0.9135737151065716
0.38,0.9792107829824226,1.2596467145846586,1.6653483931561777,0.0998255920302641,0.0426755852475646,0.0389456707787926,-0.3700491030259942,-0.3321022937462667,-0.2667885569977229,0.9868540676376828,1.2659088389455178,1.6573969335663927,-0.4947698830342664,-0.4449726730666331,-0.4578032760190758,1.2230920438558746,-0.5129877316559922,-0.7838107583061138,-0.786408564346533,9.541560274858057,-0.9995696205134432,0.116827616453749,-0.9231713133943652
0.4,0.9717086844928556,1.2528471808839632,1.6598351683400818,0.0958280886406265,0.0476310566136304,0.0386408136182474,-0.3796863784090055,-0.3470246029592136,-0.2837651995997636,0.9607083278311228,1.2430415998973452,1.6520089653062917,-0.4700491045161103,-0.4321022952363829,-0.3096662199246353,1.2285751738215038,-0.4818637691505617,-0.7461154606473425,-0.8488321301020341,9.47393906178877,-0.9943640392378962,0.1174316225441716,-0.9309259270698614
0.42,0.9640621040266818,1.2457349935743245,1.654268314158098,0.0922649120526749,0.0502544262333588,0.0381289502632632,-0.3847958087191566,-0.3634920046962577,-0.2721002339345114,0.9607083278311228,1.2430415998973452,1.6520089653062917,-0.4700491045161103,-0.4321022952363829,-0.3096662199246353,1.0408566448303624,-0.2554715155075548,-0.8233700868522043,0.5832482832626135,11.10342859177672,-0.9994865418500746,0.1190932081705871,-0.9271569693470424
0.44,0.9567020838273732,1.238685827547724,1.6491816340141916,0.089467275013074,0.0500395274297068,0.0374307174110543,-0.3898585658696573,-0.3778400609102634,-0.2640179056847285,0.9607083278311228,1.2430415998973452,1.6520089653062917,-0.4700491045161103,-0.4321022952363829,-0.3096662199246353,0.8614265160512135,-0.2531378575250376,-0.717402810700285,0.4041164124891444,11.10342859177672,-1.0006290449599258,0.1215648702108245,-0.925200441476804
0.46,0.9488421367259268,1.2309780521763811,1.6439540746155925,0.0871536735682495,0.0471320862282073,0.0365052818818194,-0.3960367144344451,-0.3922494216084957,-0.259332844342309,0.9560078367859618,1.2387205769449814,1.6489123031070452,-0.4900491048141336,-0.4521022955344061,-0.3182417525100177,0.818151873435773,-0.3089074282393911,-0.7204680349116172,0.2342530671209736,10.80617227537823,-1.004083051950998,0.1230805638008197,-0.9212355516719828
0.48,0.9408399619533376,1.2229870243660397,1.638783052320019,0.0853752084641672,0.0417830864511543,0.0354143128052829,-0.4043037235294657,-0.4062039192592254,-0.257997445259143,0.9466068546956397,1.2300785310402538,1.6427189787085523,-0.53004910541018,-0.4921022961304525,-0.3353928176807826,0.8137179099244003,-0.4133504547510269,-0.6977248825364851,0.0667699541583022,10.572112955624108,-1.008073173289222,0.1234007509494296,-0.9173913197497112
0.5,0.9326365783660768,1.2147212376518928,1.6336157485941936,0.0840937976970205,0.0350510860905982,0.0342507764802105,-0.4159320800808371,-0.4196955401376359,-0.2588976088944033,0.9372058726053174,1.2214364851355262,1.6365256543100597,-0.5700491060062265,-0.532102296726499,-0.3525438828515476,0.8917017502826113,-0.5814178275685727,-0.6745810439205219,-0.0450081817630176,10.393263174126332,-1.0139216610102484,0.1231805167110461,-0.9117731725702252
0.52,0.9245974788392676,1.2066240762036258,1.6286711615535066,0.0834627211712379,0.028376765460015,0.0331704105515436,-0.4298665290666028,-0.4320299249702561,-0.2615303801181668,0.9258048904851928,1.2107944392009962,1.6294747766530286,-0.610049106602273,-0.5721022973225455,-0.3696949480223125,0.9397305492171084,-0.6967224492882812,-0.6167192416310141,-0.131638561188177,10.26707736850858,-1.020502567123566,0.1224533053556204,-0.9053667724048052
0.54,0.915824124617624,1.197850564656934,1.6234091014699152,0.0835764536669724,0.021776644443133,0.032125427729617,-0.4468864216189969,-0.4447375827205464,-0.2645403170920776,0.9144039083650684,1.2001523932664662,1.6224238989959978,-0.6500491071983194,-0.6121022979185919,-0.3868460131930774,1.0726381363028117,-0.8509946276197056,-0.6353828875145129,-0.1504968486955388,10.174877294418366,-1.0274029197275545,0.1210189803967438,-0.8987462635480835
0.56,0.9066792084032202,1.1888109369038986,1.6180843272111645,0.0842548939720524,0.0164087358113453,0.0312197936677321,-0.4668475166926976,-0.4585478782763879,-0.2677801681259876,0.9020029262300426,1.188510347317035,1.6149442447096978,-0.6900491077943658,-0.6521022985146383,-0.4039970783638423,1.2244041557048717,-0.9980547536850376,-0.6905147777920756,-0.1619925516955001,10.178690058415668,-1.032415307560469,0.1188863815150424,-0.8945733528322218
0.58,0.8975949404623256,1.1799573491749105,1.6129623234248975,0.0849345612921769,0.0134740377788054,0.030541192879674,-0.4884255931259227,-0.4726261694999363,-0.2712076195511099,0.8886019440801157,1.175868301352703,1.6070358137941283,-0.7300491083904123,-0.6921022991106848,-0.4211481435346073,1.2995759785452314,-1.078903821661256,-0.7039145611774211,-0.171372571256112,10.178690058415668,-1.0357734927845184,0.1165084984806104,-0.8924997830681966
0.6,0.8875783449040254,1.170342309168513,1.607495439940117,0.0853066519579766,0.013438256223097,0.0300622483079412,-0.5117276981465846,-0.4880643083258367,-0.2752716358639002,0.8731736608060294,1.1563260406999136,1.599401942447342,-0.5884255946160388,-0.5726261709900524,-0.2993778773578878,1.4123034884474652,-1.165105251033091,-0.7719069412950197,-0.2032008156395148,10.18572555790888,-1.038517949870747,0.1150356967826961,-0.8905784876594639
0.62,0.8770950833498293,1.1603497893923542,1.6020966884731147,0.0834153288678643,0.0166622056732905,0.0297041563671525,-0.5350418097286153,-0.5099487773563292,-0.2634911578943891,0.8731736608060294,1.1563260406999136,1.599401942447342,-0.5884255946160388,-0.5726261709900524,-0.2993778773578878,1.7038613828566664,-1.1657055791015336,-1.09422345152462,0.5890238984755519,11.226022215050762,-1.0403657024143569,0.1146216477417588,-0.8907545666200325
0.64,0.8661770128703403,1.149965125472457,1.5969437770959145,0.0789763779584498,0.0226238082801804,0.0293873157071045,-0.5551890771306708,-0.5268465755702337,-0.2523994377038041,0.8731736608060294,1.1563260406999136,1.599401942447342,-0.5884255946160388,-0.5726261709900524,-0.2993778773578878,1.426949740735459,-1.0073633701027762,-0.844889910695229,0.554586009529251,11.226022215050762,-1.0379625147449705,0.1181350002406324,-0.8927906248865276
0.66,0.8554618425895979,1.139826809155308,1.592221234720933,0.074486328932147,0.0295192235739573,0.0291446360262027,-0.5714462725090963,-0.53945599127278,-0.2452445645627809,0.867289404859869,1.150599778990013,1.596408163673763,-0.608425594914062,-0.5926261712880756,-0.3050119289192434,1.0891349498524685,-0.8128597689212758,-0.6304707851273128,0.3577436570511613,10.997105143518638,-1.0337420432438271,0.1219285500010855,-0.8969872609514887
0.68,0.8438792162253966,1.1289203766415146,1.587365880122514,0.0702867220560004,0.0370814701468341,0.0289249925524041,-0.5857213757512083,-0.5505653531918484,-0.2408217751963314,0.8555208929675482,1.139147255570212,1.5904206061266053,-0.6484255955101085,-0.6326261718841221,-0.3162800320419546,0.9310713729378952,-0.7137551621056004,-0.5554680959534208,0.2211394683224746,10.541186549683516,-1.0287208616184331,0.1248879106817661,-0.902581964114008
0.7000000000000001,0.8320377908656016,1.1178074345472062,1.5825640904395428,0.0669376489610909,0.0441919549584079,0.0287138381792868,-0.5975827381694033,-0.5603568010498191,-0.2395900315037548,0.8437523810752274,1.127694732150411,1.5844330485794476,-0.688425596106155,-0.6726261724801685,-0.3275481351646658,0.7714945918399728,-0.593068120909751,-0.4895723928985351,0.0615871846288307,10.541186549683516,-1.0233732828319873,0.126886632940078,-0.9088432345772384
0.72,0.8199799613120292,1.1065074624971958,1.577760971655655,0.064445094816845,0.050374532729741,0.0284889807675163,-0.6075546803635995,-0.5693533073745236,-0.2408095291395063,0.8299838691531043,1.1142422087008077,1.5778820858761542,-0.7284255967022014,-0.712626173076215,-0.338816238287377,0.674284679602098,-0.4985971097098085,-0.449825316235225,-0.060974881787576,10.364440594510596,-1.0185914945121173,0.1279606215661926,-0.914655421538646
0.74,0.808354718739813,1.0956110490302498,1.573163208175301,0.0628463472164379,0.0551294238063747,0.028252940141507,-0.6156674895453198,-0.5773568640481201,-0.2431276628312553,0.8162153572309813,1.1007896852512042,1.571331123172861,-0.7684255972982479,-0.7526261736722615,-0.3500843414100881,0.581481590549733,-0.4056404590860152,-0.4001778336798267,-0.1159066845874523,10.228987193027024,-1.014332685388642,0.1282937145614366,-0.9200947877647636
0.76,0.7959566459569665,1.083972846767117,1.56826681182476,0.0617614048475533,0.058989031941941,0.0279749943931381,-0.6237023436928687,-0.5860444109256068,-0.2464354375930775,0.8014468452939569,1.0863371617866997,1.5644984578915,-0.8084255978942942,-0.7926261742683078,-0.3613524445327993,0.6143568299365182,-0.4017427073774449,-0.4343773438743314,-0.1653887380911087,10.167151876923526,-1.010699702312898,0.127923480508105,-0.9250638957219952
0.78,0.7834010766745853,1.072159817363806,1.5632961891135269,0.0610513771407235,0.0619182323094662,0.027669070866068,-0.6314587919462268,-0.5948036354106869,-0.2504684810211016,0.7856783333420315,1.070884638307294,1.557384090032071,-0.8484255984903407,-0.8326261748643543,-0.3726205476555105,0.6187728629702851,-0.3878224126679042,-0.4379612242540076,-0.2016521714012023,10.09519116559568,-1.0079650852139843,0.1272423115170063,-0.9290574617511684
0.8,0.7713309979115544,1.0607746418938735,1.5584941149785831,0.0605974417868879,0.0640676046431899,0.0273592722926535,-0.6386863835925307,-0.6031681950862587,-0.2548162480812034,0.7518281370772739,1.0424196355932718,1.550772765062472,-0.6797676487315242,-0.694803636900803,-0.2410931258146716,0.5939423751106475,-0.3613795823151966,-0.4182279837785907,-0.2173883530050907,10.09519116559568,-1.005684070723415,0.1263083815821058,-0.9326474944518168
0.8200000000000001,0.7584074667581683,1.0485672550109078,1.5534950876777216,0.0590001645476323,0.0685088578896232,0.0270892363392729,-0.6528285670819779,-0.6167859895853197,-0.2439984411774891,0.7518281370772739,1.0424196355932718,1.550772765062472,-0.6797676487315242,-0.694803636900803,-0.2410931258146716,1.120792829957768,-0.707109174472359,-0.6808897249530488,0.5408903451857155,10.07082117180471,-1.000751766264582,0.1250522046921726,-0.9405142839391728
0.84,0.7452391010867593,1.0361215617622732,1.548736038857616,0.0561056134527182,0.0768663522026275,0.0269511337984888,-0.6626794116632146,-0.6268778580037587,-0.2325072014398358,0.7518281370772739,1.0424196355932718,1.550772765062472,-0.6797676487315242,-0.694803636900803,-0.2410931258146716,0.9095789380902968,-0.4925422290618375,-0.5045934209219505,0.5745619868826615,11.151628215417077,-0.9966531043942514,0.1279466389086444,-0.943764196122744
0.86,0.7325922787713817,1.024136765786538,1.544405711059502,0.0535253979040869,0.0864759732054856,0.0269086149109779,-0.6677067117872879,-0.634272980560893,-0.2239040195806547,0.7450304605899587,1.0354715992242638,1.5483618338043252,-0.6894294200885837,-0.7148036371988262,-0.2392180547733856,0.6204359803289243,-0.2513650062036632,-0.3697561278567129,0.4301590929590537,11.02537649592341,-0.9894060411217582,0.1306159319830257,-0.9504494507688472
0.88,0.7192202702084145,1.0113832684484436,1.5400019134215068,0.0514771306973096,0.0968573973085056,0.026908158891877,-0.6689111502880601,-0.6408212942896085,-0.2170578910699251,0.7314351076153282,1.0215755264862476,1.5435399712880318,-0.7087529628027026,-0.7548036377948727,-0.2354679126908136,0.4774949224265454,-0.0602219250386115,-0.327415686435778,0.3423064255364844,10.851907271178789,-0.980863030130824,0.1324685883630813,-0.9586514419210752
0.9,0.7058623467207606,0.9985078842422204,1.535712205863056,0.0503153307321724,0.1063979004387491,0.0269171246689558,-0.6666318343953012,-0.6464682188610599,-0.2123707439430452,0.7178397546406977,1.0076794537482316,1.5387181087717383,-0.7280765055168216,-0.7948036383909192,-0.2317177706082416,0.3842277522631016,0.113965794637949,-0.2823462285725664,0.2343573563439907,10.598569319534365,-0.9725832959414464,0.1333482868570017,-0.9667046127622628
0.92,0.6925808257476236,0.9855296822586838,1.5314974944230084,0.0503737823053504,0.1143063986512674,0.0269299289935858,-0.6616316454052681,-0.6512671804388006,-0.2093684936234038,0.7032782245303613,0.9917833809804132,1.5340837533595737,-0.7474000482309405,-0.8348036389869656,-0.2279676285256696,0.3776421227248984,0.2500094495016536,-0.2399480788870367,0.1501125159820718,10.521936898882814,-0.964608317888211,0.1330529145279329,-0.9745982748024355
0.94,0.6800755902669567,0.973114625806198,1.5275456556862246,0.051810079617562,0.1199368587838269,0.0269521846060809,-0.6550397050795843,-0.6555423677432699,-0.2067925500080638,0.6887166944200248,0.9758873082125948,1.5294493979474086,-0.7667235909450595,-0.8748036395830121,-0.2242174864430977,0.4134198509236174,0.3295970162841888,-0.2137593652234648,0.1287971807670013,10.521936898882814,-0.9582454784652285,0.1313392691645235,-0.9810426143625516
0.96,0.6670568537293201,0.9599445018813578,1.5234402814683508,0.0545964390152843,0.123852140319797,0.0269724023741938,-0.6472350942431345,-0.6615423625320136,-0.2038887492336708,0.6736720757418354,0.9589912354298752,1.524908796087308,-0.7860471336591784,-0.9148036401790584,-0.2204673443605257,0.5131859962789957,0.3902305418224894,-0.2999997394371845,0.1451900387196489,10.52239004772946,-0.9536929481599716,0.1282692190395329,-0.9859703671556777
0.98,0.6542004124750128,0.94662533830259,1.5193979169938,0.0576430331465544,0.1258787862020881,0.026916613955932,-0.6389593841874758,-0.6700758743492919,-0.2005046427378465,0.658144368495793,0.9410951626322548,1.5204619477792718,-0.8053706763732974,-0.9548036407751048,-0.2167172022779537,0.6179813460696875,0.4137855027829373,-0.4266755908639175,0.1692053247912175,10.5502001424602,-0.9509774106762692,0.125036107474578,-0.9891568390696144
1.0,0.641509469695424,0.9331187712701576,1.5154296945958678,0.0601705582199377,0.1262923465941968,0.0267345443722808,-0.6307004985036085,-0.6800005693122532,-0.1964826666710387,0.622252443265639,0.9131215445851252,1.5093726848569078,-0.6334713666135231,-0.7700758758394081,-0.1649815857538987,0.6761750038432895,0.4129442841933617,-0.4962347481480611,0.2010988033403854,10.63803410590026,-0.9496946208486332,0.1220653719468307,-0.9909184684286368
1.02,0.6295162519983017,0.9200295796009168,1.5117487442694804,0.0598457781757165,0.1283199721468049,0.0264717120104705,-0.6314345484709349,-0.696256440857457,-0.1911355066445942,0.622252443265639,0.9131215445851252,1.5093726848569078,-0.6334713666135231,-0.7700758758394081,-0.1649815857538987,0.856423244367388,-0.03670249836632,-0.8127935772601902,0.2673580013222279,10.806912152891528,-0.9429081807676252,0.1197297155999115,-0.9995325206102592
1.04,0.6169150928444852,0.9059630430220124,1.5079998185680703,0.0561612900638443,0.1340050760019455,0.0261697445179015,-0.6281516619292137,-0.7089291147689663,-0.183961216643987,0.622252443265639,0.9131215445851252,1.5093726848569078,-0.6334713666135231,-0.7700758758394081,-0.1649815857538987,0.7463987626029318,0.1641443270860632,-0.633633695575464,0.3587145000303604,10.806912152891528,-0.9390724298736596,0.1231946927301099,-1.0024212750014465
1.06,0.6044232679674516,0.8916963584587067,1.504399685778922,0.0515608171078144,0.1413776061972715,0.0258796038284305,-0.6208693006380611,-0.7170057552879018,-0.1764415131825295,0.6159177295995037,0.9054207858267312,1.5077228689993687,-0.6323737630987326,-0.7900758761374312,-0.1578769743571091,0.6610802678102777,0.3641180645576281,-0.4038320259467765,0.3759851730728722,10.856212349495763,-0.9332734590476148,0.127493023219732,-1.0067821911554224
1.08,0.5927259623240194,0.8780210222997857,1.5011167188994532,0.0477176135945239,0.1486433571922585,0.02563270003602,-0.6106284257596978,-0.7222853521369171,-0.1695460986990405,0.6032483022672334,0.890019268309943,1.5044232372842907,-0.6301785560691515,-0.8300758767334777,-0.1436677515635301,0.6713724786985542,0.5120437439181669,-0.2639798424507678,0.3447707241744507,10.856212349495763,-0.9269132317404074,0.1319655270442748,-1.0110950962578782
1.1,0.5806532799573719,0.8635312263284279,1.497801002501072,0.0446932077479485,0.1556042434302611,0.0253949348261473,-0.5970361051468593,-0.7266108594390793,-0.1624208314323354,0.5905788749349629,0.8746177507931548,1.5011236055692128,-0.6279833490395704,-0.8700758773295242,-0.1294585287699509,0.797230560573963,0.6796160306419219,-0.2162753651081095,0.3562633633352546,10.84217570292094,-0.9207156450011882,0.1355041611836959,-1.015236726613767
1.12,0.5688777670102011,0.8489620641033528,1.4946276446686146,0.0428166062796359,0.161201090206796,0.0251694112211921,-0.5811535510360927,-0.7302759424591833,-0.155288252526268,0.5780192079541714,0.8572162332465644,1.4985344349938137,-0.6257881420099893,-0.9100758779255708,-0.1152493059763718,0.8896095217523288,0.7941277055383333,-0.1832541510051966,0.3566289453033694,10.84707250367319,-0.9157876937867144,0.1379159545372864,-1.0183061846186117
1.14,0.5574389338930159,0.8343272734682512,1.4916016387774025,0.0422329168084218,0.1649947270999212,0.0249585161556018,-0.5636530501180828,-0.73324765434163,-0.147684435881975,0.56545954097338,0.8398147156999739,1.4959452644184148,-0.6235929349804082,-0.9500758785216172,-0.1010400831827927,0.9655524732679854,0.875025045900496,-0.1485855941223357,0.3801908322146538,10.902182207993974,-0.9119926973506128,0.1392963443861436,-1.020365755802893
1.16,0.5469048506166952,0.8203638653372447,1.488875294850457,0.0428063333554731,0.1668260554395176,0.0247676355519856,-0.5462373615106284,-0.7365276242464522,-0.1396778633897343,0.5529547541683281,0.8214131981384822,1.4937113244128553,-0.6213977279508273,-0.9900758791176636,-0.0868308603892136,0.972329182069864,0.8707844303727175,-0.1639984952411133,0.4003286246120341,10.960088578846808,-0.9101621605517428,0.1395854632640539,-1.0207318469035047
1.18,0.5361763986770613,0.8055922596020081,1.4861808663377205,0.0443786474645277,0.1669551046881392,0.0245625215023126,-0.5276119172256614,-0.7405395389773279,-0.1301256043429417,0.5405048475390157,0.8020116805620895,1.491832614977135,-0.6192025209212462,-1.03007587971371,-0.0726216375956345,1.0656550655785142,0.931272214248352,-0.2005957365437849,0.4776129523396275,10.960088578846808,-0.91057329319571,0.1390890203358004,-1.0190624703432194
1.2,0.5258244400077542,0.7907294365729098,1.4836915671306934,0.0466723663991769,0.165163852419691,0.0243231941795385,-0.5086744988782537,-0.7456777438957742,-0.1192697006796046,0.5097958028157783,0.7685652826531417,1.4796745861205731,-0.4974573574643756,-0.8405395404674441,-0.078093137365107,1.1212466363342355,0.9468709173703848,-0.2569102459223149,0.5427951831668547,11.033459219407632,-0.9134413982110966,0.1382555817932122,-1.0150685284535717
1.22,0.5162760347531635,0.7764434006595358,1.4814454646240982,0.047110074636724,0.1631328564941223,0.0239588753582612,-0.4974393122183054,-0.7569663920349093,-0.1176693839640292,0.5097958028157783,0.7685652826531417,1.4796745861205731,-0.4974573574643756,-0.8405395404674441,-0.078093137365107,0.8003499385944068,0.5617593329974135,-0.5644324069567552,0.0800158357787732,11.10628586437997,-0.9123341477774491,0.1377925403164579,-1.0154138756743838
1.24,0.5064504607560971,0.7612113743843842,1.4791375027616689,0.0451501781313512,0.1624263807387083,0.0234829192022937,-0.4855053992788513,-0.7655253167494271,-0.1130175455584773,0.5097958028157783,0.7685652826531417,1.4796745861205731,-0.4974573574643756,-0.8405395404674441,-0.078093137365107,0.7702484515833515,0.596695646972703,-0.4279462357258901,0.2325919202775944,10.542883346387498,-0.913527348450788,0.1395411010916753,-1.0137680574668202
1.26,0.4968784215991914,0.7458313396620432,1.4769555186747638,0.0421602039347494,0.1626855383366156,0.0229914086291837,-0.4722206749607624,-0.7718156120393431,-0.1054222967176184,0.5048212292411346,0.7601598872484673,1.478893654746922,-0.4914264455121184,-0.8605395407654672,-0.0676866439695401,0.8272537700073199,0.6642362159044457,-0.314514764495799,0.3797624420429413,10.75088834109556,-0.914049755502167,0.1428104812861365,-1.0120479367389503
1.28,0.4880424907432922,0.7311301270969935,1.475042615055132,0.0395280949115608,0.1633147013803018,0.0225665350075414,-0.4585137405089479,-0.7755294426420656,-0.096327601591464,0.494872082091847,0.7433490964391184,1.47733179199962,-0.4793646216076041,-0.9005395413615137,-0.0468736571784062,0.8431875076899495,0.6853467225907267,-0.1856915301361228,0.4547347563077223,10.901981481573785,-0.9145483821187907,0.1461800861596117,-1.0100821338760275
1.3,0.4790324003682881,0.7155912512743247,1.4732315633774669,0.0376141298263049,0.1639816774619938,0.0221903928508539,-0.4431899477440211,-0.778335960864352,-0.0851923193041635,0.4849229349425595,0.7265383056297695,1.475769929252318,-0.4673027977030898,-0.9405395419575602,-0.0260606703872723,0.9574571542010571,0.7661896382463368,-0.1403259111143195,0.5567641143650249,11.012096572530028,-0.9151936944355404,0.1489290251530089,-1.0078726656719754
1.32,0.4703376805448022,0.700005795818471,1.4716593902800166,0.0369349165416684,0.1643398783181501,0.0218995983208338,-0.4270999989529127,-0.7802950468289377,-0.0725880278391634,0.4755768789884977,0.7077275147906182,1.4752487158445724,-0.4552409737985755,-0.9805395425536066,-0.0052476835961384,1.0266360519334508,0.8044974395554211,-0.0979542982292858,0.6302145732500027,11.188947426951929,-0.916215585512962,0.1507483077572472,-1.005230529111029
1.34,0.4619693438934573,0.6843869724120758,1.4703495238173017,0.0378239701668449,0.1641861814641901,0.0217084605005893,-0.4106217493096427,-0.7817383279165323,-0.0590257093793657,0.4662308230344359,0.6889167239514671,1.474727502436827,-0.4431791498940611,-1.0205395431496531,0.0155653031949954,1.0695235546830062,0.8239124821635024,-0.0721640543797308,0.678115922989889,11.188947426951929,-0.9177218318724054,0.1513081336361997,-1.0022287248209578
1.36,0.4543273767868547,0.6695120867462108,1.469366170624643,0.0400433277175155,0.1634461438656711,0.0216053373583698,-0.3947202709376633,-0.7840886939204996,-0.0451525278119688,0.457186312677987,0.6691059330974147,1.47472661369886,-0.4311173259895469,-1.0605395437456997,0.0363782899861292,1.061657196990974,0.795073918598968,-0.1175183001983659,0.6936590783698432,11.24246849400879,-0.920290811434946,0.1506802047152725,-0.9982610808197248
1.38,0.4466100707242059,0.6537838243930842,1.4686281989926735,0.0431494223320499,0.1619598389105268,0.0215225195819449,-0.3779048627228595,-0.7888404241533551,-0.0293097072844482,0.4484433479191508,0.6482951422284612,1.4752460496306712,-0.4190555020850325,-1.1005395443417458,0.0571912767772631,1.1793344053994497,0.8407704107401881,-0.2375865116427733,0.7921410263760281,11.38078440897607,-0.9240348287108842,0.1494200144380152,-0.9932469481639224
1.4,0.4392295417207898,0.6379373303357178,1.4682200308925542,0.0460297326535531,0.1596128444345968,0.0213836463699794,-0.3610690969650574,-0.7955255245497309,-0.0122294994274144,0.4277148275880629,0.6143418031854165,1.467162713628451,-0.3567579114795782,-0.8434231056602273,0.0126919238264583,1.2448564941396707,0.8417882878901051,-0.334255019818791,0.8540103928516896,11.38078440897607,-0.9287097026452718,0.1484758290215732,-0.9872181905508568
1.42,0.4325124105999548,0.6225640360614054,1.4680060712201024,0.0419844786576434,0.1562649881528223,0.020735178433515,-0.3470415412707284,-0.8197305562178173,-0.0118135668741949,0.4277148275880629,0.6143418031854165,1.467162713628451,-0.3567579114795782,-0.8434231056602273,0.0126919238264583,1.3989539634128398,0.7013777847164532,-1.2102515834043204,0.020796627660975,11.45203297975786,-0.9341519961051068,0.1543362351353903,-0.9788384461418684
1.44,0.4257181870586692,0.60605644527979,1.4677901760995655,0.0301345408517664,0.1512208090996323,0.0195306727740806,-0.3333103484890701,-0.8285512614729814,-0.0094818290872583,0.4277148275880629,0.6143418031854165,1.467162713628451,-0.3567579114795782,-0.8434231056602273,0.0126919238264583,0.8242989407863093,0.6865596390829148,-0.4410352627582048,0.1165868893468319,10.38855735001107,-0.9371227500460896,0.1643973762073306,-0.9745317610370592
1.46,0.4191741144036179,0.5894833200558554,1.4676458184773218,0.0176096783231844,0.1451052920218156,0.0183601716567309,-0.3220631085679221,-0.828290939955983,-0.0050650522063827,0.4241472484732671,0.6059075721288143,1.4672896328667158,-0.3525285212309219,-0.8543396419616017,0.0210922500486396,0.6043097118852089,0.5623619960573978,0.0130160758499198,0.220838844043779,10.54542531412153,-0.9418462983313644,0.1752221153397378,-0.9676239265301496
1.48,0.4131393699672671,0.5737950675407827,1.4676015121059465,0.0072983413442864,0.1391609650695444,0.0174649142971523,-0.3138646979713937,-0.8235090737317977,0.0001825265105592,0.4170120902436755,0.5890391100156097,1.467543471343245,-0.3440697407336093,-0.8761727145643505,0.0378929024930022,0.542257464876641,0.4099205298264213,0.2390933112092652,0.2623789358471007,10.6738483054678,-0.9478439024095278,0.1854684458890808,-0.9590657525589434
1.5,0.4069317244396645,0.5574046441381957,1.4676728147504667,-0.0012566871808792,0.1334735027408787,0.0167824617539851,-0.3075051375431237,-0.8161152913616657,0.0067230638890172,0.409876932014084,0.5721706479024051,1.467797309819774,-0.3356109602362968,-0.8980057871670994,0.0546935549373649,0.5871342601498798,0.317978021413498,0.3696891185065998,0.3270268689229019,10.6738483054678,-0.9535595946784228,0.1937090854920229,-0.95086619109372
1.52,0.4008262838986348,0.5411805130436287,1.4678860439502646,-0.0073506269853841,0.1291268931926882,0.0163409054506944,-0.3034523811987465,-0.8072557231888425,0.0142820526606859,0.403164712809358,0.5542105321590631,1.4688911809185214,-0.3271521797389843,-0.9198388597698484,0.0714942073817275,0.6165531068894308,0.2026378172188619,0.4429784086411592,0.3779494385834316,10.7920834126071,-0.9578284730640388,0.1995688180605008,-0.9444441416258672
1.54,0.3947807743336591,0.5251393149927382,1.4682540499878287,-0.011307535458553,0.1268960463003865,0.0160778801440372,-0.301286370692323,-0.7978408523379693,0.0221514134408202,0.3964524936046321,0.5362504164157211,1.4699850520172686,-0.3186933992416717,-0.9416719323725972,0.0882948598260902,0.6230133099310059,0.1083005253211727,0.4707435425436612,0.393468039006715,10.7920834126071,-0.9608994376030066,0.2040398472877896,-0.9393017483061372
1.56,0.3890781188649865,0.510071343400915,1.4687528714283795,-0.0135552678789248,0.1269311066285032,0.015934601044562,-0.2988476360580632,-0.7890656502440742,0.0299704125163266,0.389951743912339,0.5177444738573104,1.471498939427125,-0.3102346187443592,-0.963505004975346,0.1050955122704528,0.6001840237539859,0.1219367317129904,0.4387601046947575,0.3909499537753198,10.819107817667827,-0.9632972284343644,0.2073645422850362,-0.9348371815408923
1.58,0.3831409641107255,0.4943896029845986,1.4694436437269829,-0.0147135371913782,0.1285159405333225,0.0158656209069185,-0.2948146791413346,-0.7796755679119962,0.0387216791235645,0.3836624637324787,0.498692704483831,1.4734328431480903,-0.3017758382470467,-0.9853380775780948,0.1218961647148154,0.67272404246903,0.2016478458364307,0.4695041166038971,0.4375633303618969,10.819107817667827,-0.9638318336475452,0.2096644754795777,-0.9324401437656508
1.6,0.37730136863837,0.4789020831609677,1.470315129885985,-0.0144957509704261,0.1309615337123216,0.0158968895738621,-0.2892097597276,-0.7697493727162494,0.0479898530218321,0.3684002301536588,0.4554058245889988,1.471379727683161,-0.2827376540034929,-0.7862460337747472,0.0635420310967405,0.7345806969064981,0.2802459706867294,0.4963097597873389,0.4634086949133812,10.845383176626456,-0.963403462289622,0.2108533667850885,-0.9312560530220928
1.62,0.3718710680945122,0.4642043006055512,1.4711856501071652,-0.0182659527415991,0.1330437845826761,0.0156687040463907,-0.2828080747541602,-0.774871983812342,0.0431285806031498,0.3684002301536588,0.4554058245889988,1.471379727683161,-0.2827376540034929,-0.7862460337747472,0.0635420310967405,0.4765886183849162,0.3200842486719896,-0.2561305548046289,-0.2430636209341172,10.871334333740378,-0.9634240593606622,0.2163351605662501,-0.9275728987665828
1.64,0.3662883704166138,0.4487614773644054,1.472001919604755,-0.0264720759975117,0.134329977531186,0.0151671673171046,-0.2758345765516335,-0.7685527039823368,0.0388721689316936,0.3684002301536588,0.4554058245889988,1.471379727683161,-0.2827376540034929,-0.7862460337747472,0.0635420310967405,0.5164300898172545,0.348674910126337,0.3159639915002621,-0.2128205835728081,10.093907568832035,-0.9601686068210056,0.2229415268877152,-0.9298052762958376
1.66,0.3608452502501187,0.4335149503866309,1.4727469417302848,-0.0347579939037076,0.1348582562298936,0.0147047917821128,-0.2688676803425539,-0.7564236242638738,0.0358875609371577,0.3655728536136238,0.4475433642512513,1.4720151479941284,-0.2803222489759246,-0.7875601269472974,0.0685061014913757,0.7151225462918328,0.3483448104539793,0.6064539859231499,-0.149230399726797,10.093907568832035,-0.958428970704262,0.2301308098804572,-0.929807284947517
1.68,0.3555405677560199,0.4185480864441407,1.4734449961308294,-0.0415836070597134,0.1348298746976759,0.0143936481329976,-0.2620011584297353,-0.7412585088330802,0.0340711299236048,0.359918100533554,0.4318184435757564,1.4732859886160632,-0.2754914389207879,-0.7901883132923978,0.0784342422806461,0.8373011268885101,0.3433260956409278,0.7582557715396787,-0.0908215506776444,10.173202965566816,-0.9576537574703096,0.2360706495346919,-0.9288310034769646
1.7,0.3506268118141233,0.4046261571249869,1.4740856098764537,-0.0463832707610897,0.1344557933066159,0.0142588173982719,-0.2556151256309839,-0.7253917722128003,0.0334690268235676,0.3542633474534841,0.4160935229002614,1.474556829237998,-0.2706606288656512,-0.7928164996374982,0.0883623830699165,0.8557120923931373,0.3193016399375747,0.7933368310139965,-0.0301051550018603,10.318666365173158,-0.9574748197605,0.241022430752824,-0.9272553276767
1.72,0.3455837969854067,0.3903017398492738,1.4747601515437767,-0.0497839458766388,0.1338434478205003,0.0142707771399596,-0.2490468894668151,-0.7081736404448692,0.034091966261992,0.3488501348761711,0.4002371929075115,1.4763240768993964,-0.2658298188105145,-0.7954446859825987,0.0982905238591869,0.9219460958077706,0.3284118082084383,0.8609065883965539,0.0311469719212229,10.318666365173158,-0.9577778277311668,0.2446820318084614,-0.9253364876210526
1.74,0.3406701352378687,0.3763264396202835,1.47545583078857,-0.0516529676716005,0.1331179567824734,0.0144211946473183,-0.2426709144079291,-0.6904694737444441,0.0354884803607665,0.3434369222988581,0.3843808629147615,1.4780913245607947,-0.2609990087553778,-0.7980728723276991,0.1082186646484573,0.94345220882678,0.3187987529442992,0.8852083350212536,0.0698257049387238,10.396121669397871,-0.9583074595935428,0.2472371654539072,-0.9232488821131576
1.76,0.3358826216004992,0.3627112903208761,1.476188158386561,-0.0519282873138144,0.1323417888055129,0.0147071766066946,-0.2364250487604831,-0.6722058867535387,0.0376934413786567,0.3381444799729235,0.368458828263384,1.4801067757419246,-0.2561681987002412,-0.8007010586727994,0.1181468054377277,0.9713795609219044,0.3122932823723001,0.9131793495452734,0.110248050894508,10.437255867543172,-0.958979084242544,0.2485468625659,-0.9212430148497824
1.78,0.3314492267603395,0.3501187901032767,1.4769332219650326,-0.0505209232001704,0.1315835245342378,0.015111852070027,-0.2305814660670938,-0.6544866758349066,0.0406446868855989,0.3329728078983673,0.3524710889533791,1.4823704304427865,-0.2513373886451045,-0.8033292450178998,0.1280749462269981,0.944494235445213,0.2921791346694666,0.8859605459316022,0.1475622753471107,10.481772089504377,-0.9598644343423576,0.2485683413671889,-0.9191961068183634
1.8,0.3269016648546262,0.3372203623230966,1.4777884212969423,-0.0472275083446937,0.1307793913930579,0.0156750363226986,-0.2244931265860504,-0.6368021042100306,0.0447988072745856,0.3199201534569849,0.3173944563115314,1.4789654563093126,-0.2125963586899222,-0.626346503472579,0.0888150709052122,0.9579518090671324,0.3044169740521685,0.8842285812438011,0.207706019449335,10.587482091697892,-0.9610645783010086,0.2471006221905473,-0.9171588617802602
1.82,0.32246313604623,0.3245212232737445,1.4786690879367643,-0.0469244325422349,0.1301284836026681,0.0160323454132406,-0.2197316138007892,-0.6328549553785165,0.0426383844368123,0.3199201534569849,0.3173944563115314,1.4789654563093126,-0.2125963586899222,-0.626346503472579,0.0888150709052122,0.3275645537153737,0.2380756392630592,0.1973574415757018,-0.1080211418886648,10.587482091697892,-0.9617809576184928,0.248232435961573,-0.9146787663527232
1.84,0.3181199585982707,0.3119565012324642,1.4795177147268546,-0.0515686424101984,0.1297649335011837,0.0160532620548222,-0.2148175157813127,-0.6226809070495634,0.0423232656548366,0.3199201534569849,0.3173944563115314,1.4789654563093126,-0.2125963586899222,-0.626346503472579,0.0888150709052122,0.5651524541919026,0.2457049009738268,0.5087024164476595,-0.0157559390987851,10.146525592562284,-0.9611027800631794,0.2523004271065077,-0.9143011032225096
1.86,0.314087189581051,0.3002751509751226,1.4803376466293283,-0.057013525957977,0.1296210288449777,0.0160162739097187,-0.2099177086479815,-0.6073821617788561,0.0439924562840375,0.3177941898700857,0.3111309912768056,1.4798536070183648,-0.2089993372144879,-0.6207184690001135,0.0984491477091348,0.8075362440139201,0.2449903566665578,0.7649372635353646,0.083459531460045,10.439638557008038,-0.9612792245088332,0.2580525397264174,-0.9118087237345966
1.88,0.3099453937738564,0.2883261991616603,1.4812523476848232,-0.0621449876306045,0.1296221736668634,0.0160366612689422,-0.2044961575398012,-0.5884093642136048,0.0474796126775591,0.3135422626962872,0.298604061207354,1.481629908436469,-0.2018052942636193,-0.6094624000551825,0.1177173013169801,1.0018988516605536,0.2710775554090147,0.9486398782625638,0.1743578196760808,10.439638557008038,-0.961807098294264,0.2636334874738172,-0.9085727443741892
1.9,0.3059154951909792,0.2767782628916376,1.4822555809231344,-0.0660073795572445,0.1297101711984299,0.0161647323014479,-0.1987534670057167,-0.5676843832588195,0.0526867584373774,0.3092903355224887,0.2860771311379024,1.4834062098545733,-0.1946112513127507,-0.5982063311102515,0.1369854549248254,1.1063653297063187,0.2871345267042247,1.0362490477392627,0.260357287990913,10.55155290766288,-0.962340630219446,0.2681782650494002,-0.9053761544118576
1.92,0.3021965240500295,0.2662002243716589,1.4833198206504534,-0.0684025289672638,0.1298026885507255,0.0163951011544377,-0.1930010766709548,-0.5471786966600086,0.0591029318066497,0.3053981104962337,0.2741130045156974,1.4861459189530697,-0.1874172083618821,-0.5869502621653204,0.1562536085326707,1.1121380963673924,0.2876195167380954,1.0252843299405456,0.3208086684636149,10.649827166170326,-0.9628754550484048,0.2720535679359842,-0.902049877606308
1.94,0.2984021737053128,0.2554894881418339,1.4845837695016757,-0.0696581919111828,0.1298518078091819,0.016748316538226,-0.1867326510354775,-0.5251206661477414,0.0670210434150664,0.3015058854699787,0.2621488778934924,1.4888856280515663,-0.1802231654110135,-0.5756941932203894,0.1755217621405161,1.2129987236915811,0.3134212817738652,1.102901525613359,0.3959055804208342,10.741372162849077,-0.9633503429692404,0.2750604706910916,-0.8987792944594722
1.96,0.2947358315445746,0.2452320429443996,1.486018025523349,-0.0692766259072456,0.1297866401967104,0.0172404848328008,-0.1802351202824354,-0.5020253014203626,0.0760339706500592,0.2977935115174954,0.2504661529949106,1.4921070409902588,-0.1730291224601449,-0.5644381242754584,0.1947899157483614,1.281450969722073,0.3248765376521037,1.1547682363689415,0.4506463617496396,10.811332478318036,-0.9639802751531514,0.2768371683124805,-0.8956175089729317
1.98,0.2913748164478598,0.2359202712263044,1.4875581142045704,-0.0670074374072701,0.1295616516128606,0.0178639387363784,-0.1739080010822825,-0.4796198748956071,0.0856617907651107,0.2942609886387838,0.2390648298199521,1.4958101577691476,-0.1658350795092763,-0.5531820553305273,0.2140580693562067,1.2596929142621969,0.3163559600076485,1.120271326237776,0.4813910057525787,10.93733674107716,-0.9649847387507884,0.2772835422733968,-0.8921433763271407
2.0,0.2879678458271041,0.2265584541415511,1.489390714065865,-0.0628660673318465,0.1291246717471919,0.0186624797947637,-0.167139280287886,-0.4582859720709275,0.0971963328025411,0.2826794163937456,0.211939277481524,1.491841203742826,-0.1648615014648847,-0.4507616602788316,0.1025843056507747,1.2589645059915455,0.3384360397198249,1.066695141233978,0.5767271018715187,10.93733674107716,-0.9671445638173752,0.2765405432336478,-0.8877302973437975
2.02,0.2846821613285556,0.2175701245449443,1.491268340275219,-0.0585377053142562,0.1281373557571827,0.0195102712062529,-0.1619076371042652,-0.4416613014648155,0.0889620929139232,0.2826794163937456,0.211939277481524,1.491841203742826,-0.1648615014648847,-0.4507616602788316,0.1025843056507747,0.963784817407076,0.2615821591810355,0.8312335303056001,-0.4117119944308973,11.006223762394256,-0.9652238704574178,0.2761007538998791,-0.8866544317033443
2.04,0.281653829647591,0.2093285492656033,1.4928871710500264,-0.0548779649217692,0.126374500167447,0.0203310090205692,-0.1571931672349011,-0.4266785113117998,0.0819642038554435,0.2826794163937456,0.211939277481524,1.491841203742826,-0.1648615014648847,-0.4507616602788316,0.1025843056507747,0.859768396420275,0.2357234934682067,0.7491395076507867,-0.3498944529239815,9.723705675336532,-0.9641795502532932,0.2731135310803047,-0.8890000520976968
2.06,0.2785578574062476,0.2009545948137236,1.494477676234841,-0.0514969348530802,0.1238905670254204,0.0211922800776904,-0.1527406059546107,-0.4114927010483977,0.0775901756683413,0.2810308013790968,0.2074316608787357,1.4928670467993337,-0.1630522015414051,-0.4449900173554765,0.1059688086279075,0.8209236534117417,0.2226280640145198,0.7592905131701022,-0.2187014093551091,9.902189610200368,-0.964543616340404,0.2709216841765491,-0.889133386164788
2.08,0.2755425329299275,0.1928800108557511,1.4960117428344128,-0.0485707286417377,0.1211245845894924,0.0220311774149783,-0.1491119735902311,-0.3967031793559265,0.0760268131281185,0.2777335713497991,0.1984164276731591,1.4949187329123492,-0.159433601694446,-0.4334467315087663,0.1127378145821731,0.7654100651939323,0.1814316182189801,0.739476084623561,-0.0781681270111418,10.07293973006199,-0.9657255213707792,0.2694784328355463,-0.8878430819394899
2.1,0.272588844173729,0.185097609000545,1.4975366819721292,-0.0460085646770684,0.1185065294886591,0.0228329141057457,-0.1465235589589546,-0.3822700033544498,0.0765473964574702,0.2744363413205014,0.1894011944675825,1.4969704190253648,-0.1558150018474869,-0.421903445662056,0.1195068205364387,0.7336338780273989,0.1294207315638257,0.721658800073835,0.0260291664675837,10.216996386552635,-0.9672749307207088,0.2684676280170315,-0.8857641746925614
2.12,0.2698205678083663,0.1779685372131562,1.4990106965448742,-0.0438478264964965,0.1165839678349718,0.0235466837909333,-0.1450551767233387,-0.3688812009217721,0.0785878024321173,0.2713200412835517,0.1809631255543413,1.4993605554360936,-0.1521964020005278,-0.4103601598153458,0.1262758264907043,0.6811377127874444,0.0734191117807953,0.6694401216338852,0.1020202987323561,10.330237516320269,-0.968562169892905,0.2678400014958528,-0.8837030710811112
2.14,0.2669288735520959,0.1707352084963219,1.5006089848511242,-0.0418207114928652,0.1155243476212505,0.0242376560379146,-0.1441049734569076,-0.3551644499064287,0.0811490044735011,0.2682037412466019,0.1725250566411002,1.5017506918468224,-0.1485778021535687,-0.3988168739686356,0.1330448324449699,0.6993066218785039,0.0475101633215568,0.685837550767171,0.1280601020691919,10.420109335836967,-0.9697294343519745,0.2675987264974058,-0.8815019475976417
2.16,0.2640587045443693,0.1637756438114589,1.5022613091760808,-0.0399287383184608,0.1153715269607226,0.0248822801658731,-0.1428668360982548,-0.3415402668356287,0.0839609581049269,0.2651779062058262,0.1643755698740268,1.5043100534064078,-0.1449592023066095,-0.3872735881219254,0.1398138383992355,0.698316603860405,0.0619068679326373,0.6812091535399967,0.1405976815712903,10.43578416168475,-0.9702553373622196,0.2675819069690087,-0.8798770976661933
2.18,0.2613597322199689,0.1574143781855301,1.503885658851731,-0.0381514834200003,0.1158079309046677,0.0254719356929781,-0.1412314867418916,-0.3288193864722603,0.0868873042508636,0.2622425361612244,0.1565146652531212,1.5070386401148497,-0.1413406024596504,-0.3757303022752152,0.1465828443535011,0.657758820735854,0.0817674678181584,0.6360440181684218,0.1463173072968338,10.444569911159306,-0.9702251023918328,0.267596342025589,-0.8787920598726305
2.2,0.2585581245740983,0.150975500453861,1.5056587485049933,-0.0362899714178934,0.116629288094628,0.0260805754110684,-0.1389578856390356,-0.31579878515337,0.0902844883800409,0.2542981578828743,0.1409734088619171,1.5082300240642743,-0.1533299024966271,-0.2986668569941872,0.1041772165789877,0.6823602067235619,0.1136800551428007,0.6510300659445134,0.1698592064588625,10.45625961528549,-0.9698043911773592,0.2676336738853402,-0.8781179888076829
2.22,0.2558451565825433,0.1447801531353925,1.507437378016789,-0.0348316866675291,0.1161699139282445,0.0267085570093219,-0.1324415919905537,-0.3043268456884959,0.0870656707063647,0.2542981578828743,0.1409734088619171,1.5082300240642743,-0.1533299024966271,-0.2986668569941872,0.1041772165789877,0.6790218428286267,0.3258146824240956,0.5735969732437091,-0.1609408836838098,10.47230331200626,-0.9709624785779728,0.2682958266554073,-0.8752191587866217
2.24,0.2532661183883175,0.1388133126511265,1.509151937082822,-0.0340416026782924,0.1126701741568361,0.0273954058111877,-0.1260243801948864,-0.2928949049791756,0.0846017939132637,0.2542981578828743,0.1409734088619171,1.5082300240642743,-0.1533299024966271,-0.2986668569941872,0.1041772165789877,0.6669718218625287,0.3208605897833672,0.5715970354660149,-0.1231938396550481,10.047692361989904,-0.9719635952682396,0.2684361345984032,-0.8736148485904058
2.26,0.2509139798960064,0.1333575512342482,1.5107505640688026,-0.0338012270250644,0.1070613652898454,0.0280898071238921,-0.1222762072531709,-0.2819684299745417,0.0838121593616905,0.252764858857908,0.1379867402919752,1.509271796230064,-0.1557495856475742,-0.2926363510985726,0.1076351990446125,0.5789217977260307,0.1874086470857752,0.5463237502316948,-0.0394817275786579,10.132708948282923,-0.9744390825636954,0.2690783510589891,-0.8700459893233881
2.28,0.2484799304345449,0.1278398220888594,1.512430394818668,-0.0340037552430041,0.1000603146054617,0.0288284488898236,-0.1216121451165483,-0.2703731145216693,0.0842833032670005,0.2496982608079755,0.1320134031520915,1.511355340561644,-0.1605889519494684,-0.2805753393073433,0.1145511639758621,0.5811933747738928,0.0332031068311276,0.5797657726436173,0.0235571952654972,10.217359864567698,-0.979329237849678,0.2704715491289363,-0.8632014376330948
2.3000000000000003,0.2460263549484199,0.1225576251329045,1.5141313681209123,-0.0345396392306928,0.0930709743917375,0.0295491588046288,-0.123965566192996,-0.2584263754330584,0.0858446788713605,0.246631662758043,0.1260400660122078,1.5134388848932236,-0.1654283182513626,-0.2685143275161141,0.1214671289071117,0.613801799020464,-0.1176710538223851,0.5973369544305468,0.0780687802179984,10.286841907847702,-0.9848824650469588,0.2721737608139476,-0.855397475027309
2.32,0.2436252986515471,0.1177656499315052,1.5157847601457874,-0.0351544737672131,0.0872759561723456,0.0302038152402413,-0.1287371126110899,-0.2466257415743053,0.088129453365625,0.2433230963930157,0.1206697794618855,1.515868227471366,-0.1702676845532568,-0.2564533157248848,0.1283830938383613,0.6466119570074761,-0.2385773209046919,0.5900316929376537,0.1142387247132253,10.34239765615166,-0.9905120782436596,0.2741137615774375,-0.8472598434954435
2.34,0.2409758527961767,0.1129675011127499,1.5175755220216551,-0.0357214990430207,0.0828132490061428,0.0308466954928165,-0.1361086414262899,-0.23383103802344,0.0908454593261544,0.2400145300279884,0.1152994929115632,1.5182975700495085,-0.175107050855151,-0.2443923039336555,0.1352990587696109,0.7507006134363431,-0.3685764407600045,0.639735177543263,0.1358002980264713,10.386473514615318,-0.9949095165391112,0.2760181494153678,-0.840465328962386
2.36,0.2381554121216063,0.1084327816326214,1.5194222714549386,-0.0359012773077123,0.0808824890885182,0.0314292101656636,-0.1455129996067451,-0.2203406653347702,0.0937111943790095,0.2365849795054138,0.1102307316560216,1.5208998117509316,-0.1799464171570451,-0.2323312921424263,0.1422150237008606,0.8346324721975934,-0.470217909022759,0.6745186344334936,0.1432867526427544,10.407513290942916,-0.9981286899396395,0.2775858751325456,-0.8352780935650245
2.38,0.235148635520257,0.1041743553432335,1.521328355357482,-0.0353068689564361,0.0816784289259587,0.0319679277675644,-0.154346796414604,-0.2063182293515115,0.0967764957663119,0.2330344448252919,0.1054634956952608,1.5236749525756363,-0.1847857834589393,-0.2202702803511971,0.1491309886321102,0.8427050930517196,-0.4416898403929434,0.7011217991629334,0.1532650693651195,10.416838490506962,-0.9999798557688058,0.2784909050352349,-0.8321371348254052
2.4,0.2321441815447772,0.1003903745620623,1.523197917367855,-0.0338125912053646,0.0842374692352637,0.0324807773736712,-0.1612294607920426,-0.1928421201508408,0.0998804559619964,0.2274312956995269,0.0938584438756579,1.5261671801457974,-0.1506033560361467,-0.1872759646813779,0.0933075606212467,0.7723521816782429,-0.3441332188719295,0.673805460033533,0.1551980097842277,10.416838490506962,-1.0000114519726415,0.2787534874093403,-0.8312881690721627
2.42,0.2288213654181694,0.096707513484167,1.5251516220044226,-0.0301878103860463,0.0890766053611131,0.0330971966749783,-0.1703341415050311,-0.1770786891178349,0.0949518046679934,0.2274312956995269,0.0938584438756579,1.5261671801457974,-0.1506033560361467,-0.1872759646813779,0.0933075606212467,0.9429641726965008,-0.4552340356494253,0.7881715516502991,-0.2464325647001511,10.4173429039256,-0.993703330495032,0.2777510856265123,-0.8374225003666885
2.44,0.2253481654996162,0.0932922806953016,1.526997528350284,-0.0251962945082345,0.0960969925746445,0.0337629113989325,-0.1761141591684202,-0.1654909830511067,0.0899270882476715,0.2274312956995269,0.0938584438756579,1.5261671801457974,-0.1506033560361467,-0.1872759646813779,0.0933075606212467,0.6944985802408677,-0.289000883169456,0.579385303336409,-0.2512358210160978,9.950237273186758,-0.9883934823438748,0.2739077931957279,-0.8458408312815676
2.46,0.2219768586946293,0.0902374315223852,1.5286655147645711,-0.0205294744277027,0.1035682396455585,0.0343969080274883,-0.1782436337120367,-0.1566429076326495,0.0858795969221587,0.2259252621391654,0.0919856842288441,1.52710025575201,-0.1498546679604552,-0.1834675117473512,0.0926137735922336,0.4980092531086112,-0.1064737271808252,0.4424037709228612,-0.2023745662756378,9.950237273186758,-0.9815769214398088,0.270176058071178,-0.8554380400801145
2.48,0.2184167826866558,0.0871895712845831,1.5303430021116835,-0.0161686207122633,0.1113047983067491,0.035055817932065,-0.177444318176645,-0.1485735177926956,0.0820797009534616,0.2229131950184424,0.0882401649352166,1.5289664069644349,-0.1483572918090723,-0.1758506058792978,0.0912261995342076,0.4477531883950952,0.0399657767695876,0.4034694919976919,-0.189994798434856,9.990775954996934,-0.9741637650007384,0.2670256558845064,-0.8650355449731746
2.5,0.2149011012609544,0.0842946456797924,1.531948368451619,-0.012488869303901,0.1182014087386628,0.0357018167768215,-0.1740457665521214,-0.1412662948497826,0.0786398795762222,0.2199011278977195,0.084494645641589,1.5308325581768598,-0.1468599156576894,-0.1682337000112443,0.0898386254761815,0.4381153711903368,0.1699275812261771,0.36536114714565,-0.171991068861968,10.024220439856435,-0.9668789271407228,0.2644878823973116,-0.873910535619522
2.52,0.2114759660853213,0.0815399612574381,1.5334884780869231,-0.0094700694938945,0.1237716620984521,0.0363303563384398,-0.1686614057836558,-0.1344689897509313,0.0755145800013293,0.2169639295845657,0.0811299716413641,1.5326293306863834,-0.1453625395063064,-0.1606167941431909,0.0884510514181554,0.4608746980598061,0.26921803842328,0.3398652549425646,-0.1562649787446447,10.05525555753502,-0.9606004964683064,0.2626390021862405,-0.8811569862136235
2.54,0.2083341810798242,0.0790457591867214,1.5348931975907854,-0.0071183219686788,0.1276612145472281,0.0369086397975236,-0.1623887332657795,-0.1283452607399406,0.0724891835705037,0.2140267312714119,0.0777652976411392,1.534426103195907,-0.1438651633549235,-0.1529998882751374,0.0870634773601294,0.4636795797752576,0.313633625893818,0.3061864505495379,-0.1512698215412826,10.08355852573277,-0.954847015423574,0.2612278649019549,-0.8873936352583097
2.56,0.2051619360255707,0.0765449344724739,1.5363093006552615,-0.0050457372008605,0.1303006396167536,0.03749772116326,-0.1552162820440299,-0.1220470657979867,0.069274535895711,0.2111269673620427,0.0745910462876157,1.53618818635398,-0.1423677872035406,-0.145382982407084,0.0856759033021033,0.5036002276813433,0.358622561087478,0.3149097470976941,-0.1607323837396347,10.090272652400015,-0.9503530363213848,0.2603663480831614,-0.8917894772564067
2.58,0.2021365651371635,0.074167940327983,1.537662271157599,-0.0032677398270173,0.1315619004929671,0.0380671463467802,-0.1478016406879269,-0.1159580287307229,0.0661786046704545,0.2082646378564581,0.0716072175807935,1.5379155801606024,-0.1408704110521577,-0.1377660765390306,0.0842883292440772,0.5040785380217601,0.3707320678051476,0.3044518533631863,-0.1547965612628245,10.097353920326896,-0.9470793277538714,0.2597761803238362,-0.8947216322019539
2.6,0.1992579470201079,0.0719099676982424,1.5389552377495288,-0.0017157511892442,0.1316664614071523,0.0386156601054257,-0.140546877209462,-0.1101625814304475,0.0632724872524312,0.1947464831027671,0.0683700388914469,1.5409712013911216,-0.1414623081334376,-0.0996890750497308,0.0809936464658274,0.4864779568132446,0.3627381739232452,0.2897723650137698,-0.145305870901162,10.122975306709122,-0.945033946454732,0.2593898800062271,-0.8963146573646766
2.62,0.1966705051943953,0.0698667932551508,1.5401438076488194,-0.0005552051763234,0.1304430092712512,0.0391069382800377,-0.1322816891435177,-0.1051775375869607,0.0619917336719198,0.1947464831027671,0.0683700388914469,1.5409712013911216,-0.1414623081334376,-0.0996890750497308,0.0809936464658274,0.486837564339757,0.4132594032972156,0.2492521921743401,-0.0640376790255713,10.122975306709122,-0.9456742066227112,0.2590910054341481,-0.8953945197350386
2.64,0.1941124145795225,0.0678146554205556,1.541378620678971,0.0001864126456669,0.1273880758442472,0.0395800797897058,-0.1240935245208402,-0.1002904564895001,0.0616086416768878,0.1947464831027671,0.0683700388914469,1.5409712013911216,-0.1414623081334376,-0.0996890750497308,0.0809936464658274,0.4771696789871583,0.4094082311338773,0.2443540548730333,-0.0191545997516015,10.214658678331034,-0.947131062229476,0.2597644729853584,-0.8925826454675101
