t,x,y,z,roll,pitch,yaw,v_x,v_y,v_z,ref_x,ref_y,ref_z,ref_v_x,ref_v_y,ref_v_z,a_com,a_x,a_y,a_z,thrust,wind_x,wind_y,wind_z
0.0,0.7012985102591527,0.5554525466867113,2.0749796610965,0.0270473804781459,0.0995628805831991,0.0419271620719849,-0.0006073539003739,0.006958392784953,-6.441414115617878e-05,0.7012831028510437,0.5556401476443782,2.07497712138028,-0.1005410065682174,-0.0935113682470135,-0.1000777527735746,0.349257276558293,-0.0303676950186956,0.3479196392476504,-0.0032207070578089,10.255164418321328,-0.9409841962907513,0.2560876789810794,-0.8775086607548689
0.02,0.7014457509043764,0.5558007511243829,2.07488277269402,0.035922518803079,0.0938429906089228,0.0423551081976319,0.0148979510336654,0.0242426285493876,-0.0101875616045794,0.7012831028510437,0.5556401476443782,2.07497712138028,-0.1005410065682174,-0.0935113682470135,-0.1000777527735746,1.2665281299919082,0.7752652467019668,0.8642117882217328,-0.5061573731711644,10.25452879727436,-0.9527259486814812,0.2523032383273811,-0.8634946682956115
0.04,0.7018577535732129,0.5563032817311323,2.0745417994890523,0.050219721510789,0.0777934800310687,0.0426047111633262,0.0239882012936769,0.0243992537217206,-0.0233014222306802,0.7012831028510437,0.5556401476443782,2.07497712138028,-0.1005410065682174,-0.0935113682470135,-0.1000777527735746,0.7978573208209668,0.4545125130005745,0.0078312586166492,-0.6556930313050405,9.623654454914686,-0.956984880887502,0.2416883945622469,-0.8601344664250251
0.06,0.7023167006797174,0.5567159730744163,2.0739524813702253,0.0640194347222004,0.0570752421560456,0.0422766010419686,0.0229541690370476,0.0186981103889716,-0.0380695290539191,0.7012831028510437,0.5556401476443782,2.07497712138028,-0.1005410065682174,-0.0935113682470135,-0.1000777527735746,0.7932043197545223,-0.0517016128314638,-0.2850571666374493,-0.7384053411619457,9.322942995014271,-0.9681116415018292,0.2285637408007927,-0.8515340620347397
0.08,0.7026751223369858,0.5569951434294094,2.0730108097955617,0.0779794763890079,0.0332344944341825,0.0413814782434731,0.0121559300978705,0.009165391036759,-0.0554383907418411,0.7002776927853614,0.5547050339619081,2.0739763438525443,-0.1205410068662407,-0.1135113685450367,-0.1200777530715978,1.1282199018473442,-0.5399119469588528,-0.4766359676106302,-0.8684430843960991,9.239149413343966,-0.9825561549588688,0.2132935793202877,-0.8421956287632223
0.1,0.7027220855958418,0.5570511885227961,2.071704579799188,0.0912806843236719,0.0103518464781305,0.0401314452827722,-0.00725331819853,-0.0034053909464782,-0.0743833045019014,0.6982668726539971,0.5528348065969677,2.071974788797073,-0.1605410074622871,-0.1535113691410832,-0.1600777536676443,1.494701672974858,-0.9704624148200328,-0.628539099161864,-0.9472456880030136,9.239149413343966,-0.9968166193760142,0.1968317266235615,-0.8354101102683736
0.12,0.7023418062416769,0.5568448439395188,2.070100745997411,0.1033292325420906,-0.0086328276249963,0.0388383722381938,-0.031855832021345,-0.0179449072629475,-0.0935554940325413,0.6962560525226328,0.5509645792320275,2.069973233741601,-0.2005410080583336,-0.1935113697371296,-0.2000777542636908,1.7206496393204658,-1.2301256911407503,-0.7269758158234656,-0.9586094765319956,9.208391328106243,-1.011405132926373,0.1785418094853429,-0.8302888499028307
0.14,0.7013919655424913,0.5563030601814951,2.0680048192947207,0.1154179374346132,-0.0247308137090108,0.0375670759321928,-0.0619007556941358,-0.0357520799856954,-0.1151246745261981,0.6922452323614662,0.5470943518372848,2.065971678656328,-0.24054100865438,-0.2335113703331761,-0.2400777548597372,2.0524512089508624,-1.502246183639537,-0.8903586361373979,-1.0784590246828367,9.203787753673168,-1.0242921858282457,0.1597868087131254,-0.8280495722055189
0.16,0.6998087542617152,0.5553791408515616,2.0654673186258954,0.1269143665075939,-0.036486904556426,0.0365456155387895,-0.0948480968971726,-0.0560179457975223,-0.1376025193804291,0.6882344122002995,0.5432241244425423,2.061970123571053,-0.2805410092504266,-0.2735113709292226,-0.2800777554557837,2.2368985888631503,-1.647367060151841,-1.0132932905913423,-1.123892242711552,9.183332368167612,-1.034379234176863,0.1404486320321994,-0.8301030079403487
0.18,0.6975353555757609,0.5540089839297105,2.062471685178947,0.1373277764722378,-0.043445612932702,0.0359190130803498,-0.1307538768790194,-0.0798794862070446,-0.1608458742319688,0.6832235920242317,0.5383538970328985,2.0569685684708787,-0.320541009846473,-0.313511371525269,-0.3200777560518301,2.448903678983032,-1.795288999092339,-1.1930770204761174,-1.1621677425769847,9.18938097699538,-1.0401287304587457,0.1239432503738529,-0.8348479962169137
0.2,0.694693508708438,0.5522276401998683,2.0591895734154595,0.1453914757150283,-0.0449504138867796,0.0358357316053343,-0.1660084936613579,-0.1059253366867666,-0.1833333858871869,0.6772127718332627,0.5324836696083536,2.0509670133558027,-0.3605410104425194,-0.3535113721213154,-0.3600777566478765,2.4632105635355,-1.762730839116926,-1.3022925239860996,-1.124375582760906,9.224464262647416,-1.0446776317015478,0.1088674134336368,-0.8405813759067692
0.22,0.6910035158212673,0.5498045031985231,2.055274737533848,0.1516694496183123,-0.0419555084389991,0.0362493625467761,-0.2006721334443934,-0.1346527668182112,-0.2068551364273416,0.6863930840253701,0.5469313733655299,2.0500229041211,-0.266008495151474,-0.2059253381768828,-0.283333387377303,2.5397371485245963,-1.733181989151776,-1.436371506572229,-1.176087527007734,9.246535472128926,-1.045288026657017,0.0958709123940086,-0.8502490381280978
0.24,0.6866176988529713,0.5466480694309921,2.051081676558365,0.1520981873839137,-0.0346178027476511,0.0369172852344123,-0.2356915328719035,-0.1781870825249386,-0.209801952713394,0.6863930840253701,0.5469313733655299,2.0500229041211,-0.266008495151474,-0.2059253381768828,-0.283333387377303,2.797444685127947,-1.7509699713755016,-2.176715785336367,-0.1473408143026183,9.24631590753097,-1.0487934824698186,0.0881179396197421,-0.8558830281656272
0.26,0.6815794398392306,0.5426966386100732,2.0468639165978035,0.1460185832566471,-0.0236847343992903,0.0376355440468147,-0.2658245445738186,-0.2131855298665085,-0.2116186805292047,0.6863930840253701,0.5469313733655299,2.0500229041211,-0.266008495151474,-0.2059253381768828,-0.283333387377303,2.310946889537454,-1.5066505850957548,-1.749922367078495,-0.0908363907905357,10.66594068525592,-1.0461915668410942,0.0917216136423091,-0.8604967735574213
0.28,0.6762818727234163,0.5383723955929184,2.042794817263619,0.1383914185960721,-0.0118590987424285,0.0383153157272774,-0.2899371501751931,-0.2398033118033258,-0.216517652677305,0.6837329990738554,0.5448721199837611,2.047189570247327,-0.2860084954494973,-0.225925338474906,-0.3033333876753263,1.8124044748836168,-1.2056302800687284,-1.330889096840869,-0.2449486074050141,10.1176358094408,-1.0398412165600297,0.0961726553207855,-0.8699673412737694
0.3,0.6702562444392769,0.5333252106424423,2.0383760913581845,0.1302734630933918,0.0007158311678405,0.0389372517770766,-0.3110065051764819,-0.2633268432625184,-0.2252770185824149,0.6784128291708259,0.5407536132202234,2.0415229024997807,-0.3260084960455437,-0.2659253390709524,-0.3433333882713727,1.6385975280262934,-1.0534677500644352,-1.1761765729596252,-0.4379682952554989,9.8574888862222,-1.0314007709965474,0.1003704641985144,-0.8818737139268542
0.32,0.6638488544134816,0.5278407745717519,2.03374226512583,0.1228361350565262,0.0124176316921781,0.0393928862613588,-0.3284475585145061,-0.2838853495895208,-0.2378485789117636,0.6730926592677964,0.5366351064566858,2.035856234752235,-0.3660084966415902,-0.3059253396669989,-0.3833333888674192,1.487352222114568,-0.8720526669012102,-1.02792531635012,-0.6285780164674348,9.8574888862222,-1.0235986933279664,0.1044212952082957,-0.8921156247571129
0.34,0.657467657661395,0.522272935967188,2.029071528342388,0.1166800675540546,0.022113973402233,0.0396396092466597,-0.3423238061790883,-0.3012955905056838,-0.2532127401846261,0.6657724893349646,0.5305165996633457,2.0281895669748864,-0.4060084972376366,-0.3459253402630453,-0.4233333894634656,1.3525200457166882,-0.6938123832291115,-0.8705120458081528,-0.7682080636431234,9.444651759003136,-1.014944716397429,0.1072025923376163,-0.90392642502995
0.36,0.6504876208813918,0.5160710492942134,2.0238184347096864,0.1112474253337006,0.030502997976305,0.0397030330066384,-0.3548816333398245,-0.3180750570801693,-0.2714216131854379,0.6584523194021328,0.5243980928700058,2.0205228991975384,-0.4460084978336831,-0.3859253408590918,-0.4633333900595121,1.388175581008119,-0.6278913580368084,-0.838973328724274,-0.9104436500405904,9.444651759003136,-1.0071410619502716,0.1087888647640329,-0.915016661432392
0.38,0.6432677743861278,0.5095360264323225,2.018182208415493,0.1066029746209962,0.0370639842415562,0.0395778591228087,-0.3664568527155635,-0.3345577730442298,-0.291375328431358,0.6501321494543998,0.5172795860617647,2.011856231405289,-0.4860084984297295,-0.4259253414551383,-0.5033333906555585,1.4175827852930174,-0.5787609687869538,-0.824135798203024,-0.997685762296005,9.337794396839854,-1.0000806049819122,0.1093947151512348,-0.9255427324664568
0.4,0.6358229339131406,0.5026775588819449,2.0121307129298334,0.1023840359026931,0.0421118004315259,0.0392933866442868,-0.3774657371180309,-0.3504142164710075,-0.3127916813015476,0.6408119794917657,0.5091610792386224,2.002189563598138,-0.526008499025776,-0.4659253420511847,-0.543333391251605,1.4415985087689729,-0.5504442201233695,-0.7928221713388889,-1.0708176435094778,9.261799292478829,-0.9944913696872104,0.1097898343724686,-0.9341211624163086
0.42,0.6285492469586563,0.4958752378311274,2.005973507077781,0.09864839021521,0.0458114573015184,0.038911759851296,-0.3876446207163883,-0.3647778216878018,-0.334276395478034,0.6169496470572391,0.4851568480583945,1.996491128864756,-0.4598907130496754,-0.4282975345376045,-0.4118730560063854,1.3888086345661004,-0.5089441799178668,-0.7181802608397125,-1.0742357088243195,9.198907997112656,-0.9895088610267576,0.1099616120785539,-0.9421810590956934
0.44,0.6206819275490697,0.4883522136498224,1.999314547961388,0.0934274598251056,0.0494375628175988,0.0383772823924478,-0.3984104009545892,-0.3859830815075872,-0.328958054153547,0.6169496470572391,0.4851568480583945,1.996491128864756,-0.4598907130496754,-0.4282975345376045,-0.4118730560063854,1.2184517046292676,-0.5382890119100453,-1.0602629909892691,0.2659170662243471,9.143352752522333,-0.9916572674408614,0.1115386802303475,-0.9429973864994956
0.46,0.612612276515378,0.4804576360627061,1.9927684332226143,0.0871250200255918,0.0532136202652859,0.0377628720674496,-0.4079340384266143,-0.4021797920901843,-0.3260637161881902,0.6169496470572391,0.4851568480583945,1.996491128864756,-0.4598907130496754,-0.4282975345376045,-0.4118730560063854,0.9505397107073952,-0.4761818736012557,-0.8098355291298542,0.1447168982678437,10.89706249500614,-0.9894302464189284,0.1164342366766844,-0.944660609230932
0.48,0.6047771572030629,0.4726882942963233,1.986543633762224,0.0813716242910758,0.0565297788479646,0.0371556377344777,-0.4162973459188567,-0.4148066044394972,-0.3293149716492994,0.6123507399267424,0.4808738727130184,1.992372398304692,-0.4763757082360043,-0.4438741981509239,-0.4316893309473529,0.774519148226744,-0.4181653746121228,-0.631340617465645,-0.1625627730554635,10.518378260049758,-0.9863126727714308,0.1208202741792741,-0.9478155371303488
0.5,0.596363869812589,0.4642733041969134,1.979872597629989,0.075961239094363,0.0595426466309174,0.0365099140689501,-0.4245628217351171,-0.4260309910549819,-0.3378579395728842,0.6031529256657489,0.4723079220222663,1.9841349371845645,-0.5093456986086621,-0.4750275253775627,-0.4713218808292881,0.817446093492495,-0.4132737908130207,-0.5612193307742375,-0.427148396179236,10.14904861161267,-0.9830818512761978,0.1241787427278529,-0.951664661951662
0.52,0.5877887889782077,0.4556496263865893,1.9729829130830852,0.0713612407837944,0.061975638590083,0.035868618196342,-0.4325240485400409,-0.4358253336922895,-0.3508713573244866,0.5939551114047553,0.4637419713315142,1.9758974760644368,-0.5423156889813199,-0.5061808526042015,-0.5109544307112233,0.9064481804192388,-0.3980613402461891,-0.4897171318653803,-0.6506708875801209,9.852580548460535,-0.9797466591609556,0.1264045289566742,-0.9561960902152862
0.54,0.5790562767405075,0.4468424716980006,1.9657913030804093,0.0676023126167004,0.0638256925089673,0.0352407471942611,-0.4403385655766784,-0.4445530913048541,-0.3676425884117683,0.5831087976251289,0.4536183542794302,1.9656783874502124,-0.5752856793539777,-0.5373341798308403,-0.5505869805931584,1.022881495632047,-0.3907258518318718,-0.4363878806282306,-0.8385615543640867,9.617934533865082,-0.9767038753950812,0.1275487230054148,-0.9608042617665226
0.56,0.5706170151665655,0.4383205867895585,1.958632764220047,0.0647647757539326,0.0650841655103395,0.034661146633333,-0.447630331878335,-0.4522030076184301,-0.385062685693743,0.5722624838455025,0.4434947372273461,1.955459298835988,-0.6082556697266355,-0.5684875070574792,-0.5902195304750936,1.018762563991425,-0.364588315082831,-0.3824958156787988,-0.8710048640987345,9.36146006979834,-0.9740788674801996,0.1279024653141696,-0.9654017942851676
0.58,0.5615812397054769,0.4291911132229756,1.9507269388770447,0.0622953439831914,0.0660473101179184,0.0340648934157767,-0.4555664555851652,-0.4603450983724126,-0.4046647006883994,0.5605919203065597,0.4325922869945962,1.9442493964747152,-0.6412256600992932,-0.599640834284118,-0.6298520803570287,1.1330431293500387,-0.3968061853415083,-0.4071045376991239,-0.980100749732818,9.36146006979834,-0.971466145858868,0.1276354041771119,-0.9702335690600687
0.6,0.5523841186729652,0.4199000894614069,1.9424175697278283,0.0600923655256273,0.0668909254172321,0.0334818116453669,-0.4637322395357313,-0.4683198183900196,-0.4253373969492068,0.5480971070083004,0.4209110035811802,1.9320486803663937,-0.674195650471951,-0.6307941615107567,-0.6694846302389638,1.1807164748343997,-0.4082891975283054,-0.3987360008803509,-1.033634813040374,9.299880147592376,-0.9689485320693624,0.1270826947292986,-0.9750864459314595
0.62,0.5430219107496421,0.4104526158768598,1.933683153100215,0.0580373064315285,0.0678098348822617,0.0329159008092346,-0.4720277330747129,-0.4759887115817425,-0.4470727300198108,0.5291975066961787,0.3964840985419059,1.921150699880368,-0.4824521045449199,-0.4968216214454252,-0.4467649277445426,1.224797778749036,-0.4147746769490812,-0.3834446595861462,-1.0867666535301967,9.2509739373927,-0.9664405022855898,0.1264063207179376,-0.9798850641836002
0.64,0.533918079795221,0.4011576356341823,1.925332700208352,0.0511206127135278,0.0716358355705291,0.0321954871832722,-0.4850293330233722,-0.498352457080396,-0.4305346219884719,0.5291975066961787,0.3964840985419059,1.921150699880368,-0.4824521045449199,-0.4968216214454252,-0.4467649277445426,1.5351610104560336,-0.6500799974329674,-1.118187274932672,0.8269054015669436,9.203042139765785,-0.966136484052882,0.1291254144157578,-0.9835975249994036
0.66,0.5241174067707407,0.3910672554399681,1.9168940323904815,0.0393447274582389,0.0800255442768466,0.0312958177282609,-0.4937549075973174,-0.5086570210923377,-0.4144902830591946,0.5291975066961787,0.3964840985419059,1.921150699880368,-0.4824521045449199,-0.4968216214454252,-0.4467649277445426,1.0484995264653256,-0.4362787286972563,-0.5152282005970843,0.8022169464638657,11.699653578722064,-0.9625153994929696,0.1409928772562483,-0.9837466252803811
0.68,0.5141877870388313,0.3808535236227334,1.9087135561171675,0.0270777245596618,0.0905676702355369,0.0303461308549925,-0.4982878094840233,-0.5119341144403803,-0.4043413254820356,0.5243729856507295,0.3915158823274516,1.9166830506029229,-0.4861960775467576,-0.5025219820565063,-0.4510504339036097,0.5794132381756123,-0.2266450943352982,-0.1638546674021301,0.5074478788579473,11.316860760608506,-0.9542330563742116,0.1520742238648162,-0.9891841400667982
0.7000000000000001,0.5042040472971507,0.3706252076318423,1.900682422535073,0.0158337283869113,0.1019605920037547,0.0293754900816394,-0.4994496076486751,-0.5107935305954154,-0.3992990979560821,0.5147239435598311,0.3815794498985431,1.907747752048032,-0.4936840235504331,-0.5139227032786686,-0.4596214462217441,0.2649281266035512,-0.0580899082325891,0.0570291922482424,0.2521113762976784,10.637682787693848,-0.9437061557091088,0.1626848479428446,-0.996824596692052
0.72,0.4947254832068751,0.3609597258645065,1.8931061462964212,0.0066192240183278,0.1129214860939296,0.0284594827092597,-0.4979228350392373,-0.5068958448607119,-0.3984820901874012,0.5050749014689327,0.3716430174696346,1.898812453493141,-0.5011719695541086,-0.5253234245008309,-0.4681924585398784,0.2132515555718502,0.0763386304718893,0.1948842867351752,0.0408503884340438,10.637682787693848,-0.93209819162749,0.1716639740305472,-1.0057927977040344
0.74,0.4848055719866434,0.3508853862758276,1.8851160497144848,-0.0014261446155359,0.124232793729282,0.0275246486336316,-0.4938426986921941,-0.5008927959644135,-0.4007338682207621,0.4950514620778505,0.361136548979618,1.8894486043223435,-0.508659915557784,-0.5367241457229932,-0.4767634708580127,0.3799822791043665,0.2040068173521592,0.3001524448149217,-0.1125889016680453,10.412196424888862,-0.9200082768370142,0.1789478977802973,-1.0154490375043292
0.76,0.4749953247823302,0.3409481309396658,1.8770666874485655,-0.0077813582822065,0.1350481061905462,0.0266441520455126,-0.4871083821524615,-0.493344015320481,-0.4041440864091477,0.4850280226867684,0.3506300804896013,1.8800847551515456,-0.5161478615614595,-0.5481248669451554,-0.485334483176147,0.5337712444482244,0.3367158269866332,0.3774390321966248,-0.1705109094192775,10.25006261397084,-0.908823697009509,0.1843623811914863,-1.024482364301635
0.78,0.4653571577593585,0.3311721439655618,1.8689424576345428,-0.0125727797198378,0.144788834611172,0.0258404219267792,-0.4769290589126089,-0.484937958612281,-0.4081465182929469,0.4748173846455943,0.3398385939690307,1.8705066306727949,-0.523635807565135,-0.5595255881673177,-0.4939054954942813,0.689746098189997,0.50896616199263,0.4203028354099997,-0.2001215941899614,10.211266823393087,-0.898319229057321,0.1888322565216798,-1.0326626004061723
0.8,0.4564161764142916,0.3220463314196524,1.8611457380500616,-0.0159178172157433,0.152447663037511,0.0251624518152249,-0.4647380575839535,-0.4763584920740205,-0.4123880636146232,0.4644195479543284,0.328762089417906,1.8607142308860904,-0.5311237535688105,-0.5709263093894799,-0.5024765078124157,0.7749491373507087,0.609550066432768,0.4289733269130263,-0.2120772660838155,10.211266823393087,-0.8887317082964354,0.1920693451455652,-1.0401705857341514
0.8200000000000001,0.4472734151451166,0.3126187116753957,1.852848138530728,-0.0183683094837323,0.1585277126028189,0.0245516801838082,-0.4501758722677529,-0.4670336453237375,-0.4171725401504727,0.433179273535094,0.2982284068159514,1.8405263348693304,-0.4146082900766388,-0.4590314274257498,-0.407014789638476,0.8970802971609126,0.7281092658100285,0.4662423375141472,-0.2392238267924756,10.208109983679606,-0.8806715595368467,0.1942555895793887,-1.046497801050731
0.84,0.4383993671255392,0.3032697322895575,1.8445462404628357,-0.0234491035512088,0.1641790606485136,0.0237648299950608,-0.4377387161814721,-0.4665464091899226,-0.412349261018522,0.433179273535094,0.2982284068159514,1.8405263348693304,-0.4146082900766388,-0.4590314274257498,-0.407014789638476,0.6674284084254253,0.621857804314041,0.024361806690748,0.2411639565975371,10.20985778155773,-0.8718460555741817,0.1981009093748846,-1.054256648569706
0.86,0.430215862573278,0.2944794192497647,1.836756681159692,-0.0308162695957923,0.1704673960782531,0.0228014491010688,-0.4240518926576438,-0.4584024802273456,-0.4079393861315753,0.433179273535094,0.2982284068159514,1.8405263348693304,-0.4146082900766388,-0.4590314274257498,-0.407014789638476,0.8262864419171532,0.6843411761914164,0.4071964481288492,0.2204937443473331,10.830516869601524,-0.8646563438739473,0.2056898181030066,-1.0579882269517873
0.88,0.421904513931341,0.285443339215962,1.8286394590005344,-0.0384260275986023,0.1774153868283698,0.0217604349322847,-0.4075668295061581,-0.4455878866366018,-0.4040705203930156,0.4290331906343276,0.2936380925416939,1.8364561869729457,-0.4045823365751759,-0.4555660144960957,-0.4059401348432466,1.061766497525943,0.824253157574284,0.6407296795371886,0.1934432869279856,10.767871360292702,-0.8562686600699055,0.2135996940942922,-1.062479577655697
0.9,0.4139430452871763,0.2766929202138168,1.8205934837667288,-0.0449228552207777,0.1843408797414464,0.0207746140676063,-0.3891922415140196,-0.4302250459619687,-0.4007606704832459,0.4207410248327948,0.2844574639931789,1.828315891180176,-0.38453042957225,-0.4486351886367875,-0.4037908252527877,1.2089225201602103,0.9187293996069268,0.7681420337316558,0.165492495488484,10.739871831066012,-0.8473827814190431,0.2201845209120015,-1.0675674925462069
0.92,0.4063677370515426,0.2682687009171093,1.81261090492494,-0.0499327013420792,0.191051558486565,0.0198890969479567,-0.3690577259354965,-0.4133027923864768,-0.3976907873755485,0.412448859031262,0.2752768354446639,1.8201755953874064,-0.3644785225693241,-0.4417043627774792,-0.4016415156623288,1.3239954361231403,1.006725778926154,0.8461126787745937,0.1534941553848701,10.739871831066012,-0.837067513382341,0.2258070535836286,-1.0738359370237769
0.94,0.3995600905524765,0.2605882394899056,1.805084570731181,-0.0533241878195967,0.1971396032862217,0.0191556723741947,-0.3483826769974699,-0.3963485047906766,-0.3947286695231659,0.4051592885798756,0.2664427481891143,1.81214276507416,-0.3444266155663983,-0.434773536918171,-0.3994922060718699,1.3450647369572049,1.0337524469013286,0.84771437979001,0.1481058926191297,10.752799578947815,-0.8266851346937344,0.2300507847047389,-1.0802904937838855
0.96,0.3928433086265705,0.2528546478335984,1.797227810918639,-0.0556038710847374,0.2029456064717288,0.0185137690451365,-0.3242423554363529,-0.378125915776028,-0.3910864736091746,0.3978697181284891,0.2576086609335647,1.8041099347609133,-0.3243747085634724,-0.4278427110588628,-0.3973428964814111,1.5232231177234152,1.2070160780558503,0.9111294507324286,0.1821097956995671,10.78062996142762,-0.81688055984309,0.2330457412312308,-1.0863902129781955
0.98,0.386639594283316,0.245496672305715,1.7894508368488746,-0.0564329735478161,0.2074211119350497,0.0180644093231973,-0.2974098414563401,-0.3588657590708707,-0.386803709462068,0.3910814453521757,0.2489478443244978,1.7961308371874285,-0.3043228015605465,-0.4209118851995545,-0.3951935868909522,1.665292400401909,1.3416256990006397,0.9630078352578676,0.2141382073553271,10.840581621218917,-0.8085704749465514,0.2346658483085033,-1.091523563036357
1.0,0.3809926309911193,0.2385334534739438,1.7817673259675082,-0.0553666206268872,0.2099759080425621,0.0178798674701126,-0.268808317222611,-0.3387471339794618,-0.3817470900702595,0.3847944702509356,0.2404602983619136,1.7882054723537049,-0.2842708945576206,-0.4139810593402463,-0.3930442773004934,1.7666180003999703,1.4300762116864567,1.005931254570444,0.2528309695904257,10.975765920317826,-0.8011268300070394,0.2346072751187938,-1.0962967674707769
1.02,0.3761699698217843,0.2322922905531203,1.7745708754031684,-0.0522469955559946,0.2102999185083856,0.0179897054029326,-0.2404134636059309,-0.3198397638691421,-0.3759857562608859,0.3675522151299887,0.2215960967749707,1.7626799714639951,-0.2605814056852618,-0.3259924003052336,-0.3574794407922148,1.7298477705164756,1.419742680834002,0.9453685055159838,0.2880666904686801,10.975765920317826,-0.7964716640728926,0.2324185731130884,-1.099233772574487
1.04,0.3717593652315313,0.2260769543637038,1.7670805356250503,-0.0476036991756964,0.2053448789560217,0.0184797213540629,-0.2026312661688267,-0.3030501726238518,-0.3734205082628831,0.3675522151299887,0.2215960967749707,1.7626799714639951,-0.2605814056852618,-0.3259924003052336,-0.3574794407922148,2.0712105848099505,1.8891098718552104,0.8394795622645168,0.128262399900142,11.046984121187052,-0.8002621951927648,0.2297089263719251,-1.0947823740007718
1.06,0.3680678492854623,0.2201759685980746,1.759667231663719,-0.0425274852189125,0.1931018453421265,0.0193138243737137,-0.169551236861678,-0.2881689782702937,-0.3678524357295065,0.3675522151299887,0.2215960967749707,1.7626799714639951,-0.2605814056852618,-0.3259924003052336,-0.3574794407922148,1.834898986379858,1.654001465357438,0.7440597176779029,0.27840362666883,10.86883464312541,-0.802117746402078,0.2249767905943675,-1.095607045188637
1.08,0.3651097423589678,0.2148299577501478,1.7527609889213354,-0.0376887068507005,0.1773432419980154,0.0202166420661371,-0.144274292583632,-0.2754843623346475,-0.3592847851587034,0.3649464010731361,0.2183361727719183,1.759105177056073,-0.2589360233777919,-0.323441453570388,-0.3526259109366059,1.477521598635425,1.2638472139022985,0.6342307967823091,0.4283825285401554,11.003528542443746,-0.8119385842662488,0.2205706329624914,-1.0895220566599526
1.1,0.3624436050264715,0.2094477249961484,1.7456947222051682,-0.0327944213667271,0.1586398071189796,0.0211439519575751,-0.1244071325648232,-0.2635405749613591,-0.3476203671358151,0.3597347729594309,0.2118163247658137,1.751955588240229,-0.2556452587628522,-0.3183395601006967,-0.342918851225388,1.2975137300275097,0.9933580009404412,0.597189368664422,0.5832209011444128,11.138992944110214,-0.8267546488110553,0.2165586166082669,-1.0788534739489346
1.12,0.3601038362436712,0.2042906946462565,1.7388830144897698,-0.0282156212205526,0.1395733261741748,0.0219677800588389,-0.1111614781078716,-0.2528635608274868,-0.3340231559301539,0.3545231448457256,0.205296476759709,1.7448059994243843,-0.2523544941479125,-0.3132376666310054,-0.3332117915141701,1.0889560888521037,0.6622827228475785,0.5338507066936143,0.6798605602830604,11.244828621487612,-0.8432266570175168,0.2131816407964904,-1.0659695651255554
1.14,0.3579626545965249,0.199334464199315,1.7323568923242874,-0.0240085016677507,0.1215734971003806,0.0226507306534051,-0.1040010332081293,-0.2433544548555478,-0.3192268113939094,0.3494760549627674,0.1990317234270889,1.7381417635941008,-0.2490637295329728,-0.3081357731613142,-0.3235047318029522,0.9495089246329672,0.3580222449871134,0.4754552985969482,0.7398172268122227,11.31732068783458,-0.8615848343516307,0.2101237156693706,-1.0505157870896016
1.16,0.3560100098347418,0.1947918303159605,1.726435408818452,-0.0203804880824473,0.1063650511762963,0.0231631246805554,-0.1020867676908355,-0.2353145845554118,-0.3047959667466481,0.3444289650798091,0.1927669700944688,1.7314775277638177,-0.2457729649180332,-0.3030338796916229,-0.3137976720917343,0.8314944439788844,0.0957132758646894,0.4019935150068029,0.7215422323630677,11.35901097374972,-0.8798357295295535,0.2078784755737809,-1.033598608965063
1.18,0.3539517481609672,0.1901663951310742,1.7205007474981788,-0.0169414600079124,0.0929079485932118,0.0235718638158902,-0.1040380759582137,-0.2276912737466182,-0.2894023737192829,0.3394641443122244,0.1866297640985909,1.7250559684263145,-0.2424822003030934,-0.2979319862219316,-0.3040906123805165,0.864414799060547,-0.0975654133689059,0.3811655404396805,0.7696796513682602,11.364339710731656,-0.8966933170882028,0.2063241693552023,-1.0166211010513213
1.2,0.3518176889766322,0.1856848887568974,1.7148732418709551,-0.0138796548666362,0.0824170297427975,0.0238666885929711,-0.1092350455279338,-0.2208404322829636,-0.2740832727041494,0.3345815926600131,0.1806201054394554,1.7188770855815918,-0.2391914356881538,-0.2928300927522403,-0.2943835526692986,0.8783754569951707,-0.2598484784860064,0.3425420731827278,0.7659550507566754,11.344172073670052,-0.9107635176810348,0.2054944873782886,-1.0011737839713772
1.22,0.3496689868007736,0.1815478372978443,1.70980928030051,-0.0113023921056815,0.0753683261229176,0.0240620975813585,-0.1167243916188412,-0.2149697674413356,-0.2597085106176879,0.3463559367002355,0.1746428671427492,1.7011690782357476,-0.1787572326416957,-0.2185782935213836,-0.2458687342342387,0.8619582292583677,-0.3744673045453714,0.2935332420814007,0.7187381043230745,11.344172073670052,-0.9222446869226448,0.2048874681811018,-0.987729086068542
1.24,0.3473323851331273,0.177310462111852,1.704742947298158,-0.0089156011905775,0.0681040866623764,0.0242283926990188,-0.1166524589920114,-0.2090851666705734,-0.247832666264527,0.3463559367002355,0.1746428671427492,1.7011690782357476,-0.1787572326416957,-0.2185782935213836,-0.2458687342342387,0.6627016290053955,0.0035966313414917,0.2942300385381111,0.5937922176580457,11.3311937766739,-0.9380476791317434,0.205856816459685,-0.9675399545230982
1.26,0.3449700710341314,0.1731861358192134,1.6999065340466484,-0.0068158118331519,0.0581398985025392,0.0243848471031233,-0.1201956078628063,-0.2036571572835411,-0.2363575881513531,0.3463559367002355,0.1746428671427492,1.7011690782357476,-0.1787572326416957,-0.2185782935213836,-0.2458687342342387,0.6589662501406399,-0.1771574435397452,0.2714004693516125,0.5737539056586916,11.021789876986986,-0.9484102024286932,0.2054724556938726,-0.9555057969888884
1.28,0.3426130419072442,0.1693638849891238,1.6955290452365486,-0.0050409634778192,0.0477040656657932,0.0245102877636785,-0.1280723582966548,-0.1989613103002057,-0.2249806557144686,0.3445683643738185,0.1724570842075353,1.6987103908934051,-0.1926616700644481,-0.2181258657690676,-0.2402258265402566,0.7306311791209534,-0.3938375216924271,0.2347923491667722,0.5688466218442281,11.009549851609336,-0.9615593306596288,0.2052486277207105,-0.9402021566347458
1.3,0.3399264740937334,0.1654322191162315,1.691159747650554,-0.0033888769019534,0.0369325717703093,0.0246126730675656,-0.1404855515428457,-0.1944642988297431,-0.212507452759432,0.3409932197209847,0.1680855183371077,1.6937930162087205,-0.2204705449099528,-0.2172210102644356,-0.2289400111522924,0.9081454601140224,-0.6206596623095431,0.2248505735231318,0.6236601477518283,11.036471126207289,-0.9756303522465356,0.2053294185291515,-0.9232750123217728
1.32,0.3369514693520797,0.1615854828499536,1.6870434106353676,-0.0019755425338645,0.0272964420866793,0.0246846341860575,-0.156590089979728,-0.1904572248727171,-0.1997178535901912,0.3374180750681507,0.16371395246668,1.6888756415240356,-0.2482794197554576,-0.2163161547598036,-0.2176541957643281,1.0476004091159232,-0.805226921844114,0.2003536978512965,0.6394799584620414,11.065001055148969,-0.9886639324004324,0.2055879699032217,-0.9071000295551984
1.34,0.3336201165055945,0.1578132953858483,1.683185018009414,-0.0008937548992354,0.0195221648618009,0.0247253810241539,-0.1757925819506255,-0.1869537041536819,-0.1867300961688646,0.3324524866730416,0.1593876293714839,1.684522557608749,-0.2760882946009624,-0.2154112992551717,-0.2063683803763639,1.1722757761682157,-0.9601245985448772,0.1751760359517587,0.6493878710663287,11.082509359035612,-1.0011059714610593,0.2061017270948655,-0.891085491586728
1.36,0.3300730612634064,0.1542907964945621,1.6797593955507562,-0.0002603086094352,0.0144465267575313,0.0247361289214246,-0.1966819961089084,-0.1839915064610991,-0.1744910140741874,0.3274868982779325,0.1550613062762878,1.6801694736934625,-0.3038971694464671,-0.2145064437505396,-0.1950825649883996,1.2195669001396146,-1.0444707079141426,0.1481098846291439,0.6119541047338597,11.095542720831872,-1.011158847230601,0.2068724419430533,-0.8775693044381819
1.38,0.3258857639804935,0.1506416623324568,1.6764034345936425,-6.914410869698292e-05,0.0123710171347574,0.0247203253886043,-0.2207726722253561,-0.1810551736256864,-0.1617124708045506,0.3218260880116857,0.1507576045687076,1.676098535162875,-0.3317060442919719,-0.2136015882459077,-0.1837967496004354,1.3713805948403688,-1.204533805822389,0.1468166417706348,0.6389271634818394,11.099643139767975,-1.018938192764873,0.2079811058788767,-0.8665300136738014
1.4,0.3212193039981939,0.1470517228036372,1.6733019537844005,-0.0003798910981243,0.0137292058068794,0.0246789531872636,-0.2442341252267717,-0.178040657897703,-0.1490076261901124,0.3154700558743013,0.1464765242487431,1.6723097420169866,-0.3595149191374767,-0.2126967327412756,-0.1725109342124711,1.3425164418815403,-1.1730726500707778,0.1507257863991667,0.6352422307219093,11.092399293886956,-1.0241769633240354,0.2095129771061463,-0.8583116372366939
1.42,0.3163679310074633,0.1437002358594372,1.670589760074543,-0.0010859311426796,0.0174679577506656,0.024618588863155,-0.2649170042456273,-0.1748647864799464,-0.1370724675959361,0.3090075977368553,0.1381496899087521,1.6658515724748948,-0.2530159811526893,-0.1755753178216886,-0.1211891494088634,1.2044870842384332,-1.0341439509427786,0.1587935708878329,0.5967579297088174,11.02589348757374,-1.027205027802525,0.2116227331088976,-0.8523740153062709
1.44,0.3107980193121976,0.140243167427258,1.6679420084384238,-0.0020827417967322,0.0251802627937842,0.0245385054961147,-0.2903710943671626,-0.1709839957375605,-0.1284332088424437,0.3090075977368553,0.1381496899087521,1.6658515724748948,-0.2530159811526893,-0.1755753178216886,-0.1211891494088634,1.3579470097459838,-1.272704506076766,0.1940395371192921,0.4319629376746167,11.02589348757374,-1.0227787436955509,0.2132797499745961,-0.85625205392388
1.46,0.3047757874943386,0.1368706812127252,1.6654612568912748,-0.003128524170214,0.0370254674665042,0.0244473026587897,-0.3098676200582851,-0.1664337381580943,-0.120020945656454,0.3090075977368553,0.1381496899087521,1.6658515724748948,-0.2530159811526893,-0.1755753178216886,-0.1211891494088634,1.0858010061406853,-0.9748262845561269,0.2275128789733127,0.4206131592994884,10.75659670258301,-1.0195914743042294,0.2153542987636314,-0.8583527160932127
1.48,0.2984226888277483,0.1335973875267124,1.6631518641711034,-0.0040161936719629,0.05068643384176,0.0243596217785176,-0.3239245907255085,-0.1611471824760161,-0.1113204967028678,0.3064774379253284,0.1363939367305352,1.6646396809808062,-0.2547723523378729,-0.1750822498064858,-0.1156254540526136,0.8678189720685546,-0.7028485333611667,0.2643277841039085,0.4350224476793091,10.75659670258301,-1.0132964323932951,0.2171811186490432,-0.8642588527761073
1.5,0.2921702683949422,0.130592226165525,1.661120109424122,-0.004509556392496,0.0641786804661523,0.0242989960299866,-0.3331178587184781,-0.1554985565485814,-0.1029884195394517,0.3014171183022746,0.1328824303741014,1.662215897992629,-0.2582850947082399,-0.17409611377608,-0.1044980633401139,0.681627943081428,-0.4596633996484828,0.2824312963717351,0.4166038581708032,10.743565798510645,-1.004750822094319,0.2188086748866207,-0.8726584419959594
1.52,0.2854398815871641,0.1275493091064228,1.6591521195034988,-0.0044725119928455,0.0782602711248978,0.0242809466098801,-0.3390204207259135,-0.149128038972322,-0.0942658766883186,0.2963567986792209,0.1293709240176677,1.6597921150044517,-0.261797837078607,-0.1731099777456742,-0.0933706726276143,0.6154398553695215,-0.2951281003717693,0.3185258788129724,0.436127142556654,10.73777312452421,-0.9951773360812908,0.2199941164876434,-0.8821167927777729
1.54,0.2786280541428396,0.1246368148957339,1.657356485659713,-0.0037052780593083,0.0918641922129759,0.0243311796498802,-0.3414969635411665,-0.1425044100796603,-0.0857621124288599,0.2911208419376487,0.1259087244627542,1.6579247015518994,-0.265310579448974,-0.1721238417152685,-0.0822432819151147,0.5529912535563529,-0.1238271407626473,0.3311814446330816,0.4251882129729364,10.737421445914151,-0.9850775890212836,0.2206159798551802,-0.8920203131773029
1.56,0.2717995765859937,0.1218567608244409,1.6557271187663445,-0.0020975763910245,0.1048154698256019,0.0244674839866739,-0.3408876264176605,-0.1359443348588906,-0.0776301957076649,0.2858848851960766,0.1224465249078407,1.6560572880993472,-0.2688233218193411,-0.1711377056848627,-0.0711158912026151,0.5232923374957107,0.0304668561752985,0.3280037610384867,0.4065958360597483,10.733441199210574,-0.9752357757507868,0.2205693480482105,-0.9016001964686008
1.58,0.2653558008926394,0.1193324127689639,1.6543261672079486,0.0001645888705476,0.1162879167758543,0.0246811851106744,-0.3372097943652015,-0.1303244683113569,-0.0702774319037376,0.2805611098952453,0.1190089787536873,1.6544680594146073,-0.2723360641897081,-0.170151569654457,-0.0599885004901155,0.497926912745555,0.1838916026229514,0.2809933273766843,0.367638190196369,10.716203911239065,-0.965139911396392,0.2198364027778168,-0.91136207338853
1.6,0.2586878318520234,0.1167747291896439,1.6529993928754714,0.0028225249010087,0.1269047573299346,0.0249610700974663,-0.3295952809163699,-0.1258272833087287,-0.0628274394081664,0.2751495160351548,0.1155960860002941,1.65315701549768,-0.2758488065600752,-0.1691654336240512,-0.0488611097776159,0.578160609593838,0.3807256724415758,0.2248592501314109,0.3724996247785598,10.716203911239065,-0.9561661364469694,0.2189098461999722,-0.9197180522788224
1.62,0.2522050764706692,0.1142967752353755,1.6518183224297722,0.0053441508309623,0.1353513076914162,0.0252571295894287,-0.3190087496229059,-0.1222135346733729,-0.0556863383417395,0.2422080678062048,0.1104833650242075,1.649858020905063,-0.2778434624084602,-0.1357919151791177,-0.063011736431391,0.6635682867421253,0.529326564673202,0.1806874317677891,0.357055053321342,10.719091482685144,-0.94830273456884,0.2179465179074858,-0.926862454199392
1.64,0.2458833294604801,0.1119096031544075,1.6506813767662218,0.0084242706137617,0.1431896002235196,0.0256172217591754,-0.3132257831696324,-0.117244437594954,-0.0584003552678653,0.2422080678062048,0.1104833650242075,1.649858020905063,-0.2778434624084602,-0.1357919151791177,-0.063011736431391,0.4046619411611823,0.2891483226636737,0.248454853920943,-0.1357008463062889,10.719091482685144,-0.9348023605053736,0.2161345350189504,-0.9395722421488292
1.66,0.2400086993161088,0.1097125312670572,1.649543865516124,0.0118100342789854,0.1512596039147674,0.0260262734099335,-0.3051645693559071,-0.1144035702649108,-0.0612138896014788,0.2422080678062048,0.1104833650242075,1.649858020905063,-0.2778434624084602,-0.1357919151791177,-0.063011736431391,0.4499157442897636,0.403060690686266,0.1420433665021606,-0.1406767166806755,10.175126225860367,-0.924957231170678,0.2128318826175846,-0.950175974177271
1.68,0.2340181972242954,0.1074431311680961,1.648294925767651,0.0152786191912392,0.1598503833999179,0.0264843510074611,-0.2940372380474833,-0.1127285964393598,-0.0635299187822983,0.2394296331821202,0.1091254458724163,1.649227903540749,-0.2674930987068782,-0.1377848415531955,-0.0630485958360359,0.5744280427741085,0.5563665654211902,0.0837486912775527,-0.1158014590409751,10.235054067313284,-0.9143386780767346,0.2095590868928094,-0.961246028022726
1.7,0.2282815261422556,0.1051974547513461,1.6470063031703506,0.0184067673255609,0.1680452724551527,0.0269431465226819,-0.2799754428459518,-0.1119220264597482,-0.0652206680445991,0.233872763933951,0.106409607568834,1.6479676688121214,-0.2467923713037143,-0.141770694301351,-0.0631223146453258,0.7093011921775464,0.7030897600765751,0.0403284989805768,-0.0845374631150371,10.292766800424031,-0.9038560228559068,0.2066625420701252,-0.9717386659227852
1.72,0.2228580275213733,0.1029610484609399,1.6456905389816514,0.0211100790805529,0.1752014643935152,0.0273774588894728,-0.2630289466344552,-0.1117145940955029,-0.0663138437325245,0.2283158946857818,0.1036937692652516,1.6467074340834935,-0.2260916439005504,-0.1457565470495067,-0.0631960334546156,0.8491492729736562,0.8473248105748288,0.0103716182122681,-0.0546587843962734,10.292766800424031,-0.8944992729681726,0.2043326863070637,-0.980742387361486
1.74,0.2180411807219792,0.1008360796295963,1.6444255048612395,0.0232975618569787,0.1806040951072056,0.0277499604976548,-0.2448896805696577,-0.1119342989137549,-0.0668194307877192,0.2237940618077708,0.1007786383242615,1.6454435134144012,-0.2053909164973865,-0.1497423997976623,-0.0632697522639055,0.9073820334443746,0.9069633032398772,-0.0109852409126011,-0.0252793527597335,10.348174399250638,-0.8853607597883436,0.2022434852005466,-0.9892463372312228
1.76,0.2133563370949973,0.0985917478387412,1.6430856800953877,0.0252469481110068,0.1846531157196169,0.0280894906894114,-0.2245674086469473,-0.1124736538975045,-0.0671378248321732,0.2192722289297598,0.0978635073832713,1.644179592745309,-0.1846901890942225,-0.1537282525458178,-0.0633434710731954,1.0165960538318823,1.0161135961355192,-0.0269677491874828,-0.0159197022227011,10.402930893332268,-0.8771711819548867,0.2004772969807086,-0.9966411107455058
1.78,0.2090909813269621,0.0963314521070939,1.64174300916103,0.0268108594035052,0.1869069192429127,0.0283619293315467,-0.2031484004673325,-0.1134893995798295,-0.0671208236370152,0.2152679142368279,0.0948487301235773,1.6429138291059844,-0.1639894616910586,-0.1577141052939734,-0.0634171898824852,1.0721543029459455,1.0709504089807378,-0.0507872841162493,0.0008500597579029,10.467274008919048,-0.8710915279212541,0.1991524905407923,-1.0019881626476548
1.8,0.2054409810917426,0.0941609087894394,1.6404718769615974,0.0278540761571575,0.1873483894583519,0.0285454007509936,-0.1822726404509093,-0.1149051330241869,-0.0666818542530375,0.2117811177289751,0.0917343065451794,1.6416462224964274,-0.1432887342878948,-0.161699958042129,-0.0634909086917751,1.0464157294890462,1.0437880008211622,-0.0707866722178672,0.0219484691988847,10.467274008919048,-0.8665971275742353,0.1983217283015596,-1.005670454520892
1.82,0.202028498905795,0.0918436949433405,1.6391476843175947,0.0283739908522911,0.1859998436026392,0.028646948530002,-0.1601525166527676,-0.1167208988505621,-0.0657302929578503,0.1963273490691971,0.0884156521382301,1.6371377842489454,-0.1607881294778134,-0.1028144956755946,-0.0733210689512627,1.1107456406394796,1.1060061899070828,-0.0907882913187621,0.0475780647593557,10.53676152911612,-0.8643030887224009,0.1981620983083493,-1.007210604032341
1.84,0.1991260698068154,0.0893928040985122,1.637801502023007,0.0250248169075539,0.180312552160591,0.0283660297762201,-0.132138437914059,-0.1265258715143396,-0.0687845828726659,0.1963273490691971,0.0884156521382301,1.6371377842489454,-0.1607881294778134,-0.1028144956755946,-0.0733210689512627,1.4918568827133982,1.4007039369354324,-0.4902486331888722,-0.1527144957407786,10.53676152911612,-0.8677632896217171,0.2009890852556401,-1.0036677137223526
1.86,0.1968399527091218,0.0869579818747449,1.6364781806098472,0.0184020894257958,0.1701009667459275,0.0277992123773793,-0.1106304633084075,-0.1286489577762518,-0.07024410474123,0.1963273490691971,0.0884156521382301,1.6371377842489454,-0.1607881294778134,-0.1028144956755946,-0.0733210689512627,1.0830866435766864,1.0753987302825725,-0.1061543130956133,-0.0729760934282036,10.341353331999926,-0.8717855056039718,0.2079981915169804,-0.9978944820631744
1.88,0.1948099523353097,0.0844073155625282,1.6350697151254323,0.0110356285114374,0.1567725452212296,0.0272399370871345,-0.0940984430219364,-0.126197767220098,-0.0704321625470165,0.194719467774419,0.0873875071814741,1.6364045735594328,-0.1564912272831942,-0.1003963682058761,-0.0746489118909078,0.8356904265832951,0.8266010143235566,0.1225595278076904,-0.0094028902893263,10.37440491227153,-0.8805272448600188,0.2158973245737422,-0.9872855214018678
1.9,0.1930475802110353,0.0819366726134756,1.6336678363546104,0.0045354746750532,0.1428416389865388,0.0268575231204019,-0.0833401747764379,-0.1211617894595168,-0.069707632957434,0.1915037051848627,0.0853312172679622,1.6349381521804074,-0.1478974228939558,-0.0955601132664392,-0.0773045977701979,0.5950343493726872,0.5379134122749256,0.251798888029061,0.0362264794791261,10.404370739532167,-0.8909777855102236,0.22277237347141,-0.9750871728284652
1.92,0.1915239391449235,0.0796976118149126,1.632354043398056,-0.0005014714357581,0.1304377040862666,0.0266748671436916,-0.0777447804241491,-0.1150098025768856,-0.068602679921459,0.1882879425953064,0.0832749273544503,1.6334717308013822,-0.1393036185047175,-0.0907238583270023,-0.079960283649488,0.4194529227857433,0.2797697176144371,0.3075993441315587,0.0552476517987489,10.42425336540964,-0.90236925030667,0.2290133085898612,-0.9616854636449814
1.94,0.1899952839797986,0.0774738230761441,1.6309955129699716,-0.0046406977978339,0.1191971693414809,0.0266389948477264,-0.0755741714437859,-0.1078390812144716,-0.0672960389423603,0.1855018702252121,0.0814604501879103,1.6318725251283923,-0.1307098141154792,-0.0858876033875654,-0.0826159695287781,0.3802568173329533,0.1085304490181612,0.3585360681207031,0.0653320489549337,10.431890934842158,-0.9128821806375542,0.2341540474780426,-0.949044269681948
1.96,0.1884777024847242,0.0753994414609017,1.6296614577297512,-0.0077020475364678,0.1103898861382713,0.0267200545865559,-0.0763682279272033,-0.1001173850427563,-0.0661789946478889,0.1827157978551178,0.0796459730213702,1.6302733194554029,-0.1221160097262408,-0.0810513484481285,-0.0852716554080682,0.3921189405746391,-0.0397028241708688,0.3860848085857647,0.0558522147235708,10.428843435100134,-0.9213715710260928,0.2381554953531474,-0.9385642623421664
1.98,0.1869167078186545,0.0734842820242348,1.628346629863103,-0.0097644972322677,0.1045107495505544,0.0268802559992808,-0.0797046781380858,-0.0920346669281339,-0.0653496080992842,0.1801445705947544,0.0779524022283161,1.6286077216354309,-0.1135222053370024,-0.0762150935086916,-0.0879273412873583,0.439175688583594,-0.1668225105441276,0.4041359057311192,0.0414693274302387,10.411225648857908,-0.9265733716755,0.2410472332228188,-0.9316060747459284
2.0,0.185352761934138,0.0718174373828883,1.627110243139429,-0.0108736402796705,0.1021743147429298,0.0270758640855559,-0.0845502329707287,-0.0839625560870274,-0.0648314362909787,0.1777881884441219,0.0763797378087479,1.6268757316684763,-0.1049284009477641,-0.0713788385692547,-0.0905830271666484,0.4714522167998042,-0.2422777416321422,0.4036055420553242,0.0259085904152737,10.398299307003072,-0.9299362675507784,0.2429680521532884,-0.927030178810861
2.02,0.1836169027379887,0.0702322723570946,1.6258170197514223,-0.0110204349900811,0.10290899483532,0.0273261756862444,-0.0884548564281428,-0.0750567876949307,-0.0645259205802739,0.1811252502856015,0.0676193095785369,1.6238686713248804,-0.1058748060554407,-0.0747987833997115,-0.071848792634546,0.4864466436500122,-0.1952311728707037,0.4452884196048362,0.0152757855352389,10.378942914077925,-0.93090735566245,0.2437022589763912,-0.9254927217984028
2.04,0.1818925683573641,0.0688532742595507,1.6245485290789698,-0.0091927457116516,0.103688811015745,0.0277173293548051,-0.0836861039464066,-0.0635907114284035,-0.0622338827989624,0.1811252502856015,0.0676193095785369,1.6238686713248804,-0.1058748060554407,-0.0747987833997115,-0.071848792634546,0.6313979378586099,0.2384376240868062,0.5733038133263597,0.1146018890655749,10.351804447221184,-0.9353769144295944,0.2424090448055292,-0.9214407534816632
2.06,0.1802737714929106,0.0676826228839203,1.6233235636066994,-0.0051662532784527,0.101631862643702,0.0282824806829043,-0.0786430564989197,-0.0547355822967714,-0.0603717208518179,0.1811252502856015,0.0676193095785369,1.6238686713248804,-0.1058748060554407,-0.0747987833997115,-0.071848792634546,0.5179606322223639,0.2521523723743486,0.4427564565816024,0.0931080973572241,10.456922659249358,-0.9360830809148722,0.2404656187813823,-0.920030877758094
2.08,0.1788186417870707,0.0666995241838802,1.6221897756786277,-0.0008610318242678,0.0973055911348633,0.0288461374645306,-0.0750683022195554,-0.0492951995370039,-0.0590493942330049,0.1800665022250471,0.0668713217445398,1.623150183398535,-0.1101397206723831,-0.0729660288622483,-0.0732522639032595,0.332133935398924,0.1787377139682154,0.272019137988376,0.0661163309406527,10.410156125333742,-0.9388146785928608,0.2380769445863692,-0.9164755232198688
2.1,0.1773305814010672,0.0657562046771592,1.6210200352236086,0.003372001809384,0.0910672690325328,0.0293896292901174,-0.0742682915204779,-0.0453427944786167,-0.05799496185083,0.1779490061039383,0.0653753460765455,1.621713207545844,-0.1186695499062679,-0.0693005197873219,-0.0760592064406865,0.2084067568049454,0.0400005349538747,0.1976202529193605,0.0527216191087441,10.375963462463917,-0.9435663621718524,0.2361562834555239,-0.9104684975407746
2.12,0.1758249989909258,0.0648789524173326,1.6198680247621156,0.0070133745815673,0.084260365881601,0.0298569826016421,-0.0765688543121547,-0.0425429758163741,-0.0572604150011762,0.1758315099828295,0.0638793704085513,1.6202762316931532,-0.1271993791401527,-0.0656350107123955,-0.0788661489781134,0.1848724747915837,-0.1150281395838413,0.1399909331121277,0.0367273424826904,10.34959471127786,-0.9492735713862168,0.2345353374593956,-0.9037456288440135
2.14,0.1742435136766019,0.0640485140370465,1.6187268840880933,0.0099816164273098,0.077815977140764,0.0302516848593637,-0.0815675111305992,-0.0405287353281649,-0.0568728242117803,0.1732875224000264,0.0625666701943034,1.6186989087135908,-0.1357292083740376,-0.0619695016374691,-0.0816730915155404,0.2701571827332538,-0.2499328409222234,0.1007120244104639,0.0193795394697954,10.326760599152294,-0.9555148210973984,0.2329328754453678,-0.8968569815123463
2.16,0.1726254408572619,0.0632917631062208,1.6176476670260354,0.0122231133456707,0.0726662277749165,0.0305765877915099,-0.0886086179073982,-0.0391266247336996,-0.0567387784588959,0.1707435348172234,0.0612539699800555,1.6171215857340286,-0.1442590376079224,-0.0583039925625428,-0.0844800340529673,0.359030176396301,-0.3520553388399523,0.0701055297232647,0.0067022876442168,10.30579241166015,-0.9608260972397928,0.2315924465187986,-0.8911160150871965
2.18,0.1707538778967602,0.0625213772960567,1.6165118316919085,0.014075670282778,0.0690377277578619,0.0308921781758157,-0.0983156763426503,-0.0379367802781869,-0.0568613458897771,0.1679863015035732,0.0600329074926807,1.6154740891910306,-0.1527888668418072,-0.0546384834876164,-0.0872869765903943,0.4890238646242788,-0.4853529217626051,0.0594922227756318,-0.0061283715440594,10.294755681392417,-0.9645907953473132,0.2303863521087592,-0.8873114664520865
2.2,0.1686698196925304,0.0617707632336799,1.6153703640036554,0.0154650912606766,0.0680257591162292,0.0312055508670628,-0.1093723164991307,-0.0371697397696051,-0.0572802469057688,0.1650158224590759,0.0589034827321791,1.613756419084597,-0.161318696075692,-0.05097297441269,-0.0900939191278212,0.5545564009929432,-0.5528320078240181,0.0383520254290926,-0.0209450507995822,10.286872789371955,-0.9670413144446972,0.2288398008040875,-0.8859365386942489
2.22,0.1664932582462882,0.0610672964981576,1.614275548054401,0.016256279240076,0.0693323109261559,0.03149950046103,-0.1189188073526971,-0.03686363075405,-0.0579326079905366,0.1632012038675739,0.0599122762451997,1.6125063516583669,-0.1108180703482422,-0.0344083424916687,-0.0576154708785661,0.4786824765216287,-0.4773245426783236,0.0153054507777548,-0.032618054238391,10.26912585665741,-0.9676987904909812,0.2273149092641214,-0.8869681617763223
2.24,0.1639884998387227,0.0603419519575432,1.613146557072791,0.0168395419559589,0.07354383436366,0.0318380008275833,-0.130632150720647,-0.0357502115991356,-0.0547160551029713,0.1632012038675739,0.0599122762451997,1.6125063516583669,-0.1108180703482422,-0.0344083424916687,-0.0576154708785661,0.6098941046372931,-0.585667168397494,0.0556709577457216,0.1608276443782623,10.246809145289262,-0.9651640343155854,0.2262167312950819,-0.8910771463518354
2.26,0.1612828431659118,0.0596340409942107,1.6120843596633925,0.0173219432362357,0.080726054404685,0.0322209468823069,-0.138854625418656,-0.0350823960396561,-0.0516799405049404,0.1632012038675739,0.0599122762451997,1.6125063516583669,-0.1108180703482422,-0.0344083424916687,-0.0576154708785661,0.4395254817222111,-0.4111237349004468,0.0333907779739729,0.1518057299015478,10.512500443804129,-0.9621134066956404,0.2256889411964253,-0.8951724754206632
2.28,0.1584546987860801,0.058937912662825,1.6110755953209397,0.0175083035667689,0.0892935232027208,0.0326082535413,-0.1432098815646094,-0.0345317033596662,-0.0493580435502785,0.1620930231640915,0.059568192820283,1.6119301969495812,-0.1111072211180645,-0.0338560630360815,-0.0576825156731256,0.2483078935149267,-0.2177628072976736,0.027534633999493,0.1160948477330944,10.45543851675211,-0.9565594128482274,0.2255393115252993,-0.9015768811138573
2.3000000000000003,0.1557217539706676,0.0582875164159061,1.6101539011204875,0.0173596616604267,0.0975838907479511,0.0329548576738682,-0.1440679674064955,-0.0339288351497856,-0.0477971547978021,0.1598766617571266,0.0588800259704496,1.61077788753201,-0.1116855226577091,-0.0327515041249069,-0.0578166052622446,0.0940230701495302,-0.042904292094302,0.030143410494032,0.0780444376238215,10.406238656616551,-0.9497154153710768,0.2257853569707106,-0.9089517791629276
2.32,0.1528573371218865,0.057617709251556,1.6092099443340373,0.0168733337879351,0.1056252063994663,0.0332808142895113,-0.1421615034515231,-0.0330546907481401,-0.046723892259199,0.1576603003501618,0.0581918591206162,1.6096255781144386,-0.1122638241973537,-0.0316469452137324,-0.0579506948513635,0.1177988298255301,0.0953231977486188,0.0437072200822754,0.0536631269301507,10.369780434559289,-0.9425176893786212,0.2264453186220366,-0.9162562138529404
2.34,0.1500572287538082,0.0569695337074232,1.6082816844653165,0.0161233508185136,0.1123618325343753,0.0335605598064369,-0.1379335486298208,-0.0317909451474408,-0.0461794551873427,0.1554150238662147,0.0575589202163416,1.6084665642174114,-0.1128421257369983,-0.0305423863025579,-0.0580847844404825,0.2223120928045421,0.2113977410851161,0.0631872800349635,0.0272218535928143,10.34531715592766,-0.9361034970893262,0.2274053023439466,-0.9223871591316996
2.36,0.1474914389829886,0.0563818454546364,1.6074078303621782,0.0152846680415789,0.1172714671100531,0.0337879704314725,-0.1324130074212953,-0.0301367117222528,-0.0458492839868394,0.1531697473822676,0.0569259813120669,1.6073075503203842,-0.1134204272766429,-0.0294378273913833,-0.0582188740296015,0.2886255207084041,0.2760270604262732,0.0827116712594021,0.0165085600251666,10.328303643702384,-0.9302698143012968,0.2286607204299053,-0.927590077353474
2.38,0.1449128386213951,0.055802294675135,1.6064937101109331,0.0144240731110813,0.120818528677365,0.033999521962639,-0.1257764869930467,-0.0279026939306157,-0.0455909600738681,0.1509100133598294,0.0563206563805716,1.606145184183629,-0.1139987288162875,-0.0283332684802088,-0.0583529636187204,0.3503604220368119,0.3318260214124319,0.1117008895818526,0.0129161956485643,10.328303643702384,-0.9256346771153164,0.2300563327288744,-0.9313067931185274
2.4,0.1424716691347334,0.0552728835510808,1.605584359920112,0.0137700816904297,0.1228009307848115,0.03419980042606,-0.1187490389277668,-0.0251657072259737,-0.0453612799545503,0.1486358217989001,0.0557429454218557,1.6049794658071457,-0.1145770303559321,-0.0272287095690343,-0.0584870532078394,0.3772561314571407,0.3513724032639935,0.1368493352321025,0.0114840059658918,10.33213252200312,-0.9225161479820396,0.2313278566872362,-0.9334255895596236
2.42,0.1401714424734392,0.0548029803961196,1.6046798473202055,0.0135186719099411,0.1233899660080797,0.034406944600599,-0.1117636245840893,-0.0220253385321306,-0.0451032662365589,0.1365342171883451,0.0540145981897821,1.6033162959223846,-0.1030154597540827,-0.026058608844473,-0.0357225243722773,0.3831595626002193,0.3492707171838735,0.1570184346921554,0.0129006858995681,10.34089878495888,-0.9204552870308578,0.2324710175507952,-0.9343319363234688
2.44,0.1380977042157971,0.0544297107538351,1.6038424127643207,0.014214160190935,0.1234128356403988,0.0346593403963602,-0.1068293529267523,-0.0176696135982401,-0.0430605815377598,0.1365342171883451,0.0540145981897821,1.6033162959223846,-0.1030154597540827,-0.026058608844473,-0.0357225243722773,0.3445719709538999,0.2467135828668504,0.2177862466945217,0.1021342349399549,10.34089878495888,-0.9192635977266904,0.2333679947537194,-0.9338206675413274
2.46,0.1360162625594528,0.0541191231658269,1.60300705074146,0.0162070590856975,0.123477608476785,0.0350089482079559,-0.1015597531935244,-0.0137391121691698,-0.0405749583512474,0.1365342171883451,0.0540145981897821,1.6033162959223846,-0.1030154597540827,-0.026058608844473,-0.0357225243722773,0.3514108900478474,0.2634799866613968,0.1965250714535163,0.1242811593256225,10.456093090643662,-0.9190819545284692,0.233056541352465,-0.9327901301385758
2.48,0.1340423962776226,0.0538729362363614,1.6022237572650977,0.0191034939647828,0.1235216157545575,0.0354143620786105,-0.0960861480936243,-0.011384332784919,-0.0378816228161705,0.1355040625908043,0.0537540121013374,1.6029590706786618,-0.0998687439193459,-0.0262371891681728,-0.0337947732558227,0.326953341635516,0.2736802549950026,0.1177389692125408,0.1346667767538421,10.469065269394378,-0.918904088430404,0.2318763718661244,-0.9321997094489674
2.5,0.1321798588938402,0.0536528264970966,1.6014958738155167,0.0220520094345698,0.12348948612853,0.0358138521861705,-0.0904551117033868,-0.0107579815650691,-0.0350385461453035,0.1334437533957226,0.0532328399244479,1.6022446201912162,-0.0935753122498722,-0.0265943498155726,-0.0299392710229135,0.3169541435098101,0.2815518195118757,0.031317560992496,0.142153833543351,10.47884882411563,-0.9188743848925954,0.2305777462242536,-0.9314384781651444
2.52,0.1305156090610731,0.0534452327449835,1.6008583501291795,0.0245306063163431,0.123357006488797,0.0361608944556925,-0.0850313648837408,-0.0110658149606645,-0.0322059229563787,0.131383444200641,0.0527116677475584,1.6015301697037707,-0.0872818805803986,-0.0269515104629723,-0.0260837687900043,0.306331295713881,0.2711873409822991,-0.0153916697797743,0.1416311594462385,10.495053713611014,-0.919058843022419,0.229674800026527,-0.9302636801614932
2.54,0.1288749377712879,0.0532148933730634,1.6002468859807044,0.0267006004803489,0.1231031330088414,0.0364848528636055,-0.0793402709848452,-0.0119076223713663,-0.0290776851816326,0.129637806589033,0.052172637538299,1.6010084943279703,-0.0809884489109249,-0.027308671110372,-0.0222282665570951,0.3274257971590972,0.2845546949447802,-0.0420903705350889,0.1564118887373086,10.495053713611014,-0.9193919158747176,0.2291435992855587,-0.9288705312328658
2.56,0.1273479365247829,0.0529628195485972,1.599699904178273,0.028392035706723,0.1227316111804122,0.0367646594891989,-0.0736751788197474,-0.0131771870871083,-0.0257692884745712,0.127892168977425,0.0516336073290396,1.6004868189521706,-0.0746950172414513,-0.0276658317577717,-0.0183727643241859,0.3341053448308064,0.2832546082548924,-0.0634782357871005,0.16541983535307,10.50264988196068,-0.9198710985478415,0.2289770301023257,-0.927353359420506
2.58,0.1259340720494181,0.0526808948319816,1.5992206098383894,0.0295649685293531,0.1222279055270063,0.0369976621001345,-0.0680325686944202,-0.0148984536879653,-0.0223180073677229,0.1263038671575539,0.0510856481035951,1.6000615311321933,-0.0684015855719776,-0.0280229924051715,-0.0145172620912767,0.3417350911750164,0.2821305062663599,-0.0860633300428488,0.1725640553424143,10.511133921745568,-0.920537201313788,0.229172750812579,-0.9255654216161404
2.6,0.1246945995948856,0.0523773083606811,1.5988303690355792,0.0300758930387224,0.1216149583647067,0.0371676778333375,-0.0627583492603622,-0.016911414447245,-0.0189248577107791,0.1248729011294196,0.0505287598619657,1.5997326308680386,-0.062108153902504,-0.0283801530525712,-0.0106617598583675,0.3293283553363293,0.263710971702899,-0.1006480379639857,0.1696574828471898,10.517562424567586,-0.9213966696231652,0.2299143280938214,-0.9234564971766795
2.62,0.1234962820737197,0.0520151332778826,1.598490587456225,0.029880019709714,0.1208424097234472,0.0372878268488798,-0.0573881299393513,-0.0191508753359754,-0.0152183659680138,0.1215566821318675,0.0515317376383189,1.5978841261500405,-0.0609905633898921,-0.009624624154535,-0.0261500168007914,0.3449366668937192,0.2685109660505461,-0.1119730444365203,0.1853245871382643,10.522586085186049,-0.9225650512835232,0.2314049788637255,-0.920750966352612
2.64,0.1224203889180089,0.0515772057493763,1.5981825549578397,0.0278037838704893,0.1192837879541509,0.0372537797769221,-0.0504940975783799,-0.0241695010769896,-0.0159734545053528,0.1215566821318675,0.0515317376383189,1.5978841261500405,-0.0609905633898921,-0.009624624154535,-0.0261500168007914,0.4280316729568967,0.3447016180485693,-0.2509312870507107,-0.0377544268669497,10.527717604740246,-0.9238516804384864,0.2334426389085329,-0.9186559456596344
