t,x,y,z,roll,pitch,yaw,v_x,v_y,v_z,ref_x,ref_y,ref_z,ref_v_x,ref_v_y,ref_v_z,a_com,a_x,a_y,a_z,thrust,wind_x,wind_y,wind_z
0.0,-0.4360137751884398,1.1455376425545132,2.628819289517477,0.0330315996549684,0.0997126690126472,0.0423173506092804,0.0005534196954826,0.0018166190320153,-0.0010640000836878,-0.4360020941398321,1.1456790827764316,2.6287890329997987,-0.0415568493706425,-0.0961147392732835,-0.1009974608669831,0.1088401838122758,0.0276709847741307,0.090830951600765,-0.0532000041843916,10.256380442276168,-0.9399045413301372,0.2502144377250159,-0.8812774543640215
0.02,-0.4359581609391353,1.145787702720679,2.628713110370173,0.0408859260081203,0.0977104196672098,0.0427729109720434,0.00526473534606,0.0194181087166373,-0.0101476614181823,-0.4360020941398321,1.1456790827764316,2.6287890329997987,-0.0415568493706425,-0.0961147392732835,-0.1009974608669831,1.0179904684193064,0.2355657825288717,0.8800744842311031,-0.454183066724726,10.257412366363496,-0.9446131612245184,0.2481642402987764,-0.8728747314648845
0.04,-0.4358055303446257,1.1461878668975165,2.628346045577193,0.0548559947510688,0.0912679767261771,0.0433876037441971,0.0090473348961877,0.0189825345758497,-0.0263651931494184,-0.4360020941398321,1.1456790827764316,2.6287890329997987,-0.0415568493706425,-0.0961147392732835,-0.1009974608669831,0.832925746454025,0.1891299775063842,-0.0217787070393811,-0.8108765865618036,9.651623673319593,-0.9419087030815662,0.2355417007628336,-0.8799035381882615
0.06,-0.4356360107925383,1.1464911850355766,2.6276680104267154,0.0684769093841618,0.0825197490859001,0.0437114950502188,0.0082272291789157,0.0126546116060981,-0.0441991795415001,-0.4364176626335386,1.1447179353836987,2.6277790583911287,-0.0499522492689332,-0.1161147395713067,-0.1209974611650063,0.947056298658594,-0.0410052858635985,-0.3163961484875793,-0.891699319604084,9.312410992328296,-0.942226983652654,0.2193401548007075,-0.8869740742755551
0.08,-0.4355193619659778,1.1466439038357632,2.6265743018300145,0.0822699714529146,0.07237019264874,0.0437727322161387,0.0031584058271195,0.0026168140705188,-0.0643240893897853,-0.4372487996209514,1.1427956405982331,2.625759109173789,-0.0667430490655144,-0.1561147401673532,-0.1609974617610527,1.1526733556591435,-0.2534411675898099,-0.501889876778963,-1.0062454924142623,9.223616852642408,-0.9443055608586464,0.2016496534421493,-0.8941287396783502
0.1,-0.4355436590906627,1.1465652677217584,2.625067707593603,0.0953886673170947,0.0626157206771754,0.0436389304455356,-0.0055240585928298,-0.010285608401741,-0.0854010785100647,-0.4380799366083643,1.1408733458127671,2.623739159956449,-0.0835338488620957,-0.1961147407633996,-0.2009974623570992,1.3096728259690904,-0.4341232209974726,-0.6451211236129996,-1.0538494560139715,9.17457245154128,-0.9471042465942116,0.1831211206606683,-0.9017611561490292
0.12,-0.4357730864922138,1.1462006202658437,2.623131130752776,0.1078512325307491,0.0542216141639033,0.0434272840917405,-0.016981609078018,-0.0258204773875789,-0.1072563938352687,-0.4397506135856062,1.1369510509974994,2.619719210709308,-0.100324648658677,-0.236114741359446,-0.2409974629531457,1.4579629843482644,-0.5728775242594075,-0.7767434492918928,-1.0927657662602002,9.156719980652724,-0.950090313309806,0.1657283411090847,-0.9086635323867048
0.14,-0.4362236153635307,1.1455431027424128,2.6208776912002896,0.1191153294603474,0.0480140447080603,0.0432519564541854,-0.0298709828076125,-0.0428532971600398,-0.1289112575656019,-0.4414212905628482,1.1330287561822314,2.615699261462165,-0.1171154484552583,-0.2761147419554925,-0.2809974635491922,1.520843538732366,-0.644468686479727,-0.8516409886230468,-1.0827431865166557,9.13268163228804,-0.951670194455703,0.1468996022474143,-0.9182140211904052
0.16,-0.436981806037144,1.1444776812026618,2.6180511299412674,0.1304011508424285,0.0439061455800496,0.0432182838973519,-0.0453525366031057,-0.063056821476179,-0.1526977942358843,-0.4435117375350046,1.1281064613520624,2.6106793122001224,-0.1339062482518395,-0.316114742551539,-0.3209974641452386,1.7418813316944586,-0.7740776897746607,-1.0101762158069554,-1.1893268335141205,9.13268163228804,-0.950805231047286,0.1274052175082635,-0.9310027752372628
0.18,-0.4380640668899107,1.1429818125387117,2.6147412605452782,0.1410513241026548,0.0429388257043878,0.0434858301900663,-0.0617956232573364,-0.085708705102517,-0.1771294306526049,-0.4460219545020756,1.122184166506992,2.604659362923178,-0.1506970480484208,-0.3561147431475854,-0.360997464741285,1.8576785166832068,-0.8221543327115336,-1.1325941813169025,-1.221581820836029,9.119449303051624,-0.9496988655660418,0.1107785002223665,-0.941555712522596
0.2,-0.4394599764601829,1.140983996376746,2.61093585722379,0.1501527520397554,0.0447859339779256,0.0440129558285904,-0.0766352811123405,-0.1124856859573872,-0.2021390596418244,-0.4411538480527775,1.138696377283586,2.605884789012648,-0.1008965719785068,-0.1857087065926331,-0.277129432142721,1.9765523589915843,-0.7419828927502058,-1.338849042743509,-1.250481449460976,9.122077800501302,-0.9464719575217652,0.0944147738176157,-0.9543042443513012
0.22,-0.4410337968823553,1.1384083026334315,2.6070615732136746,0.1527092674748422,0.0486399256408065,0.044391307850622,-0.0880553311433415,-0.1545295077922526,-0.203989934368822,-0.4411538480527775,1.138696377283586,2.605884789012648,-0.1008965719785068,-0.1857087065926331,-0.277129432142721,2.18032465154132,-0.5710025015500504,-2.102191091743272,-0.0925437363498801,9.129209710404666,-0.9479193443034571,0.0811429115778959,-0.9649072792281496
0.24,-0.442900038406505,1.1349295852074195,2.602952526995023,0.1488004972982231,0.0541850528191874,0.0445296805937251,-0.0977480876452569,-0.1898975041557823,-0.2068769669601096,-0.4411538480527775,1.138696377283586,2.605884789012648,-0.1008965719785068,-0.1857087065926331,-0.277129432142721,1.8392795142114944,-0.4846378250957669,-1.7683998181764846,-0.1443516295643793,10.62959979014886,-0.9455033621625796,0.0832157896805666,-0.968454199323929
0.26,-0.4449380357687593,1.1308228312030346,2.598745695322968,0.1422461520889521,0.0602065465152332,0.0445099600030623,-0.1054113108729314,-0.2184001559562572,-0.2135614611445843,-0.4421628137725626,1.1368392902176596,2.603113494691221,-0.1087167617227409,-0.2057087068906563,-0.2971294324407442,1.5131164961748336,-0.3831611613837278,-1.4251325900237448,-0.3342247092237363,10.365197803029332,-0.9407961213365282,0.0867523457948708,-0.9744894448494802
0.28,-0.4469993108476531,1.1264393567281656,2.594591612097181,0.1355789608290095,0.0657188741537086,0.0443846196550084,-0.1110980534321106,-0.2414360140668884,-0.2233659405227976,-0.4441807452121327,1.133125116085807,2.5975709060483667,-0.1243571412112091,-0.2457087074867028,-0.3371294330367906,1.283664301623794,-0.2843371279589591,-1.1517929055315568,-0.4902239689106677,9.87247045170534,-0.9349714765255148,0.0902329243501356,-0.9822616096041112
0.3,-0.4492721740025265,1.1213843589522288,2.58998491956824,0.1290063263248141,0.0708778599526221,0.0441522644108608,-0.1158172005072522,-0.2628037681320285,-0.2369609459862628,-0.4461986766517029,1.1294109419539542,2.592028317405512,-0.1399975206996773,-0.2857087080827493,-0.3771294336328371,1.288094946477916,-0.2359573537570769,-1.068387703257008,-0.6797502731732574,9.87247045170534,-0.9293405653519524,0.0935330458492815,-0.9895786411004588
0.32,-0.4516291314336113,1.115922946327108,2.58507456954227,0.1232357621264475,0.0751414610630228,0.0438237356568228,-0.1196125120300993,-0.2822899562333055,-0.2535411004245945,-0.4489986270656964,1.123696767792299,2.5844857287328558,-0.1556379001881454,-0.3257087086787957,-0.4171294342288835,1.2932685698190582,-0.1897655761423582,-0.9743094050638472,-0.8290077219165831,9.67602053203882,-0.9237237251609368,0.0957181374888504,-0.9972956367038288
0.34,-0.4540540930497175,1.1100869707950398,2.5798137591810133,0.1183694933370756,0.0784021401676936,0.0434073494134314,-0.1227189453443825,-0.3004776986093475,-0.2717430343048026,-0.45179857747969,1.1179825936306442,2.5769431400601985,-0.1712782796766136,-0.3657087092748422,-0.45712943482493,1.2959111636729097,-0.1553216657141573,-0.9093871188020992,-0.9100966940104066,9.518354388211264,-0.9187221262038316,0.0965365220878854,-1.0048926076108258
0.36,-0.4564129224707329,1.1042058690976355,2.5744672604874324,0.1142795626948235,0.0806487201158862,0.0429295475414496,-0.1254515479707479,-0.3176272626418879,-0.2901484183195842,-0.4549895373808952,1.111268419454088,2.568400551372641,-0.1869186591650818,-0.4057087098708886,-0.4971294354209765,1.265239922259216,-0.1366301313182702,-0.857478201627021,-0.9202692007390822,9.447479665218452,-0.9138104843021454,0.0965590093982866,-1.0129547024561332
0.38,-0.4589517729578871,1.0976697804667015,2.5684498853099464,0.1102719365892938,0.0822942055308736,0.0423504469947736,-0.1283093049567067,-0.3350067316497789,-0.3106816284088132,-0.4585715067693122,1.1035542452626306,2.558857962670181,-0.2025590386535499,-0.445708710466935,-0.5371294360170229,1.3526136131167068,-0.1428878492979415,-0.8689734503945501,-1.0266605044614463,9.39681953794934,-0.9093993471018236,0.0963301961562475,-1.0205706546303897
0.4,-0.4615485150813124,1.0907923740230014,2.562011104641026,0.1064629049268658,0.0833777203607398,0.0417116429291182,-0.1312411493037195,-0.3517729445990419,-0.3322133612409716,-0.4653672382057224,1.0809194438842125,2.5529158038895057,-0.1337357160080099,-0.435006733139895,-0.4106816298989293,1.3723311614644973,-0.1465922173506398,-0.838310647463153,-1.076586641607924,9.293980543848193,-0.9053606680758202,0.0958397672981884,-1.0279943003839496
0.42,-0.4641055147923154,1.0839412154019306,2.555760169582036,0.1035318530363794,0.0858768688867068,0.0412968278009318,-0.1372019284971314,-0.3688248878985518,-0.3246995978152945,-0.4653672382057224,1.0809194438842125,2.5529158038895057,-0.1337357160080099,-0.435006733139895,-0.4106816298989293,0.9782079274103158,-0.2980389596705921,-0.8525971649754938,0.3756881712838555,9.293980543848193,-0.9063986626992786,0.093963405208021,-1.0317992946278791
0.44,-0.4668967485724609,1.0763882106833595,2.5493099271982933,0.1015070535999548,0.0912595507663358,0.0412024483364325,-0.1412228382031234,-0.385712386963543,-0.3211238291364776,-0.4653672382057224,1.0809194438842125,2.5529158038895057,-0.1337357160080099,-0.435006733139895,-0.4106816298989293,0.8862018127636453,-0.2010454852996043,-0.8443749532495604,0.1787884339408463,11.076123952149828,-0.9024017681603076,0.0961460674039575,-1.0343870403217792
0.46,-0.4697389142364749,1.0684995959600614,2.5428666584887107,0.1002571205233389,0.0981753739972311,0.0412996478721679,-0.142494024819664,-0.4022894237718061,-0.3236299915688718,-0.4667045953658025,1.0765693765528137,2.548808987590516,-0.1348209982182705,-0.4550067334379182,-0.4306816301969525,0.8406766841273254,-0.0635593308270274,-0.8288518404131556,-0.1253081216197105,10.659313691054194,-0.8965988373014363,0.0973555101938629,-1.0388529061325642
0.48,-0.4725790708660408,1.0602860988229033,2.536320594899379,0.0995258452152157,0.1055228611787248,0.0414601807793544,-0.141239569218307,-0.4182115115060504,-0.3310581489930666,-0.4693793096859627,1.0678692418900158,2.5405953549925377,-0.1369915626387917,-0.4950067340339646,-0.4706816307929989,0.8807157024139048,0.0627227800678476,-0.7961043867122125,-0.371407871209739,10.0412952081997,-0.8892195200853265,0.0972173513114237,-1.0456104200549474
0.5,-0.4752327251466146,1.052194941703328,2.5299225294363272,0.0993064915928572,0.1121568734264086,0.0415991124256708,-0.1380520791588351,-0.4327229766933649,-0.3420600364094944,-0.4720540240061229,1.0591691072272178,2.5323817223945597,-0.139162127059313,-0.5350067346300111,-0.5106816313890454,0.9243703823219708,0.1593745029735985,-0.7255732593657277,-0.5500943708213885,10.0412952081997,-0.8801742802021684,0.0957755128548229,-1.054641660374493
0.52,-0.4779438139945764,1.0433859450881393,2.522930264971882,0.0996689273437081,0.1183026442901785,0.041693540229317,-0.1331376884070482,-0.4474470277524601,-0.356751083510928,-0.4748372665473092,1.0484689725346177,2.522168089766778,-0.1413326914798343,-0.5750067352260576,-0.5506816319850919,1.0686156710771078,0.2457195375893436,-0.7362025529547567,-0.7345523550716826,9.836342422397138,-0.8706245977690307,0.0931083058525548,-1.0646913796069872
0.54,-0.4805406658230097,1.0342832824974746,2.5156260602421097,0.100710571564843,0.1232805945403822,0.041710923583823,-0.1267993905410041,-0.4621604479269403,-0.372959922930461,-0.4776205090884955,1.0377688378420171,2.511954457138997,-0.1435032559003555,-0.6150067358221041,-0.5906816325811384,1.1395012378204186,0.3169148933022059,-0.735671008724012,-0.8104419709766469,9.674030119374947,-0.8620592124107813,0.0894428614428614,-1.074287561980883
0.56,-0.4828802593778736,1.0253501283507318,2.5083770283972573,0.1019539760534638,0.1268146016611015,0.0416175661782455,-0.1198389056401853,-0.4773666198659972,-0.3893010894552451,-0.4804580157401948,1.026068703134516,2.500740824496315,-0.1456738203208768,-0.6550067364181504,-0.6306816331771847,1.1690912480270903,0.3480242450409399,-0.7603085969528467,-0.8170583262392089,9.621256133896168,-0.8538352996329895,0.0849786954028109,-1.0839802189182186
0.58,-0.4851952440328608,1.015625999825817,2.500400487048503,0.1030060159472266,0.1293086808541823,0.0413666460763525,-0.1120649207386174,-0.4942028787309858,-0.4075466735645977,-0.4833497865024071,1.0133685684121134,2.488527191838732,-0.147844384741398,-0.6950067370141969,-0.6706816337732312,1.300764960811683,0.3886992450783916,-0.8418129432494287,-0.9122792054676254,9.590145747540191,-0.8465854935435698,0.0806287202274896,-1.0929236691872206
0.6,-0.4873521428071047,1.0055548708451407,2.492049480993401,0.1033225745733881,0.1306525649726136,0.0409340062887794,-0.1040770896866841,-0.5119772537975454,-0.4266732232804245,-0.4907984900697917,0.9909158558892678,2.480023153370273,-0.0998874021696844,-0.5942028802211019,-0.5075466750547137,1.3652460931577166,0.399391552596666,-0.88871875332798,-0.9563274857913444,9.549216782970689,-0.8406765251754441,0.0770066406514107,-1.100711790403257
0.62,-0.4892386747078098,0.9955914961184128,2.484040610317219,0.1015338814883238,0.1317527926509828,0.0403478012226299,-0.0947808381785902,-0.5352967257297555,-0.4153408733222188,-0.4907984900697917,0.9909158558892678,2.480023153370273,-0.0998874021696844,-0.5942028802211019,-0.5075466750547137,1.37717121200862,0.4648125754046939,-1.1659735966105034,0.5666174979102878,9.519803038811917,-0.8469995587974264,0.0765139831850679,-1.097520776915974
0.64,-0.491030829161549,0.984665307847501,2.475821824208153,0.0974604344716273,0.1333633654942266,0.0396137056652428,-0.0848998244135881,-0.5554851595344991,-0.4074823647674462,-0.4907984900697917,0.9909158558892678,2.480023153370273,-0.0998874021696844,-0.5942028802211019,-0.5075466750547137,1.1905497146466713,0.494050688250109,-1.0094216902371778,0.3929254277386274,11.44739013160506,-0.8430363517141417,0.080160121541869,-1.1003589343664983
0.66,-0.4926238166897833,0.9733754603113428,2.4676934957536227,0.09290895367226,0.135003531039288,0.0388399987454009,-0.0748887271945289,-0.5723086458252387,-0.4059965108721993,-0.4917973640914885,0.9849738270870568,2.4749476866197258,-0.0974518984558978,-0.6142028805191251,-0.5275466753527369,0.98165615199796,0.5005548609529558,-0.8411743145369799,0.0742926947623456,11.018128857799638,-0.8396868345241427,0.0844175985956298,-1.1023145843465263
0.68,-0.4940171005060061,0.9617746277318492,2.4595321337756726,0.0885477101606078,0.1362976492303633,0.0380405266781536,-0.0649598808024229,-0.5869118831226346,-0.4101907219394189,-0.4937951121348822,0.9730897694826348,2.464796753118632,-0.0925808910283246,-0.6542028811151716,-0.5675466759487834,0.9075074885620532,0.4964423196053023,-0.7301618648697994,-0.2097105533609811,10.62830506127102,-0.8363576776858579,0.0882606379001678,-1.1047517791990709
0.7000000000000001,-0.4951588169161447,0.9504989987345258,2.451659545363841,0.0848523183713964,0.1370563377486985,0.0372670289305254,-0.0557539661018698,-0.5993235629187207,-0.4182954669081574,-0.4957928601782759,0.9612057118782128,2.454645819617537,-0.0877098836007514,-0.694202881711218,-0.6075466765448299,0.8724757186345086,0.4602957350276527,-0.620583989804302,-0.4052372484369237,10.075428710523738,-0.8326637201295805,0.0909740713117716,-1.10827796585754
0.72,-0.4961758901580778,0.938387540772473,2.443171102341913,0.0815762108424142,0.1373436271599035,0.0364512090326813,-0.046489509995839,-0.6112289744990442,-0.4302904082628226,-0.4975470578502909,0.9473216542439884,2.4424948860866404,-0.0828388761731782,-0.7342028823072645,-0.6475466771408763,0.963648781895316,0.4632228053015417,-0.5952705790161772,-0.5997470677332584,9.87834125588688,-0.8287414455188468,0.0925293619314359,-1.1126723489434514
0.74,-0.4970105233542364,0.9260458155911148,2.434420927505629,0.0789791756991143,0.1371431267866688,0.0356436136268175,-0.0374910543029937,-0.62248512323134,-0.4441318773214477,-0.499301255522306,0.933437596609764,2.430343952555744,-0.077967868745605,-0.774202882903311,-0.6875466777369228,0.9990737645946626,0.4499227846422645,-0.5628074366147873,-0.6920734529312578,9.87834125588688,-0.825416621514051,0.0929793374021319,-1.117060126670428
0.76,-0.4976671906856359,0.9134742043391132,2.425380962431214,0.0766964723462244,0.1364887649933696,0.0348238799663684,-0.028689430834966,-0.6340411351509054,-0.4591698765927491,-0.5009336780086316,0.9185535389606384,2.417193019009946,-0.0730968613180318,-0.8142028834993573,-0.7275466783329692,1.0454083044936726,0.4400811734013837,-0.5778005959782728,-0.7518999635650669,9.796525879993167,-0.8233035693057837,0.0933695950467504,-1.120350302234335
0.78,-0.4981305229557434,0.9013186892985628,2.416503732973593,0.0745422904415089,0.1354463205358538,0.0340170120734824,-0.020571351633558,-0.6448100464213968,-0.47451783292124,-0.5024443253092681,0.9026694812966116,2.403042085449248,-0.0682258538904586,-0.8542028840954038,-0.7675466789290156,1.0215581522034298,0.4059039600704021,-0.53844556352457,-0.7673978164245449,9.738513322644394,-0.8218954115444427,0.0937416145315497,-1.1231301368128086
0.8,-0.4984556945827726,0.8883080932155314,2.4068320279292306,0.0722554753970046,0.1338918995740942,0.0331375653762746,-0.0124300397335977,-0.655602100554985,-0.4918985618824458,-0.4991590905374213,0.8690781869774928,2.392777841327531,0.0083933355052378,-0.744810047911513,-0.5745178344113562,1.1009531451174854,0.4070655949980161,-0.5396027066794096,-0.8690364480602925,9.680020214465912,-0.821131947978025,0.0941391412677342,-1.1254536101038934
0.8200000000000001,-0.4986230349456127,0.8750511091770478,2.3971480701638623,0.0696559555013132,0.1333807639140605,0.0323167092783498,-0.004419342912481,-0.669216184850455,-0.4755979943208303,-0.4991590905374213,0.8690781869774928,2.392777841327531,0.0083933355052378,-0.744810047911513,-0.5745178344113562,1.1349262724895437,0.4005348410558325,-0.6807042147734976,0.8150283780807788,11.716329138334004,-0.8227077940224494,0.0913162618929363,-1.1297638256743665
0.84,-0.4986302876246627,0.862230097252204,2.3882163348355907,0.0672779337864075,0.1348041398361695,0.0316790854381922,0.0034748764307664,-0.679769009533726,-0.4655000180772052,-0.4991590905374213,0.8690781869774928,2.392777841327531,0.0083933355052378,-0.744810047911513,-0.5745178344113562,0.8301354287885386,0.3947109671623757,-0.5276412341635506,0.5048988121812509,11.716329138334004,-0.8219763980710759,0.0954875024959219,-1.1276086811581247
0.86,-0.4984656278253618,0.8485293830997785,2.378954973638434,0.0652596772868214,0.1374643915321543,0.0311195088450827,0.0127149387119835,-0.6897862294194879,-0.461471768813569,-0.4990751571823689,0.8616300864983777,2.387032662983417,0.0141862729329969,-0.7648100482095361,-0.5945178347093794,0.7105459825557743,0.4620031140608563,-0.5008609942880937,0.2014124631818103,11.20248388498021,-0.8184570384460359,0.0982312382313965,-1.1287428792250682
0.88,-0.4981063051688464,0.8346373488421951,2.3697121988588763,0.0637663950594093,0.1405576353276137,0.0306238016561598,0.0228470692862727,-0.6989323297389289,-0.4632429360049013,-0.4989072904722642,0.8467338855401475,2.3755423062951904,0.0257721477885153,-0.8048100488055826,-0.6345178353054258,0.6882010139620874,0.50660652871446,-0.4573050159720537,-0.088558359566615,10.783399637336515,-0.8134245336907822,0.0997270424124367,-1.1319397605898271
0.9,-0.4975365947826126,0.8205723765656693,2.3603807974546718,0.0629418813134615,0.143529520200227,0.0301670982297849,0.0336690624126451,-0.7071919778019652,-0.4698037512701319,-0.4987394237621594,0.8318376845819172,2.364051949606963,0.0373580226440336,-0.8448100494016291,-0.6745178359014723,0.7556150115914738,0.5410996563186207,-0.4129824031518125,-0.3280407632615306,10.45492917892534,-0.8092273751140299,0.1004139626314411,-1.1346336011607916
0.92,-0.4967898618106421,0.8070643683391727,2.3513604538964104,0.0629656069397155,0.1459367005615738,0.0297648758980815,0.0444001978518134,-0.7143954786796941,-0.4793874709557261,-0.4979922633092787,0.8149414835938846,2.350561592888934,0.0489438974995519,-0.8848100499976755,-0.7145178364975188,0.8045113046459627,0.5365567719584151,-0.3601750438864459,-0.4791859842797064,10.205243850793522,-0.804716966472534,0.0997460558387473,-1.1382390011549368
0.94,-0.495779318001697,0.7927014246725281,2.3416522742161474,0.0640692197602793,0.147882846384093,0.0293822582482362,0.0560902368818795,-0.7216288306261794,-0.4909993326832611,-0.497245102856398,0.798045282605852,2.337071236170904,0.0605297723550703,-0.924810050593722,-0.7545178370935652,0.8997412484786735,0.5845019515033051,-0.3616675973242667,-0.5805930863767517,10.0153559863802,-0.8002024159649944,0.0973140026963531,-1.1426794032744148
0.96,-0.4945288375985884,0.7781813495642615,2.3316991994983285,0.0660779190745483,0.1490889151520253,0.0290173380283199,0.0683078796369141,-0.7300450014552833,-0.5037321698098154,-0.4962082955321294,0.7801490816029183,2.322580879437973,0.0721156472105886,-0.9648100511897684,-0.7945178376896116,0.9775324383436929,0.6108821377517295,-0.4208085414551921,-0.6366418563277132,9.939501336590183,-0.7960813598750505,0.0935690787292017,-1.1473297838632583
0.98,-0.493031502724024,0.7634768932877172,2.321481319953385,0.0683572773730729,0.1494645446186484,0.0286162006435357,0.0807215932463454,-0.7400386825748779,-0.5174286598096806,-0.4948818413364728,0.7612528805850833,2.307090522690142,0.083701522066107,-1.0048100517858147,-0.8345178382856581,1.0506757185420332,0.6206856804715617,-0.4996840559797322,-0.6848244999932585,9.893912912723865,-0.7927585658244225,0.0895334381594566,-1.1515759801700252
1.0,-0.4913790407472843,0.7493091375338076,2.3115115680781635,0.0701395879957501,0.1490351363343937,0.0281525458942972,0.0925247362835727,-0.7506620556520308,-0.5313269448182645,-0.4889954230617067,0.7264749591589733,2.2956098869629016,0.1277278762017535,-0.8241742447563507,-0.6174286612997967,1.0551452118943792,0.5901571518613674,-0.5311686538576443,-0.6949142504291961,9.85274693478641,-0.7903652036162772,0.085618932757995,-1.155295274037783
1.02,-0.4893848041242834,0.7340536330965943,2.3010375928089792,0.0683128471039584,0.1488996716463392,0.0274276886869613,0.1065429791264833,-0.7735851049806506,-0.5136090217379486,-0.4889954230617067,0.7264749591589733,2.2956098869629016,0.1277278762017535,-0.8241742447563507,-0.6174286612997967,1.6092716684925648,0.7009121421455288,-1.1461524664309886,0.8858961540157917,9.81061708426023,-0.7876858235605781,0.0802805583416751,-1.1652486206548447
1.04,-0.4871079125603467,0.7183993151440842,2.290921583165498,0.0616580685685614,0.1500534736598475,0.0264601498840157,0.1205652905822821,-0.7894510614459317,-0.4989734587462684,-0.4889954230617067,0.7264749591589733,2.2956098869629016,0.1277278762017535,-0.8241742447563507,-0.6174286612997967,1.2870057276533982,0.7011155727899392,-0.7932978232640553,0.7317781495840114,12.051005165397328,-0.7880757014032076,0.0889796055900161,-1.1616034744480834
1.06,-0.4846838334312955,0.7033018255573933,2.28151151205373,0.0542761103832468,0.1517090211788039,0.0255071649346723,0.133964579436388,-0.7987216563340653,-0.4922676618071431,-0.4877181442996892,0.7182332167114098,2.289435600349904,0.1371291327928351,-0.8410013571926452,-0.6374286615978199,0.8809832347502987,0.6699644427052974,-0.4635297444066821,0.3352898469562659,11.529077814329868,-0.7874385638976766,0.0994019576800173,-1.15832004446726
1.08,-0.4818572022980055,0.6872604330878739,2.271680478377496,0.0468740108389384,0.153515173084668,0.024538314093721,0.1480059699611329,-0.8048638464563148,-0.4914775320466081,-0.4851635867756541,0.7017497318162828,2.2770870271239074,0.1559316459749983,-0.8746555820652344,-0.6774286621938663,0.7673191194098066,0.7020695262372423,-0.307109506112474,0.039506488026747,11.02755808429538,-0.7852278715934017,0.1086250646720717,-1.1572192428678632
1.1,-0.4787508071619231,0.6711221163799992,2.261805387095331,0.0404268662916365,0.1550752376371882,0.0236322058556853,0.1619214995446427,-0.8087116034079488,-0.4963029021012351,-0.4826090292516191,0.6852662469211558,2.264738453897912,0.1747341591571616,-0.9083098069378236,-0.7174286627899128,0.7611363105785882,0.6957764791754889,-0.1923878475816987,-0.2412685027313482,10.31258650847849,-0.7822583156613601,0.116014063624558,-1.157789636143825
1.12,-0.475368646811778,0.6549253919888163,2.2517813974715604,0.0351452194663776,0.1561997836639918,0.0228010416037778,0.1755818653236996,-0.8109843096934355,-0.5058499207799031,-0.4791143460684758,0.6671000507823993,2.250389880642113,0.1935366723393248,-0.9419640318104124,-0.7574286633859593,0.8410058750219225,0.6830182889528469,-0.1136353142743351,-0.4773509339333986,10.31258650847849,-0.7791390528256352,0.1211475764112001,-1.1596165640911231
1.14,-0.4719032078248522,0.6395064885895406,2.2420608476433808,0.0312083153215041,0.1568130821022714,0.022084011357529,0.1884890319310746,-0.8121763867537328,-0.5168959774368385,-0.4756196628853326,0.6489338546436428,2.2360413073863152,0.2123391855214881,-0.9756182566830016,-0.7974286639820057,0.85151536277458,0.6453583303687505,-0.0596038530148668,-0.5523028328467683,10.068183398236217,-0.7757425605337139,0.1247652029810687,-1.1625542211546258
1.16,-0.4679900956976391,0.6232503213900796,2.2315860836385006,0.0279097204873965,0.1569319752813235,0.0213876850941102,0.2020938087769026,-0.813428190956816,-0.5300716384029025,-0.4716549168726353,0.6299263028830716,2.2206927341156155,0.2311416987036513,-1.009272481555591,-0.8374286645780521,0.9490192420076352,0.6802388422914015,-0.0625902101541564,-0.658783048303202,9.963437495130163,-0.7727338178034744,0.1272570881683902,-1.1656120633939917
1.18,-0.4638053758914842,0.6069716490322467,2.220832745103405,0.0251690283345258,0.1564264662423055,0.0207306719678926,0.2156435109292331,-0.8143998570608582,-0.5446630548179293,-0.4672201080303839,0.6100773955006857,2.204344160830015,0.2499442118858145,-1.04292670642818,-0.8774286651740986,0.9968048911789686,0.6774851076165211,-0.04858330520211,-0.7295708207513407,9.880666064846082,-0.7703411014197544,0.1289292045650412,-1.1685006324818912
1.2,-0.459350627990892,0.5906775912572457,2.20977210106431,0.0228548049450329,0.1551715109685036,0.0201038071730975,0.2290860826935747,-0.8150021741046327,-0.5606712946975335,-0.4530232003450226,0.5662516561792037,2.193599592362508,0.2559551417445006,-0.8264344511422004,-0.6446630563080454,1.0456209464997908,0.672128588217083,-0.0301158521887279,-0.8004119939802101,9.737206139681804,-0.7684440184147343,0.1301144801164083,-1.171416302327582
1.22,-0.4548066303432469,0.5749717772671331,2.19928816599192,0.0141693635400464,0.1529131634216675,0.0190618893612602,0.2483167793303537,-0.8333835392299156,-0.5418879033176456,-0.4530232003450226,0.5662516561792037,2.193599592362508,0.2559551417445006,-0.8264344511422004,-0.6446630563080454,1.62827367842052,0.9615348318389492,-0.919068256264144,0.9391695689943969,9.737206139681804,-0.7680603533536065,0.1342066623992311,-1.177983133119523
1.24,-0.4496458537117876,0.5582487028540896,2.188609029031252,-0.0012976782560389,0.1491022718969908,0.017587442077974,0.266500413413371,-0.8366758576070401,-0.527472611911623,-0.4530232003450226,0.5662516561792037,2.193599592362508,0.2559551417445006,-0.8264344511422004,-0.6446630563080454,1.1718410035943123,0.909181704150866,-0.1646159188562257,0.7207645703011301,12.044306747118751,-0.7745097044074328,0.15410529405341,-1.1672067495061789
1.26,-0.4441491727401239,0.541572158004416,2.1781136665935112,-0.017755629364424,0.1438062843621195,0.0161763640255296,0.2820134528828724,-0.8304376989409576,-0.5227267161429549,-0.4504636489275775,0.5579873116677817,2.187152961799428,0.2640174679075541,-0.8288413699584688,-0.6646630566060686,0.8690404820441162,0.7756519734750666,0.311907933304123,0.2372947884334064,10.852624332494088,-0.7806100355719586,0.1733074587576863,-1.1576180400273284
1.28,-0.4386732290726153,0.5259045531357238,2.168155628038204,-0.0321491581618385,0.1377104082093787,0.0150821515399282,0.2933717150667093,-0.8192160809179588,-0.5256969420372891,-0.4453445460926876,0.5414586226449377,2.1742597006732667,0.2801421202336611,-0.8336552075910058,-0.7046630572021151,0.8120299759772495,0.5679131091918449,0.5610809011499407,-0.1485112947167133,10.852624332494088,-0.7863415788586625,0.1911928422209572,-1.1494717881725456
1.3,-0.4327117253303624,0.5096779944783673,2.1575513280251544,-0.0452607512818883,0.1309350378780902,0.0142321321035889,0.3019339703399324,-0.8041589426218341,-0.5348327908491398,-0.4402254432577975,0.5249299336220937,2.161366439547106,0.2962667725597682,-0.8384690452235426,-0.7446630577981616,0.9791493279187028,0.4281127636611592,0.7528569148062381,-0.456792440592535,10.393944894991364,-0.7916401967267314,0.2061141985973139,-1.142880472672709
1.32,-0.4266117115421424,0.4937806516169832,2.1467047811378426,-0.056018828750203,0.1244481904455101,0.0136671998424367,0.3075416118124865,-0.78673664634883,-0.5493242816965306,-0.4343001078066022,0.5081605527176228,2.1464731783911426,0.3123914248858752,-0.8432828828560794,-0.784663058394208,1.1672460722669518,0.2803820736277052,0.8711148136502034,-0.7245745423695382,9.77913754072688,-0.7957980420221706,0.217451393974466,-1.138350842089272
1.34,-0.4204233020966854,0.4782494102582203,2.135542889107544,-0.0645162242592512,0.1187303084723602,0.0133253120406142,0.3109425179593467,-0.7677049033135712,-0.5661126415611858,-0.4283747723554068,0.491391171813152,2.13157991723518,0.3285160772119823,-0.8480967204886164,-0.8246630589902545,1.2802562561114847,0.1700453073430058,0.9515871517629392,-0.8394179932327606,9.670862545446653,-0.7988591799279737,0.2264830101128727,-1.1358831701359973
1.36,-0.414497644415534,0.4638564096342959,2.1246140472989143,-0.0706956052781412,0.1143663181162816,0.0131406590069095,0.3125776642502587,-0.74869067121962,-0.5834311329002249,-0.4220463205960588,0.4745014449678678,2.115686656064315,0.3446407295380893,-0.8529105581211532,-0.8646630595863009,1.2885504140076365,0.0817573145455996,0.9507116046975628,-0.8659245669519533,9.670862545446653,-0.8004543829888241,0.2331664661321464,-1.135223871982334
1.38,-0.4082417828863292,0.4490993917306724,2.112741499741633,-0.0755242316747239,0.1112578409467172,0.0130173574187773,0.3128401938606334,-0.7282655377694861,-0.6029586105952699,-0.4153147525285581,0.4574913721817701,2.098793394878549,0.3607653818641962,-0.8577243957536902,-0.9046630601823472,1.4129555755424354,0.0131264805187381,1.021256672506693,-0.9763738847522518,9.603227671545028,-0.8001852894713344,0.237933002529844,-1.1364806279456945
1.4,-0.4019921163474287,0.4347560755756092,2.1004671094976257,-0.0788403546546927,0.1100406192538372,0.0129002557064292,0.3122157380855767,-0.7073627540374925,-0.6235288789440265,-0.3925997731932975,0.4126861148421981,2.0825935692118698,0.3395330350626541,-0.7075183716425196,-0.667935079277559,1.4666733214159835,-0.0312227887528382,1.0451391865996806,-1.028513417437832,9.490493096520368,-0.7984106855643549,0.2410012341913316,-1.1390740155619246
1.42,-0.3956783560705111,0.4207991641336796,2.088162853672059,-0.0828956025359961,0.1096837413043568,0.0126983155676395,0.319088407891035,-0.688229831151911,-0.6059299143595068,-0.3925997731932975,0.4126861148421981,2.0825935692118698,0.3395330350626541,-0.7075183716425196,-0.667935079277559,1.344457030596035,0.3436334902729154,0.956646144279072,0.8799482292259853,9.490493096520368,-0.7972822037345509,0.2416771926385574,-1.1452623977276422
1.44,-0.3895556094641813,0.4079400762323155,2.07677846522464,-0.0874782076654662,0.1091780319020472,0.0125023104605279,0.3250189893560373,-0.6662515932843736,-0.5934101816156324,-0.3925997731932975,0.4126861148421981,2.0825935692118698,0.3395330350626541,-0.7075183716425196,-0.667935079277559,1.2989981180251282,0.296529073250118,1.098911893376875,0.6259866371937206,11.410978765342406,-0.7983309425558377,0.2494072835045094,-1.1392186688604
1.46,-0.3829968457713051,0.3948822485920328,2.064993881420651,-0.0916211896703646,0.1085056067944283,0.0123916629607495,0.3304918292181376,-0.6408735984244062,-0.5859359147902934,-0.389204442842671,0.4056109311257729,2.0759142184190944,0.3448716033030582,-0.7033689384171263,-0.6809303730140168,1.3507953803639994,0.2736419931050143,1.2688997429983695,0.3737133412669513,11.410978765342406,-0.7985552900443942,0.2559941278880537,-1.1349373936752287
1.48,-0.3763360424122157,0.3823441110655607,2.053306245512528,-0.0944265556541245,0.1076883754370014,0.0124226559746236,0.3352676821891814,-0.6145266349815184,-0.5833577499105972,-0.3824137821414179,0.3914605636929225,2.062555516833543,0.3555487397838665,-0.6950700719663397,-0.7069209604869325,1.3450076100238166,0.2387926485521885,1.3173481721443892,0.1289082439848099,10.776291396541636,-0.7981843570456667,0.2609181351321719,-1.1320778071488529
1.5,-0.3695868045463535,0.3703400288301834,2.041626040316606,-0.0955830318875772,0.1067470435164002,0.0126117471947324,0.3393878017515627,-0.587576825479304,-0.584734703827788,-0.3756231214401648,0.3773101962600722,2.049196815247992,0.3662258762646747,-0.6867712055155532,-0.7329115479598481,1.3648842620383863,0.2060059781190643,1.3474904751107186,-0.0688476958595418,10.776291396541636,-0.7977855679408172,0.2638226345490501,-1.1300828560352565
1.52,-0.3631042426113253,0.3594409887501587,2.030477625766784,-0.0948129561862865,0.1057834697238577,0.0129524084075564,0.3427583690086951,-0.5613746578208337,-0.5886718994084673,-0.3682986039148713,0.3635747721497611,2.034538584288795,0.376903012745483,-0.6784723390647666,-0.7589021354327637,1.3354922525776398,0.1685283628566208,1.3101083829235138,-0.1968597790339643,10.56628331833781,-0.7974340391596589,0.2645218880213847,-1.1289222264619947
1.54,-0.3562150054357898,0.3485050674562939,2.018654913525668,-0.0916687831450544,0.1047510982786633,0.0134934983772765,0.3459691847442596,-0.5341081606769801,-0.5933568012008276,-0.3609740863895779,0.34983934803945,2.019880353329598,0.3875801492262912,-0.67017347261398,-0.7848927229056795,1.3925870789537615,0.1605407867782238,1.3633248571926826,-0.2342450896180126,10.41339948400855,-0.796500228310143,0.2623364173321832,-1.1296029678188813
1.56,-0.3492620262028238,0.3380880847932611,2.006739467513041,-0.0867139603870497,0.1036826756304884,0.0141743990836451,0.349146514916047,-0.5094734589514499,-0.5979066110048953,-0.3533826404522642,0.3363113955904087,2.004572357683578,0.3982572857070995,-0.6618746061631934,-0.8108833103785951,1.262601209190357,0.1588665085893698,1.2317350862765086,-0.2274904902033858,10.383657342000332,-0.7958124956823507,0.2583427110482976,-1.1306292703131695
1.58,-0.342598631435603,0.3286266117136355,1.995335307751428,-0.0811966373989896,0.1025627078551128,0.0148906219808283,0.3520652366924663,-0.4880875547087941,-0.6022698513365592,-0.3455242661029303,0.322990914802637,1.9886145973507352,0.4089344221879077,-0.6535757397124068,-0.8368738978515107,1.1010378096096929,0.1459360888209693,1.069295212132787,-0.2181620165831954,10.362185794825564,-0.795345034627159,0.2531349160000898,-1.131805878506137
1.6,-0.3355271006777923,0.3190848086869283,1.983238145816305,-0.0750467992142295,0.1012496583228052,0.0156789068037881,0.354897563723851,-0.4674969699434366,-0.6072192187814185,-0.3249953696009797,0.3042222339781958,1.9652218151846,0.3359030442434927,-0.4787686031914506,-0.6260544459468926,1.068281909769515,0.1416163515692348,1.029529238267879,-0.2474683722429649,10.362185794825564,-0.7951257590019217,0.2474607243647006,-1.1329506373848122
1.62,-0.3282815536529502,0.3099502283874852,1.971293474707811,-0.069021657045497,0.0967346263080605,0.0166816007612916,0.3695937856103616,-0.4470151735399522,-0.5856311489231435,-0.3249953696009797,0.3042222339781958,1.9652218151846,0.3359030442434927,-0.4787686031914506,-0.6260544459468926,1.6594635291692144,0.734811094325527,1.0240898201742177,1.0794034929137497,10.329445206795754,-0.8042563679293456,0.2398161313877924,-1.1285417892129406
1.64,-0.3207682193623892,0.3012169210176492,1.9598004518035972,-0.0631924224344782,0.086251970721524,0.0180384021040142,0.3799542882143998,-0.4276022313751258,-0.5648291306146341,-0.3249953696009797,0.3042222339781958,1.9652218151846,0.3359030442434927,-0.4787686031914506,-0.6260544459468926,1.514039549855566,0.5180251302019129,0.9706471082413208,1.040100915425468,11.825575841553473,-0.8137044047899952,0.2374420286627368,-1.118375052147052
1.66,-0.3135061979488119,0.2932673688911067,1.94922779168346,-0.0576443390265069,0.07305688771313,0.0194630388110247,0.3833086728766577,-0.4104456865486627,-0.5490583467770198,-0.3216363391585448,0.2994345479462814,1.958961270725131,0.332670605753698,-0.4769048128879819,-0.6308113648689593,1.1771964042775382,0.1677192331128923,0.8578272413231558,0.7885391918807161,11.825575841553473,-0.8280428581871182,0.2344528981456923,-1.10484094249679
1.68,-0.3058614107606492,0.2852330277336688,1.9383873990813885,-0.0517883570047794,0.0577367470412545,0.0209549754865539,0.3803882666565877,-0.3941419142472399,-0.5359377648341379,-0.3149182782736749,0.2898591758824523,1.9464401818061927,0.3262057287741085,-0.4731772322810445,-0.6403252027130927,1.05651719610561,-0.1460203110034974,0.8151886150711413,0.6560290971440952,11.523737121156955,-0.8445084627336706,0.2313115217960877,-1.0893596071633496
1.7,-0.2983395597972454,0.2775062531200363,1.927773574539756,-0.0460032297033219,0.0425328389794476,0.0223373570772055,0.3714983361525697,-0.3795691285697496,-0.5262194751830844,-0.3082002173888051,0.2802838038186233,1.9339190928872556,0.319740851794519,-0.4694496516741071,-0.6498390405572261,0.9821431928569624,-0.444496525200902,0.7286392838745104,0.485914482552674,11.279112765802893,-0.8601768532177213,0.2279211896219949,-1.0749093802195926
1.72,-0.2910519220236784,0.2700526452658834,1.9173200889010829,-0.0403861395183459,0.0287003816463342,0.0235515431883025,0.3575144905426101,-0.3666943884902477,-0.5195789610930291,-0.3018054003529147,0.2708948107851411,1.920922312076111,0.3132759748149296,-0.4657220710671697,-0.6593528784013595,1.00673146560806,-0.6991922804979789,0.643737003975095,0.3320257045027641,10.899636160400403,-0.8754271606662849,0.2237382893994235,-1.0614480013139722
1.74,-0.2844266776032554,0.2631948199193068,1.9074997295936016,-0.0353170694036052,0.0175783144970877,0.0245300657481092,0.3405389955804901,-0.3559213280043327,-0.5144518647314538,-0.2954105833170243,0.261505817751659,1.9079255312649663,0.3068110978353401,-0.4619944904602323,-0.6688667162454929,1.037440815833636,-0.8487747481059987,0.5386530242957516,0.2563548180787689,10.899636160400403,-0.8888516912682038,0.21894721874935,-1.0503744778681694
1.76,-0.27783070008341,0.2561831312708784,1.897259730214797,-0.0303413105223191,0.0084451259699885,0.0253824207534879,0.3198662129457659,-0.3459078000240661,-0.509840093523784,-0.2891773882056237,0.2522100142333503,1.8946909045077185,0.3003462208557507,-0.4582669098532949,-0.6783805540896262,1.1714340764059552,-1.0336391317362108,0.5006763990133306,0.2305885603834878,10.798987064146786,-0.8996669473590109,0.214108161975178,-1.0418130409682027
1.78,-0.2716770239014909,0.2493586706749995,1.887103014325337,-0.0257728087815786,0.0024300832684617,0.0260670876296502,0.2964007787372138,-0.3371102158455473,-0.5060972944565117,-0.2831058150187128,0.243007400230215,1.8812184318043677,0.2938813438761612,-0.4545393292463575,-0.6878943919337596,1.266918145374818,-1.1732717104276065,0.4398792089259418,0.1871399533636131,10.77092420185454,-0.9067701771456248,0.2092925305591341,-1.0370380376868953
1.8,-0.26629049310011,0.2430273053885981,1.8775152884821973,-0.0218401144615438,0.000425073677697,0.0265700857852655,0.2721289505753747,-0.3297911849998474,-0.5032788378004034,-0.2568569849646303,0.2325031598827221,1.861798149602512,0.2816078474710848,-0.337086864607278,-0.4978929218567908,1.2753759766834605,-1.2135914080919574,0.3659515422849951,0.1409228328054179,10.735749770642542,-0.9106916005367398,0.204895406611587,-1.0348243813811822
1.82,-0.2611218283133848,0.236498627108285,1.867640700911509,-0.018380741472832,0.0025065923299142,0.0269548172435585,0.2464730623147336,-0.3233287847936107,-0.483423623405118,-0.2568569849646303,0.2325031598827221,1.861798149602512,0.2816078474710848,-0.337086864607278,-0.4978929218567908,1.6539473673237108,-1.2827944130320523,0.3231200103118309,0.9927607197642684,10.735749770642542,-0.9112947666450032,0.1979330086681253,-1.0399937662242524
1.84,-0.2564387558653153,0.230098197391319,1.8581830073524777,-0.0155965746370972,0.0082594908958574,0.0272323221453522,0.2236808373429527,-0.3169728864858224,-0.4633692637874596,-0.2568569849646303,0.2325031598827221,1.861798149602512,0.2816078474710848,-0.337086864607278,-0.4978929218567908,1.550854846639094,-1.1396112485890453,0.317794915389416,1.0027179808829194,11.902321532666974,-0.9099714502658348,0.1966326036843995,-1.0382982843710291
1.86,-0.2523794596044441,0.2241343006998628,1.849553220846964,-0.0133120064598627,0.0159240842527746,0.0274500816602699,0.2051758688661363,-0.3111125902367967,-0.4459875533249304,-0.2540409064899194,0.2291322912366493,1.8568192203839435,0.278649261217859,-0.3370821943596242,-0.4962520473368466,1.3027862344390102,-0.9252484238408188,0.2930148124512838,0.8690855231264616,11.594808634970832,-0.906367088505669,0.1958855203876205,-1.0380333427009976
1.88,-0.2484494614438189,0.2179739964022818,1.8408130202787456,-0.0111655475515255,0.0252515991150072,0.0276615246988273,0.1891944911770311,-0.3052374915611552,-0.4289923165954506,-0.2484087495404977,0.2223905539445038,1.846861361946808,0.2727320887114074,-0.3370728538643165,-0.4929702982969582,1.2028708251319158,-0.7990688844552618,0.2937549337820783,0.849761836473989,11.483167558243622,-0.901095914582015,0.1954007303961236,-1.0396438793032647
1.9,-0.2448024802738993,0.2119277510559098,1.8323972732496288,-0.0092423676072056,0.0349773675647397,0.0278702122145226,0.1766179231478091,-0.2996796608372368,-0.4134152767455917,-0.242776592591076,0.2156488166523582,1.836903503509672,0.2668149162049558,-0.3370635133690088,-0.4896885492570698,1.0388740494322086,-0.628828401461097,0.2778915361959205,0.7788519924929432,11.483167558243622,-0.8948647945368456,0.1952389817584777,-1.0418111136394188
1.92,-0.2415406252257406,0.2062841876524262,1.8246794512185447,-0.0075938932807807,0.0439412067762136,0.0280729228255883,0.167560775602113,-0.2946576367472428,-0.3997641806129193,-0.2374402942669769,0.208907546384978,1.8271097325245305,0.2608977436985041,-0.3370541728737011,-0.4864068002171814,0.8567454015757137,-0.4528573772848057,0.2511012044996985,0.6825548066336201,11.300200343071992,-0.8885972041793812,0.1953036075320944,-1.0440475206620805
1.94,-0.2382648222720872,0.2004439631038353,1.8168319809663065,-0.0060355852162952,0.0525862020198904,0.028292446807804,0.1606886148287487,-0.2896456878656105,-0.3857193913276623,-0.2321039959428777,0.2021662761175978,1.817315961539389,0.2549805711920526,-0.3370448323783934,-0.4831250511772931,0.8209785797363006,-0.3436080386682166,0.2505974440816128,0.7022394642628521,11.300200343071992,-0.8829424700023836,0.1954514560778983,-1.0459643808285817
1.96,-0.2351017250663271,0.1947002888832017,1.809260480439743,-0.0047017121736475,0.0600584261852274,0.0285129990469973,0.1560425066065763,-0.284982164623716,-0.3721438153887251,-0.2269156269314399,0.1954252393626004,1.807604234280245,0.2490633986856009,-0.3370354918830857,-0.4798433021374046,0.7543723097941745,-0.2323054111086173,0.2331761620947281,0.6787787969468606,11.249989405584529,-0.8781817476352721,0.195814349903082,-1.0473585530105598
1.98,-0.232166210754918,0.1893270900534682,1.802313615099088,-0.0037100846929145,0.0659171347406219,0.0287148504013107,0.1532088517705039,-0.2808517900108395,-0.3597935038424341,-0.2218751872326634,0.1886844361199856,1.797974550747098,0.2431462261791493,-0.337026151387778,-0.4765615530975163,0.6663703727341483,-0.1416827418036198,0.2065187306438259,0.617515577314548,11.249989405584529,-0.8741183807872237,0.1964044236558214,-1.0482083992235809
2.0,-0.2291223056196971,0.1837534353458907,1.7952490713912692,-0.0030238866309793,0.070743337331828,0.0289102606735135,0.1513556007808338,-0.2767323159833205,-0.3473408439489742,-0.2245057681663929,0.1752845005529263,1.784323939906966,0.1848826072672443,-0.2631717354803381,-0.3598910647279129,0.6623317596120211,-0.0926625494835062,0.2059737013759471,0.6226329946729975,11.215998049261543,-0.871189881775174,0.1972609972440306,-1.0482728854340218
2.02,-0.2261536067541341,0.1782004387452988,1.7884654075833155,-0.0046391969641134,0.0759023359235799,0.0289428730949125,0.145843890361152,-0.2782639775295912,-0.3314387441004832,-0.2245057681663929,0.1752845005529263,1.784323939906966,0.1848826072672443,-0.2631717354803381,-0.3598910647279129,0.8449877490741073,-0.2755855209840896,-0.0765830773135328,0.7951049924245501,11.18329287517281,-0.8668788516120168,0.1989599542651092,-1.051186441856588
2.04,-0.2232758269196275,0.1726507467622227,1.7819887636060945,-0.0093582393485683,0.0827134217885259,0.0287340988730209,0.1425648647374478,-0.2757243842121485,-0.3170335959439738,-0.2245057681663929,0.1752845005529263,1.784323939906966,0.1848826072672443,-0.2631717354803381,-0.3598910647279129,0.7495162384329851,-0.1639512811852109,0.1269796658721317,0.720257407825467,11.465968374505792,-0.8637837319245498,0.2055914387098809,-1.0492183433991775
2.06,-0.220576127459141,0.16747357025565,1.7760864005076384,-0.0144628920917447,0.0898106424196354,0.0284578382800845,0.1420048887222318,-0.2692598643392775,-0.3049907683471038,-0.2226569420937204,0.1726527831981229,1.780725029259687,0.1912173583665923,-0.2596357245742378,-0.3599105769050086,0.6839833456530511,-0.027998800760802,0.3232259936435527,0.6021413798435016,11.204120125700683,-0.8587519164214628,0.2128232463419289,-1.0490958006505822
2.08,-0.2177199520792984,0.1621824499697727,1.7701071293049575,-0.0194307509732773,0.0972154364511126,0.0281649317673042,0.1438546684803368,-0.2601849015913461,-0.2936383297090379,-0.2189592899483755,0.1673893484885161,1.7735272079651287,0.2038868605652885,-0.2525637027620373,-0.3599496012592001,0.7325546004580298,0.0924889879052537,0.4537481373965701,0.5676219319032949,11.204120125700683,-0.8527740836231634,0.2195362004082067,-1.050143264131902
2.1,-0.2148029382415937,0.1570901996551353,1.7643416242701462,-0.0235816319489081,0.1040162448363553,0.0279152386242511,0.1479013711954272,-0.249581054641225,-0.2835393945753002,-0.2152616378030306,0.1621259137789094,1.7663293866705705,0.2165563627639846,-0.2454916809498367,-0.3599886256133916,0.7596148100210968,0.202335135754518,0.530192347506056,0.5049467566868859,11.123568362925653,-0.8466029868601643,0.2253849474659664,-1.051706061598802
2.12,-0.2117849399127142,0.1522218145822973,1.758766460799167,-0.026757043931136,0.1098163266657994,0.0277413147688334,0.1537439571001727,-0.2380004534988046,-0.2744897778617585,-0.2109305105477509,0.1572160801599126,1.7591296141583026,0.2292258649626808,-0.2384196591376362,-0.3600276499675831,0.7907934236198649,0.2921292952372728,0.5790300571210188,0.4524808356770826,11.055925411000317,-0.8410711757694557,0.229990149914704,-1.0532788571888625
2.14,-0.2087963585634332,0.1478171810743381,1.7536316686362807,-0.0289053506295291,0.1142158501174279,0.0276598795305633,0.1605460130520042,-0.2264326857423781,-0.26647203456202,-0.2065993832924712,0.1523062465409159,1.751929841646035,0.2418953671613769,-0.2313476373254356,-0.3600666743217746,0.781609595096825,0.3401027975915766,0.5783883878213242,0.4008871649869266,11.005747253265326,-0.8360740139231021,0.2339082856144447,-1.0545677793399155
2.16,-0.2055009844217329,0.1434226701254325,1.7483868846003323,-0.0302750904795617,0.1175920567971633,0.0276723569949626,0.1686250570182404,-0.2137231816002003,-0.2584467244772955,-0.2019515184822241,0.1475732134672241,1.7447290935249122,0.254564869360073,-0.2242756155132351,-0.3601056986759661,0.8532409520533952,0.4039521983118091,0.6354752071088917,0.4012655042362256,10.95988796300844,-0.8322334372181464,0.2371342325321382,-1.0548485164799646
2.18,-0.2020376741091864,0.1392902003562642,1.743297847112082,-0.0305051005674012,0.1196552033364387,0.0278078106583591,0.1772486599837142,-0.200268960913163,-0.2508707599941784,-0.1969869161170097,0.1430169809388375,1.737527369794935,0.2672343715587691,-0.2172035937010345,-0.3601447230301576,0.8842762863651298,0.4311801482736924,0.6727110343518639,0.3787982241558518,10.95988796300844,-0.8298282966404606,0.239708520558613,-1.0535452422005365
2.2,-0.1983997055100162,0.1354330416908353,1.738355961723438,-0.029230355158871,0.1204475361046126,0.0280916070493229,0.185993886751972,-0.1863515041023727,-0.243678785659156,-0.1931752411100007,0.1292767523106061,1.7307543091123732,0.1954522295598584,-0.1924929128787334,-0.258361331116795,0.8970773240697895,0.4372613384128906,0.6958728405395117,0.3595987167511208,10.937241135999102,-0.8289973480643085,0.241238822433488,-1.0507764873996916
2.22,-0.1947334329772932,0.1320619724904155,1.7338421826856376,-0.0253453392646154,0.1186956137125195,0.0286173496330792,0.1993331038064065,-0.1704888473619679,-0.2317506268353113,-0.1931752411100007,0.1292767523106061,1.7307543091123732,0.1954522295598584,-0.1924929128787334,-0.258361331116795,1.195658357784624,0.6669608527217221,0.7931328370202412,0.5964079411922354,10.91568222265778,-0.8357746589328909,0.2394313534808328,-1.0425607794617728
2.24,-0.1906108378273016,0.1287790808589193,1.72932904632262,-0.0193855959097785,0.1127886853826311,0.0293746879931055,0.2115295386330937,-0.1590938268879627,-0.2201430776564194,-0.1931752411100007,0.1292767523106061,1.7307543091123732,0.1954522295598584,-0.1924929128787334,-0.258361331116795,1.016531740804266,0.6098217413343598,0.5697510237002601,0.5803774589445961,11.143996106107808,-0.8404149660737731,0.2382760686641436,-1.0342474157139987
2.26,-0.1865130071675214,0.1258377544657228,1.725243059241642,-0.0135512603444297,0.1047132743825448,0.030102342086035,0.2187951870900854,-0.1512126985995336,-0.2104957759330313,-0.1912207188144021,0.1273518231818187,1.7281706958012053,0.1990929434750873,-0.1909377032718475,-0.2598594453413183,0.721062169894785,0.3632824228495854,0.394056414421455,0.4823650861694048,11.0290527882471,-0.8487593186376439,0.2363484796939739,-1.0233235803271037
2.28,-0.182096857527675,0.1228810534582583,1.7211273014570532,-0.007849700658081,0.0951986704780021,0.0307861975807364,0.2220582232723745,-0.1449302992812951,-0.2016233853045332,-0.187311674223205,0.123501964924244,1.7230034691788694,0.206374371305545,-0.1878272840580757,-0.2628556737903649,0.5675281089633202,0.1631518091144576,0.3141199659119242,0.4436195314249061,11.0290527882471,-0.8590867578149615,0.2343012217695885,-1.011186829753422
2.3000000000000003,-0.1776588016999032,0.1200334010961972,1.7171741789728354,-0.0028353543757739,0.0858892028341028,0.0313575260812937,0.2213258298520591,-0.1401453949199579,-0.194174168218798,-0.1834026296320078,0.1196521066666694,1.7178362425565334,0.2136557991360027,-0.1847168648443039,-0.2658519022394115,0.4441918083994635,-0.0366196710157723,0.2392452180668636,0.3724608542867574,10.9303232905022,-0.8696178920753646,0.2322631037545392,-0.999428154993073
2.32,-0.1732724089163773,0.1172686104413589,1.7133543378381595,0.0014135147237817,0.0777291794532594,0.0318209580914149,0.2172848188956913,-0.1364826292744414,-0.1881520840212827,-0.1791295136492877,0.1159577693697833,1.7125192045117452,0.2209372269664603,-0.1816064456305321,-0.2688481306884581,0.4062361376263326,-0.2020505478183887,0.1831382822758243,0.3011042098757674,10.83467912152082,-0.8787747140455374,0.2303882899849601,-0.9895349828004888
2.34,-0.1692065689228994,0.1147016177544536,1.7098278986742803,0.0047740237541284,0.07163337645063,0.0321819296773529,0.2108301834808277,-0.133813333271847,-0.1833361470911151,-0.1748563976665677,0.1122634320728972,1.707202166466957,0.228218654796918,-0.1784960264167602,-0.2718443591375047,0.4242072253145544,-0.3227317707431801,0.1334648001297178,0.2407968465083773,10.749544749261986,-0.8866859052651265,0.2286868840471853,-0.9809397296978596
2.36,-0.1650832259702284,0.1120487921879859,1.706207426633224,0.0076811666433457,0.067642127765819,0.0325069082629003,0.2017180371281177,-0.1315636140370315,-0.1789912781819338,-0.1704012459880862,0.1086468552563554,1.7018102227109424,0.2355000826273757,-0.1753856072029884,-0.2748405875865513,0.5171323177550291,-0.4556073176354994,0.1124859617407769,0.2172434454590657,10.696560981242328,-0.8922861504572115,0.2272700752312677,-0.9746626931050844
2.38,-0.1611573957005532,0.1094356920726337,1.702666379689072,0.0100198647708732,0.0667322434767997,0.0328045103240974,0.191643509197171,-0.1297949459558433,-0.1753416407944403,-0.1657640586138432,0.1051080389201579,1.696343373243702,0.2427815104578334,-0.1722751879892166,-0.2778368160355979,0.5430104807299555,-0.5037263965473382,0.0884334040594098,0.182481869374676,10.65913034283676,-0.8958135971410932,0.2253520874774187,-0.9714907567798596
2.4,-0.1574199909446783,0.1068542154810926,1.6991924329182448,0.0118440970238815,0.0684325821216424,0.0330894684535281,0.1829189377871017,-0.1283390567969733,-0.1722182160296436,-0.1515752202406947,0.1029459447748416,1.69389929764935,0.1800340322061732,-0.131858003574059,-0.1825471643449507,0.4690243644888263,-0.4362285705034649,0.0727944579434966,0.1561712382398355,10.60999199194248,-0.8965058543033098,0.2237170567366608,-0.9712186841611634
2.42,-0.1539553296717631,0.104436048286972,1.6960279783605237,0.0134463915342119,0.0699379009148605,0.0333490251939217,0.1819290133452054,-0.1263984382446386,-0.1610415180445903,-0.1515752202406947,0.1029459447748416,1.69389929764935,0.1800340322061732,-0.131858003574059,-0.1825471643449507,0.5693516677226433,-0.0494962220948108,0.0970309276167383,0.5588348992526609,10.56918353209403,-0.9020766094483312,0.2210407838268492,-0.9675238468834704
2.44,-0.1503324929265953,0.1019225007314827,1.692917809870756,0.0150504699473454,0.0696194781817688,0.0335885765333731,0.1802626239302359,-0.1250709608741775,-0.1506733184751489,-0.1515752202406947,0.1029459447748416,1.69389929764935,0.1800340322061732,-0.131858003574059,-0.1825471643449507,0.5292414670147594,-0.0833194707484774,0.0663738685230563,0.5184099784720703,11.070728304717704,-0.9043637722048354,0.2221183086421511,-0.9621756857352856
2.46,-0.1467542074218434,0.0994293780243048,1.6899918480539002,0.0163696330429069,0.0678276938586198,0.0337813437042666,0.1775130181927737,-0.1242965976146378,-0.1424162146271883,-0.1497748799186329,0.101627364739101,1.6920738260059005,0.1777121368079736,-0.1322706150977021,-0.1839882690550528,0.4368630624269359,-0.1374802868731109,0.038718162976984,0.4128551923980317,10.94363150812478,-0.9079318698740372,0.2234521019726776,-0.9556237661792716
2.48,-0.1432453293461801,0.0969467719206913,1.6872129927221764,0.0172493777638597,0.0650043513361802,0.0339215107913845,0.1733790485865728,-0.1239759433657305,-0.1358626287284332,-0.1461741992745095,0.0989902046676198,1.688422882719001,0.1730683460115745,-0.1330958381449884,-0.1868704784752569,0.3877564054425689,-0.2066984803100427,0.0160327124453608,0.3276792949377563,10.819716320896076,-0.9124106675809917,0.2246766744764486,-0.948722451547644
2.5,-0.1400042298582185,0.0945912093296283,1.6846805314183269,0.0175646017662565,0.0618245802102596,0.0340066875651131,0.1678845997029928,-0.1239563335900487,-0.1310243189683929,-0.142573518630386,0.0963530445961386,1.6847719394321024,0.1684245552151754,-0.1339210611922746,-0.1897526878954611,0.3660553046046375,-0.2747224441790027,0.0009804887840907,0.2419154880020146,10.71560669482551,-0.9171818046847946,0.225886408006773,-0.9421021518244186
2.52,-0.1367233482504154,0.0921113135770611,1.6821024415717023,0.0172878068589417,0.058508133720046,0.034054220660192,0.1603452197562041,-0.1240012899758744,-0.127083432404723,-0.1392050275260825,0.0936746233722931,1.6809768856741931,0.1637807644187763,-0.1347462842395609,-0.1926348973156653,0.4253670707940935,-0.376968997339433,-0.002247819291283,0.1970443281834918,10.628155017751851,-0.921801751646719,0.2271395008651873,-0.9361588059345234
2.54,-0.1336128860979053,0.0896318068265767,1.6795945340356422,0.0163884447166126,0.055868668388659,0.0340729976089069,0.1509569883210082,-0.1239036990335443,-0.1239272126044931,-0.135836536421779,0.0909962021484476,1.677181831916284,0.1591369736223771,-0.1355715072868472,-0.1955171067358694,0.495252806403427,-0.4694115717597938,0.0048795471165048,0.1578109900114949,10.558344282569124,-0.925760372249766,0.2284425749692192,-0.93138231860272
2.56,-0.130708051019144,0.0871579827432913,1.6771422779618093,0.0149352726440059,0.054614096166847,0.0340805075729074,0.1401247476101524,-0.1234287634448825,-0.1214394472190719,-0.1325841400873854,0.08829715034842,1.6733147229228698,0.154493182825978,-0.1363967303341335,-0.1983993161560736,0.5562193345349482,-0.5416120355427919,0.0237467794330904,0.1243882692710619,10.518799135576955,-0.9287117732106006,0.2296015040119559,-0.9282359441023478
2.58,-0.1281491189179161,0.0848228498641615,1.6748537899550178,0.0131776758314732,0.0548174137190587,0.0340860613026132,0.1299386806710896,-0.1223619904213989,-0.1195665117690726,-0.1294478385229019,0.0855774679722102,1.6693755586939505,0.1498493920295789,-0.1372219533814197,-0.2012815255762777,0.5205810493346927,-0.5093033469531383,0.0533386511741805,0.0936467724999647,10.48296169727746,-0.9306224210643766,0.2308832907324426,-0.9264195415800084
2.6,-0.1256580115259317,0.0823972145568302,1.6724791116947684,0.0112079403425021,0.0561873323634558,0.0341008333874518,0.1198442830241847,-0.1201869471332627,-0.118013751475349,-0.1216521848843616,0.0787047503430915,1.6688754643665642,0.1324401597882894,-0.1138877652430379,-0.1272216936910911,0.5221080867235953,-0.5047198823452441,0.1087521644068063,0.0776380146861786,10.416668890591607,-0.9312777469621912,0.2323658115498784,-0.9257127364588368
2.62,-0.1233771743114134,0.0800008344698655,1.6701972601346975,0.0087576120811865,0.059099913832942,0.0340981623507895,0.1089869545225654,-0.1191912390598706,-0.1098862556358342,-0.1216521848843616,0.0787047503430915,1.6688754643665642,0.1324401597882894,-0.1138877652430379,-0.1272216936910911,0.679943389887762,-0.5428664250809672,0.0497854036696075,0.4063747919757401,10.416668890591607,-0.9319501892381672,0.2330213530374568,-0.9266115658787342
2.64,-0.1212969157802233,0.0776476139012824,1.6680768580544318,0.005947240127243,0.0637236679718673,0.0340794425101579,0.0998892104055277,-0.1160986244777228,-0.1025841841225472,-0.1216521848843616,0.0787047503430915,1.6688754643665642,0.1324401597882894,-0.1138877652430379,-0.1272216936910911,0.6034348791666837,-0.4548872058518824,0.1546307291073884,0.3651035756643515,10.74324629711191,-0.9311216822969156,0.2365701555025961,-0.9251052586356572
