t,x,y,z,roll,pitch,yaw,v_x,v_y,v_z,ref_x,ref_y,ref_z,ref_v_x,ref_v_y,ref_v_z,a_com,a_x,a_y,a_z,thrust,wind_x,wind_y,wind_z
0.0,0.8451827867145123,-1.4114429391290777,2.973905071996489,0.0208682288266555,0.0994460985955127,0.0415140040464763,0.000673777604319,0.0004062003669845,-0.0002418770023351,0.845209598860733,-1.4115268403808388,2.973895302970816,-0.0991633333515489,0.098036420330756,-0.1003039601427276,0.0411545709028484,0.0336888802159547,0.0203100183492285,-0.0120938501167591,10.25750244217761,-0.9408955951191011,0.2602606614170061,-0.877201983350354
0.02,0.8453606985518171,-1.411681476332984,2.9737892068289185,0.0119761038819561,0.0941112500167008,0.0408289262979664,0.0164482780720282,-0.0197133737568206,-0.0116997105493415,0.845209598860733,-1.4115268403808388,2.973895302970816,-0.0991633333515489,0.098036420330756,-0.1003039601427276,1.4008159028936968,0.7887250233854559,-1.0059787061902632,-0.5728916773503163,10.25750244217761,-0.9468421964359208,0.2616816576931506,-0.8766767373923654
0.04,0.8458062129425261,-1.4120768280130809,2.97336945748346,-0.0043506515191093,0.0787117605418551,0.0397087663960614,0.0256878439488609,-0.0180326897636964,-0.0295666533791163,0.845209598860733,-1.4115268403808388,2.973895302970816,-0.0991633333515489,0.098036420330756,-0.1003039601427276,1.0092347625299058,0.4619782938416373,0.0840341996562124,-0.8933471414887414,9.621882440801071,-0.952180228058518,0.2762676637304949,-0.8631675108062269
0.06,0.8462911350282124,-1.412344706500372,2.9726216692419274,-0.0202949108084516,0.058495180124957,0.0389816444236169,0.023997335979615,-0.0099544319890303,-0.0482252254901291,0.8442179655272175,-1.4105464761775313,2.972892263369389,-0.1191633336495721,0.1180364206287793,-0.1203039604407509,1.0201205554858477,-0.0845253984622956,0.403912888733304,-0.9329286055506404,9.108917317216765,-0.9627817693927534,0.2895719845867089,-0.8463431124747083
0.08,0.8466629552073934,-1.412424671984689,2.9714407388628565,-0.036433726703846,0.0352337544551984,0.0387315837741195,0.0124957306737958,0.0018537244535629,-0.068959708918363,0.8422346988601865,-1.408585747770916,2.9708861841665346,-0.1591633342456186,0.1580364212248257,-0.1603039610367973,1.324422785800771,-0.5750802652909605,0.5904078221296637,-1.036724171411693,9.108917317216765,-0.9771047775018534,0.3007528992829626,-0.8273744685634723
0.1,0.8467121370453804,-1.412239857008571,2.969836931840168,-0.0517849344339826,0.0128751959600517,0.0389365867000022,-0.0074897639435008,0.0163379831986567,-0.0904489263269282,0.8402514321931556,-1.4066250193643008,2.96888010496368,-0.199163334841665,0.1980364218208722,-0.2003039616328438,1.636306978630084,-0.999274730864835,0.7242129372546918,-1.0744608704282614,9.057577480496548,-0.9925819322605076,0.3099752218203572,-0.8086789554823512
0.12,0.8462863856437052,-1.4117392400859012,2.967797126373929,-0.0663789175810386,-0.0064632780119007,0.039419422935104,-0.0341468119317042,0.0332964513956146,-0.1125079464668536,0.8362681654963222,-1.4026642909278837,2.964874025731023,-0.2391633354377115,0.2380364224169186,-0.2403039622288902,1.9266474901796669,-1.3328523994101675,0.8479234098478953,-1.1029510069962702,9.056896957255503,-1.006137636321241,0.3171853285518584,-0.7935849514983719
0.14,0.8453415353258769,-1.4109064908576607,2.9654417320105715,-0.0789235999989411,-0.0210341260613869,0.0400001784720234,-0.0638389486140583,0.0532957973472883,-0.1343375981004395,0.832284898799489,-1.398703562491466,2.9608679464983663,-0.279163336033758,0.2780364230129651,-0.2803039628249367,2.0965033446801624,-1.4846068341177054,0.9999672975836822,-1.0914825816792957,9.077292520994432,-1.018148586947819,0.3232835495726029,-0.7813367215870675
0.16,0.8437047817238716,-1.4095884139181676,2.962504521106609,-0.0900154761929372,-0.0318800246305311,0.0406051399329012,-0.0982421548608151,0.0771701933012669,-0.1582570558163757,0.8273016320877545,-1.3937428340401474,2.955861867250808,-0.3191633366298044,0.3180364236090116,-0.3203039634209831,2.411279660081292,-1.7201603123378406,1.193719797698931,-1.1959728857968115,9.082903419989634,-1.026423482358125,0.3275691551500727,-0.7749630518041601
0.18,0.8413490740025347,-1.4077727054140663,2.9590822204024674,-0.0986598267454768,-0.0375198916983984,0.0410256076012189,-0.1356294484416877,0.1028182279497132,-0.1827731818117693,0.8213183653611189,-1.3877821055739277,2.9498557879883487,-0.3591633372258508,0.358036424205058,-0.3603039640170296,2.5771456286230103,-1.869364679043631,1.282401732422317,-1.22580629976968,9.085546475095724,-1.0301506143846713,0.3301874982314209,-0.7749531864039726
0.2,0.8384087982121042,-1.4055613472669697,2.955375128309435,-0.1046255233200463,-0.037549807502173,0.0410934611157049,-0.1713159641739399,0.1281674862152472,-0.2061014458612237,0.8345676015804503,-1.402631794016581,2.949943561311879,-0.2356294499318038,0.2028182294398293,-0.2827731833018855,2.4800807463075123,-1.7843257866126088,1.2674629132766984,-1.16641320247272,9.120416938013475,-1.0316890059600927,0.3302674502619843,-0.7808043100072417
0.22,0.8336952874875101,-1.4018792725049471,2.950366382471,-0.1042490209164212,-0.0301012090117783,0.0409499465333906,-0.2183774216779434,0.1750778590289767,-0.2084189397032415,0.8345676015804503,-1.402631794016581,2.949943561311879,-0.2356294499318038,0.2028182294398293,-0.2827731833018855,3.3244302660877136,-2.3530728752001755,2.345518640686475,-0.1158746921008854,9.120416938013475,-1.0350055206544644,0.3262426778193339,-0.783502679783058
0.24,0.8299641910987454,-1.398857943766887,2.947021442526585,-0.0992467936474169,-0.0211713085992775,0.0407963676692603,-0.245692430818368,0.2000728477069946,-0.2097857177586255,0.8345676015804503,-1.402631794016581,2.949943561311879,-0.2356294499318038,0.2028182294398293,-0.2827731833018855,1.8525167108614715,-1.365750457021228,1.2497494339008972,-0.0683389027692021,10.303858028947616,-1.0320194084959513,0.3228830455643312,-0.7883880624221515
0.26,0.8247462448951636,-1.3945968414008518,2.942769854855313,-0.0916740344129418,-0.0075238921727671,0.0405265432526348,-0.2737320635124405,0.2242219893604118,-0.2154152330847711,0.8322113070811322,-1.4006036117221825,2.94711582947886,-0.2556294502298271,0.2228182297378526,-0.3027731835999087,1.871559167527584,-1.4019816347036251,1.2074570826708595,-0.281475766307282,10.303858028947616,-1.0265193153565428,0.3176123351257923,-0.7978409936122078
0.28,0.8193227533992352,-1.3901338737069384,2.938588090025374,-0.0848195375487,0.0063058522511232,0.0402598747397727,-0.2953531922800775,0.2443091328718806,-0.2246593404968697,0.8274987180824962,-1.3965472471333855,2.9414603658128224,-0.2956294508258735,0.262818230333899,-0.3427731841959551,1.5463020932886122,-1.08105643838185,1.0043571755734393,-0.4622053706049261,9.980237456808936,-1.0176631961255485,0.3123385805031906,-0.8115482112456203
0.3,0.8132206908991657,-1.3850484908378724,2.933954800964418,-0.0785084097427431,0.0204892056734073,0.0400385578559083,-0.3133715415833541,0.2632470142492845,-0.2383720816703377,0.8227861290838601,-1.3924908825445892,2.9358049021467845,-0.33562945142192,0.3028182309299455,-0.3827731847920016,1.4759264320842955,-0.9009174651638308,0.946894068870191,-0.6856370586733995,9.715667287198812,-1.0077345272139342,0.3076653262012107,-0.8264334905561243
0.32,0.8068019518834174,-1.379599855789226,2.9290061442312605,-0.073316228342561,0.0332992456367601,0.0399196760750565,-0.3274629595363158,0.2808628649730708,-0.255841709564378,0.8160735400554217,-1.3864345179259905,2.9281494384509443,-0.3756294520179664,0.3428182315259919,-0.422773185388048,1.4265992389280229,-0.7045708976480852,0.8807925361893149,-0.8734813947020165,9.300905302807225,-0.9966024473476658,0.3034411129658524,-0.8423735566764577
0.34,0.8001345770951833,-1.3738079954070088,2.923685827018912,-0.0691665530751411,0.0441569300690544,0.0399206961553369,-0.3385369936590375,0.2976378645949113,-0.2753683990852428,0.8093609510269832,-1.380378153307391,2.920493974755104,-0.4156294526140129,0.3828182321220384,-0.4627731859840945,1.4011838277936697,-0.5537017061360866,0.8387499810920268,-0.976334476043242,9.300905302807225,-0.9855815844346472,0.2995805655244217,-0.8579756284549935
0.36,0.7936114912580883,-1.3679919530176086,2.918254678136009,-0.0658196440327947,0.052564246013938,0.0400406560940942,-0.3474912403090935,0.3137051635839794,-0.295442195893663,0.8016483619836438,-1.373321788673891,2.911838511044363,-0.4556294532100594,0.4228182327180849,-0.5027731865801409,1.3613356935193162,-0.4477123325028004,0.8033649494534056,-1.003689840421007,9.205100582714294,-0.9763027555070094,0.2964972700822477,-0.8708772542335665
0.38,0.7865749714092418,-1.3615448169369393,2.9121071110207564,-0.0626318235267242,0.0595119544607502,0.0402868732135624,-0.355712889247515,0.3301301748177979,-0.318285400626983,0.792935772925403,-1.36526542402549,2.902183047318721,-0.4956294538061058,0.4628182333141313,-0.5427731871761874,1.465595875221137,-0.4110824469210711,0.8212505616909255,-1.142160236666001,9.1334243123365,-0.967886835994828,0.293593947255115,-0.8825487568122791
0.4,0.7797446591763365,-1.355118804958677,2.905831602073679,-0.0597706422803296,0.0645506017765508,0.040616616861946,-0.3628824638567769,0.3453902651927951,-0.3411668707050637,0.7687893269468661,-1.3450383081960493,2.896192840989407,-0.407094406449177,0.430130176307914,-0.4182854021170991,1.4211217675352057,-0.3584787304630965,0.7630045187498574,-1.1440735039040333,9.060175409857038,-0.960801618545166,0.290679971580916,-0.8925577427908918
0.42,0.7723559070628734,-1.3480331852491148,2.8990206728910737,-0.056844537585175,0.0708368145715508,0.0409080592422158,-0.3751774105068086,0.3623740813602541,-0.3372617234289296,0.7687893269468661,-1.3450383081960493,2.896192840989407,-0.407094406449177,0.430130176307914,-0.4182854021170991,1.066379271161844,-0.6147473325015862,0.8491908083729516,0.1952573638067029,9.007793233256052,-0.9603142455399124,0.2876223238359255,-0.8952410726137114
0.44,0.7647526176212642,-1.3406269357601917,2.892296745549372,-0.0544569026971125,0.0798942966369964,0.0410161525521226,-0.3840440611508222,0.377564051051886,-0.3357759746346706,0.7687893269468661,-1.3450383081960493,2.896192840989407,-0.407094406449177,0.430130176307914,-0.4182854021170991,0.8825532878462979,-0.4433325322006798,0.7594984845815944,0.07428743971295,10.75351466191023,-0.9539184309554692,0.2871849009306311,-0.900662447182242
0.46,0.7570135802129122,-1.33291959600005,2.88552974229194,-0.0527916824787567,0.090133123687106,0.0410209493415454,-0.3890627321974835,0.3925292065478389,-0.3409889181231505,0.7647183828823743,-1.3407370064329702,2.8920099869682363,-0.4173707098895095,0.4501301766059373,-0.4382854024151223,0.831140358042386,-0.250933552333063,0.7482577747976449,-0.2606471744239946,10.366451341650643,-0.944947038627146,0.28694149669884,-0.9092507617816276
0.48,0.7496020269486886,-1.3253235601451978,2.878953800792772,-0.0517427402149341,0.0998010567181363,0.0409980719185554,-0.3906625287285222,0.4063606309079731,-0.3509699867085338,0.7565764947533907,-1.3321344029068118,2.8836442789258943,-0.4379233167701742,0.4901301772019837,-0.4782854030111688,0.8565765857133874,-0.0799898265519349,0.6915712180067091,-0.4990534292691639,10.002787898862152,-0.9340628369023052,0.2866418258990526,-0.9202466241165982
0.5,0.7417958418495116,-1.3170493142769928,2.871783929443339,-0.0513108310677548,0.1090921378943692,0.0409741955678425,-0.3897144602582766,0.4203751495459188,-0.3657048452560872,0.7484346066244072,-1.3235317993806537,2.875278570883552,-0.4584759236508391,0.5301301777980302,-0.5182854036072153,1.0178674065098186,0.0474034235122766,0.7007259318972864,-0.7367429273776704,9.722252300436594,-0.9225838162583446,0.2865389939021008,-0.9320235622812634
0.52,0.7340321972945254,-1.308497500214752,2.864278283776845,-0.0517007013039242,0.1169162940653973,0.0409631247836816,-0.386681323501124,0.4341852700501621,-0.3841441060355541,0.7392650881513905,-1.3129291958246931,2.864912862811408,-0.4790285305315039,0.5701301783940766,-0.5582854042032618,1.1618150509251688,0.1516568378576305,0.6905060252121675,-0.9219630389733474,9.500486241790895,-0.9118728965135404,0.2867841692904027,-0.9430927896050788
0.54,0.7267286659125937,-1.3001164498160318,2.856791523403358,-0.0528504625820267,0.1227415974182545,0.04097231794263,-0.3823112852803166,0.447414167593882,-0.4030381568884563,0.7300955696783736,-1.3023265922687326,2.854547154739264,-0.4995811374121688,0.6101301789901231,-0.5982854047993083,1.173761178759978,0.2185019110403696,0.6614448771859904,-0.9447025426451068,9.334820321770168,-0.9019166104581572,0.2875440863424533,-0.9534009669501796
0.56,0.7191377828308576,-1.291010351128348,2.8485118702716936,-0.0545749349657581,0.1271857207726068,0.041024620475222,-0.3770327842775106,0.4625046751340364,-0.4239922231391152,0.7204122360333403,-1.2907239886978707,2.843181446652218,-0.5201337442928335,0.6501301795861695,-0.6382854053953546,1.317819110398964,0.263925050140304,0.7545253770077226,-1.0477033125329465,9.280487414592244,-0.8931927998140191,0.2888362006327499,-0.9622138282690404
0.58,0.7116566711987103,-1.281588816529651,2.839804753301253,-0.0562399689624718,0.1300708949708924,0.0411574058933368,-0.3713922994779303,0.4788513602665052,-0.4457072242531741,0.7102150872162902,-1.2781213851121078,2.8308157385502715,-0.5406863511734984,0.690130180182216,-0.6782854059914011,1.387957543459051,0.2820242399790146,0.8173342566234393,-1.085750055702947,9.240354717963784,-0.8858345155417143,0.2901231976336567,-0.9696509783813584
0.6,0.704289506955877,-1.2718271047730725,2.8306561024328576,-0.0572350233942629,0.1315939800477597,0.0414078752341517,-0.3657024693100854,0.4963333900524176,-0.4680770271207127,0.6930870562248138,-1.2576462485163258,2.8175193920885944,-0.3955998113946869,0.5788513617566213,-0.5457072257432902,1.4477600052382482,0.2844915083922428,0.87410148929562,-1.1184901433769268,9.21746302929114,-0.8799881127917647,0.2908549928392502,-0.9757205585542978
0.62,0.6973696971954326,-1.26216737256286,2.8218198542766952,-0.0558399870539828,0.1338450814747659,0.0417592367908432,-0.3624678038797835,0.5189064794834376,-0.4608958959360374,0.6930870562248138,-1.2576462485163258,2.8175193920885944,-0.3955998113946869,0.5788513617566213,-0.5457072257432902,1.195382859169325,0.1617332715150937,1.1286544715509994,0.3590565592337641,9.197398951260766,-0.8822195989042072,0.2897457053258082,-0.9740049668301968
0.64,0.6901740875850544,-1.2515738720827632,2.812644978233473,-0.0516313620227266,0.1383372236839544,0.0422039684296642,-0.3569445838213803,0.5385599585449982,-0.4573251610284352,0.6930870562248138,-1.2576462485163258,2.8175193920885944,-0.3955998113946869,0.5788513617566213,-0.5457072257432902,1.0362376016352584,0.2761610029201639,0.9826739530780282,0.1785367453801117,10.994922014117948,-0.8757099853865635,0.2878394490297898,-0.978655043508744
0.66,0.6831145113023624,-1.2406306105856129,2.803474994922822,-0.0466754148771152,0.1437666731993641,0.0426640837424165,-0.3490870756563946,0.5545973202048244,-0.4601231874923699,0.689131058110867,-1.2518577348987596,2.8120623198311616,-0.4004413137780382,0.5988513620546445,-0.5657072260413134,0.9038339942486135,0.3928754082492824,0.8018680829913138,-0.1399013231967366,10.5954331055882,-0.867244585718232,0.2847936222537314,-0.9858687449620545
0.68,0.6762330134231539,-1.2293912451126163,2.794185405007945,-0.0418974414714178,0.1490819866605555,0.0431312332044944,-0.3393642738463095,0.5685197395681739,-0.4686901578941181,0.6812190618829732,-1.240280707663627,2.801148175316296,-0.4101243185447409,0.638851362650691,-0.6057072266373599,0.9509989719126823,0.4861400905042529,0.696120968167474,-0.4283485200874098,10.225656752819305,-0.8585006268757195,0.2816747241734237,-0.9937116562899
0.7000000000000001,0.6698894622720486,-1.218469814392644,2.785160066651955,-0.0378424048529,0.1534155166675281,0.0435806558892012,-0.3288666830524717,0.5804649617363674,-0.4809239222211571,0.6733070656550795,-1.2287036804284948,2.7902340308014297,-0.4198073233114435,0.6788513632467374,-0.6457072272334063,1.0031858436151102,0.5248795396918943,0.5972611084096746,-0.6116882163519521,9.93213512149032,-0.8507095481815147,0.2789461663124714,-1.000256970107256
0.72,0.6634356794835992,-1.2067388490824855,2.77537462190854,-0.0342131723389115,0.156884608599787,0.0440538559662766,-0.3170881285975044,0.5920582120158354,-0.49713282771584,0.6649109191888506,-1.21512665316356,2.7773198862567616,-0.4294903280781462,0.7188513638427839,-0.6857072278294528,1.1574394308413898,0.5889277227483641,0.5796625139734002,-0.8104452747341451,9.708944771551614,-0.8438571696419668,0.2769272558221852,-1.0055728516395988
0.74,0.657224199518017,-1.1947825566666863,2.7652467740367657,-0.0312569888325917,0.1590770754467711,0.0445208678818603,-0.3047081750797759,0.6030590890857506,-0.514891795737137,0.6565147727226217,-1.2015496258986254,2.764405741712093,-0.4391733328448489,0.7588513644388304,-0.7257072284254993,1.2141493839206416,0.6189976758864263,0.5500438534957575,-0.8879484010648447,9.531622634430278,-0.8379158500610325,0.2749873215286436,-1.0106762381666718
0.76,0.6512624287718581,-1.1826025043768602,2.7547538521916626,-0.0286495804927094,0.1599709729580116,0.0449960554119264,-0.2921785924543839,0.6143225238134007,-0.533534771301362,0.6478765511372253,-1.1869725986187891,2.750491597152524,-0.4488563376115515,0.7988513650348767,-0.7657072290215456,1.2563995587778287,0.6264791312695972,0.5631717363825062,-0.9321487782112504,9.4679537795364,-0.8348911276254805,0.2735199917963738,-1.0130332771217838
0.78,0.6458311803444152,-1.1708243879034546,2.7444325142622774,-0.0262023925568348,0.159635476129875,0.0454680566196189,-0.2802358632565944,0.6248049291153441,-0.5519779180855668,0.6389962544326614,-1.1713955713240525,2.735577452578054,-0.4585393423782541,0.8388513656309232,-0.8057072296175921,1.2172297080971126,0.5971364598894746,0.5241202650971721,-0.9221573392102445,9.390364010222584,-0.833640908039555,0.2719698178263273,-1.0139025165615458
0.8,0.6403577780613993,-1.1582169784178225,2.7331806230217097,-0.0236218607778601,0.1579709298398969,0.0459835714965297,-0.2677999870799196,0.6352918333591181,-0.5722716736896085,0.6318193871815855,-1.1395841414476873,2.716833618357999,-0.3358607953072994,0.7248049306054603,-0.651977919575683,1.300444821413278,0.6217938088337399,0.5243452121886982,-1.0146877802020835,9.390364010222584,-0.8339088617215973,0.270368974785241,-1.0135651486384856
0.8200000000000001,0.6352127626556289,-1.1453881630723282,2.721796293714791,-0.0207908913108528,0.1536072139502542,0.0465561764243182,-0.2472486131238093,0.6468657523534006,-0.5636396165966041,0.6318193871815855,-1.1395841414476873,2.716833618357999,-0.3358607953072994,0.7248049306054603,-0.651977919575683,1.2558134634839189,1.0275686978055156,0.5786959497141253,0.4316028546502204,9.338220704204105,-0.8353219517597573,0.2634372699678024,-1.0196192800116477
0.84,0.6304649324618011,-1.1323545988704329,2.710587213121225,-0.0181839229932371,0.1453395005541609,0.0471594924418327,-0.2293387237254499,0.6560558459526903,-0.5577884782853164,0.6318193871815855,-1.1395841414476873,2.716833618357999,-0.3358607953072994,0.7248049306054603,-0.651977919575683,1.0481624136590089,0.895494469917972,0.4595046799644842,0.2925569155643848,11.184961964840111,-0.8414774965364941,0.2650896676987222,-1.00989739804534
0.86,0.6262393382128518,-1.119809286913089,2.699993271525237,-0.0162824307716646,0.1349685362413987,0.0477028109456064,-0.2168870194891131,0.6641439029562703,-0.5575767115266784,0.6284607792285125,-1.1323360921416328,2.710313839162242,-0.3469857817174404,0.7448049309034834,-0.6719779198737061,0.7424729787043287,0.6225852118168381,0.4044028501790031,0.0105883379318993,10.77127644389111,-0.8518103622979631,0.2679368750200655,-0.9952931026247795
0.88,0.621996481724315,-1.1064452529843107,2.6888029584225084,-0.0149177367133865,0.1225374504861042,0.0482211401316918,-0.2085774032334597,0.6718593885286755,-0.561615639654774,0.6217435633223665,-1.1178399935295236,2.697274280770728,-0.3692357545377224,0.7848049314995299,-0.7119779204697526,0.6018541774344801,0.4154808127826703,0.38577427862026,-0.2019464064047793,10.411606416320865,-0.8648697688122183,0.270978420249569,-0.9783806789236515
0.9,0.6178704730687523,-1.0929348025978742,2.677493282099975,-0.0144109547717108,0.1095435825690461,0.0486636986069483,-0.2048729861922394,0.6788441203489585,-0.5692632114514482,0.6150263474162205,-1.1033438949174144,2.6842347223792147,-0.3914857273580043,0.8248049320955764,-0.7519779210657991,0.5499875875913982,0.1852208520610132,0.3492365910141459,-0.3823785898337095,10.128724028495526,-0.878547151708034,0.2736853394508932,-0.96187041636938
0.92,0.6137731690326197,-1.0792917658536627,2.6659963245776868,-0.0150071584456184,0.0968134933083721,0.0490171289714548,-0.2053508088239629,0.6852445132485131,-0.5800050208361389,0.6071966328690604,-1.0868477962755028,2.6691951639578986,-0.4137357001782863,0.8648049326916228,-0.7919779216618456,0.6256592774687475,-0.0238911315861761,0.3200196449777315,-0.5370904692345357,9.908092312136432,-0.891064734819528,0.2760980022251901,-0.9475099587612535
0.94,0.6098378494216414,-1.0662147379606648,2.654864108794037,-0.0167676988414036,0.0855324323384014,0.0492667530091977,-0.2090583868879741,0.69111650899505,-0.591248280636072,0.5993669183219004,-1.0703516976335914,2.654155605536583,-0.4359856729985683,0.9048049332876692,-0.831977922257892,0.6607521473231778,-0.1853789032005601,0.2935997873268425,-0.5621629899966563,9.733947510964754,-0.9030350172387522,0.2784184405184705,-0.9347672640842994
0.96,0.6055872297889598,-1.052313619784261,2.642906614170981,-0.0195689425702674,0.0749598421556525,0.0494668848397137,-0.216006490644359,0.6989659700431715,-0.6039440624802134,0.5909809544542332,-1.0528555989767787,2.638116047100365,-0.4582356458188503,0.9448049338837156,-0.8719779228539384,0.8232148279603193,-0.3474051878192413,0.3924730524060782,-0.6347890922070665,9.66913655377357,-0.9140529811703964,0.2811137728579598,-0.9230421810064224
0.98,0.601169255013354,-1.038233654598602,2.630686896152741,-0.022332481036227,0.0660638039126464,0.0496649622846637,-0.2255421483085308,0.7086038156322076,-0.6174150433221288,0.582038741266059,-1.0343595003050647,2.6210764886492472,-0.4804856186391322,0.984804934479762,-0.9119779234499849,0.9556204261233056,-0.4767828832085916,0.4818922794518065,-0.6735490420957724,9.615222199525306,-0.9236397765035284,0.2834996064880724,-0.9128630390011762
1.0,0.5965366302580855,-1.0239510808181642,2.618187718344079,-0.0245630382144883,0.0591188952534246,0.0498756953589276,-0.237259781158376,0.7190196020869891,-0.6318156171579665,0.5898921475979275,-1.0028034638169916,2.5998161439866347,-0.2964891844556484,0.8086038171223238,-0.7174150448122449,1.0643872108833257,-0.5858816424922599,0.5207893227390736,-0.7200286917918852,9.526022191542324,-0.9309789397614858,0.2851588149899005,-0.9052076127794848
1.02,0.5918856807567116,-1.0101311825031818,2.606345183986711,-0.0245008413779066,0.0555851318354489,0.0501559728235982,-0.2516940940806721,0.7343992731707571,-0.613995402344083,0.5898921475979275,-1.0028034638169916,2.5998161439866347,-0.2964891844556484,0.8086038171223238,-0.7174150448122449,1.3806191801114176,-0.7217156461148067,0.7689835541884016,0.8910107406941759,9.526022191542324,-0.9352363083088242,0.2780431134225794,-0.9122200271785182
1.04,0.5866959032123039,-0.9953023375631532,2.5942160254414155,-0.0217468276163494,0.0561020309403343,0.0505225633884328,-0.2660547779317539,0.7474644304354717,-0.6002674633698912,0.5898921475979275,-1.0028034638169916,2.5998161439866347,-0.2964891844556484,0.8086038171223238,-0.7174150448122449,1.1888901163496752,-0.7180341925540873,0.6532578632357289,0.6863969487095889,11.636952064986872,-0.9388969776681586,0.2803817107222894,-0.901920263904968
1.06,0.5812441004951363,-0.980245714843734,2.5822810521211284,-0.0177956852620101,0.0595376401284918,0.0509018396672306,-0.2780747512054752,0.7572760006045121,-0.594213205287492,0.586927255753371,-0.9947174256457684,2.5926419935385123,-0.3106785916850719,0.8286038174203469,-0.7374150451102681,0.8327675360076091,-0.600998663686067,0.4905785084520164,0.3027129041199616,11.10026353966623,-0.93900383362444,0.2802714843931981,-0.8980386201047847
1.08,0.5755762831838414,-0.9650200358096032,2.5703891063498148,-0.0139858086515149,0.0646666462151392,0.0512433521718471,-0.2878132624454239,0.7648661869480501,-0.5952455446331676,0.5809974720642581,-0.9785453493033218,2.5782936926422675,-0.339057406143919,0.8686038180163934,-0.7774150457063146,0.6195063648278116,-0.4869255619974338,0.3795093171769015,-0.0516169672837796,10.609027827833415,-0.936487487586988,0.2788884770675416,-0.899269081363672
1.1,0.5700325808091028,-0.9504269760021482,2.5590199848444617,-0.010940156449823,0.0702354668632335,0.0515232918804215,-0.2950690534282721,0.7710065685513003,-0.6014480786220814,0.5750676883751451,-0.9623732729608754,2.5639453917460227,-0.367436220602766,0.90860381861244,-0.8174150463023611,0.5674993764400688,-0.3627895491424115,0.3070190801625128,-0.3101266994456897,10.212788270205236,-0.9320696781398276,0.2768499195474521,-0.9038651094496428
1.12,0.5640679589368794,-0.9349466006226936,2.5468807913935194,-0.0084763293681119,0.0761529051338873,0.0517694816618302,-0.3008657888183113,0.776837485553006,-0.6123488425011588,0.5677189639630897,-0.9442011965886266,2.547597090819975,-0.3958150350616131,0.9486038192084864,-0.8574150468984075,0.6826939054406315,-0.2898367695019582,0.2915458500852841,-0.5450381939538729,9.905158567225044,-0.9271894150110466,0.2747593587446019,-0.9096913611199294
1.14,0.5580058597592085,-0.9193543947582996,2.5344936230906003,-0.0068265411858303,0.0816107981774397,0.0519625102573741,-0.3049890856446607,0.7822607367299287,-0.6258199410106285,0.5603702395510345,-0.9260291202163778,2.531248789893928,-0.4241938495204601,0.9886038198045328,-0.897415047494454,0.7547909066390717,-0.2061648413174688,0.271162558846133,-0.6735549254734852,9.660129760640302,-0.9227645891257914,0.2729052512453451,-0.9154776074669698
1.16,0.5518723272713256,-0.9036473246724128,2.521819418275494,-0.0057062570851472,0.0863744075252741,0.0521187864091407,-0.3081068925959186,0.7881595492513435,-0.6409366683078166,0.552312044777508,-0.9068570438292278,2.51390048895298,-0.4525726639793072,1.0286038204005792,-0.9374150480905004,0.826184231158012,-0.1558903475628953,0.2949406260707388,-0.7558363648594024,9.465325021637,-0.9183003043515322,0.2714480640355876,-0.9210827215100786
1.18,0.54599541383791,-0.8886150934780608,2.5094845373108474,-0.0048846039402775,0.0902153266290021,0.0522478166877049,-0.3103358191087665,0.7938485551587988,-0.6567242923071144,0.5435443796425103,-0.8866849674271767,2.4955521879971303,-0.4809514784381542,1.0686038209966255,-0.9774150486865468,0.8464366089051524,-0.1114463256423947,0.2844502953727679,-0.7893811999648892,9.465325021637,-0.9143122551489828,0.270170102456824,-0.9261452182685792
1.2,0.5397692788586497,-0.8726759635726141,2.4961607965600328,-0.0041986141993895,0.0935411295768287,0.0523666001861798,-0.3121365827264704,0.7997380025076942,-0.6748963822921026,0.5304786228824716,-0.8489226657201209,2.476648322695492,-0.3626390997901382,0.8938485566489149,-0.7567242937972305,0.959365928758112,-0.0900381808851963,0.2944723674447702,-0.9086044992494102,9.391236303746156,-0.910863640434222,0.2689966583865475,-0.9306476713303626
1.22,0.5335041513494331,-0.8565856321654184,2.4827925557451653,-0.002546119687885,0.0973894119450492,0.0525420828003541,-0.3138961982344276,0.8086795130115058,-0.6592932099117345,0.5304786228824716,-0.8489226657201209,2.476648322695492,-0.3626390997901382,0.8938485566489149,-0.7567242937972305,0.9034736370767802,-0.0879807753978612,0.4470755251905767,0.7801586190184062,11.50211812195448,-0.9034276509176864,0.2594143357918967,-0.950172198572598
1.24,0.5275399033229526,-0.841164449786738,2.470382235888185,-6.03281736426046e-05,0.1022919942859179,0.0527656778114832,-0.3136037564791005,0.814114081916232,-0.6480303430585403,0.5304786228824716,-0.8489226657201209,2.476648322695492,-0.3626390997901382,0.8938485566489149,-0.7567242937972305,0.6254443043014603,0.0146220877663555,0.2717284452363133,0.5631433426597054,10.996624855415575,-0.9005315859781614,0.2611531881977236,-0.9478459466979368
1.26,0.5212885927408841,-0.8248373063512676,2.4574750007730013,0.0022289488979438,0.107787704277213,0.0529775455710145,-0.3113977200260198,0.8184148622600268,-0.6436289239161798,0.5268522318845702,-0.8399841801536317,2.46908107975752,-0.3730997559264125,0.913848556946938,-0.7767242940952537,0.3268631168571594,0.1103018226540381,0.2150390171897387,0.2200709571180292,10.996624855415575,-0.8962643789250673,0.2620911733276312,-0.9483303656840792
1.28,0.5150978894699871,-0.8084319722948399,2.4445784914755726,0.0038034253494016,0.1128475421342039,0.0531360890158335,-0.3077350645105572,0.8220678514750306,-0.646220133398913,0.5195994498887675,-0.8221072090206534,2.4539465938815748,-0.3940210681989612,0.9538485575429846,-0.8167242946913001,0.289282483972366,0.183132775773126,0.1826494607501894,-0.129560474136664,10.532907665397945,-0.8918115695054972,0.2627520086196079,-0.9501376932539808
1.3,0.5092948331226124,-0.7927842331041995,2.4322294450289608,0.0044498559289261,0.1168141972251007,0.0532186416115489,-0.3033184981393655,0.8250105022855008,-0.6535468416544539,0.5123466678929647,-0.8042302378876751,2.43881210800563,-0.4149423804715099,0.9938485581390312,-0.8567242952873466,0.4523436364239921,0.2208283185595849,0.1471325405235091,-0.3663354127770413,10.164760230899446,-0.8882195498777985,0.2634619896548439,-0.9518457928287832
1.32,0.5032827639949335,-0.7762572598356198,2.419040022801231,0.0039415954618189,0.1198791147085602,0.0532087324220761,-0.2981621592531588,0.8276481376735109,-0.6651857016569623,0.5040478202835345,-0.7843532667248945,2.421677622099883,-0.4358636927440585,1.0338485587350774,-0.8967242958833931,0.6500154100240287,0.2578169443103378,0.1318817694005047,-0.5819430001254233,9.88915519904458,-0.8850612471996296,0.2645956085743885,-0.9537198187115004
1.34,0.4973783920752896,-0.7596786796544832,2.405597084269464,0.0019437017194608,0.1217126813438424,0.0530800759827611,-0.292605826627785,0.8302296333618119,-0.6785748444018852,0.4957489726741043,-0.7644762955621139,2.4045431361941363,-0.4567850050166072,1.073848559331124,-0.9367242964794396,0.736216842507068,0.2778166312686903,0.1290747844150508,-0.6694571372461433,9.673292283405315,-0.8825135151922822,0.2661921522646479,-0.9558176518569064
1.36,0.4915843414451162,-0.7430283740708781,2.3918761134926587,-0.0011581205283846,0.1223500028317524,0.0528646964409252,-0.2872156728261502,0.8349740730226763,-0.6928458495905443,0.4869270922578603,-0.7435993243844321,2.3864086502734883,-0.4777063172891559,1.1138485599271704,-0.976724297075486,0.7987882303771081,0.2695076900817411,0.2372219830432231,-0.7135502594329546,9.55713407499752,-0.8813453774677049,0.2686047005387064,-0.9564294306090548
1.38,0.4861765283247748,-0.7271006828209611,2.3785705270926605,-0.0040785866908646,0.1219856704842971,0.0526600544800043,-0.2823728419045669,0.8413369945702163,-0.7070247862825343,0.4775821790348027,-0.7217223531918492,2.367274164337939,-0.4986276295617046,1.1538485605232167,-1.0167242976715325,0.8139134285516046,0.2421415460791637,0.3181460773769962,-0.7089468345994998,9.55713407499752,-0.8814612905185365,0.2714041510834175,-0.9554538486829371
1.4,0.4805798811357185,-0.710194740859054,2.3642647814042563,-0.0067105015120412,0.1206231506413728,0.0524796570368025,-0.2776107317075377,0.8488669267549002,-0.7228401482058345,0.4720578862295465,-0.6850338330924503,2.343219287778534,-0.3243507354656917,0.9413369960603324,-0.8063784201035449,0.907611212193254,0.2381055098514606,0.3764966092341948,-0.7907680961650121,9.470105931398392,-0.8827411196402778,0.2739583975634132,-0.9532839451332044
1.42,0.4750577829076692,-0.69307486730837,2.34995650177468,-0.0069321752548672,0.1199537510168236,0.0524597651944478,-0.2746191911541971,0.8621811857215719,-0.7055089792183026,0.4720578862295465,-0.6850338330924503,2.343219287778534,-0.3243507354656917,0.9413369960603324,-0.8063784201035449,1.1029372434416524,0.1495770276670277,0.6657129483335855,0.8665584493765977,9.470105931398392,-0.8751960067657467,0.2663069720701424,-0.9713144439696744
1.44,0.4696053382259888,-0.6757160208992656,2.33599526655368,-0.0039983901002974,0.12140247445549,0.0526361893957606,-0.2705212978967428,0.8726701986307785,-0.6916564653418369,0.4720578862295465,-0.6850338330924503,2.343219287778534,-0.3243507354656917,0.9413369960603324,-0.8063784201035449,0.8926145047788947,0.2048946628727177,0.5244506454603337,0.6926256938232844,11.157853640324902,-0.8762870382715593,0.2689642824380736,-0.963710367458993
1.46,0.4645149772067602,-0.6590660670483659,2.3229144635374923,1.605135691272782e-05,0.1236595517494667,0.0528798107468411,-0.2654013648670186,0.8792060427350026,-0.6859460322944173,0.4688143788748896,-0.675620463131847,2.3351555035774982,-0.3327463141779166,0.9613369963583556,-0.826249146867747,0.5038353351360007,0.2559966514862094,0.3267922052112015,0.2855216523709791,11.157853640324902,-0.8767316551689149,0.2695559279810916,-0.9582272277495674
1.48,0.45927201086142,-0.6414329052237707,2.3091975170912704,0.0040835142293113,0.1261314812040581,0.053121657016881,-0.2591296451446314,0.883787353240564,-0.6863336826425103,0.4623273641655758,-0.6567937232106403,2.3190279351754275,-0.3495374716023666,1.001336996954402,-0.8659906003961513,0.3888224113169282,0.3135859861193579,0.2290655252780715,-0.019382517404648,10.670197833443126,-0.876031325180104,0.2689785519197064,-0.9556501842025696
1.5,0.454160451159486,-0.6237209352011571,2.295413124768816,0.0074801215438552,0.1281635160034878,0.0533104049148587,-0.2523624037926415,0.8872710598577983,-0.6923020978546486,0.4558403494562619,-0.6379669832894337,2.3029003667733567,-0.3663286290268165,1.0413369975504485,-0.9057320539245556,0.4836159309191756,0.3383620675994958,0.1741853308617147,-0.2984207606069156,10.283041866532583,-0.8755900618086142,0.2680943365951436,-0.9541071967195872
1.52,0.4491866417894963,-0.605946940080523,2.281458039836016,0.0100651359298541,0.1294185238692151,0.0534298014069385,-0.2454437618808855,0.8901378252766132,-0.7028835721669545,0.4485137768757256,-0.6171402433384248,2.2847857256948654,-0.3831197864512664,1.0813369981464949,-0.9454735074529595,0.648177345507405,0.3459320955878003,0.143338270940746,-0.5290737156152969,9.977005156467383,-0.8749301662180773,0.2669716009503399,-0.9536716913491012
1.54,0.4445906610066105,-0.5890126587470216,2.267984994723603,0.0117781333218237,0.1297684963172443,0.0534746473615106,-0.238796912574489,0.8924379219335585,-0.7147909108805766,0.4411872042951893,-0.5963135033874157,2.2666710846163745,-0.3999109438757163,1.1213369987425414,-0.985214960981364,0.6914762569570932,0.3323424653198251,0.1150048328472652,-0.595366935681102,9.742996946577478,-0.8741134603970722,0.2655720110886012,-0.9544743985106072
1.56,0.4398860373280683,-0.5711351209161782,2.253544600466882,0.0130288219024923,0.1292573423791483,0.0534632628537783,-0.2320765185177158,0.895187822374658,-0.7286785816418907,0.4334408527790417,-0.5744867634215056,2.247562907199673,-0.4167021013001662,1.1613369993385878,-1.0249564145097685,0.783570430607438,0.3360197028386566,0.1374950220549731,-0.6943835380657071,9.569668630213528,-0.8740601344436468,0.2644474110920591,-0.9547353267639832
1.58,0.4353136161979287,-0.5532023012549055,2.238813760432533,0.0139318181830718,0.1278164261827027,0.0534053141827428,-0.225561572396622,0.8979331852979808,-0.7437535008682649,0.4252747223272829,-0.5516600234406943,2.227461193444762,-0.4334932587246162,1.2013369999346342,-1.0646978680381725,0.8325183634959894,0.3257473060546897,0.1372681461661418,-0.7537459613187081,9.569668630213528,-0.874875631938041,0.2634412695994144,-0.9543575155137856
1.6,0.4308687256958997,-0.5352153736943643,2.2237686039887685,0.0145658292576519,0.125318683307949,0.0533038142969412,-0.21935259026406,0.9005928891941274,-0.7599952802026106,0.4240355375780976,-0.5083056419900065,2.20162608538912,-0.2796206420003037,0.9384726213402896,-0.7784135310246388,0.8795181633758823,0.3104491066281037,0.1329851948073279,-0.8120889667172893,9.505932284446317,-0.8765821255442724,0.2626058880261163,-0.9532058635098304
1.62,0.4268133869444464,-0.5178761199682194,2.209564664402009,0.0216724998267855,0.1213357096337999,0.053609980526219,-0.2078022539448462,0.9197494963421248,-0.7343161939352122,0.4240355375780976,-0.5083056419900065,2.20162608538912,-0.2796206420003037,0.9384726213402896,-0.7784135310246388,1.7027928074476215,0.5775168159606894,0.9578303573998636,1.2839543133699227,12.164486717941143,-0.8708508654819486,0.2449839271653529,-0.9748222314341226
1.64,0.4227766885145187,-0.4994206294528207,2.1951300591582386,0.0352386887374663,0.1149045408302912,0.0542089528968481,-0.1969580927592919,0.923705821921518,-0.7109046813592169,0.4240355375780976,-0.5083056419900065,2.20162608538912,-0.2796206420003037,0.9384726213402896,-0.7784135310246388,1.3051314732666113,0.5422080592777156,0.1978162789696702,1.1705756287997635,12.164486717941143,-0.8783399047908174,0.2399978785065603,-0.9621222668843612
1.66,0.4189231927835057,-0.4809848106743802,2.181077224435512,0.0495938135376184,0.106761572328435,0.0546511245803437,-0.189361804228614,0.9193498319434736,-0.6954996716802022,0.4212393311580946,-0.4989209157766036,2.1938419500788733,-0.29043245592104,0.9465805085487514,-0.7853455370559136,0.8859917766840019,0.3798144265338948,-0.2177994989022269,0.7702504839507351,11.686477657994146,-0.887421187124305,0.2329497639539268,-0.9493244203295488
1.68,0.4153707339388675,-0.4636033793468085,2.167950858005039,0.062084977276506,0.0980297350607742,0.0547858391310596,-0.1853114242770396,0.910589043311292,-0.6869572005439386,0.4156469183180885,-0.4801514633497978,2.178273679458381,-0.3120560837625126,0.9627962829656748,-0.7992095491184632,0.6444587037269571,0.2025189975787183,-0.4380394316090719,0.4271235568131803,11.192246454690576,-0.8969743353587462,0.2252171222645975,-0.9380205421622332
1.7,0.4116806610163308,-0.4455196657033886,2.154261172747644,0.0733758077941433,0.0883589519262771,0.054610944544794,-0.1842691484672173,0.8983597335953175,-0.6826450209228427,0.4100545054780825,-0.461382010922992,2.162705408837888,-0.3336797116039852,0.9790120573825984,-0.8130735611810128,0.6504560862916986,0.052113790491115,-0.611465485798729,0.2156089810547934,10.807746164205128,-0.906166672518624,0.2171088791832234,-0.9290528514645152
1.72,0.4079782808279369,-0.4277058044083086,2.1406158303983367,0.0825596339421785,0.0787045783713281,0.0541503839698901,-0.1863258744521777,0.8838640288915063,-0.6822305446656409,0.4033809112460028,-0.44180176977534,2.146443937614268,-0.3553033394454579,0.995227831799522,-0.8269375732435624,0.7323376393527279,-0.1028362992480214,-0.7247852351905615,0.0207238128600906,10.318071310237428,-0.9148278164996344,0.2090823411721498,-0.9221168680298256
1.74,0.4042060624913011,-0.4102034701575053,2.1269618737368674,0.0895492127433346,0.0695059381142844,0.0534634391077556,-0.1910247123401629,0.8675581635883084,-0.6831324985409171,0.396707317013923,-0.422221528627688,2.1301824663906475,-0.3769269672869305,1.0114436062164456,-0.840801585306112,0.8496673489912442,-0.2349418943992598,-0.8152932651598943,-0.045097693763807,10.318071310237428,-0.921990032345171,0.201106190842116,-0.9185321785388748
1.76,0.4005107569798379,-0.393886469621561,2.113969818181869,0.0944139711810418,0.0615548780369068,0.0526819035587839,-0.1978460043447867,0.8512013068111506,-0.6843775939801151,0.3894931320858065,-0.402235893119613,2.1135743948654637,-0.3985505951284031,1.027659380633369,-0.8546655973686615,0.8882947862245808,-0.341064600231189,-0.8178428388578907,-0.062254771959902,10.272188878086126,-0.9286707866550516,0.1933131831656451,-0.9163151920757676
1.78,0.3964602175398027,-0.3770512492214888,2.100264615218333,0.0979786667934932,0.054308807795829,0.0518016030564011,-0.2069743789671746,0.8334297538985891,-0.6860734777745306,0.3817383564616531,-0.3818448632511149,2.096619723038716,-0.4201742229698757,1.0438751550502925,-0.8685296094312112,1.0025359569795862,-0.4564187311193957,-0.8885776456280747,-0.0847941897207771,10.260082204374156,-0.934451694096537,0.1863086557474055,-0.915339006070172
1.8,0.3922069523234671,-0.3605783194628584,2.086521132965673,0.1000897691643689,0.0484625388570656,0.0509204790559709,-0.2180565038113219,0.8150087617696988,-0.6881880218709061,0.386111498591444,-0.3353797615265593,2.0659609413296063,-0.2711112715243188,0.8212950482284112,-0.6883903485011756,1.0800668252583023,-0.5541062422073639,-0.9210496064445128,-0.1057272048187729,10.245800720584157,-0.9391598731834152,0.1803322242732371,-0.9154164396351484
1.82,0.3876931873830903,-0.3443392967201886,2.0729380368035057,0.1059556516965571,0.0451196512452016,0.0505227818800042,-0.2326782561953839,0.8066121173654869,-0.6702913486080594,0.386111498591444,-0.3353797615265593,2.0659609413296063,-0.2711112715243188,0.8212950482284112,-0.6883903485011756,1.2294207923944305,-0.731087619203101,-0.4198322202105975,0.8948336631423359,11.468182963165418,-0.9437400386738308,0.168386916139301,-0.9201626405095458
1.84,0.3831361293697253,-0.3291880962047567,2.060345911156075,0.1144888382916899,0.0450310202184041,0.0506437567803445,-0.2458844579681313,0.7883726023515736,-0.6561654325673247,0.386111498591444,-0.3353797615265593,2.0659609413296063,-0.2711112715243188,0.8212950482284112,-0.6883903485011756,1.3291211167489303,-0.6603100886373697,-0.9119757506956648,0.7062958020367327,11.468182963165418,-0.9458467817391832,0.159094340284134,-0.9210732305822932
1.86,0.3780921208045461,-0.3136720881547378,2.0473459246004304,0.1230279561636143,0.0471454268997545,0.0509763810548461,-0.2575775935520979,0.7642717135451262,-0.6447084124761439,0.3834003858762008,-0.3271668110442752,2.0590770378445944,-0.2839386500357476,0.8188681070943755,-0.6888537226465047,1.4567477221669909,-0.5846567791983281,-1.205044440322367,0.572851004559044,11.045961600651935,-0.9444978336841932,0.1485867827954903,-0.927000058961901
1.88,0.3728361642746866,-0.2986707814135598,2.0345415641694102,0.1297940381627199,0.0505307105440779,0.0513385652309382,-0.2672484099589698,0.7375478160518225,-0.6362462818679439,0.3779781604457144,-0.310740910079707,2.045309230874571,-0.3095934070586053,0.8140142248263044,-0.6897804709371627,1.48264884719736,-0.4835408203435976,-1.3361948746651864,0.4231065304100001,11.045961600651935,-0.941455151542568,0.1394711236287696,-0.9345339067412398
1.9,0.3676823443365918,-0.2849279116769482,2.022515660869963,0.1342753646226297,0.0542229445998344,0.0516077905407574,-0.2746792477713243,0.7109372682915955,-0.6300082508550939,0.372555935015228,-0.2943150091151388,2.0315414239045477,-0.3352481640814629,0.8091603425582332,-0.6907072192278206,1.416202345720868,-0.3715418906177242,-1.3305273880113488,0.311901550642496,10.804318279929248,-0.9373309352293716,0.1309225636995742,-0.9436580788132264
1.92,0.3621218645658874,-0.2710099111577592,2.009973777694716,0.1370501121739701,0.0580518066774965,0.0517425777993085,-0.2808921245044705,0.6826632843132974,-0.6245151156565915,0.3658509717335987,-0.2781318022639741,2.017727279519991,-0.3609029211043206,0.8043064602901621,-0.6916339675184786,1.4732553594127509,-0.3106438366573094,-1.4136991989149084,0.2746567599251237,10.804318279929248,-0.9328926718969464,0.1237228513237397,-0.9530697240538736
1.94,0.3564525808432718,-0.2576657520189619,1.9975395227739692,0.1378038929924999,0.0614078954290784,0.0516599426454567,-0.2856833768877779,0.6534128875292077,-0.6191590739217231,0.3591460084519695,-0.2619485954128094,2.0039131351354347,-0.3865576781271783,0.7994525780220909,-0.6925607158091366,1.5060121135741944,-0.2395626191653677,-1.4625198392044847,0.2678020867434183,10.76922056132844,-0.9285509454016984,0.1177260911796544,-0.9626261749349646
1.96,0.3506972958937238,-0.2449220763049176,1.9852145375945485,0.1358292016447842,0.0641050421897461,0.0512792277078614,-0.2896322540410936,0.6229232442128065,-0.6135552662918295,0.3517996762447688,-0.2458867356183465,1.990075822043612,-0.4122124351500359,0.7945986957540196,-0.6934874640997947,1.562541711672201,-0.1974438576657883,-1.524482165820057,0.2801903814946771,10.76922056132844,-0.9252861476577904,0.1150682152353958,-0.9696927399824464
1.98,0.345161807717302,-0.2333712295717716,1.9736165850049496,0.1312625527286816,0.0660529212358485,0.0506293245624972,-0.2929177900307359,0.5954733888818181,-0.6074387035839063,0.3438119751119967,-0.2299462228805854,1.9762153402445224,-0.4378671921728936,0.7897448134859485,-0.6944142123904526,1.4157168182509046,-0.1642767994821131,-1.372492766549421,0.3058281353961634,10.845740448533434,-0.9228159851319696,0.115330090832129,-0.9753697477247684
2.0,0.3392697109183792,-0.2217381127656193,1.961544768141243,0.1249669037655368,0.0674565488875128,0.0497423277106572,-0.2961568787234885,0.5697608026777489,-0.5999828127649877,0.3305159182157652,-0.2035975601276807,1.9432446498257545,-0.2975796848997952,0.5675432483865178,-0.5813485491595966,1.3483500034902334,-0.1619544346376317,-1.2856293102034622,0.372794540945931,10.845740448533434,-0.9214355795599752,0.1179583056791207,-0.9788490881354316
2.02,0.3332141338688508,-0.2105075614020211,1.9496919477219528,0.121091632413827,0.0713740215263088,0.0493204654737931,-0.3087184906479484,0.553349487749878,-0.5855197057054459,0.3305159182157652,-0.2035975601276807,1.9432446498257545,-0.2975796848997952,0.5675432483865178,-0.5813485491595966,1.2612561373668876,-0.6280805962229935,-0.8205657463935423,0.7231553529770895,11.368430286727744,-0.9180934262648968,0.1197058544322926,-0.983009730787522
2.04,0.3272707295950237,-0.2001917243361416,1.938706511360755,0.1201175359024964,0.0792923202067418,0.0496015948402739,-0.3156723254775652,0.5332724135477741,-0.5716027424825276,0.3305159182157652,-0.2035975601276807,1.9432446498257545,-0.2975796848997952,0.5675432483865178,-0.5813485491595966,1.269967118375942,-0.3476917414808406,-1.003853710105196,0.6958481611459122,11.368430286727744,-0.9130648422520948,0.1191949828742599,-0.9888149256492144
2.06,0.3209252368995067,-0.189766267073467,1.9274243001215892,0.1196569530319606,0.0897441229692638,0.0501758628984574,-0.3180126444034423,0.5104151248967094,-0.5573667024304136,0.3275401213667673,-0.1979221276438155,1.9374311643341584,-0.2985120638736071,0.5619572202874578,-0.5761305182747346,1.3514784252054346,-0.1170159462938524,-1.1428644325532369,0.7118020026056993,11.32186199730222,-0.9044546660649896,0.1185208678607219,-0.99745713668518
2.08,0.3145774737475288,-0.1798102664760192,1.9164211616834133,0.1187489718804442,0.1010483337312977,0.0508032243720817,-0.3162412756011049,0.4865859275467725,-0.543656951153673,0.3215885276687714,-0.1865712626760851,1.9258041933509664,-0.3003768218212308,0.5507851640893376,-0.5656944565050107,1.3774302830327072,0.0885684401168679,-1.191459867496844,0.6854875638370339,11.293718097042074,-0.8949216863770859,0.1184233646023869,-1.0064920358119998
2.1,0.3086192598450458,-0.1707977462575415,1.906218604317481,0.1168654561235471,0.1117207686822868,0.0512952324366816,-0.3107871795404896,0.4636726905629689,-0.5309685417187479,0.3156369339707755,-0.1752203977083548,1.9141772223677744,-0.3022415797688546,0.5396131078912175,-0.5552583947352868,1.3376839377284329,0.2727048030307655,-1.145661849190177,0.6344204717462554,11.274478177880155,-0.8845312833908335,0.1194794064055666,-1.0158177965503228
2.12,0.3024999487561861,-0.1617658384515128,1.8957399833089728,0.1138515637240838,0.1220003930859724,0.0515928287104338,-0.3012179071617284,0.4410735728817838,-0.5175536888847736,0.3095921023753984,-0.1644281355505304,1.9030720544730688,-0.3041063377164783,0.5284410516930974,-0.5448223329655629,1.3984360643091305,0.4784636189380575,-1.1299558840592585,0.6707426416987128,11.279699296826948,-0.8744423418434262,0.1216194468642982,-1.024464684414529
2.14,0.296607528488911,-0.1531710395813129,1.8855319388662608,0.1101857308644307,0.130510971285627,0.0516024129225784,-0.2884163365183616,0.4198163342886929,-0.5039095805372327,0.3035472707800213,-0.1536358733927061,1.891966886578363,-0.305971095664102,0.5172689954949773,-0.534386271195839,1.4159026238941534,0.6400785321683422,-1.0628619296545432,0.6822054173770464,11.279699296826948,-0.8652587161731038,0.1242549568018784,-1.032193194037833
2.16,0.2909965253610918,-0.1449894561795007,1.8756001610733373,0.1060330589219401,0.1367705688928128,0.0512930050448354,-0.273345922501417,0.3996760769551223,-0.4899267295910466,0.2974558202359536,-0.1431229126398347,1.8811226202279003,-0.3078358536117258,0.5060969392968572,-0.5239502094261151,1.4389818142421231,0.7535207008472294,-1.0070128666785303,0.6991425473093033,11.343917790828527,-0.857735473356043,0.1273596182763592,-1.0383125114122689
2.18,0.2857041169624454,-0.1371983526588126,1.8659529792464975,0.1014903893092303,0.1405351933912757,0.0506641520868978,-0.2568669757149146,0.3807332574975821,-0.4754752200544641,0.2913177507431954,-0.1328892532919164,1.8705392554216809,-0.3097006115593494,0.494924883098737,-0.5135141476563913,1.448475253567762,0.8239473393251207,-0.9471409728770114,0.7225754768291237,11.379751621188008,-0.8526742476332859,0.1307283500376317,-1.0421938879749857
2.2,0.2809878032073173,-0.1301355023890533,1.857060635906237,0.0969573749214365,0.1418058276238425,0.0498035202454101,-0.2406139725855739,0.3638914779788043,-0.461263413248819,0.2728607681766997,-0.1181616897839335,1.8421792182437744,-0.2534959216411189,0.3746015139510067,-0.4636556013003752,1.369106552429779,0.8126501564670346,-0.84208897593889,0.710590340282255,11.379751621188008,-0.8497693803567058,0.1345549621851382,-1.044150001761388
2.22,0.2763270471209711,-0.1230447086701557,1.8479285492686413,0.0915642936908681,0.1414149231710797,0.0486845659911606,-0.2265498019669234,0.3465778367813974,-0.4529782931695374,0.2728607681766997,-0.1181616897839335,1.8421792182437744,-0.2534959216411189,0.3746015139510067,-0.4636556013003752,1.1897544719722313,0.7032085309325226,-0.865682059870343,0.414256003964078,11.413124765324028,-0.8450604155576277,0.1389245706654496,-1.0474395088032953
2.24,0.2719430823021964,-0.1162747568352571,1.8389578822802213,0.0856291526794007,0.1399453867864754,0.0474391853659999,-0.2126061774911857,0.3315505980025677,-0.4443959835030839,0.2728607681766997,-0.1181616897839335,1.8421792182437744,-0.2534959216411189,0.3746015139510067,-0.4636556013003752,1.1111914867016166,0.6971812237868885,-0.7513619389414861,0.4291154833226784,11.015555816898996,-0.8455398748551187,0.1437212806515171,-1.046689047247063
2.26,0.2678396077615305,-0.1097854014035305,1.8301718886558287,0.0796658564258406,0.1371050390319288,0.0460954215596506,-0.1985932833666559,0.3183256444115496,-0.4346098057963736,0.2703258089602885,-0.1144156746444235,1.837542662230771,-0.2528217108263598,0.3733751652416917,-0.4612916775495574,1.0805436980256446,0.7006447062264872,-0.6612476795509026,0.4893088853355126,11.015555816898996,-0.8474688489384476,0.1485298863089394,-1.0445005573714334
2.28,0.2641974536092206,-0.1038507258876379,1.822015667722331,0.0742131372252655,0.1329181857328488,0.0447444300739646,-0.1856583433393809,0.3071454036668573,-0.4244062511763324,0.2652558905274661,-0.1069236443654033,1.8282695502047632,-0.2514732891968415,0.3709224678230616,-0.4565638300479219,0.995518688301032,0.6467470013637496,-0.5590120372346158,0.5101777310020594,11.073298972353768,-0.8512057496434493,0.1536145629325511,-1.0405115947421084
2.3000000000000003,0.2606145719798725,-0.0978198424538449,1.8136478676446248,0.0688207753724467,0.1269531454487017,0.0432715678379923,-0.1736940888637013,0.2966175375179167,-0.4128521155379223,0.2601859720946437,-0.0994316140863832,1.818996438178756,-0.2501248675673233,0.3684697704044314,-0.4518359825462864,0.9842222832770156,0.5982127237839807,-0.526393307447029,0.577706781920509,11.11721133080664,-0.8562741956738579,0.1585667409126073,-1.035153215590447
2.32,0.2572428983844661,-0.0919880445012345,1.8055182156416008,0.0638460850179277,0.1200274790611052,0.0418092427167112,-0.1643658793452482,0.2871570137624033,-0.4006479332864346,0.2551834747432973,-0.0920622186782945,1.80995971852783,-0.248776445937805,0.3660170729858013,-0.4471081350446508,0.9020242055736616,0.4664104759226545,-0.4730261877756714,0.6102091125743808,11.153259274316042,-0.8630481540033323,0.1632980196618338,-1.0281106557150366
2.34,0.2540295393006181,-0.0863347277211059,1.7976346736440212,0.0593159509870949,0.1128073595817279,0.0404079508115029,-0.1576740667837193,0.2786817372463113,-0.3882922885386069,0.2501809773919508,-0.0846928232702059,1.8009229988769042,-0.2474280243082867,0.3635643755671712,-0.4423802875430153,0.8204764233623344,0.3345906280764449,-0.4237638258045989,0.6177822373913872,11.175287931032472,-0.8702176854097924,0.1675178607775101,-1.0205804186754297
2.36,0.2510769850791178,-0.0811127354543472,1.7903744024403774,0.0554161121361261,0.1061652750670041,0.0391607535195353,-0.1536030357550924,0.2714446462692307,-0.3765445546283596,0.2452121905813422,-0.077384745297583,1.7920044754135194,-0.2460796026787684,0.3611116781485411,-0.4376524400413797,0.7193017994426261,0.2035515514313482,-0.361854548854032,0.5873866955123652,11.155154234463224,-0.8780763223802255,0.1717954251200518,-1.0119931828729651
2.38,0.248030454120048,-0.0757564050454487,1.7829731689721209,0.0517219141026961,0.0997863480205382,0.0379513224893884,-0.1514311314799964,0.2646026721748958,-0.3641865450335201,0.2402771143114717,-0.0701379847604259,1.7832041481376757,-0.2447311810492501,0.358658980729911,-0.4329245925397442,0.7145806092280207,0.1085952137548001,-0.3420987047167451,0.6179004797419757,11.155154234463224,-0.8857298224066414,0.1758314255445264,-1.0032802615329637
2.4,0.2450046009364244,-0.070529244694175,1.7758175497908208,0.0484364102650287,0.0944256931240331,0.0368592520119414,-0.15143853803649,0.2584760368306662,-0.3519927924255978,0.2404588975460482,-0.0625262714367039,1.764763841720445,-0.1715561834403454,0.2552450344491253,-0.3404036677820142,0.6823183241007335,-0.0003703278246836,-0.306331767211479,0.6096876303961135,11.12618826762082,-0.892478247601409,0.1795241007863252,-0.9952353636763788
2.42,0.2419832038100425,-0.0653744758560605,1.7689295658322308,0.0469433705628143,0.0897722742077275,0.0359541499909404,-0.1508220759115602,0.2565438358718745,-0.3374339030873524,0.2404588975460482,-0.0625262714367039,1.764763841720445,-0.1715561834403454,0.2552450344491253,-0.3404036677820142,0.7349739533818621,0.0308231062464928,-0.0966100479395826,0.7279444669122725,11.24556721004592,-0.9012642988562106,0.1817684380252257,-0.9851971917882638
2.44,0.2391110704047646,-0.0605312236430721,1.7626534257762685,0.0474275508998917,0.085577266284175,0.0352483307811469,-0.151663197535244,0.2532056778396232,-0.3239360584813827,0.2404588975460482,-0.0625262714367039,1.764763841720445,-0.1715561834403454,0.2552450344491253,-0.3404036677820142,0.6964958607935477,-0.0420560811841899,-0.1669079016125674,0.674892230298485,11.24556721004592,-0.9077597971938632,0.1825474473737798,-0.9770752057266802
2.46,0.236053882613008,-0.0555131364184033,1.7563207595500463,0.0492673365806082,0.0817785890139936,0.0346290792625969,-0.1541531833073204,0.2486772581635554,-0.3100458408806598,0.2387433357116447,-0.0599738210922127,1.761359805042625,-0.1755811938324153,0.2533735069039712,-0.3356470923317131,0.7410208480589006,-0.1244992886038187,-0.2264209838033895,0.6945108800361449,11.213374921240757,-0.9138692343722546,0.1819547301177994,-0.9696468269182348
2.48,0.2329296949884684,-0.0506010704758264,1.750260238836569,0.05197918546199,0.0790709607124903,0.0341216371232348,-0.1582116940584893,0.2424964192477785,-0.2966980247087563,0.2353122120428378,-0.0548689204032302,1.7545517316869843,-0.1836312146165549,0.249630451813663,-0.3261339414311107,0.7629522851710075,-0.2029255375584487,-0.3090419457888446,0.6673908085951752,11.190400468458392,-0.918530508139518,0.1803334154882531,-0.9641966385450024
2.5,0.2298766614035032,-0.0460703254486936,1.744744613148732,0.0545173873426675,0.0778690507064042,0.0337069652346306,-0.1628261096298153,0.2347984347939827,-0.2845417828370346,0.2318810883740309,-0.0497640197142476,1.7477436583313444,-0.1916812354006945,0.2458873967233548,-0.3166207905305084,0.7555230177823443,-0.230720778566297,-0.3848992226897912,0.6078120935860826,11.159690402310844,-0.9230235727727746,0.1783990591524423,-0.9591792290864544
2.52,0.2265734083023479,-0.0414688570977464,1.739185005629875,0.0567034796642597,0.0778331865890068,0.0333072677185329,-0.1671597301790266,0.2258384212878244,-0.272057284461473,0.228047463666017,-0.0448462717797806,1.7414112425207342,-0.1997312561848342,0.2421443416330466,-0.307107639629906,0.7983182460405225,-0.2166810274605676,-0.4480006753079121,0.6242249187780824,11.124042222341814,-0.9263911499342208,0.176775323580607,-0.9553524850840592
2.54,0.2231903057210486,-0.0370534581030212,1.7338718676847378,0.0582234483928537,0.0786259662636495,0.0329155827671691,-0.1708517089824878,0.2162349660022162,-0.2598809611099237,0.2242138389580031,-0.0399285238453134,1.735078826710124,-0.2077812769689738,0.2384012865427384,-0.2975944887293037,0.7970569478860464,-0.1845989401730599,-0.4801727642804121,0.6088161675774639,11.097341898607738,-0.928634557169732,0.1756287521124511,-0.9526695824402794
2.56,0.2197395079003985,-0.032837874337529,1.7287988234847051,0.0588278894265328,0.0799313551494395,0.0324995086740112,-0.1739646146853426,0.2059542786363305,-0.248014624985102,0.2201789637303857,-0.0351043522881041,1.728984239672029,-0.2158312977531134,0.2346582314524302,-0.2880813378287014,0.8003009553555384,-0.1556452851427386,-0.5140343682942846,0.5933168062410829,11.053908269261228,-0.9299842796192032,0.1751639267827691,-0.95091446630731
2.58,0.216409466465595,-0.0290276458628363,1.724197017253282,0.0583082823741398,0.0814323276035742,0.0320531110672349,-0.1763577510691854,0.1957960633032615,-0.2369642327701047,0.2159428379831649,-0.0303737571081524,1.723127481406449,-0.2238813185372531,0.2309151763621221,-0.278568186928099,0.759979619150974,-0.119656819192139,-0.5079107666534521,0.5525196107498644,11.053908269261228,-0.9309784095711624,0.1756149155516275,-0.9493949845662824
2.6,0.2128610552931501,-0.0252239481125015,1.719579020906232,0.0564426319047993,0.0831010146026755,0.0315071728099436,-0.178309431981487,0.1852496476633259,-0.2254086496704841,0.2075915789121357,-0.0192378426976732,1.7123488056147769,-0.1783084896715032,0.1848164770223791,-0.2257614596908286,0.7883010877925338,-0.0975840456150803,-0.5273207819967762,0.5777791549810313,11.037935347479106,-0.9317754081005112,0.1772497976703372,-0.9478664145678386
2.62,0.2092441207079198,-0.0216101236864872,1.7151609409142765,0.0536367622362943,0.0857484989527942,0.0309603348490904,-0.1831136941798128,0.176934258160799,-0.2171215527106667,0.2075915789121357,-0.0192378426976732,1.7123488056147769,-0.1783084896715032,0.1848164770223791,-0.2257614596908286,0.63423697044246,-0.2402131099162915,-0.4157694751263471,0.4143548479908679,11.02971509622057,-0.9290729329244848,0.1801788886178094,-0.9488037736594348
2.64,0.2057331245455103,-0.0183139788565895,1.7111098642684246,0.0509167467701896,0.0897151792810542,0.0305209104153074,-0.1859826294021457,0.1704911475037941,-0.2097011363057333,0.2075915789121357,-0.0192378426976732,1.7123488056147769,-0.1783084896715032,0.1848164770223791,-0.2257614596908286,0.5118765570695666,-0.1434467611166459,-0.3221555328502448,0.3710208202466702,10.821662685633784,-0.9279820553929284,0.1823757126632671,-0.9494111876575082
