t,x,y,z,roll,pitch,yaw,v_x,v_y,v_z,ref_x,ref_y,ref_z,ref_v_x,ref_v_y,ref_v_z,a_com,a_x,a_y,a_z,thrust,wind_x,wind_y,wind_z
0.0,-0.851350890499438,0.894691396213555,2.528864259904376,0.0330625722588811,0.0997245392557946,0.0423112693291062,0.0014546641274975,-0.0027748514084618,-0.0012673374466521,-0.8513130606702579,0.8947107695923976,2.5288281721617585,0.0155315795380857,-0.1002201377985939,-0.1011896679088821,0.168982190382283,0.0727332063748777,-0.1387425704230922,-0.0633668723326065,10.25833463642357,-0.939461131666506,0.249427485766178,-0.8826895916879732
0.02,-0.8513809779099608,0.8948665352698969,2.528754883744121,0.0400803045097242,0.1010030929459476,0.0428307000524108,-0.0041466848639317,0.0164273926664041,-0.0102913945131547,-0.8513130606702579,0.8947107695923976,2.5288281721617585,0.0155315795380857,-0.1002201377985939,-0.1011896679088821,1.0971951672036375,-0.2800674495714662,0.9601122037432984,-0.4512028533251309,10.259582377602785,-0.9357263894405324,0.2496050178308372,-0.8802231279014795
0.04,-0.8515137620796847,0.8952114055097736,2.52838300430516,0.0540076283242677,0.1046732687202838,0.0439402656506576,-0.008501961878351,0.0163359454039558,-0.0267418000230852,-0.8513130606702579,0.8947107695923976,2.5288281721617585,0.0155315795380857,-0.1002201377985939,-0.1011896679088821,0.8508710858809505,-0.2177638507209627,-0.0045723631224157,-0.8225202754965272,9.669760868939193,-0.9264444669632896,0.2343618831583849,-0.8976633757358978
0.06,-0.8517065885221919,0.89547578661552,2.5276500522475764,0.0684739258110674,0.1099530195138444,0.0452157750337397,-0.0102459175549033,0.0097598053777039,-0.0457779702632048,-0.851157744874877,0.8937085682144117,2.5278162754826696,0.0183821806151655,-0.1202201380966171,-0.1211896682069053,1.0107704690698387,-0.0871977838276144,-0.3288070013125937,-0.9518085120059784,9.32463397257925,-0.915367869711742,0.215523508929823,-0.91933641510243
0.08,-0.8518962340502503,0.8955720905508403,2.526589406928482,0.0817481637169526,0.1155882316021799,0.0464890735510346,-0.0094376319495637,0.0004357758534898,-0.0649885515857745,-0.8508471132841153,0.8917041654584398,2.525792482124492,0.024083382769325,-0.1602201386926636,-0.1611896688029518,1.0684536570896273,0.0404142802669783,-0.4662014762107027,-0.9605290661284864,9.247743579620874,-0.9027064689819784,0.196049612739559,-0.942362733085584
0.1,-0.8520552524063618,0.8954546209534799,2.5250682945148077,0.09507865719055,0.1214782318694573,0.0478350497513727,-0.0063318337693985,-0.0119870737548366,-0.0862085246003214,-0.8505364816933536,0.8896997627024679,2.523768688766314,0.0297845849234846,-0.2002201392887101,-0.2011896693989983,1.2392138934271106,0.1552899090082609,-0.6211424804163257,-1.0609986507273412,9.221068277414815,-0.8900517326344093,0.1773235543250031,-0.9638071715558888
0.12,-0.8521294444971073,0.8950623194048126,2.523116032430674,0.1077449574555111,0.1267956636274441,0.0491246632869876,-0.0011685982381832,-0.0269030887892418,-0.1080420306708065,-0.8499407899948839,0.8856953599166937,2.5197448953783343,0.0354857870776441,-0.2402201398847565,-0.2411896699950447,1.3470787773802588,0.2581617765607645,-0.745800751720261,-1.091675303524256,9.204606716844864,-0.8779449277085242,0.1593931724171319,-0.983818000722591
0.14,-0.852083346830014,0.8943468635314991,2.520718216819565,0.1197658213200084,0.1312118402169564,0.0502999686902808,0.005541728885578,-0.0441655479378249,-0.1307348751759864,-0.8493450982964142,0.8816909571309195,2.5157211019903545,0.0411869892318037,-0.280220140480803,-0.2811896705910912,1.4645700544021965,0.3355163561880655,-0.8631229574291542,-1.1346422252589958,9.21313500035285,-0.865306821674394,0.1404528604965024,-1.004287511172096
0.16,-0.8519025851371553,0.8933258617595176,2.5180142113445227,0.1306080273643004,0.1343911491151807,0.0512630412984471,0.0131197438983503,-0.0626693277099938,-0.1528336367362135,-0.8486068765440905,0.8766865543302441,2.5106973085874733,0.0468881913859632,-0.3202201410768494,-0.3211896711871376,1.4901102642812216,0.3789007506386123,-0.9251889886084445,-1.104938078011357,9.207236901263968,-0.8536119956221122,0.1217875963441372,-1.0232143524782766
0.18,-0.8515491632646506,0.8918494543755934,2.514707832507762,0.1414356079450608,0.1366079233311427,0.0520786301493564,0.0218043149810363,-0.0842438466680956,-0.176715129701787,-0.8477261247379129,0.8706821515146677,2.504673515169691,0.0525893935401228,-0.3602201416728958,-0.361189671783184,1.6667388438418125,0.4342285541342989,-1.078725947905091,-1.1940746482786744,9.217401718047768,-0.8434458531529759,0.1042847144309507,-1.039381051472657
0.2,-0.8510160469056238,0.8899057993437208,2.510918560443835,0.151247762026517,0.1377117169227735,0.0526388367764981,0.0310184062246861,-0.1090420985201174,-0.2010395291721787,-0.8504589475155988,0.8876372620421886,2.5058720760226727,0.0201117699628774,-0.1842438481582117,-0.2767151311919031,1.7968925830150486,0.4607045621824906,-1.239912592601089,-1.2162199735195849,9.220530179985872,-0.8348457724916267,0.0878784802768094,-1.0538656875079548
0.22,-0.85020618142564,0.8872694376959056,2.506833066323239,0.1550084031621939,0.1361171009697145,0.0523189102107842,0.0496927128010249,-0.1514608659179977,-0.2048337154869846,-0.8504589475155988,0.8876372620421886,2.5058720760226727,0.0201117699628774,-0.1842438481582117,-0.2767151311919031,2.3251222567071737,0.93371532881694,-2.120938369894015,-0.189709315740294,9.243986785358176,-0.839069054571118,0.0733285444631192,-1.0611149266765771
0.24,-0.8490905363034583,0.8840400948368647,2.5029076064972,0.1518794438904452,0.1302324228351252,0.0508408067448614,0.0659874704879353,-0.1852618139902618,-0.2080876091800814,-0.8504589475155988,0.8876372620421886,2.5058720760226727,0.0201117699628774,-0.1842438481582117,-0.2767151311919031,1.8832226652901347,0.8147378843455199,-1.6900474036132027,-0.1626946846548377,10.713332494493445,-0.8412633430898373,0.0741866617077668,-1.0607770410015829
0.26,-0.8476387417847266,0.8800235889530903,2.4986833167308413,0.1456895914297665,0.1208949537364986,0.0486278025287969,0.0777476694472662,-0.2140571553946562,-0.2142327334856529,-0.85025782981597,0.8857948235606065,2.5031049247107537,0.0197732609592456,-0.2042438484562349,-0.2967151314899264,1.5852732563264966,0.5880099479665453,-1.4397670702197218,-0.3072562152785743,10.483204645969636,-0.8470185222930865,0.0777847244812612,-1.057670382139767
0.28,-0.8460090355985161,0.8754781606378794,2.494299179501071,0.1389068136807922,0.1100052038468626,0.0462089295754021,0.0842145706231397,-0.2388579628322359,-0.2238019858476251,-0.8498555944167124,0.8821099465974422,2.4975706220869154,0.0190962429519821,-0.2442438490522814,-0.3367151320859728,1.3679103142581512,0.323345058793676,-1.2400403718789836,-0.4784626180986143,10.232434305031347,-0.8542047076983287,0.0813186543368704,-1.053758949610807
0.3,-0.844386337005791,0.8707260237514075,2.489931279995503,0.1327865987162634,0.0994728529425763,0.0439753712912014,0.0859788242070592,-0.2600698820944369,-0.2356325336677275,-0.8494533590174549,0.878425069634278,2.492036319463077,0.0184192249447185,-0.2842438496483279,-0.3767151326820193,1.2176000690068929,0.0882126791959765,-1.0605959631100517,-0.5915273910051158,10.009205289137752,-0.8628664002343188,0.084679203023505,-1.0488165016600886
0.32,-0.842683750926546,0.865309086513542,2.4850595325845264,0.1270988158648628,0.0892035398871577,0.0418499722793437,0.0839732645706284,-0.2805353910490714,-0.251048750473754,-0.8490849745185605,0.8727401926413115,2.484502016809437,0.017742206937455,-0.3242438502443743,-0.4167151332780657,1.2850282748230857,-0.1002779818215435,-1.0232754477317223,-0.7708108403013266,9.818697948977388,-0.8713416246953719,0.0871519002880451,-1.044211223910086
0.34,-0.8410555170723535,0.8594952774122047,2.479859893291423,0.1222932846438181,0.0804816278987668,0.0400329545491192,0.0789363718713318,-0.2999338576795697,-0.2681446422126447,-0.8487165900196662,0.8670553156483449,2.476967714155797,0.0170651889301915,-0.3642438508404208,-0.4567151338741122,1.3171373410038292,-0.2518446349648262,-0.9699233315249162,-0.854794586944535,9.56850119862156,-0.8787034753785296,0.0880862794388537,-1.0413483189407358
0.36,-0.8395521891368327,0.8532923020050736,2.4743052544807624,0.1179924550394852,0.073729234225741,0.0385256290673969,0.0716302186409109,-0.3192957565223414,-0.2864524832623168,-0.8483651309709533,0.8603704386404772,2.468433411487255,0.0163881709229279,-0.4042438514364672,-0.4967151344701586,1.3815209424074737,-0.3653076615210464,-0.9680949421385836,-0.9153920524836072,9.56850119862156,-0.8837118377388086,0.0884096319734291,-1.040500266479009
0.38,-0.8382791999383169,0.8470452870941454,2.468678799043813,0.1140799612315323,0.0695643041517038,0.0373912720674555,0.062712966413091,-0.3371974809942988,-0.3048824176408852,-0.8480305973724221,0.8526855616177084,2.4588991088038124,0.0157111529156644,-0.4442438520325136,-0.536715135066205,1.3598268341619577,-0.4458626113909944,-0.8950862235978713,-0.9214967189284162,9.511951200803196,-0.8864366734488396,0.088143840303006,-1.0423532015613943
0.4,-0.8371375799231401,0.8401106938132737,2.4623663066250643,0.1100929201762435,0.0680796995379245,0.036546286365596,0.0520885926004584,-0.3552056621641951,-0.3254392033888328,-0.8351435516176623,0.8301854130444305,2.453434678161769,0.0651854278471722,-0.4371974824844149,-0.4048824191310013,1.4660775459072617,-0.5312186906316282,-0.9004090584948138,-1.0278392873973834,9.462123257049823,-0.8870258568444306,0.0878948895276999,-1.0459251228970552
0.42,-0.836204377369603,0.8328079145509553,2.455909734213233,0.106706783452235,0.0700839266155496,0.0361230366962878,0.0422563291804617,-0.3744425044587303,-0.317751706842154,-0.8351435516176623,0.8301854130444305,2.453434678161769,0.0651854278471722,-0.4371974824844149,-0.4048824191310013,1.1465460180256886,-0.4916131709998359,-0.9618421147267632,0.3843748273339414,9.398139141501815,-0.8929736117101025,0.0853470667376078,-1.0464765484418932
0.44,-0.8354441056608772,0.8251300302448162,2.4496075455905326,0.1042755378273208,0.0753105825591249,0.0360951100226258,0.0347485447834189,-0.3925780038376146,-0.3130138928412798,-0.8351435516176623,0.8301854130444305,2.453434678161769,0.0651854278471722,-0.4371974824844149,-0.4048824191310013,1.0095915582314354,-0.3753892198521416,-0.9067749689442128,0.2368907000437126,11.197045406468533,-0.8912944158413382,0.0892041142968789,-1.0455110602404976
0.46,-0.8348322681421074,0.8175019529299024,2.443651584326995,0.1025026227211278,0.0820242776799734,0.0362705202817281,0.0303474217575229,-0.4094816443198146,-0.3141549223498945,-0.8344916973391906,0.8258134382195863,2.449385853970459,0.0656799201339884,-0.4571974827824381,-0.4248824194290245,0.8752212488566422,-0.2200561512948002,-0.84518202411,-0.057051475430736,10.779627386279572,-0.8859094372049982,0.0914272048154758,-1.0490332313595767
0.48,-0.8342494177531145,0.8091335603358742,2.4373118250419763,0.1009505860970367,0.089815404030255,0.0365320510820346,0.0284354050885519,-0.4264443504804937,-0.3199793126712965,-0.8331879887822471,0.817069488569898,2.441288205587839,0.0666689047076209,-0.4971974833784846,-0.4648824200250709,0.901821393974445,-0.0956008334485511,-0.8481353080339538,-0.2912195160701014,10.422711930787043,-0.8781144027098327,0.0923925038277335,-1.055706330684811
0.5,-0.8336782777257009,0.8004336917425163,2.430812643274832,0.0996876723255082,0.0974975398174562,0.0367844212029651,0.0289611546990026,-0.442659023159249,-0.3298219011284992,-0.8318842802253037,0.8083255389202098,2.433190557205219,0.0676578892812534,-0.537197483974531,-0.5048824206211174,0.9487736430122876,0.0262874805225372,-0.8107336339377658,-0.4921294228601353,10.148077638562429,-0.8695336956733278,0.0923483552047771,-1.0637943690326652
0.52,-0.8331060197969531,0.7918762061657653,2.4244218124072243,0.0988071428392863,0.1041235765783316,0.0369646030847879,0.0313243077115772,-0.4573325599028276,-0.3424186808030361,-0.8305311224396786,0.7975815892407191,2.4230929087927966,0.0686468738548859,-0.5771974845705775,-0.5448824212171639,0.9741355538307,0.1181576506287293,-0.7336768371789315,-0.6298389837268437,9.935491983308566,-0.8600871615785827,0.091269831255323,-1.0733869026857936
0.54,-0.832438738858267,0.7825740557725915,2.417419736308936,0.0983746934338223,0.1100570531415252,0.0370730938125646,0.0353518153898776,-0.472134227460558,-0.3572133257466566,-0.8291779646540536,0.7868376395612284,2.4129952603803746,0.0696358584285184,-0.617197485166624,-0.5848824218132104,1.065588686590815,0.2013753839150214,-0.7400833778865218,-0.7397322471810269,9.769748990676815,-0.850875682820246,0.0890967256534851,-1.0833942298373824
0.56,-0.831676838980438,0.7729682757993834,2.4101086071055846,0.0982516653231488,0.1147369107775063,0.0370691778113758,0.0406548084604217,-0.4876604538611824,-0.3732166816891415,-0.8278000822540876,0.7750936898668367,2.401897611953051,0.0706248430021508,-0.6571974857626703,-0.6248824224092567,1.1459633972901884,0.2651496535272021,-0.7763113200312172,-0.8001677971242432,9.699556927767844,-0.8426505169678168,0.0863740955182407,-1.0927989351519756
0.58,-0.8307999937707298,0.7630459008940464,2.402465860088363,0.0979492905800385,0.1181017639632836,0.036913096715052,0.0467381722930888,-0.5037227506434233,-0.3903044887495074,-0.826397475239781,0.7623497401575438,2.3897999635108262,0.0716138275757833,-0.6971974863587168,-0.6648824230053032,1.2114019188255416,0.3041681916333569,-0.8031148391120457,-0.8543903530182972,9.612675433196271,-0.8366074973170471,0.0842494911149167,-1.0998947397611143
0.6,-0.8298499770800605,0.7533175607870504,2.3948779211780216,0.0971334376589693,0.1201118604200714,0.0366018152350703,0.0528739084373694,-0.5193633407946832,-0.4075678522979559,-0.8284630851560754,0.7378597633618753,2.382950635650888,0.0505329185336898,-0.6037227521335394,-0.4903044902396236,1.204469841172681,0.3067868072140288,-0.7820295075629924,-0.8631681774224242,9.612675433196271,-0.8314360608418937,0.0826323156552246,-1.1063035572080324
0.62,-0.8286726654521976,0.7427047323628136,2.386820942149821,0.0947178034263904,0.1206474457116652,0.0360032161112738,0.0646208793844307,-0.5407098726514704,-0.3956330228307724,-0.8284630851560754,0.7378597633618753,2.382950635650888,0.0505329185336898,-0.6037227521335394,-0.4903044902396236,1.356563584166523,0.5873485473530671,-1.0673265928393627,0.5967414733591775,9.568462524422102,-0.8369649278601314,0.0810468945241214,-1.1056639112190665
0.64,-0.8272617518211162,0.7317034313017036,2.379012901480542,0.0911293186498696,0.1191726462682055,0.0351308585651863,0.0757022165939953,-0.558129141647252,-0.3862262066720506,-0.8284630851560754,0.7378597633618753,2.382950635650888,0.0505329185336898,-0.6037227521335394,-0.4903044902396236,1.1343667362712435,0.5540668604782306,-0.8709634497890806,0.4703408079360899,11.528576732225702,-0.8385606441810016,0.0858207183267815,-1.102474134804877
0.66,-0.8256439419835707,0.7203789618079186,2.3713162105404573,0.0875434312303392,0.115703257954249,0.034085799412367,0.0853546746260193,-0.573392718223156,-0.3838587669476637,-0.8279577559707385,0.7318225358405399,2.3780475907484915,0.0512918677818099,-0.6237227524315626,-0.5103044905376468,0.9107023207353108,0.4826229016011977,-0.7631788287951968,0.1183719862193455,11.092017084358304,-0.8409232289150801,0.0896359630733266,-1.0996550310808058
0.68,-0.8239466895012025,0.7093532685282226,2.363995495906944,0.0844107390040281,0.1106577927462119,0.0329745319191704,0.0925026171915054,-0.5864728449645845,-0.386832747900585,-0.8269470976000647,0.7197480807978691,2.368241500943699,0.0528097662780503,-0.6637227530276091,-0.5503044911336933,0.7599792122151445,0.3573971282743039,-0.6540063370714277,-0.1486990476460642,10.679940207233813,-0.8440466316431406,0.0923674114470066,-1.0974487211249602
0.7000000000000001,-0.8220474084345588,0.6974908530740698,2.3561845873628866,0.0815743481459346,0.1042306461160501,0.0317631105726719,0.0967477848999407,-0.5991179182631933,-0.3942898291498046,-0.8259364392293909,0.7076736257551983,2.3584354111389065,0.0543276647742907,-0.7037227536236556,-0.5903044917297398,0.7640801469044236,0.2122583854217687,-0.6322536649304378,-0.3728540624609838,10.35482740640782,-0.8488323674592794,0.0943379161863963,-1.0942749091720203
0.72,-0.8200970985809656,0.685383873591034,2.3481802998133614,0.0792745524403769,0.097563346521663,0.0305894825119569,0.097903692642356,-0.6110465177335885,-0.4057433347573302,-0.8248498859339051,0.6935991706827253,2.346629321304312,0.0558455632705311,-0.743722754219702,-0.6303044923257862,0.8288703136433805,0.0577953871207626,-0.5964299735197631,-0.5726752803762808,10.093096987260653,-0.8540541383695951,0.0954378034207725,-1.091025084742711
0.74,-0.8182467543153099,0.6736656931637067,2.340346159868397,0.0775589433490373,0.0916236669079141,0.0295536824376695,0.0967380872093477,-0.6219410860139832,-0.4183240813087161,-0.8237633326384193,0.6795247156102522,2.334823231469717,0.0573634617667715,-0.7837227548157485,-0.6703044929218327,0.8341544189055285,-0.0582802716504161,-0.544728414019735,-0.6290373275692929,9.882191898223937,-0.8593417644229989,0.0954731308100313,-1.088514023211298
0.76,-0.8163430156628503,0.6611025362820513,2.331826341649157,0.0759907571495494,0.0862416824901405,0.0285595051390785,0.0935447866803152,-0.6337518955833755,-0.4330561970634905,-0.8226388318805274,0.6644502605228779,2.3220171416202207,0.0588813602630118,-0.8237227554117948,-0.710304493517879,0.9575066913150524,-0.1596650264516233,-0.5905404784696144,-0.73660578773872,9.787586132653814,-0.8635104047096388,0.0949913470003616,-1.0872450008130543
0.78,-0.8145246642369678,0.6483020830551396,2.3229969591967787,0.0743498570461901,0.0822862161176433,0.0276792008136914,0.0883224733317175,-0.6455978573806724,-0.4491939589483987,-0.8214763836602297,0.6483758054206025,2.308211051755824,0.0603992587592522,-0.8637227560078413,-0.7503044941139255,1.0344403393477513,-0.2611156674298842,-0.5922980898648456,-0.8068880942454115,9.63840980194891,-0.8664800017447445,0.0945058452182952,-1.087000888483964
0.8,-0.8129121365799962,0.6359246323611351,2.314296043517912,0.0726075961270008,0.0804622685990139,0.0269822874640482,0.0816850063713872,-0.65656367500678,-0.4658715114347157,-0.810108540570382,0.6160221901861059,2.300537261249359,0.1044918723547736,-0.7455978588707886,-0.5491939604385149,1.051719878095382,-0.3318733480165162,-0.54829088130538,-0.8338776243158486,9.63840980194891,-0.8677007629602451,0.0942281811864917,-1.0880035814805389
0.8200000000000001,-0.8113572909656085,0.6226377492653565,2.305102778225568,0.0701633697896704,0.0818146112850664,0.02644766436621,0.07467940401562,-0.6712819086519801,-0.450876350695278,-0.810108540570382,0.6160221901861059,2.300537261249359,0.1044918723547736,-0.7455978588707886,-0.5491939604385149,1.1074291304677304,-0.3502801177883582,-0.7359116822600043,0.749758036971887,9.57037093924464,-0.8718535197710202,0.0909490122032109,-1.0903317396185757
0.84,-0.8099205137596708,0.6090844874560035,2.2962160158957152,0.0674906320255519,0.0866529551287482,0.0261385083906628,0.0697590471737724,-0.6832506160254945,-0.4390738715933252,-0.810108540570382,0.6160221901861059,2.300537261249359,0.1044918723547736,-0.7455978588707886,-0.5491939604385149,0.8757259568437589,-0.2460178420923831,-0.5984353686757204,0.5901239550976378,11.717389512580668,-0.8701458199310744,0.0955289004621608,-1.0882917370119658
0.86,-0.8085541312095448,0.5953083432987976,2.2874814672958244,0.0651773025714573,0.0936535565402754,0.0259910128395428,0.0675297529057075,-0.693806628170108,-0.4349379701639953,-0.8090636218468342,0.6085662115973981,2.2950453216449738,0.1077257521593848,-0.7655978591688117,-0.569193960736538,0.577721442314517,-0.1114647134032434,-0.5278006072306718,0.2067950714664951,10.747568792986383,-0.8644515074199651,0.0987111969075231,-1.0908894065722496
0.88,-0.8072705289731569,0.5820357345384161,2.2792039994723865,0.063376564224078,0.1012005841862067,0.0259271535627921,0.0679565740279903,-0.7028581258085445,-0.4365854349594641,-0.8069737843997388,0.5936542544199823,2.284061442436203,0.1141935117686072,-0.8055978597648582,-0.6091939613325845,0.4605049566002446,0.0213410561141373,-0.4525748819218245,-0.0823732397734422,10.407217156905062,-0.855961544119812,0.1007819687361508,-1.0968134527848032
0.9,-0.8058854040103232,0.567888523439119,2.270410868841624,0.0619991688134198,0.1092330493781699,0.0258934131359605,0.0707512914106229,-0.7114126436596229,-0.4428622663621427,-0.8048839469526433,0.5787422972425665,2.273077563227433,0.1206612713778296,-0.8455978603609047,-0.649193961928631,0.5486092265238998,0.1397358691316338,-0.4277258925539207,-0.3138415701339297,10.407217156905062,-0.8472010569577479,0.1021982984568553,-1.103058097388893
0.92,-0.8044219929551687,0.5535791628966035,2.261450441515539,0.0613530655787282,0.1167391127940083,0.0258741958757383,0.0755985684508787,-0.7191367426138231,-0.453041446989703,-0.8024707215250867,0.5618303400353485,2.26009368398886,0.127129030987052,-0.8855978609569511,-0.6891939625246775,0.6833255402949722,0.242363852012787,-0.3862049477100115,-0.5089590313780146,10.145208452803672,-0.8386008811326354,0.1023579894548989,-1.1098576612636075
0.94,-0.8028411907757952,0.5391222214417333,2.252264031609884,0.061680885178231,0.1232654165048327,0.0258645841954636,0.0822971211667869,-0.7263041633691656,-0.4651120683369162,-0.8000574960975302,0.5449183828281303,2.247109804750288,0.1335967905962744,-0.9255978615529976,-0.7291939631207239,0.777724932864627,0.3349276357954129,-0.3583710377671245,-0.6035310673606603,9.867501729103424,-0.8295442190835745,0.1008296761913558,-1.117975844138993
0.96,-0.801200123348708,0.5252469026631232,2.243301589226677,0.0627267412380915,0.1283025518373818,0.02584057752248,0.0900993821012368,-0.7339016354089697,-0.4777203177638491,-0.797482576679743,0.5270064256060111,2.233125925496814,0.1400645502054968,-0.965597862149044,-0.7691939637167703,0.8330138214588652,0.3901130467224921,-0.3798736019902049,-0.6304124713466447,9.867501729103424,-0.8212524073086314,0.0981965254012374,-1.125847191471267
0.98,-0.7993030830294586,0.510478744363452,2.2335961594004154,0.064246896659987,0.1322708939471531,0.0257671973947417,0.0991844204099311,-0.7425333500292514,-0.4922263460639326,-0.7947459632717253,0.5080944683689906,2.218142046228439,0.1465323098147192,-1.0055978627450903,-0.8091939643128168,0.9584744068039188,0.4542519154347147,-0.4315857310140836,-0.7253014150041731,9.819371653574308,-0.8142603505229036,0.0950312243182621,-1.1328060691389688
1.0,-0.7972178369054517,0.4955284859970656,2.2235888668643704,0.065860677152126,0.1348781497270661,0.0256174552738694,0.1088374075843709,-0.7520578049778297,-0.5078269686234911,-0.7943438620089621,0.4733520768619894,2.2089848420972187,0.1368585121662749,-0.8425333515193675,-0.5922263475540488,1.033531358623437,0.4826493587219919,-0.4762227474289171,-0.7800311279779232,9.763374028349062,-0.8088264325171227,0.0916324047006777,-1.1388436995130462
1.02,-0.7950292198711805,0.4810795433277607,2.2141054425545734,0.0658702998432628,0.1367794126869857,0.0253326917532063,0.1211407887563111,-0.7678040359169869,-0.489597140934869,-0.7943438620089621,0.4733520768619894,2.2089848420972187,0.1368585121662749,-0.8425333515193675,-0.5922263475540488,1.3524455576918573,0.6151690585970107,-0.7873115469578584,0.911491384431104,9.718614792099288,-0.8052709338761961,0.0848227930647979,-1.1489987942241937
1.04,-0.792471806056925,0.4655720483705488,2.204469744878201,0.0637254096832845,0.138774513592964,0.0248822323878455,0.1339511657916318,-0.7819341531131293,-0.4753751820782177,-0.7943438620089621,0.4733520768619894,2.2089848420972187,0.1368585121662749,-0.8425333515193675,-0.5922263475540488,1.1895693395973956,0.6405188517660344,-0.7065058598071217,0.7110979428325642,11.948932727766078,-0.8033908827877256,0.0889734526744537,-1.1475156833826416
1.06,-0.7896600415595244,0.4498076505501291,2.195033816713623,0.0602693660931123,0.1404858927344621,0.0243232726716542,0.1465729871275724,-0.7933726481421545,-0.4688659595667455,-0.7929752768872994,0.4649267433467957,2.203062578621678,0.1443933305175437,-0.8625333518173907,-0.612226347852072,0.9117558884774148,0.6310910667970306,-0.5719247514512582,0.3254611255736117,11.441212371569236,-0.8025340630319328,0.094265148915274,-1.1452245617572396
1.08,-0.7865993797640736,0.4338477140882092,2.185663638399338,0.0566915677912223,0.1416658715115537,0.0237273738599745,0.1588235943683519,-0.8020402168069574,-0.4684651088505657,-0.7902381066439739,0.4480760763164084,2.191218051670597,0.1594629672200812,-0.9025333524134372,-0.6522263484481184,0.7506077631219463,0.6125303620389724,-0.4333784332401447,0.0200425358089895,10.613889760119491,-0.8007651900530449,0.0991039140140719,-1.1446358336197555
1.1,-0.7834696690373086,0.4185419560193462,2.1767207963938944,0.05372390824841,0.1422271077369761,0.0231656568234964,0.1699601532734889,-0.8087638682162646,-0.4729039788413191,-0.7875009364006483,0.431225409286021,2.1793735247195163,0.1745326039226188,-0.9425333530094836,-0.6922263490441649,0.6872663226804377,0.556827945256852,-0.3361825704653598,-0.221943499537669,10.32217952839892,-0.7986881006301253,0.1026218803827977,-1.1454320545129026
1.12,-0.7799536156589236,0.4023034072253638,2.1671753664262328,0.0512711558533102,0.1422872060979681,0.0226010542991899,0.1809939629927483,-0.8148460290625973,-0.4815918879136368,-0.784010284322196,0.4123747422258313,2.165528997738633,0.1896022406251563,-0.98253335360553,-0.7322263496402114,0.7652081441188836,0.5516904859629703,-0.3041080423166364,-0.434395453615885,10.32217952839892,-0.796874727446813,0.1047590581227199,-1.1469319099697992
1.14,-0.7762219004829576,0.3859504015592463,2.157430208831141,0.0496067465003751,0.1418964444690401,0.0220775147736339,0.1915721303001805,-0.8203188288838301,-0.4924830182928751,-0.7805196322437435,0.3935240751656417,2.15168447075775,0.2046718773276938,-1.0225333542015764,-0.7722263502362579,0.8069477715516702,0.5289083653716095,-0.2736399910616416,-0.5445565189619195,10.08789339348641,-0.7952835522719439,0.1055029139706758,-1.1489993647692536
1.16,-0.7724824570021793,0.3703088548589121,2.147956584119264,0.0485150673671523,0.1411194563189554,0.0216023948427615,0.2014678967828152,-0.8258738181504794,-0.5041941243583028,-0.7766522392477277,0.3736734080905508,2.1368399437619656,0.2197415140302314,-1.0625333547976228,-0.8122263508323042,0.815374308687613,0.4947883241317341,-0.2777494633324662,-0.5855553032713817,9.984897661828654,-0.7939359299425162,0.1054915785328546,-1.1513212980593142
1.18,-0.7683463766450722,0.3537306307578525,2.137729633197866,0.0476593873446192,0.1398241970716629,0.0211080708944584,0.2115683971439501,-0.8316350638931099,-0.5179498048348979,-0.7724081053341485,0.3528227410005589,2.12099541675128,0.2348111507327689,-1.1025333553936691,-0.8522263514283507,0.900598142106739,0.5050250180567428,-0.2880622871315241,-0.6877840238297572,9.910510394974152,-0.7930308283236911,0.1050565677106067,-1.1535242967988644
1.2,-0.7640115858366806,0.3370373433638997,2.1272132108400768,0.0470155096917576,0.1379699933136874,0.0206104292950582,0.2213473632426357,-0.8373797249904313,-0.5330568533082969,-0.7577679567878747,0.312148877563197,2.111832142956121,0.2713962315117021,-0.9105976209109132,-0.6179498063250141,0.94452663099029,0.4889483049342835,-0.2872330548660706,-0.7553524236699471,9.829641741906016,-0.7926328152650512,0.1042525178784754,-1.155614560954386
1.22,-0.7594876309677163,0.3201080271191385,2.116756537032971,0.0432017794742121,0.1373164753003556,0.0199579694704295,0.2308419289825153,-0.8530240707809753,-0.5117151401818592,-0.7577679567878747,0.312148877563197,2.111832142956121,0.2713962315117021,-0.9105976209109132,-0.6179498063250141,1.4056680377796984,0.4747282869939806,-0.7822172895271984,1.067085656321887,9.758201953398384,-0.7893886258990829,0.1020606282595808,-1.1652503573591138
1.24,-0.7550131965108817,0.3038184049320713,2.107182405262662,0.0370038350395593,0.1390101164715168,0.0192699033115418,0.2399460788228838,-0.8604456222164252,-0.4972404270658089,-0.7577679567878747,0.312148877563197,2.111832142956121,0.2713962315117021,-0.9105976209109132,-0.6179498063250141,0.9320438426072912,0.4552074920184223,-0.3710775717724934,0.7237356558025126,12.126323924198005,-0.790553865080554,0.1120326314405402,-1.1593478900107388
1.26,-0.7501062717530365,0.2865703151990528,2.0973246000769645,0.0303280139213164,0.1422988113371708,0.0185924884141002,0.2504454491130556,-0.8638617605938252,-0.4896574102862063,-0.7550539944727577,0.3030429013540879,2.1056526448928707,0.2833617983852525,-0.9263901323144738,-0.6379498066230372,0.6697180775957545,0.5249685145085892,-0.1708069188700034,0.3791508389801273,11.523756828986734,-0.7884222863732742,0.1210650454836049,-1.1572775084241749
1.28,-0.744978806771786,0.269283248510796,2.087544329619325,0.0244307132880893,0.146283268128074,0.0179865140957481,0.2619103262145987,-0.8647245267771329,-0.4890377716534003,-0.7496260698425236,0.2848309489358696,2.0932936487663705,0.3072929321323534,-0.957975155121595,-0.6779498072190837,0.5756989761928826,0.5732438550771574,-0.0431383091653803,0.0309819316403003,10.606636298587546,-0.784264193059155,0.1282370991773126,-1.1578321220893124
1.3,-0.7398870604308726,0.2528621221484011,2.078205990895754,0.0198785219712089,0.1501319643077363,0.0174827243884792,0.2735833395793517,-0.863993216432276,-0.4939696191667843,-0.7441981452122896,0.2666189965176513,2.08093465263987,0.3312240658794542,-0.9895601779287164,-0.7179498078151302,0.634659703560631,0.583650668237648,0.0365655172428425,-0.2465923756691967,10.606636298587546,-0.7786864377083875,0.1339869692254187,-1.1603040581917357
1.32,-0.7342807685608888,0.2356012357635873,2.0682329010430216,0.0162191841167296,0.153889759792192,0.0170266290985847,0.28649296933745,-0.8623062827348231,-0.5032766180855873,-0.7375736638947005,0.246827792959077,2.066575656483568,0.355155199626555,-1.0211452007358377,-0.7579498084111767,0.8001945305133306,0.6454814879049142,0.0843466848726437,-0.4653499459401522,10.301202403182288,-0.7724381847932608,0.1379818408469605,-1.1641576577195472
1.34,-0.7284076406767627,0.2183802891080637,2.0580502963522505,0.0136763823601271,0.1571194296174634,0.0166456731629257,0.3002174762532334,-0.8600688399405436,-0.5145932725922999,-0.7309491825771114,0.2270365894005027,2.0522166603272654,0.3790863333736559,-1.0527302235429588,-0.7979498090072231,0.8964302950639257,0.6862253457891709,0.1118721397139754,-0.5658327253356299,10.071301614305412,-0.7664332419601823,0.1401752787024786,-1.1686997711297062
1.36,-0.7222490703006927,0.2012010836427415,2.047626117249774,0.0119550418099965,0.1595385068666238,0.0163207332768016,0.3149065702212307,-0.8580718718474755,-0.5272669278342237,-0.7237264229158448,0.2064557602717503,2.0368576641560616,0.4030174671207567,-1.08431524635008,-0.8379498096032695,0.9751652428646748,0.734454698399864,0.0998484046534076,-0.6336827620961882,9.925417015952007,-0.7607155587287744,0.1415282182505352,-1.1733236856710731
1.38,-0.7161209829460338,0.184918944500885,2.037477037133877,0.0108490897065919,0.160889817131081,0.0160489614360092,0.3293380309624188,-0.8559825543636496,-0.5404301010691615,-0.7159053849109007,0.1850853055728199,2.0204986679699566,0.4269486008678576,-1.1159002691572013,-0.877949810199316,0.9822187081878154,0.7215730370594059,0.1044658741912951,-0.6581586617468882,9.925417015952007,-0.7557356359544154,0.1421289335218823,-1.1777928695684503
1.4,-0.7093743286299835,0.1678259754058682,2.026510654607829,0.010290212936197,0.161285576307998,0.0158070158436994,0.3444848843167304,-0.8534565101359342,-0.5555774444593546,-0.6996540813979129,0.1421198167827025,2.0104555320804187,0.4142297004146092,-0.8970648136312181,-0.6404301025592776,1.0784828206302408,0.7573426677155798,0.1263022113857703,-0.7573671695096595,9.868553996579069,-0.7516302802480949,0.1419538605658515,-1.181984536481203
1.42,-0.7023017249995063,0.1506285159180955,2.015605514567444,0.0055269722312255,0.1619587703014911,0.0152885019947445,0.3622211364349353,-0.86324944040889,-0.5341069262810015,-0.6996540813979129,0.1421198167827025,2.0104555320804187,0.4142297004146092,-0.8970648136312181,-0.6404301025592776,1.4760244521843917,0.8868126059102449,-0.4896465136477901,1.0735259089176552,12.163958952312896,-0.7465137212523684,0.1422440257994989,-1.1914384658804769
1.44,-0.6952555284059703,0.1342178289735141,2.005605260851452,-0.0026564160899537,0.1637013297397605,0.0145609388422293,0.3787331621870706,-0.8630400007698109,-0.5197241115996275,-0.6996540813979129,0.1421198167827025,2.0104555320804187,0.4142297004146092,-0.8970648136312181,-0.6404301025592776,1.0949386027996555,0.8256012876067642,0.0104719819539522,0.7191407340687017,12.163958952312896,-0.7470261544355311,0.1547353401284899,-1.185368839884256
1.46,-0.6874981938377331,0.1170149760602894,1.995295265815368,-0.0116171156328218,0.1661309610783258,0.0137790539411967,0.3961964742329614,-0.8571103041954489,-0.5123920970521832,-0.6955117843937667,0.1331491686463904,2.004051231054826,0.4312080343050473,-0.905281265484732,-0.6604301028573007,0.9923293384760044,0.87316560229454,0.2964848287181021,0.3666007273722127,11.56407087320622,-0.7450685313320826,0.1672878042791973,-1.181553039843085
1.48,-0.6793900883666106,0.0999679756691103,1.98505680708318,-0.0195532345531576,0.1686232214610461,0.0130769281806437,0.4137744517719022,-0.847974926577181,-0.5121035144766752,-0.6872271903854745,0.115207872373766,1.99124262900364,0.4651647020859235,-0.9217141691917592,-0.7004301034533472,0.99061054215411,0.8788988769470402,0.456768880913394,0.0144291287754005,11.054316906021086,-0.7413990383807492,0.178196922401203,-1.1799153232799366
1.5,-0.6709302078299189,0.0831264218115756,1.9747594358786404,-0.0259423731240332,0.170797022511324,0.0125016449244033,0.4313583412035624,-0.8369605620910041,-0.5176282873039325,-0.6789425963771824,0.0972665761011416,1.9784340269524547,0.4991213698667996,-0.9381470728987868,-0.7404301040493937,1.0735833774933448,0.8791944715830113,0.5507182243088438,-0.2762386413628637,10.649084160768323,-0.7369044524303773,0.1863602488832853,-1.1803221470409655
1.52,-0.6625677705402364,0.067341739774782,1.9648346835731507,-0.0305407247660385,0.1723983231485785,0.0120860109924378,0.4480139629561925,-0.8254704225234354,-0.5267983809876946,-0.6689601689798463,0.0785036346431659,1.9636254248714669,0.5330780376476757,-0.9545799766058142,-0.7804301046454402,1.1107696221740424,0.8327810876315039,0.5745069783784362,-0.4585046841881046,10.346847962385256,-0.7318981680581567,0.1930390201894833,-1.1816744037207827
1.54,-0.6534232336098345,0.0509667977577367,1.954180768997242,-0.0339525558667031,0.1735643452727154,0.0117846905203843,0.4655518026678477,-0.8128738820803341,-0.5381745136622526,-0.6589777415825103,0.0597406931851901,1.948816822790479,0.5670347054285519,-0.9710128803128416,-0.8204301052414866,1.2203125086586857,0.8768919855827589,0.6298270221550661,-0.5688066337278974,10.125738481981898,-0.72699383359568,0.1974970122984442,-1.1841719575714584
1.56,-0.6439219878854032,0.0348449457485711,1.9432853538642856,-0.0361146227520941,0.1740434676831553,0.0116170252384161,0.4836110583000517,-0.8002296808074624,-0.5507861756319248,-0.6481463974906525,0.0405669291345387,1.93300822069459,0.6009913732094281,-0.987445784019869,-0.860430105837533,1.2699080256611688,0.9029627816102004,0.6322100636435846,-0.6305830984836114,10.04022710386016,-0.7231110888049401,0.2002877695346319,-1.18649216997688
1.58,-0.6340567485412261,0.0189783869498743,1.9321264220473664,-0.0372247131084296,0.1735929617135772,0.0115799465145499,0.5019189360401806,-0.7872330085515932,-0.5644695002805348,-0.6364661367042727,0.0209823424912116,1.9161996185838,0.6349480409903042,-1.0038786877268966,-0.9004301064335795,1.3146532342344543,0.9153938870064438,0.6498336127934601,-0.6841662324304998,9.984179806251632,-0.7199977261699266,0.2020207295345893,-1.1886832471704516
1.6,-0.6243444056164303,0.0041510697349059,1.921261831174216,-0.037117086759709,0.1720775184368335,0.0116865517914974,0.5194380501398769,-0.774363438554433,-0.5784728931292541,-0.6089608017392171,-0.0203832634777053,1.9039029470333395,0.6019189375302967,-0.7589143761575178,-0.6644695017706509,1.292903904033036,0.8759557049848155,0.6434784998580079,-0.700169642435966,9.930415102369809,-0.7193075702759608,0.2024251091658597,-1.189273488976735
1.62,-0.6137334234327844,-0.0114126633212828,1.9098716813533403,-0.0430804009998754,0.1701235357234924,0.0114132179672079,0.5407057760589217,-0.7791373721262473,-0.5581356428715643,-0.6089608017392171,-0.0203832634777053,1.9039029470333395,0.6019189375302967,-0.7589143761575178,-0.6644695017706509,1.4905622727343626,1.06338629595224,-0.2386966785907163,1.016862512884492,12.225956506194962,-0.7165729053209818,0.2051309220303984,-1.1971047830342114
1.64,-0.6027177995993821,-0.0269152047285359,1.89887440803978,-0.0560640259220023,0.1691876496748979,0.0106586320377292,0.5598839124995518,-0.7694168716436401,-0.5428455673304758,-0.6089608017392171,-0.0203832634777053,1.9039029470333395,0.6019189375302967,-0.7589143761575178,-0.6644695017706509,1.319162098663374,0.9589068220315078,0.4860250241303598,0.7645037770544205,11.595231907277594,-0.7215313809627352,0.2231541095977332,-1.1845527402354352
1.66,-0.5919067601520781,-0.0413656081462516,1.888624831541015,-0.0693455839201276,0.1689904899037581,0.0098890841168738,0.5772009811869568,-0.7519501726787493,-0.5368187616576487,-0.6029416123639141,-0.0279724072392804,1.897258252015633,0.6219189378283199,-0.7532506496787027,-0.6844695020686741,1.2661840577819272,0.8658534343702506,0.8733349482445418,0.3013402836413548,11.04978101472625,-0.7240201649249681,0.2425865266718354,-1.1738026411025244
1.68,-0.5801791806228233,-0.0561647376614934,1.877890123186013,-0.0821325370082224,0.1691335411328827,0.0091866618471099,0.5946327133330621,-0.7289121831116968,-0.5372588036229945,-0.5909032336133082,-0.0431506947624308,1.88396886198022,0.6619189384243663,-0.7419231967210725,-0.7244695026647205,1.4446521084991752,0.8715866073052636,1.1518994783526249,-0.0220020982672874,11.04978101472625,-0.7243050648868287,0.2597949488638867,-1.1660895020468292
1.7,-0.5681092120857394,-0.0704692032399075,1.867085777691824,-0.0928689447497946,0.1694151335772359,0.0086619899479593,0.6114829975161282,-0.7029137856248601,-0.5433484719395576,-0.5788648548627022,-0.0583289822855812,1.870679471944807,0.7019189390204128,-0.7305957437634424,-0.764469503260767,1.5787121405907092,0.8425142091533055,1.2999198743418372,-0.3044834158281551,10.64956759720917,-0.7235119225629226,0.2735601559670015,-1.1606281150341613
1.72,-0.5557075639542298,-0.0842318326839026,1.8561110132757643,-0.1012602880250893,0.1696773783059105,0.0083465230758714,0.6278546912039115,-0.6751290732374444,-0.5537643896030877,-0.564826476082294,-0.07294089716085,1.855390081879592,0.7419189396164593,-0.7192682908058122,-0.8044695038568135,1.6944866017701707,0.818584684389162,1.3892356193707822,-0.5207958831765058,10.136445821823145,-0.721888078419137,0.2851081637601538,-1.156749027524045
1.74,-0.5436236108732054,-0.0967798148543403,1.845476965709188,-0.1071731201094286,0.1698402957847405,0.0082381452214482,0.6433279792810985,-0.6475648294394049,-0.5650387799749318,-0.5507880973018857,-0.0875528120361189,1.8401006918143763,0.7819189402125057,-0.7079408378481821,-0.84446950445286,1.678036097893988,0.7736644038593532,1.3782121899019784,-0.5637195185922039,10.136445821823145,-0.7196791591177083,0.2938026870842408,-1.154686482390206
1.76,-0.5305823998187151,-0.1094171313217679,1.83404255731731,-0.1114398860906396,0.169753976360803,0.0083277432843825,0.6599550644846375,-0.6179617653647996,-0.5778065657129903,-0.5357497185065764,-0.101881540587447,1.82381130173426,0.8219189408085521,-0.6966133848905519,-0.8844695050489063,1.813710090962649,0.8313542601769475,1.4801532037302612,-0.638389286902924,10.073555986366957,-0.7178068483241521,0.3002191065309698,-1.153053423590498
1.78,-0.5172056429900734,-0.1214566577694268,1.8223445796118356,-0.1138350479186226,0.1691296523801615,0.0086465387051831,0.6768513317334454,-0.5878471088007727,-0.591334459683094,-0.5197113396963657,-0.1159270828148343,1.806521911639242,0.8619189414045986,-0.6852859319329218,-0.9244695056449528,1.8543060037240304,0.8448133624403942,1.505732828201345,-0.6763946985051839,10.029153786435929,-0.7164252669370048,0.3045800679123871,-1.1517397608429016
1.8,-0.5034884690179215,-0.1328846729452378,1.8103671893889528,-0.1142049663629443,0.1676612995629722,0.0092378206123877,0.6939502672491025,-0.5568663347447385,-0.6056706574814582,-0.4833630764034011,-0.1508490132094655,1.7927778566276806,0.7768513332235615,-0.5187697735027114,-0.6913344611732101,1.9089974621469976,0.8549467757828555,1.549038702801714,-0.7168098899182129,9.955047506914523,-0.7160769811490978,0.3066761069973081,-1.15044798903362
1.82,-0.4900817970963285,-0.1432427811108505,1.7990454446199189,-0.1160958632876107,0.1651262388954271,0.009851541925681,0.7162189769282765,-0.5334855775053747,-0.5854956939809477,-0.4833630764034011,-0.1508490132094655,1.7927778566276806,0.7768513332235615,-0.5187697735027114,-0.6913344611732101,1.9036703969623592,1.1134354839587024,1.1690378619681865,1.0087481750255256,9.955047506914523,-0.7162765703429406,0.3067787212077759,-1.1547967690967231
1.84,-0.4755324945974297,-0.1536038904078288,1.787506439021947,-0.1206496391190341,0.1612405945954567,0.010506833337075,0.7372818977356606,-0.5034478071730488,-0.5699368775374956,-0.4833630764034011,-0.1508490132094655,1.7927778566276806,0.7768513332235615,-0.5187697735027114,-0.6913344611732101,1.992480268783562,1.0531460403692017,1.5018885166162954,0.777940822172607,12.1908818572565,-0.7235820685867107,0.316999025210488,-1.139606459000138
1.86,-0.4605880711070093,-0.1633196767230612,1.7761978172787452,-0.125095994261663,0.1563233650620834,0.0113546919576108,0.7559062563202844,-0.4697942234182695,-0.5619417993311459,-0.4755945630711655,-0.1560367109444926,1.7858645120159484,0.7968513335215847,-0.5049543064430991,-0.7113344614712332,1.9642757620521667,0.9312179292311928,1.6826791877389669,0.3997539103174852,11.65055076223507,-0.7309202084306349,0.3265783834890437,-1.125462393781058
1.88,-0.4460714326109819,-0.1719119590329876,1.76554462208167,-0.1280924027093194,0.1508460267189928,0.0124012679187242,0.7709477057921116,-0.4366453019797687,-0.5600097391635168,-0.4600575364066943,-0.1664121064145468,1.7720378227924842,0.8368513341176311,-0.4773233723238745,-0.7513344620672797,1.8226553783153592,0.7520724735913586,1.6574460719250366,0.0966030083814517,10.826548605379685,-0.7372153984429435,0.3338162783676951,-1.1142047546672509
1.9,-0.4305153500913696,-0.1802755049599336,1.754319551559924,-0.1296788106704673,0.1448217882629276,0.0136919713737759,0.7836511810800895,-0.4017477106626022,-0.5627231963458601,-0.444520509742223,-0.176787501884601,1.75821113356902,0.8768513347136776,-0.44969243820465,-0.7913344626633262,1.861842510802573,0.6351737643988942,1.744879565858326,-0.1356728591171641,10.826548605379685,-0.7432661693118241,0.3390853050517772,-1.1046149123246616
1.92,-0.4147352520342833,-0.1879352730225562,1.742994578638286,-0.1293580190064946,0.1391171138077502,0.0151061650472633,0.7936238072018561,-0.3663519910375068,-0.5695459724724311,-0.4269834830479495,-0.185781350648694,1.7423844443157537,0.916851335309724,-0.4220615040854255,-0.8313344632593727,1.870067187039154,0.4986313060883318,1.7697859812547705,-0.3411388063285503,10.5421929911181,-0.7487440144854957,0.3418524435688504,-1.0968763070256682
1.94,-0.3987798366927409,-0.1948835769740085,1.731514872804108,-0.1266295678699979,0.1342233708020601,0.0165962655595984,0.8013198832146654,-0.3307065309633507,-0.5779978433592371,-0.4094464563536759,-0.1947751994127871,1.726557755062487,0.9568513359057704,-0.3944305699662008,-0.8713344638554191,1.87167206755112,0.3848038006404652,1.7822730037078045,-0.4225935443402995,10.223730766481822,-0.7521909962789343,0.3416743891965952,-1.0926592732127416
1.96,-0.3834932799842088,-0.2008396535369053,1.7204440279053148,-0.1218478686183432,0.1306789594364365,0.0180204104969835,0.8073597472261398,-0.2988240172966623,-0.5868199023741687,-0.3909094296445012,-0.2030782748238994,1.7097310657943194,0.9968513365018168,-0.3667996358469763,-0.9113344644514656,1.681370988395046,0.3019932005737191,1.5941256833344213,-0.4411029507465802,10.223730766481822,-0.7540697672455637,0.3387756003275994,-1.090917869238771
1.98,-0.3672893510899013,-0.2064875624455325,1.7086021195398544,-0.1156382373825766,0.1283094339598098,0.0194245359985201,0.8126563804098338,-0.2680862181965086,-0.5969034798830406,-0.3713724029204254,-0.2106905768820312,1.6919043765112505,1.0368513370978634,-0.3391687017277518,-0.951334465047512,1.6390127760190305,0.2648316591847,1.5368899550076836,-0.504178875443595,10.15453864272331,-0.754585447758647,0.3344794864908575,-1.090613405586791
2.0,-0.3509855105599984,-0.2115416280298096,1.696548164247368,-0.1087377342663501,0.1274709062595662,0.0206914314642597,0.8176401729360061,-0.2393255865439417,-0.6079322127069466,-0.3266565320694096,-0.219891873355358,1.6787569455457023,0.91265638189995,-0.174648226160166,-0.6714024760216133,1.5601643092152704,0.2491896263086157,1.4380315826283434,-0.551436641195302,10.082684216273265,-0.753803454073254,0.3293238201296853,-1.0919280435231304
2.02,-0.3345066416996711,-0.2160916677054905,1.6846803566475197,-0.1045054402183204,0.1273589814970467,0.0216903355962555,0.8299100668329444,-0.2153891565191923,-0.578451293112505,-0.3266565320694096,-0.219891873355358,1.6787569455457023,0.91265638189995,-0.174648226160166,-0.6714024760216133,1.9953869290852984,0.6134946948469167,1.1968215012374703,1.4740459797220828,10.015408714285511,-0.7514707925001722,0.3220063282784164,-1.1013029385066166
2.04,-0.3186304771158177,-0.2199303486040751,1.6739183132560411,-0.1030681975292057,0.1273962308165303,0.0224501314086101,0.8406484911350305,-0.1896864247644659,-0.5559751873254563,-0.3266565320694096,-0.219891873355358,1.6787569455457023,0.91265638189995,-0.174648226160166,-0.6714024760216133,1.7896364906718183,0.5369212151043024,1.2851365877363186,1.1238052893524364,12.627997152202624,-0.7556867020324717,0.3264645187611561,-1.08765412532794
2.06,-0.3017074134115553,-0.2234283916140286,1.6629855559504376,-0.1025632901297723,0.1276125414634919,0.023171420652789,0.8510736964342734,-0.1614909507820481,-0.5387364002248977,-0.3175299682504101,-0.2216383556169596,1.672042920785486,0.9326563821979732,-0.1559606277528974,-0.6863022752493279,1.7326608434160975,0.5212602649621478,1.409773699120895,0.8619393550279297,11.623024303802596,-0.7600211775157271,0.3325732719272449,-1.0725907089607174
2.08,-0.284583364297569,-0.2263552362974229,1.652337552247407,-0.1022243786286921,0.1279720436071244,0.0238779995227443,0.8608009788868816,-0.1326890781561497,-0.5271129781448275,-0.2992768406124111,-0.225131320140163,1.658614871265054,0.9726563827940196,-0.1185854309383604,-0.7161018737047569,1.627322825627073,0.486364122630406,1.4400936312949169,0.5811711040035084,11.26384810586842,-0.7641829245641056,0.3387553400832219,-1.0578019432975794
2.1,-0.2672717535054285,-0.2287014552040309,1.6418691854158542,-0.1014325429217526,0.1284437314647951,0.0246161864816876,0.869906990201612,-0.1035497721070096,-0.5202340761119109,-0.2810237129744121,-0.2286242846633663,1.6451868217446215,1.012656383390066,-0.0812102341238233,-0.745901472160186,1.5647187385181351,0.4553005657365216,1.4569653024570028,0.3439451016458317,11.26384810586842,-0.7682728691684032,0.3442797291811212,-1.043643910930601
2.12,-0.2506616135660686,-0.2303893437008014,1.6320175280695697,-0.099883955453633,0.1289954647686564,0.0253723171933374,0.8781082462701003,-0.075772672894543,-0.5170780575675458,-0.2607705853066108,-0.2302484893458428,1.630268792301418,1.0526563839861125,-0.0438350373092863,-0.7757010706156151,1.4566985745277798,0.4100628034244158,1.3888549606233307,0.1578009272182545,10.980941998171147,-0.7713588754490032,0.3481677070952537,-1.0322519646206825
2.14,-0.233010844311829,-0.2316031137337689,1.6216985334529233,-0.0973132071004406,0.1297171913109525,0.026228770159221,0.8865736698054576,-0.0473986569805967,-0.5149934060109768,-0.2405174576388094,-0.2318726940283192,1.6153507628582142,1.092656384582159,-0.0064598404947492,-0.8055006690710441,1.484161334584422,0.4232711767678643,1.4187007956973154,0.1042325778284503,10.75795588551955,-0.773054540031134,0.3500006038880489,-1.024600085285392
2.16,-0.2151855239593843,-0.2322554688070577,1.6114081423442137,-0.0939176253919668,0.1304200617526229,0.0271520836255071,0.8955398600390035,-0.0196831302379176,-0.5140852254784508,-0.2192643299561069,-0.2325625187904323,1.5996877434536247,1.1326563851782054,0.0309153563197877,-0.8353002675264732,1.4571957502408135,0.4483095116772972,1.3857763371339555,0.0454090266262974,10.59419840670671,-0.7746953386532152,0.3506582800178306,-1.0180275429458012
2.18,-0.1980823523907511,-0.232371421971301,1.601638275694753,-0.0900106436142609,0.1308052919510855,0.028107966454598,0.9043164245208424,0.0057252346453891,-0.5143152447569519,-0.1970112022585033,-0.2323179636321819,1.5832797340876497,1.1726563857742518,0.0682905531343247,-0.8650998659819022,1.344122389345194,0.4388282240919361,1.2704182441653398,-0.011500963925054,10.59419840670671,-0.7762905593026926,0.3505845907846541,-1.0122419924268709
2.2,-0.1798995069263051,-0.2319870199250354,1.5913374358807335,-0.0853848983837275,0.1307964882340324,0.0291886591418792,0.9134626062618916,0.0310987023578521,-0.5157774824702461,-0.1528665311647089,-0.2320851602390315,1.5759225134569053,0.992737091275088,0.1057252361355052,-0.5284878797981292,1.350558813349022,0.4573090870524654,1.2686733856231514,-0.0731118856647117,10.42093583521728,-0.7788696499175025,0.3504434928039995,-1.0049207077839646
2.22,-0.1614113862716001,-0.2310689744745439,1.5814017300281744,-0.0802963775107997,0.1280768216621308,0.0305218287195994,0.9345848247614744,0.0590741610815903,-0.4775633245084885,-0.1528665311647089,-0.2320851602390315,1.5759225134569053,0.992737091275088,0.1057252361355052,-0.5284878797981292,2.5928248465109736,1.0561109249791425,1.3987729361869112,1.9107078980878796,10.42093583521728,-0.7852140725982507,0.3451345385394267,-1.0023546092825169
2.24,-0.1425251295412746,-0.229612779921486,1.572219044544013,-0.0750403627595063,0.1207487502202021,0.0322040950270672,0.9521169077847648,0.0849331049642674,-0.442570849308813,-0.1528665311647089,-0.2320851602390315,1.5759225134569053,0.992737091275088,0.1057252361355052,-0.5284878797981292,2.345491544678263,0.8766041511645117,1.2929471941338533,1.749623759983776,13.147433759432715,-0.804718650112392,0.3531723492017881,-0.9656225672182336
2.26,-0.124321132984659,-0.227768817471726,1.5640859254811872,-0.0701392066053885,0.111264498559161,0.0339356019987009,0.9627363206209804,0.1077303291795849,-0.4151750772092549,-0.1429391602519581,-0.2310279078776765,1.570637634658924,1.0104212246259372,0.1257252364335284,-0.5313224068063647,1.859444601111018,0.5309706418107851,1.1398612107658743,1.3697886049779031,12.650434549344936,-0.8262413862699896,0.3609728872145888,-0.9274162802151424
2.28,-0.1050032236184853,-0.2253794861717694,1.556034476498588,-0.065249321793864,0.100388020655845,0.0357415037814134,0.9680380812188212,0.1298892523075071,-0.39159634146483,-0.1230844184264563,-0.2289134031549664,1.5600678770629617,1.045789491327635,0.1657252370295749,-0.5369914608228356,1.6394231599341609,0.265088029892041,1.1079461563961084,1.1789367872212464,12.147154766105814,-0.8457996485860401,0.3673437353961631,-0.8935779660816254
2.3000000000000003,-0.0856359786019987,-0.2225631075733376,1.5483971725886156,-0.0607299128023067,0.0900026506213741,0.0374304895388066,0.9681274939383052,0.1505492457491137,-0.3734988463194701,-0.1032296766009545,-0.2267988984322562,1.5494981194669988,1.0811577580293337,0.2057252376256214,-0.5426605148393064,1.373283159237343,0.0044706359741963,1.03299967208033,0.9048747572679956,11.726590773439057,-0.8617171497537116,0.3722898407394813,-0.8659390631507203
2.32,-0.0663144430986077,-0.2193487402980694,1.5410660054050471,-0.0566192950578803,0.0811849436028334,0.0389463272584105,0.9639999669598328,0.1698333599088938,-0.3604531212582417,-0.0816065214403679,-0.2226843936797438,1.5386449091702126,1.116526024731032,0.2457252382216678,-0.5483295688557773,1.1822695126943477,-0.2063763489236203,0.9642057079890048,0.652286253061421,11.341052766959365,-0.875065577527341,0.3760235750017952,-0.8428465235407313
2.34,-0.0480672260859204,-0.2159487237161137,1.5343205234823944,-0.0531298043807598,0.07496376851033,0.0402013443632266,0.9569145190323186,0.1871133322678461,-0.3502155505758408,-0.0599833662797811,-0.2185698889272314,1.5277916988734266,1.1518942914327304,0.2857252388177143,-0.5539986228722482,1.064904773368051,-0.3542723963757044,0.8639986179476158,0.5118785341200444,11.025983773580265,-0.8846173455988448,0.3787923940254276,-0.8255745838630338
2.36,-0.0290300040909131,-0.2120180726320682,1.5274157466662053,-0.0497246566964707,0.0714553742915119,0.0413202032426327,0.9471025144034492,0.2049381793865536,-0.3408450472468133,-0.037476004451652,-0.2134553841598178,1.5167967622262286,1.1872625581344285,0.3257252394137607,-0.5596676768887192,1.1200523897139438,-0.4906002314434721,0.8912423559353774,0.4685251664513723,10.888902165198488,-0.8907626721768471,0.3805049524200321,-0.8138810408216532
2.38,-0.0101955492157114,-0.2077358175070399,1.5206842272671897,-0.0463690622257999,0.0713745887964992,0.0422545437513992,0.9372783438507504,0.2222597380933632,-0.3327363513741433,-0.0140844359559805,-0.2073408793775031,1.505660099228619,1.2226308248361268,0.3657252400098071,-0.5653367309051901,1.0750600818528908,-0.4912085276349343,0.8660779353404785,0.4054347936334995,10.79794225792648,-0.893599059124516,0.38084493779621,-0.8082139740009732
2.4,0.0075315651560964,-0.2033526858222545,1.5144331946912066,-0.0431662877466209,0.0736810297118921,0.0430320243865526,0.9295224861437816,0.2381350327609122,-0.3256484860887075,0.0366683679768261,-0.1966228306023717,1.5040474096984824,0.9676203322801776,0.3222597395834793,-0.296749644759649,0.9518615233540328,-0.3877928853484425,0.79376473337745,0.3543932642717906,10.705626086152732,-0.8942498336537267,0.3809328489591792,-0.8053225211294756
2.42,0.0262123430460167,-0.1983891315651013,1.508223667442488,-0.0392789483968625,0.0731819853182335,0.044006202597201,0.9391422244375112,0.2570500645546869,-0.2944165503439084,0.0366683679768261,-0.1966228306023717,1.5040474096984824,0.9676203322801776,0.3222597395834793,-0.296749644759649,1.887956304424588,0.480986914686482,0.9457515896887342,1.5615967872399577,10.649448190584735,-0.8991722574330688,0.3765318024323082,-0.80451066525183
2.44,0.0450610173430887,-0.1930741980771607,1.5026696761379612,-0.0351414167961836,0.0654592469601412,0.0452546419979813,0.9441838102120792,0.2733756344608634,-0.2627368720124056,0.0366683679768261,-0.1966228306023717,1.5040474096984824,0.9676203322801776,0.3222597395834793,-0.296749644759649,1.7996831936977604,0.2520792887284018,0.8162784953088253,1.583983916575138,12.29817631797414,-0.9137005592430042,0.3837098585512869,-0.7744973339201199
2.46,0.0639289431934586,-0.1874549409673416,1.4977025529558237,-0.0314785346979619,0.0538538776941508,0.0465581780585466,0.9416719332365,0.2877985309227084,-0.2354854162581039,0.0463445712996278,-0.1934002332065369,1.501079913250886,0.973688729966063,0.3422597398815026,-0.2895523034367502,1.5467476434588554,-0.1255938487789598,0.7211448230922513,1.3625727877150842,12.052383809624189,-0.9292703349927164,0.3894444135478561,-0.7454841715689196
2.48,0.0817378662896329,-0.1818628526433137,1.4934463267591105,-0.0286523095262166,0.0416742613486562,0.0477409041049213,0.9327147086261508,0.3002483157821085,-0.213860708845008,0.0656969779452314,-0.1869550384148673,1.495144920355693,0.985825525337834,0.382259740477549,-0.2751576207909524,1.3255725050592293,-0.4478612305174601,0.6224892429700035,1.0812353706547984,11.721987905472815,-0.9443212731066012,0.3941536835871649,-0.7182712531793136
2.5,0.1002399225917653,-0.1757305206965802,1.4893733869898738,-0.0264331901450171,0.0295485123132395,0.0488741931508029,0.9176459251316532,0.3124420510146505,-0.1947182267410277,0.085049384590835,-0.1805098436231977,1.4892099274605,0.9979623207096048,0.4222597410735955,-0.2607629381451547,1.3621582470720772,-0.7534391747248903,0.6096867616271012,0.9571241051990116,11.420092704214769,-0.9575797261092552,0.39774722415174,-0.6948669623426837
2.52,0.1183904237489959,-0.169361637836204,1.4856465512120078,-0.0250042434095569,0.019503383916843,0.0498715137508597,0.89804623013892,0.3239015526703898,-0.1790441494381751,0.1050086310050271,-0.1720646488017258,1.4839946686975969,1.0100991160813757,0.4622597416696419,-0.246368255499357,1.3794427509884708,-0.9799847496366532,0.572975082786964,0.7837038651426306,10.985857775605837,-0.9680486369417366,0.4007140083400363,-0.6760329194806749
2.54,0.13610715360887,-0.1627725329252151,1.4822122804234945,-0.0245399915730751,0.0126565903533762,0.0507097403366334,0.8745882803362512,0.3345756400342056,-0.1651409861464532,0.1249678774192192,-0.1636194539802539,1.4787794099346938,1.0222359114531463,0.5022597422656885,-0.2319735728535592,1.4641631564747009,-1.17289749013344,0.5337043681907905,0.6951581645860933,10.985857775605837,-0.9746148193199128,0.4031077293067263,-0.663577772096354
2.56,0.1524747734382043,-0.1563106378782603,1.4791998200617331,-0.0248862011559643,0.0101500447819038,0.0513511338027468,0.8498297964748532,0.3451284201008249,-0.1526157537904897,0.1452305437177055,-0.1541742591438809,1.4739240182379356,1.0343727068249176,0.5422597428617348,-0.2175788902077615,1.4842718213154364,-1.2379241930699003,0.5276390033309625,0.6262616177981752,10.920620121933098,-0.9787920160734852,0.4052820472761764,-0.6554377509070439
2.58,0.1692061124418819,-0.1492865515339364,1.47628935015983,-0.0258240679022947,0.0116356011266987,0.0518829611379028,0.8250322178916395,0.3567761394302969,-0.139023216268665,0.1657966299004862,-0.1437290642926066,1.4694284936073223,1.0465095021966884,0.5822597434577813,-0.2031842075619638,1.5291716266095112,-1.239878929160687,0.5823859664736031,0.6796268760912368,10.88880301041263,-0.9812762490241128,0.4075919532113727,-0.6502606465190672
2.6,0.1854637181678232,-0.1420191980962029,1.4736591053709558,-0.0270668708278895,0.0163238765733448,0.0523065834914767,0.8024505213170123,0.3693783277217005,-0.1246280210310206,0.2104577233364639,-0.1314477445624215,1.4693381893463968,0.8002924737499416,0.4267311009686118,-0.0545058937879864,1.4798393627776087,-1.1290848287313582,0.6301094145701763,0.7197597618822188,10.88961417959763,-0.9817124716418998,0.4099980548478671,-0.6480943178893067
2.62,0.2014319638764591,-0.1343142013684198,1.4713956212682804,-0.0229712341331722,0.01859101974306,0.05316075410491,0.7950821133546401,0.3973530079545211,-0.1023787282298718,0.2104577233364639,-0.1314477445624215,1.4693381893463968,0.8002924737499416,0.4267311009686118,-0.0545058937879864,1.8247651904969635,-0.3684203981186129,1.3987340116410312,1.1124646400574405,10.910175838247596,-0.9907828538208646,0.4109070698411897,-0.6352908685046651
2.64,0.2164536012862363,-0.1266031162035429,1.4696769782413797,-0.0143748031707486,0.014944204489299,0.0544068730627707,0.7858034667772308,0.4121876636984876,-0.0796597568517433,0.2104577233364639,-0.1314477445624215,1.4693381893463968,0.8002924737499416,0.4267311009686118,-0.0545058937879864,1.4337991088631368,-0.4639323288704644,0.7417327871983237,1.1359485689064266,11.339023876443209,-0.9952436649600432,0.4105564370751318,-0.6256469792165485
