t,x,y,z,roll,pitch,yaw,v_x,v_y,v_z,ref_x,ref_y,ref_z,ref_v_x,ref_v_y,ref_v_z,a_com,a_x,a_y,a_z,thrust,wind_x,wind_y,wind_z
0.0,0.9138562161811744,2.321981266162775,2.309208329255092,0.0283221034061662,0.0995680430325942,0.0420046895227563,0.0002269853303569,0.0060322670144036,-0.0003844247651179,0.9138641096291668,2.3221805665034903,2.3091968975330723,-0.0997535110831775,-0.0936540255856557,-0.1003720304167226,0.3024382171340752,0.0113492665178489,0.3016133507201809,-0.0192212382558978,10.25502740713,-0.9406829797928902,0.2549005670999781,-0.8782910475164906
0.02,0.9140231011171458,2.322309435070183,2.309107733617265,0.0370856996365566,0.0937683008790364,0.0424130765491771,0.0160110534499155,0.0231752903724901,-0.0102275337492999,0.9138675654476922,2.3222828795134958,2.309189108016836,-0.0997730161597591,-0.0939677344757125,-0.100384426255234,1.264819009516034,0.7892034059779282,0.8571511679043248,-0.4921554492091,10.254878769696006,-0.9527331085074092,0.2512206255077939,-0.8639389303588165
0.04,0.9144570858191166,2.322788362783885,2.3087711382832694,0.0513140530999117,0.0775858492189437,0.0426314643023237,0.0251906638323777,0.023119053577626,-0.0229268057052168,0.9138675654476922,2.3222828795134958,2.309189108016836,-0.0997730161597591,-0.0939677344757125,-0.100384426255234,0.7834856692391382,0.458980519123108,-0.0028118397432035,-0.634963597795843,9.641613367196896,-0.9576251802337752,0.2400905955323172,-0.8599180314870352
0.06,0.9149638593820718,2.323191504319457,2.308153039184372,0.0657680310612714,0.0554520277622426,0.0422262288597175,0.0239554816639278,0.0168034286797684,-0.0382354686758611,0.9138675654476922,2.3222828795134958,2.309189108016836,-0.0997730161597591,-0.0939677344757125,-0.100384426255234,0.8303131258574552,-0.0617591084224905,-0.3157812448928794,-0.7654331485322154,9.494086028620586,-0.968541255475182,0.2277219334763488,-0.851251432331868
0.08,0.915321956363184,2.323421834959668,2.3072652343721485,0.0789632824507325,0.0325693455394256,0.0413192491323875,0.0132273135494803,0.0074561631642629,-0.0544885500306674,0.9128698352860948,2.3213432021687384,2.308185263754284,-0.1197730164577823,-0.1139677347737357,-0.1203844265532572,1.080078257853525,-0.5364084057223774,-0.4673632757752765,-0.8126540677403183,9.334889412994016,-0.9831832579859854,0.2125430309624014,-0.8415728251388014
0.1,0.9153916433995604,2.323441578411738,2.305980878812668,0.0922147606971734,0.0094112706214934,0.0400169739756866,-0.0062016080486081,-0.0053148403913805,-0.0732180503299117,0.9108743749628996,2.319463847479224,2.306177575229179,-0.1597730170538288,-0.1539677353697821,-0.1603844271493037,1.4927957895692898,-0.9714460799044262,-0.6385501777821733,-0.9364750149622132,9.258012181719096,-0.9986174688236944,0.1952716291540004,-0.8338918814576322
0.12,0.9149963554414154,2.3231763214073,2.3043061767554773,0.1048364276831666,-0.0107298472206456,0.0386069825252176,-0.0324189543517296,-0.0208684946419941,-0.0933839805864815,0.9088789146397044,2.3175844927897096,2.304169886704074,-0.1997730176498752,-0.1939677359658286,-0.2003844277453502,1.827518912924204,-1.3108673151560748,-0.7776827125306797,-1.0082965128284902,9.21562522752356,-1.0125695470429357,0.1779515574858156,-0.8288297207915961
0.14,0.914088913371958,2.32261153235369,2.302329834847024,0.1162658971610332,-0.0260262610200339,0.037372258486924,-0.0616690746259584,-0.0380464366716001,-0.1136908554861296,0.9048834542867068,2.313705138070393,2.300162198149167,-0.2397730182459217,-0.233967736561875,-0.2403844283413966,1.9767526379262204,-1.462506013711437,-0.8588971014803021,-1.015343744982402,9.205970197445822,-1.02557626281309,0.1591725882162392,-0.8264753956699776
0.16,0.9125072805074292,2.3216398583958635,2.299822036061669,0.1277216634668944,-0.0377983852340799,0.0363330101326497,-0.0948853686382922,-0.0584861607501613,-0.1360884101282436,0.9008879939337092,2.3098257833510765,2.29615450959426,-0.2797730188419682,-0.2739677371579215,-0.2803844289374431,2.2487524109314485,-1.6608147006166911,-1.0219862039280605,-1.1198777321057,9.201574593436362,-1.0358874756959917,0.1398749279937564,-0.8282440851697908
0.18,0.910234200884673,2.320212581354569,2.2968560607027784,0.1378986422156247,-0.0448909294069889,0.0356637405408043,-0.1308574174518172,-0.083092535387563,-0.1594049528341438,0.8958925335658106,2.3049464286168586,2.291146821024452,-0.3197730194380146,-0.3139677377539679,-0.3203844295334895,2.471397950753208,-1.7986024406762509,-1.230318731870083,-1.1658271352950138,9.193729700846234,-1.041719636623402,0.1234318099255153,-0.832973094542338
0.2,0.9072184524897932,2.318256385462499,2.2934179663092347,0.1458448736977148,-0.0464478177870711,0.03553878696262,-0.1682645617710766,-0.1107068673384631,-0.1830736961835181,0.8898970731830108,2.29906707386774,2.2851391324397428,-0.359773020034061,-0.3539677383500144,-0.3603844301295359,2.608665936333623,-1.87035721596297,-1.380716597545007,-1.1834371674687107,9.250507764622398,-1.0464105420598075,0.1087526845860049,-0.8384694050287979
0.22,0.9036809240641798,2.315872104468189,2.289716582828385,0.1511713062145221,-0.0434711529711839,0.0359052177932327,-0.2017352295602764,-0.1383153022233329,-0.2052140983072134,0.8988052244012393,2.312721042095576,2.2842642815000587,-0.2682645632611927,-0.2107068688285793,-0.2830736976736342,2.435522882897017,-1.6735333894599884,-1.380421744243486,-1.1070201061847669,9.250507764622398,-1.0470906654669103,0.0962279927482533,-0.8480342414434356
0.24,0.8992705266720682,2.312648769803885,2.285559140085456,0.1511218057439791,-0.0360534055881655,0.0365465387708565,-0.2370491110913832,-0.1813138047076265,-0.2079171606847438,0.8988052244012393,2.312721042095576,2.2842642815000587,-0.2682645632611927,-0.2107068688285793,-0.2830736976736342,2.785340190578913,-1.7656940765553408,-2.14992512421468,-0.1351531188765214,10.66781674068352,-1.050793262810441,0.089072900184736,-0.8533769058022219
0.26,0.8942019906087343,2.308642989098564,2.281384824286368,0.1448649499123124,-0.0251005519830538,0.0372448509388137,-0.2674797538267291,-0.2157356156644197,-0.2093830726514821,0.8988052244012393,2.312721042095576,2.2842642815000587,-0.2682645632611927,-0.2107068688285793,-0.2830736976736342,2.29838746990455,-1.5215321367672938,-1.7210905478396612,-0.0732955983369157,10.410091986805128,-1.0479119705804232,0.0929408099800433,-0.8583048736803538
0.28,0.888576784685094,2.304030758020876,2.277144070372753,0.1367343628425033,-0.0126364985017021,0.0379396797965583,-0.2930919922778809,-0.2432705094407535,-0.2144981300270171,0.8961225787686274,2.3106139734072904,2.2814335445233223,-0.288264563559216,-0.2307068691266025,-0.3030736979716574,1.8975780258711752,-1.2806119225575896,-1.3767446888166903,-0.2557528687767457,10.11523154362476,-1.0417825560005096,0.0972695112413894,-0.8673913961567623
0.3,0.8828008913521094,2.2991851596009893,2.2729850442938195,0.1289595326136625,-0.0006805045138288,0.0385118483352262,-0.3133575681363301,-0.2653050198789912,-0.2230208989609554,0.8907572875034035,2.3063998360307187,2.27577207056985,-0.3282645641552624,-0.2707068697226489,-0.3430736985677038,1.5563184165111168,-1.013278792922459,-1.101725521911885,-0.4261384466969151,10.11523154362476,-1.033362339130383,0.1015081183779288,-0.8793171688076876
0.32,0.8763430691511991,2.2936657385149872,2.26839648229125,0.1214929944799447,0.0110598241472289,0.0389575540367254,-0.3311166825256385,-0.2854452271779908,-0.2355823047728002,0.8853919962381797,2.302185698654147,2.270110596616377,-0.3682645647513088,-0.3107068703186954,-0.3830736991637503,1.482230590958325,-0.8879557194654192,-1.007010364949981,-0.6280702905922405,9.854725061252791,-1.0252269934546754,0.1057650364204777,-0.8900567290248171
0.34,0.8695620879328431,2.287768115326563,2.2635167858948013,0.1150720005115394,0.0212664319952873,0.0392096503854984,-0.3460149766709005,-0.3034464658620919,-0.2517987282112238,0.8780267049431535,2.2959715612477734,2.262449122633102,-0.4082645653473553,-0.3507068709147418,-0.4230736997597967,1.422125303669635,-0.7449147072631029,-0.9000619342050542,-0.8108211719211791,9.62842615782938,-1.0169452879383594,0.1083447685809756,-0.9013784322943416
0.36,0.8625061606060948,2.2815264241917137,2.25829088951757,0.1097174980757082,0.0296244081156565,0.0392656717641575,-0.3588274537196371,-0.3199982161970961,-0.2700356793298372,0.8706614136481273,2.2897574238414,2.254787648649827,-0.4482645659434018,-0.3907068715107883,-0.4630737003558433,1.3880799629158684,-0.6406238524368307,-0.8275875167502084,-0.91184755593067,9.4397428049042,-1.009163074322526,0.1099071767051772,-0.9124928025795306
0.38,0.8555754115505139,2.2752920204291875,2.252972057815792,0.1053210340648265,0.0359130199981264,0.0391491084964028,-0.3700909880026068,-0.3354209306105793,-0.2889541713867505,0.8622961223382,2.2825432864201245,2.2461261746516508,-0.4882645665394482,-0.4307068721068348,-0.5030737009518896,1.3440951102237797,-0.5631767141484834,-0.7711357206741598,-0.9459246028456686,9.264625660817728,-1.002104161453379,0.1105413429858358,-0.9230258806472004
0.4,0.8480548634546214,2.2684201803688264,2.246969684191001,0.1011458379187892,0.0410886406236482,0.0388792258768781,-0.3813573703940139,-0.3509095577919597,-0.3103700869603437,0.8529308310133715,2.274329148983948,2.236464700638573,-0.5282645671354946,-0.4707068727028812,-0.5430737015479361,1.436550020020599,-0.5633191195703546,-0.7744313590690222,-1.0707957786796565,9.264625660817728,-0.9961946048910566,0.110962055767798,-0.9320631769137396
0.42,0.8403128157831355,2.261245438552824,2.2405243223364995,0.0973131220134806,0.0450755991701748,0.0384936778627962,-0.3922920898252887,-0.3657422186800943,-0.3331063767205415,0.8289869949349208,2.2508747024792286,2.231451179842984,-0.48135737188413,-0.4509095592820759,-0.4103700884504598,1.4633136968220233,-0.5467359715637415,-0.7416330444067282,-1.1368144880098934,9.190741119436098,-0.9913900669415004,0.1110502045196602,-0.9398177688498706
0.44,0.8327853688533704,2.25414555108941,2.234256116393338,0.0942642133741951,0.0475345542689804,0.0380279007934915,-0.3996673666088711,-0.381064211707204,-0.3255980436047459,0.8289869949349208,2.2508747024792286,2.231451179842984,-0.48135737188413,-0.4509095592820759,-0.4103700884504598,0.9294262264093378,-0.3687638391791203,-0.7660996513554841,0.3754166557897814,9.134031842701006,-0.9963550684579112,0.1118498902202172,-0.9369001196871066
0.46,0.8247125474541629,2.246370356676667,2.2277845982250724,0.0920131079192367,0.04837861978086,0.0374343764141872,-0.40734720660368,-0.3958268251571595,-0.3223868075080998,0.8289869949349208,2.2508747024792286,2.231451179842984,-0.48135737188413,-0.4509095592820759,-0.4103700884504598,0.8473882455626193,-0.3839919997404434,-0.7381306724977776,0.1605618048323071,10.909512410607933,-0.9959751923640916,0.1134098331518774,-0.9369903920510247
0.48,0.8164783468533936,2.2383018024330505,2.221309491385578,0.0905625386953212,0.0475862657340032,0.0367443883371702,-0.4157943232544838,-0.4103114361660965,-0.3255357968194333,0.8241734212160795,2.246365606886408,2.2273474789584795,-0.5013573721821533,-0.4709095595800991,-0.430370088748483,0.8530443562256854,-0.4223558325401916,-0.7242305504468471,-0.157449465566678,10.491679584098163,-0.9963858015400128,0.1136250775391528,-0.9370121634511565
0.5,0.8084909943391202,2.230374708080729,2.2150477979980834,0.0897733820312226,0.0455391149585422,0.0360124215187867,-0.4246579059842355,-0.4234528789314214,-0.3334092103048278,0.8145462737783968,2.2373474157007665,2.2191400771894703,-0.5413573727781996,-0.5109095601761455,-0.4703700893445294,0.8849452760954403,-0.4431791364875842,-0.6570721382662459,-0.3936706742697221,10.142574101652826,-0.9979032315682148,0.1128121851767582,-0.9365410660709296
0.52,0.7998906625695035,2.2217670172998543,2.208258098184257,0.0896529665963604,0.0422219337772281,0.0351857256809995,-0.4350370137825969,-0.4366677680483337,-0.3453094238954812,0.8049191263407143,2.2283292245151247,2.210932675420461,-0.5813573733742461,-0.550909560772192,-0.5103700899405759,1.0295317583317496,-0.5189553899180688,-0.660744455845616,-0.5950106795326704,9.880604498978755,-1.0001497127420402,0.1109447418924419,-0.935847713497422
0.54,0.7910678422628402,2.2128981690521714,2.2011961478309736,0.0903859821168703,0.0379838858044522,0.0343307353258317,-0.4468618319407834,-0.4496569172602225,-0.360282822253437,0.7932919788732293,2.217311033299681,2.2007252736216496,-0.6213573739702926,-0.5909095613682385,-0.5503700905366223,1.1540656178364836,-0.5912409079093267,-0.6494574605944381,-0.7486699178977901,9.678657153383938,-1.002872556648517,0.1081584677609364,-0.9350189263965268
0.56,0.781991272992681,2.20376711746024,2.193823740479487,0.0919836986582072,0.0332391947880837,0.0334792738030373,-0.4603455157409376,-0.4629050707895743,-0.3762149573770666,0.7816648314057445,2.206292842084237,2.1905178718228377,-0.661357374566339,-0.6309095619642849,-0.5903700911326688,1.2360787094248995,-0.6741841900077095,-0.6624076764675912,-0.796606756181481,9.530031590717954,-1.006369073770534,0.1042914819253854,-0.9338100876718292
0.58,0.773096148826398,2.1948315485665533,2.1865177764579093,0.0939308418314472,0.0289187904628157,0.0327029531023038,-0.4754188524113351,-0.4769936474036776,-0.3920392508226822,0.7690376839233584,2.194274650853892,2.179310470009125,-0.7013573751623854,-0.6709095625603313,-0.6303700917287152,1.3000978159772831,-0.7536668335198726,-0.7044288307051672,-0.7912146722807795,9.490377189843455,-1.0094116293267257,0.0996773296158261,-0.9334875001448968
0.6,0.7634004428433324,2.1851222391268585,2.178493169445217,0.0957994325250684,0.025503027755704,0.0319650492559251,-0.4935020501058828,-0.4931446774015635,-0.4096278076744425,0.7554105364260711,2.1812564596086457,2.1671030681805115,-0.7413573757584319,-0.7109095631563778,-0.6703700923247616,1.4976774861266915,-0.9041598847273846,-0.8075514998942906,-0.8794278425880153,9.471709973877296,-1.0114704146060702,0.0950132613263599,-0.9344537607328038
0.62,0.7533208457978969,2.175077115214102,2.1701072711064677,0.0969500887257229,0.0242196914126272,0.031372288111943,-0.5135147994599638,-0.510471671690328,-0.4280986934077934,0.7387253403380383,2.16046500525678,2.158011779061495,-0.5935020515959989,-0.5931446788916797,-0.5096278091645586,1.613930363713577,-1.000637467704052,-0.8663497144382276,-0.9235442866675436,9.441116439992584,-1.012230925092776,0.0909982269288259,-0.9368421446903068
0.64,0.7433651866103681,2.165134312775685,2.1620781800721907,0.0955854919829135,0.0258931950856097,0.0309147079905561,-0.5329895954649573,-0.5345082069718426,-0.4160130499075041,0.7387253403380383,2.16046500525678,2.158011779061495,-0.5935020515959989,-0.5931446788916797,-0.5096278091645586,1.6606365395471774,-0.9737398002496732,-1.2018267640757307,0.6042821750144617,11.342066365259598,-1.0179506666124734,0.0901081228298547,-0.9330364269104856
0.66,0.7325132476364561,2.154215522815805,2.153853424128019,0.0912362623625349,0.0302446020080035,0.0304703311591613,-0.5508582690003335,-0.5552930840370699,-0.4074174227729964,0.7387253403380383,2.16046500525678,2.158011779061495,-0.5935020515959989,-0.5931446788916797,-0.5096278091645586,1.4363020350590876,-0.8934336767688122,-1.0392438532613624,0.4297813567253866,10.878353274231811,-1.015655839821531,0.0937586154835717,-0.934801780291167
0.68,0.7213286429056054,2.1429328163447483,2.145728421088814,0.0860258855764915,0.0360282621702862,0.0300784347449323,-0.5664441352750619,-0.571691708237337,-0.405785222705542,0.7327903198220783,2.1545335584678638,2.1529155009698493,-0.6135020518940221,-0.6131446791897028,-0.5296278094625818,1.1341276165576528,-0.7792933137364177,-0.8199312100133527,0.0816100033727174,10.878353274231811,-1.0115410027596876,0.0976964651111868,-0.9389758294231384
0.7000000000000001,0.7098551890191839,2.1313548353587284,2.1375639240058333,0.0809784282067373,0.0424011238453609,0.0297246563016654,-0.579906204960242,-0.5852615785043351,-0.410708393554075,0.7209202787901583,2.14267066489003,2.1427229447865583,-0.6535020524900685,-0.6531446797857493,-0.5696278100586283,0.9869223759694232,-0.6731034842590078,-0.6784935133499093,-0.2461585424266471,10.074703713382403,-1.0070770421007151,0.1010767171175847,-0.9438204909662258
0.72,0.6987244519894379,2.1201238975060166,2.129667223982316,0.0767319379874917,0.0484233167822055,0.0294029703338031,-0.5909479592447041,-0.596345510392665,-0.420277530543394,0.7090502377582383,2.130807771312196,2.132530388603267,-0.693502053086115,-0.6931446803817958,-0.6096278106546748,0.91698182438902,-0.552087714223104,-0.554196594416495,-0.4784568494659497,9.787523860461988,-1.001884766840204,0.1038827384725856,-0.9497527327430796
0.74,0.686797911655452,2.108088926186476,2.121116601472811,0.0730177015259581,0.0542961464351741,0.0290638546158642,-0.6010140387567378,-0.6066473852910221,-0.4344828617653987,0.695180196696516,2.1169448777045603,2.1203378323901734,-0.7335020536821615,-0.7331446809778422,-0.6496278112507212,1.011491495627677,-0.5033039756016822,-0.515093744917855,-0.7102665611002368,9.787523860461988,-0.996638747872558,0.1057910064495585,-0.956019612533322
0.76,0.6746844072190163,2.095857074893793,2.112255179920853,0.0701235176921727,0.0593935945151948,0.0287138698628918,-0.6097667172440521,-0.6161334485775765,-0.4510456573457926,0.6813101556347937,2.1030819840969244,2.10814527617708,-0.773502054278208,-0.7731446815738887,-0.6896278118467677,1.0499059181859165,-0.4376339243657157,-0.4743031643277162,-0.8281397790196959,9.555423311870072,-0.9918668044405458,0.106792231791901,-0.9620538210923072
0.78,0.6624023669330328,2.083433051136081,2.1030426064412024,0.0677405297146899,0.0636992930937584,0.0283381129273003,-0.617956043485329,-0.6257856889939997,-0.4693860400331806,0.6664401145581702,2.088219090474388,2.0949527199490854,-0.8135020548742543,-0.8131446821699351,-0.729627812442814,1.1142266897520676,-0.4094663120638442,-0.4826120208211604,-0.9170191343693984,9.44421903811144,-0.987617284987959,0.1071508093121906,-0.9676997777377754
0.8,0.6505867802112806,2.0714530699130678,2.09393711336863,0.0656519370176734,0.067230286208323,0.0279528731413009,-0.6253385609286947,-0.6347370286097261,-0.4881741124312689,0.6505700734666456,2.072356196836949,2.080760163706189,-0.8535020554703008,-0.8531446827659815,-0.7696278130388605,1.1041056438963186,-0.3691258721682855,-0.4475669807863236,-0.9394036199044165,9.365248315511964,-0.9834336112756364,0.107231539532012,-0.9734935765327444
0.8200000000000001,0.638001863110534,2.0586637824845937,2.083952011351613,0.0635738590125803,0.0704904606420323,0.0275248566614964,-0.6327182197770371,-0.6436783815649793,-0.5094190601215922,0.6193198521648459,2.039716218482581,2.0695284077470664,-0.7253385624188108,-0.7347370300998423,-0.5881741139213851,1.2101187542478056,-0.3689829424171231,-0.4470676477626556,-1.0622473845161629,9.295570378415505,-0.9795544053603824,0.1071714346915771,-0.9790088891018516
0.84,0.6253002541076771,2.045667592080155,2.0738433716023525,0.0611821970550424,0.0732413594802347,0.0270430875525241,-0.6369275951590632,-0.6553071745934332,-0.4987540036019763,0.6193198521648459,2.039716218482581,2.0695284077470664,-0.7253385624188108,-0.7347370300998423,-0.5881741139213851,0.8165339842468725,-0.2104687691013018,-0.5814396514226994,0.5332528259807956,9.21895307397608,-0.9815801356963364,0.1080997429661582,-0.9778251427518452
0.86,0.6131655164611511,2.033130604788259,2.064437996014925,0.0589603393015694,0.0751291531497037,0.0265464804685251,-0.6402726847352934,-0.6639263926681177,-0.4920132907150412,0.6193198521648459,2.039716218482581,2.0695284077470664,-0.7253385624188108,-0.7347370300998423,-0.5881741139213851,0.5720964838120929,-0.1672544788115126,-0.4309609037342232,0.3370356443467531,11.217971521493382,-0.9799145746356518,0.1100190174351633,-0.978964742721513
0.88,0.600321747914358,2.0197677728836294,2.05460767105518,0.0571957317378191,0.0762153735853193,0.026015224677042,-0.6440014349024215,-0.6719745806690327,-0.4916830522304078,0.6120664665406578,2.0323688481815827,2.0636466666078523,-0.745338562716834,-0.7547370303978654,-0.6081741142194083,0.4438072931004585,-0.1864375083564018,-0.4024094000457501,0.0165119242316685,10.758764608865931,-0.9786045396571676,0.1110008526318841,-0.9802955186755709
0.9,0.5873985286883139,2.006252807370786,2.044721597425504,0.0561355773740615,0.076435002583316,0.0254897958289491,-0.6482211255828557,-0.6791611663255818,-0.4971685815743008,0.5975596952922815,2.017674107579586,2.0518831843294247,-0.7853385633128804,-0.7947370309939119,-0.6481741148154547,0.4988582840350833,-0.2109845340217131,-0.359329282827453,-0.2742764671946479,10.036111616912422,-0.9778141674275478,0.1110055975288479,-0.9816004159650183
0.92,0.5743847987338764,1.992603392159379,2.0346734207622106,0.056029516188204,0.0759028412808813,0.0249947824214981,-0.6530179753443646,-0.6855606179731034,-0.5073569890704792,0.5830529240439053,2.002979366977589,2.040119702050997,-0.8253385639089269,-0.8347370315899584,-0.6881741154115012,0.6476233402442328,-0.2398424880754424,-0.3199725823760824,-0.5094203748089193,10.036111616912422,-0.9776730469793148,0.1100137817958511,-0.9825734502106211
0.94,0.5619277313696203,1.979522396206456,2.0249067658671915,0.0570255961245516,0.0747893177682464,0.024570338720073,-0.6580669021010889,-0.6912199806815309,-0.5202001656989564,0.5665461527657267,1.9862846263457896,2.026356219742768,-0.8653385645049734,-0.8747370321860048,-0.7281741160075477,0.745766775826347,-0.2524463378362152,-0.2829681354213742,-0.6421588314238613,9.798507380692172,-0.9781934137709118,0.10778455211187,-0.9832338895620294
0.96,0.5487077997240353,1.965636798676344,2.014348673590724,0.059422393163914,0.0729894407332517,0.0241805272955723,-0.6637186299264922,-0.6972690194824207,-0.5349893601308042,0.5500393814875483,1.9695898857139904,2.012592737434537,-0.9053385651010198,-0.9147370327820512,-0.7681741166035941,0.84742723842538,-0.2825863912701676,-0.3024519400444903,-0.7394597215923893,9.621706910357716,-0.9796825409446064,0.1042463910798493,-0.9831335932200816
0.98,0.5353650440043073,1.9516025569595763,2.0034865781282205,0.0625503219060434,0.0707110088790482,0.0238061512957598,-0.6703703617337452,-0.705990864644316,-0.550507039321454,0.5325326101944685,1.9518951450672903,1.997829255111406,-0.9453385656970664,-0.9547370333780976,-0.8081741171996405,0.9501506282264164,-0.332586590362649,-0.4360922580947668,-0.7758839595324862,9.556134439596462,-0.9813020522849422,0.0997055262483034,-0.9833630075118936
1.0,0.5218761927603978,1.9373736759684823,1.9923075549735263,0.0653488260520906,0.0684223650456727,0.023399591148084,-0.6782490135838009,-0.7163461431519098,-0.5666123526916275,0.5140258388864877,1.9332004044056887,1.9820657727733737,-0.9853385662931128,-0.994737033974144,-0.848174117795687,1.0352367684444324,-0.3939325925027825,-0.5177639253796884,-0.8052656685086756,9.509841872822108,-0.9828000878944768,0.0955144989347828,-0.9837578424033928
1.02,0.5089037243954158,1.9236560106460496,1.9813829093039943,0.0674029547619054,0.066695773645203,0.0229948689110148,-0.6869214602436553,-0.7269364047337005,-0.5825357352215301,0.4879637420812077,1.901556368810887,1.963976937338945,-0.778249015073917,-0.8163461446420259,-0.6666123541817436,1.0499036653812353,-0.4336223329927224,-0.529513079089533,-0.7961691264951332,9.509841872822108,-0.9842484904795202,0.0916804219617897,-0.98423041212466
1.04,0.4950592692504989,1.9089264272070467,1.969849139326744,0.0673256327077398,0.0665163459007985,0.0225227109979819,-0.6967855209377336,-0.7450923462867414,-0.5683892460643782,0.4879637420812077,1.901556368810887,1.963976937338945,-0.778249015073917,-0.8163461446420259,-0.6666123541817436,1.2520593661317678,-0.4932030347039151,-0.907797077652045,0.7073244578575943,9.48186579997764,-0.9886440176807924,0.0904372805887628,-0.981058213502056
1.06,0.481032602309757,1.8938563482143016,1.958605655697517,0.0642515802876171,0.0683067924600952,0.0219792327870525,-0.7052030512101649,-0.7605694010853696,-0.557135061952986,0.4879637420812077,1.901556368810887,1.963976937338945,-0.778249015073917,-0.8163461446420259,-0.6666123541817436,1.0452878803709449,-0.4208765136215653,-0.7738527399314132,0.5627092055696115,11.02993700762363,-0.9883959473173288,0.0931179642953408,-0.980707869904282
1.08,0.4668499586294714,1.878520554688489,1.9475090643131276,0.059801703849016,0.0710880761684666,0.0214061956398305,-0.712511802442919,-0.7719041398997208,-0.5533831773912266,0.4801812519304685,1.8933929073644664,1.957310813797128,-0.7982490153719402,-0.8363461449400491,-0.6866123544797668,0.6999478307999342,-0.3654375616377048,-0.5667369407175604,0.1875942280879727,11.02993700762363,-0.9864806295210886,0.0966426499238178,-0.9821792229958844
1.1,0.4532501327087825,1.8637726763783895,1.936967024217881,0.0555989064038136,0.0740532794222011,0.0208828648344811,-0.7185958030424191,-0.7799477406107111,-0.5564597073534112,0.4646162716289902,1.8770659844716264,1.9439785667134928,-0.8382490159679866,-0.8763461455360956,-0.7266123550758132,0.5272087164984595,-0.3042000299750047,-0.4021800355495153,-0.153826498109233,10.180117352990235,-0.9836139752368132,0.1000737157097828,-0.984909805461118
1.12,0.4388183733578186,1.8481028490964884,1.9257542665109888,0.0517634076258527,0.077082001005669,0.0203683275653418,-0.7242021383335271,-0.7866721771458182,-0.5648936809422932,0.4490512913275118,1.8607390615787855,1.930646319629858,-0.8782490165640331,-0.916346146132142,-0.7666123556718597,0.6078259467334456,-0.2803167645553994,-0.3362218267553507,-0.4216986794440991,10.180117352990235,-0.9802555598767512,0.1026558290644889,-0.9885589518795423
1.14,0.4242807597499123,1.8323103249682795,1.914324831961984,0.0487223188239303,0.0797362428810661,0.0198926208750759,-0.72925269120051,-0.7923513162948215,-0.577812843190459,0.4314863109962312,1.842412138656143,1.9153140725164208,-0.9182490171600796,-0.9563461467281884,-0.8066123562679062,0.7494422241413333,-0.252527643349143,-0.2839569574501654,-0.6459581124082903,9.88036664641004,-0.9768659293353992,0.1042359508162041,-0.9926627024740168
1.16,0.409647858391195,1.8164121057989568,1.902609120520372,0.046520120827187,0.0818471890256345,0.0194544734624265,-0.73379650321811,-0.7973993194481386,-0.593109985447371,0.4139213306649505,1.8240852157335,1.899981825402984,-0.958249017756126,-0.996346147324235,-0.8466123568639526,0.8368559086177702,-0.2271906008800006,-0.2524001576658552,-0.7648571128456016,9.64525414981108,-0.9742166390827274,0.1049623774746677,-0.99623695472763
1.18,0.3949230525923715,1.8004072528859725,1.8905718880449436,0.0448044790409422,0.0834963383351056,0.0190361930260965,-0.7384447778857441,-0.8028443060327499,-0.6098509003395622,0.3953563503187687,1.804758292795956,1.8836495782746452,-0.9982490183521724,-1.0363461479202811,-0.886612357459999,0.9103743292184217,-0.2324137333817089,-0.2722493292305672,-0.8370457446095603,9.538773810633757,-0.9720406273593704,0.1051165473996083,-0.9994992648755904
1.2,0.3808475105959923,1.785101996344505,1.878814197817055,0.0433474638502086,0.0848303862248826,0.0186481829376754,-0.7429358113933983,-0.807932931479273,-0.6269644724308346,0.3757913699576857,1.784431369843511,1.8663173311314056,-1.0382490189482187,-1.0763461485163277,-0.9266123580560456,0.9205132272610916,-0.2245516753827059,-0.2544312723261555,-0.85567860456362,9.469549184243078,-0.9699434834812716,0.1050801255097606,-1.0028113434193495
1.22,0.3659389286015885,1.7688904709608912,1.8660726293913776,0.0419577708279062,0.0861170539328556,0.0182531992188422,-0.7476634843009655,-0.8129186811749973,-0.6463569860359907,0.3437007200263224,1.7447053497705414,1.8474659741955133,-0.8429358128835144,-0.9079329329693892,-0.7269644739209508,1.0286862678624644,-0.2363836453783629,-0.2492874847862147,-0.9696256802578018,9.405962347941568,-0.967907750105011,0.1049037934033951,-1.0060958977755514
1.24,0.3509530250710691,1.7525466390769484,1.8532523549187716,0.0400193281804235,0.0877175149966921,0.0178416763324683,-0.750463077037287,-0.8208968097090248,-0.6330277238983136,0.3437007200263224,1.7447053497705414,1.8474659741955133,-0.8429358128835144,-0.9079329329693892,-0.7269644739209508,0.7892361552945322,-0.1399796368160732,-0.3989064267013731,0.6664631068838522,9.331856612738193,-0.9702578913418142,0.1053420411537028,-1.004864496254353
1.26,0.3359241305461838,1.7360749111841682,1.8406964759303803,0.0378507989790847,0.0896783204441263,0.017436896210257,-0.7522425457618955,-0.825977608600161,-0.6234172234747292,0.3437007200263224,1.7447053497705414,1.8474659741955133,-0.8429358128835144,-0.9079329329693892,-0.7269644739209508,0.5507784143958172,-0.0889734362304273,-0.2540399445568109,0.4805250211792233,10.931564717574474,-0.9684770993951534,0.107667867435242,-1.0055898842686923
1.28,0.3216180240255016,1.7203453912448694,1.828874702566967,0.0362959862676556,0.091357436475473,0.0170884561212364,-0.7535768740326123,-0.8296395678686431,-0.6214504138154482,0.3352713618974873,1.7356260204408476,1.840196329456304,-0.8629358131815376,-0.9279329332674124,-0.7469644742189739,0.2182814573772648,-0.0667164135358389,-0.1830979634241059,0.0983404829640488,10.931564717574474,-0.9664229212597892,0.1091225491158899,-1.0071254487808532
1.3,0.3065335445301072,1.7037230993385837,1.8164117621643323,0.0354782166379747,0.0926293874333957,0.016769741934661,-0.754834846090683,-0.8324676856801891,-0.6252065226890091,0.318412645639817,1.7174673617814598,1.8256570399778849,-0.902935813777584,-0.9679329338634588,-0.7869644748150204,0.2433572370246746,-0.0628986029035327,-0.1414058905773008,-0.1878054436780463,10.489300527284286,-0.964544112603102,0.1095069450783691,-1.008958480426538
1.32,0.2914230909386112,1.6870538118240703,1.803817198098555,0.0358949108874343,0.0932256027782278,0.0165221450188105,-0.7562185666981563,-0.8345143027065913,-0.634042629407247,0.3015539293821467,1.699308703122072,1.8111177504994656,-0.9429358143736304,-1.0079329344595052,-0.8269644754110669,0.4587485855792751,-0.0691860303736691,-0.1023308513201093,-0.4418053359118934,10.14892610469542,-0.9631484718717068,0.1085514720108872,-1.010775482156314
1.34,0.2762821061991821,1.670347356037158,1.7910080723225277,0.0378304820096278,0.0931294792046087,0.0163623329751598,-0.7578970641176946,-0.8362605364731989,-0.6464258466169841,0.2826952130946741,1.6791500444328815,1.7945784609912443,-0.982935814969677,-1.0479329350555515,-0.8669644760071133,0.6308937200879531,-0.0839248709769147,-0.087311688330377,-0.6191608604868559,9.890245869931276,-0.9622819135260794,0.1059582695896456,-1.0125303223206563
1.36,0.2618656915540624,1.6544352011476016,1.7785975926295352,0.0410528363815564,0.092404285288826,0.0162847372300209,-0.7595933139087705,-0.8391309940160394,-0.6593301515948737,0.2638364968072015,1.6589913857436918,1.778039171483023,-1.0229358155657235,-1.087932935651598,-0.9069644766031598,0.6664043007464805,-0.0848124895537927,-0.1435228771420271,-0.6452152488944818,9.702531411790916,-0.962805127595354,0.1018739327976493,-1.013191115180216
1.38,0.2466498726847014,1.6375950333657867,1.765261259763779,0.0447924047146971,0.0910622838229076,0.0162004734112617,-0.7619684394187776,-0.8448097821419317,-0.6736551980674415,0.2439777805048277,1.6378327270396005,1.7604998819599005,-1.06293581616177,-1.1279329362476445,-0.9469644771992062,0.7795781105961839,-0.1187562755003535,-0.2839394062946143,-0.7162523236283858,9.64571951761809,-0.9635218446714764,0.0971960232551804,-1.013976417254696
1.4,0.2313789490165634,1.620624149355301,1.7516327993792098,0.0481519418018246,0.0893759583239816,0.0160690794030316,-0.7650759449819357,-0.8519545055360447,-0.688490380619825,0.2231190641875528,1.615674068320608,1.7419605924218768,-1.1029358167578165,-1.1679329368436908,-0.9869644777952524,0.8378339700769929,-0.1553752781579043,-0.3572361697056492,-0.7417591276191793,9.611456632044792,-0.9644896286900748,0.0927421119067653,-1.014629149511196
1.42,0.216036928900676,1.603500313182873,1.737700869458218,0.0508560835962743,0.0876275575491365,0.0158844231190686,-0.7690255879243804,-0.8599285195483352,-0.7039543355236212,0.1931251517674666,1.578026424078499,1.7172082803482185,-0.8650759464720518,-0.9519545070261608,-0.7884903821099412,0.8920741002120413,-0.1974821471222354,-0.3987007006145238,-0.7731977451898076,9.590167899869812,-0.9654235267833065,0.0889971636484456,-1.015272760927248
1.44,0.2013801974171369,1.5870093268748566,1.7244832784320596,0.0510399109632036,0.0870834084036353,0.0155998305180559,-0.7733440929132374,-0.8746552264091966,-0.686547072269671,0.1931251517674666,1.578026424078499,1.7172082803482185,-0.8650759464720518,-0.9519545070261608,-0.7884903821099412,1.1603212855679763,-0.2159252494428498,-0.7363353430430708,0.8703631626975072,9.561306197767408,-0.9700274119120568,0.0873476844733694,-1.0122563976255634
1.46,0.1858763748597882,1.5693841937332,1.7108990735553913,0.0482591015931766,0.0881349084387135,0.0151833377730328,-0.7766768879030308,-0.8867571201417013,-0.6732194766441929,0.1931251517674666,1.578026424078499,1.7172082803482185,-0.8650759464720518,-0.9519545070261608,-0.7884903821099412,0.915407231117786,-0.166639749489672,-0.6050946866252349,0.666379781273907,11.67105408005864,-0.969289377599348,0.0901662120437294,-1.0121391033015013
1.48,0.1703144225027525,1.551558211261006,1.6974909792239534,0.044064454239214,0.089879432734718,0.0147098142212252,-0.7792682009501796,-0.8949035698273875,-0.6682052386127111,0.1844743923027461,1.5685068790082373,1.709323376527119,-0.885075946770075,-0.971954507324184,-0.8084903824079643,0.495535389316695,-0.1295656523574384,-0.4073224842843115,0.250711901574091,11.164559484274832,-0.967249451601605,0.0938160462570888,-1.0135598157755572
1.5,0.1554879792623317,1.534502801252176,1.6847814348418657,0.0401179259974891,0.0916246005433854,0.0142731216107546,-0.7812538288228176,-0.9000251471475693,-0.6698787193347876,0.1671728733733051,1.5494677888677142,1.69355356888492,-0.9250759473661214,-1.0119545079202306,-0.8484903830040108,0.2871141324558903,-0.0992813936319003,-0.2560788660090907,-0.0836740361038257,10.284548520696262,-0.965035366011114,0.0974487831068476,-1.0153678654811118
1.52,0.1398441290700616,1.5164624138595455,1.6713145360279604,0.0365704163211813,0.0931892754231136,0.0138526035716551,-0.783031385888067,-0.903822297502338,-0.6769640468119722,0.149871354443864,1.530428698727191,1.677783761242721,-0.965075947962168,-1.051954508516277,-0.8884903836000573,0.4116428227112855,-0.0888778532624701,-0.1898575177384398,-0.35426637385923,10.284548520696262,-0.9629224989299168,0.1002958187507932,-1.017409143132593
1.54,0.1241658883761503,1.4983564076712317,1.657657607933595,0.0338294766232789,0.0942664027713209,0.0134801091181166,-0.7847348548826154,-0.9067110476537364,-0.688553690661214,0.1305698354846207,1.5093896085568654,1.66001395357072,-1.0050759485582144,-1.0919545091123233,-0.9284903841961036,0.6032547733024152,-0.0851734497274214,-0.1444375075699167,-0.5794821924620885,9.976390400316632,-0.9610934957319603,0.1021569209923923,-1.0195644102510537
1.56,0.108454632616056,1.480199757207274,1.6437419584023336,0.0319472892434509,0.0947498802871553,0.0131583315857394,-0.7863695141957737,-0.9090260827267224,-0.7024214390198757,0.1112683165253773,1.4883505183865398,1.6422441458987191,-1.045075949154261,-1.13195450970837,-0.9684903847921502,0.7077180635648919,-0.0817329656579157,-0.1157517536492902,-0.693387417933089,9.635907550574302,-0.9599778275988649,0.1030569490692481,-1.02126047678577
1.58,0.0934938076076619,1.4629031438374829,1.6302525052431345,0.03068396030706,0.0947812859751495,0.0128860151214155,-0.788401176464274,-0.911561130441098,-0.716825467572893,0.0909667975512328,1.466311428201313,1.6234743382118169,-1.0850759497503073,-1.1719545103044162,-1.0084903853881966,0.7382922135637516,-0.1015831134250133,-0.1267523857187869,-0.7202014276508628,9.635907550574302,-0.9591383664291028,0.1033398896213332,-1.0229820650422212
1.6,0.0776993924866116,1.4446454586831876,1.61574462621886,0.0297209019027424,0.0945969566857885,0.012629137583235,-0.7909597495121423,-0.914064841346544,-0.7332627919092053,0.0696652785621871,1.4432723380011852,1.6037045305100133,-1.1250759503463537,-1.2119545109004626,-1.048490385984243,0.8411309286853786,-0.1279286523934164,-0.1251855452722938,-0.8218662168156143,9.571625916499215,-0.9585161359288944,0.1032452324678925,-1.024580287481866
1.62,0.061849623610991,1.4263390630298538,1.6008959238460605,0.0291119260857006,0.0943557845932708,0.0124057801855679,-0.7939009220340106,-0.9164421544919438,-0.7508297713804115,0.0381514050110045,1.3989422166158605,1.5790814866233998,-0.8909597510022584,-1.01406484283666,-0.8332627933993214,0.8984721494521481,-0.1470586260934159,-0.1188656572699953,-0.8783489735603112,9.50181791043724,-0.9579866137199092,0.1027855513249336,-1.026179298105653
1.64,0.0459489282948344,1.4079430635576318,1.5860491649312625,0.0278007178316949,0.0949265326634782,0.01216708050651,-0.7957781284733485,-0.9225944014537756,-0.7329455006136891,0.0381514050110045,1.3989422166158605,1.5790814866233998,-0.8909597510022584,-1.01406484283666,-0.8332627933993214,0.9502909916871533,-0.0938603219668932,-0.3076123480915904,0.8942135383361194,9.44468300466633,-0.9615302214779288,0.1030804388889929,-1.0235179406029136
1.66,0.0308198815106385,1.3903801485068552,1.5722397482057624,0.0258843172816085,0.0963987886563391,0.0119288351389123,-0.7965768288760822,-0.9257864270549228,-0.7216654796570201,0.0381514050110045,1.3989422166158605,1.5790814866233998,-0.8909597510022584,-1.01406484283666,-0.8332627933993214,0.5875070692225732,-0.0399350201366832,-0.1596012800573643,0.5640010478334512,11.084305573798702,-0.9600515613305576,0.1055536904023758,-1.023790061261662
1.68,0.0148857506996586,1.371846589740829,1.557860253759582,0.0241764703125994,0.0981467309934775,0.0117137724690429,-0.7967648070933923,-0.927475935595675,-0.7172115796618682,0.0292418075009819,1.388801568187494,1.5707488586894065,-0.9109597513002816,-1.034064843134683,-0.8532627936973446,0.2383642175656374,-0.0093989108655045,-0.0844754270376058,0.2226949997575944,11.084305573798702,-0.9580617921250708,0.1074757561377885,-1.0249310782145258
1.7,-0.001048266521747,1.3532922330782098,1.5434937806392026,0.0232788214486475,0.0995805303021877,0.0115569148599615,-0.7966505313391686,-0.9280288385783118,-0.7196279704016256,0.0114226124809368,1.3685202713307607,1.5540836028214202,-0.950959751896328,-1.0740648437307296,-0.8932627942933911,0.1240736158838513,0.0057137877111812,-0.0276451491318385,-0.1208195369878706,10.255781718253274,-0.9559390922694252,0.1082945028470524,-1.026737152079357
1.72,-0.0169789666419804,1.3347361108048368,1.5290258760811497,0.023590487535596,0.1004333374243633,0.011480013214314,-0.7964857149632922,-0.9277548091352036,-0.727033417547232,-0.0063965825391083,1.3482389744740275,1.5374183469534335,-0.9909597524923746,-1.114064844326776,-0.9332627948894376,0.3706174038001236,0.0082408187938198,0.0137014721554085,-0.3702723572803212,10.255781718253274,-0.9542396216211728,0.1077887082768179,-1.0285691472049745
1.74,-0.0321111480884022,1.3171174415503892,1.5151081174949217,0.0253471789889159,0.100597062280132,0.0115002537322847,-0.7964612409553979,-0.9270814991885412,-0.737616747254039,-0.0262157775889558,1.325957677587492,1.518753091055645,-1.030959753088421,-1.1540648449228224,-0.973262795485484,0.5302377130691475,0.0012237003947146,0.0336654973331129,-0.5291664853403488,9.983982715551974,-0.9530516215916084,0.1056079895271485,-1.0303453824254918
1.76,-0.0480398582929431,1.29857759765771,1.5002253610339344,0.0288036787438066,0.1000300329798302,0.0116171877542783,-0.7964620162280277,-0.9275055127433656,-0.7501623903516041,-0.0460349726388033,1.3036763807009564,1.5000878351578562,-1.0709597536844675,-1.194064845518869,-1.0132627960815304,0.6276403206200298,-3.876363148802575e-05,-0.0212006777412065,-0.6272821548782559,9.78408846313596,-0.9533708697781108,0.1017923681019228,-1.030911966677394
1.78,-0.063973570866077,1.2799947839197858,1.4850842495465832,0.0327613025440252,0.0987463505755308,0.0117451709734205,-0.7969825843710354,-0.9308421510453696,-0.7633182900501584,-0.066854167703552,1.2803950837995195,1.4804225792451662,-1.110959754280514,-1.2340648461149153,-1.0532627966775767,0.6791204665380334,-0.0260284071503857,-0.1668319151002018,-0.657794984927712,9.68836071694568,-0.9539636018902534,0.0974409592452799,-1.031566747430107
1.8,-0.0791262380398404,1.262262878643083,1.470452251130083,0.0362238390956904,0.0970583245834094,0.0118247227854721,-0.7980704773356112,-0.9354557022117104,-0.7762324529742274,-0.0886733627832017,1.256113786883182,1.4597573233175751,-1.1509597548765602,-1.2740648467109617,-1.093262797273623,0.6878298654031716,-0.0543946482287893,-0.2306775583170495,-0.6457081462034497,9.68836071694568,-0.9549858024781542,0.0930343175017354,-1.0319826332159316
1.82,-0.0951060288185331,1.2434947322323222,1.454777555996397,0.0393479906573218,0.0949692393266003,0.0118538528622612,-0.7999286530442531,-0.941079479669356,-0.790591164755175,-0.119029761906621,1.2154900935324977,1.4316406284813716,-0.8602614272524508,-1.0354557037018266,-0.8272791634356055,0.7766149204490479,-0.0929087854320942,-0.2811888728822764,-0.7179355890473804,9.667887539709229,-0.9563035119930337,0.0890387150801017,-1.0321843740028211
1.84,-0.1111878411992399,1.2245291707175257,1.4391839332479417,0.0399022143496277,0.0957131568421442,0.0118141827161292,-0.807647928378229,-0.9545974745122794,-0.7660531899842429,-0.119029761906621,1.2154900935324977,1.4316406284813716,-0.8602614272524508,-1.0354557037018266,-0.8272791634356055,1.4529587073571053,-0.3859637666987936,-0.6758997421461688,1.2268987385466057,12.318297553686534,-0.9588108445719372,0.0874308669154727,-1.031037642351209
1.86,-0.1273939884637419,1.205316853579291,1.424106414133662,0.0369423923153889,0.101447163645939,0.011727532699495,-0.8119047260832836,-0.9653921351121196,-0.7431156483599634,-0.119029761906621,1.2154900935324977,1.4316406284813716,-0.8602614272524508,-1.0354557037018266,-0.8272791634356055,1.2852780243327313,-0.2128398852527302,-0.5397330299920178,1.146877081213976,12.318297553686534,-0.9546569143264284,0.0906755052645943,-1.0337597216158805
1.88,-0.1428287528329239,1.1869109246909322,1.4101350942919806,0.0326606659806428,0.1094162846017255,0.0116192894624424,-0.8121865458920631,-0.9712484901765566,-0.7286838301234367,-0.1276323761791455,1.2051355364954792,1.4233678368470155,-0.8726996172358187,-1.0554557039998498,-0.8374885055278811,0.7788672779387987,-0.0140909904389752,-0.2928177532218412,0.7215909118263308,11.309498601620362,-0.9465454504101152,0.0955266174552247,-1.0400426617739345
1.9,-0.1590435036462115,1.1674515103523184,1.3956573739461302,0.0282616110442819,0.1187878168101091,0.0115158855860664,-0.8089468206849773,-0.9743745543405262,-0.7201650139669826,-0.1448376047241945,1.1844264224214427,1.4068222535783037,-0.8975759972025545,-1.0954557045958964,-0.8579071897124323,0.4817632335549958,0.1619862603542909,-0.1563032081984827,0.4259408078227056,11.309498601620362,-0.9370826834291204,0.1004893115939859,-1.0472245627747023
1.92,-0.1751605828795145,1.1479497327942505,1.3812789896782816,0.0246174956037066,0.1279244766733068,0.01143129754862,-0.8027370946079733,-0.9758233737022264,-0.7181036601256756,-0.1620428332692435,1.1637173083474062,1.3902766703095917,-0.9224523771692904,-1.1354557051919427,-0.8783258738969836,0.3350707207192674,0.3104863038501992,-0.072440968085008,0.1030676920653506,10.884027790131768,-0.9275945009018576,0.1042909066076362,-1.0547626688643614
1.94,-0.1911273495575046,1.1284300435795978,1.3668911904444363,0.0218873022862383,0.1360023089156683,0.0113667958421918,-0.7941788162715936,-0.976304304006006,-0.7208021108383508,-0.1804918808126293,1.1410081942435673,1.372710152831652,-0.9473287571360264,-1.175455705787989,-0.8987445580815349,0.4493246551458544,0.4279139168189838,-0.0240465151889857,-0.134922535633758,10.539307152851508,-0.9180942988698289,0.1072002998892431,-1.062540303492571
1.96,-0.2061171271058837,1.1098837049168462,1.3531531870498033,0.0201849901053116,0.1422103702266883,0.0113289762135134,-0.7841494339944938,-0.9761375985515288,-0.7251842067091958,-0.1989409283560152,1.1182990801397283,1.355143635353712,-0.972205137102762,-1.2154557063840357,-0.919163242266086,0.5473094732188397,0.5014691138549909,0.0083352727238583,-0.2191047935422518,10.28745222368434,-0.9099671741246456,0.1090121564259919,-1.0693292035956583
1.98,-0.2216787908094812,1.0903606549292504,1.3385914981954168,0.0191404089154147,0.1470307954414318,0.0113078210157962,-0.7725622684640183,-0.9762020283909856,-0.7308050880268326,-0.2180118853985694,1.0945899660209883,1.3370666507711586,-0.997081517069498,-1.255455706980082,-0.9395819264506372,0.6439349016434223,0.5793582765237726,-0.0032214919728323,-0.2810440658818414,10.160639757642455,-0.9032979028981936,0.1099233934604957,-1.0750654427617836
2.0,-0.2370001180561261,1.0708371312488212,1.3239092121210936,0.0187144992818132,0.1501109356134878,0.0113019845435457,-0.7602703090856601,-0.976185317821288,-0.7371488668615657,-0.2377047519402919,1.0698808518873473,1.3184791990839917,-1.0219578970362335,-1.2954557075761284,-0.9600006106351884,0.6916214183105447,0.6145979689179126,0.0008355284848715,-0.3171889417366513,10.160639757642455,-0.898550603777206,0.1101913144100616,-1.079234507785843
2.02,-0.2513248435522704,1.0522905477917393,1.3098392793676814,0.0188621581438868,0.1515285207898347,0.0113133245918978,-0.7483437906673364,-0.9761263757918688,-0.743580711860043,-0.2750136335104092,1.0220278653577568,1.2870517687780152,-0.7995094139228393,-1.0761853193114042,-0.7322144209067064,0.6775211174382041,0.5963259209161853,0.0029471014709736,-0.3215922499238688,10.133380641005717,-0.8951539130160786,0.1098563989470609,-1.0823779578989114
2.04,-0.2661568360379278,1.0327226062937147,1.2951435852896096,0.018290366828189,0.152705344701064,0.0112756561120611,-0.73524384913616,-0.980395422978854,-0.724351895739866,-0.2750136335104092,1.0220278653577568,1.2870517687780152,-0.7995094139228393,-1.0761853193114042,-0.7322144209067064,1.1827728029809084,0.6549970765588164,-0.2134523593492698,0.9614408060088508,10.116521709453082,-0.8954738040561784,0.110215648351938,-1.0822219328198972
2.06,-0.2807084603887512,1.013089236364051,1.2808636084349578,0.0164426069913354,0.1543096644368455,0.0111643390271205,-0.7205474314265452,-0.9826429377487192,-0.7047582434744735,-0.2750136335104092,1.0220278653577568,1.2870517687780152,-0.7995094139228393,-1.0761853193114042,-0.7322144209067064,1.2297837464706598,0.7348208854807414,-0.1123757384932533,0.979682613269628,11.864620687889328,-0.8934378793812681,0.1127458497510481,-1.082762597471702
2.08,-0.2942487638876616,0.9944167230306648,1.2676301648282111,0.0144856108289834,0.1554201145379883,0.0110452288897382,-0.7055586642657361,-0.982795770590789,-0.6892106789532321,-0.2830087276496376,1.0112660121646428,1.2797296245689482,-0.8073572348902751,-1.0961853196094271,-0.7312275317157345,1.0798301503254213,0.7494383580404551,-0.0076416421034952,0.7773782260620699,11.484307133382572,-0.8913192134906626,0.1157149225647961,-1.083225318298517
2.1,-0.3081890633533446,0.9747758857241876,1.2539944140683674,0.013045489169862,0.1555985231301454,0.0109580476370042,-0.6893653310519526,-0.9813925379112134,-0.6752845029793401,-0.2989989159280943,0.9897423057784148,1.265085336150814,-0.8230528768251467,-1.136185320205474,-0.7292537533337908,1.0702003080982772,0.8096666606891734,0.0701616339787825,0.6963087986946004,11.484307133382572,-0.89013335450977,0.1180358727082006,-1.0830201137691269
2.12,-0.3218027976253845,0.9551745190409644,1.240615947638133,0.0127941453013067,0.1543797165257094,0.0109451065205034,-0.6728818342934546,-0.9789447513418204,-0.6633257950202377,-0.3149891042065511,0.9682185993921866,1.25044104773268,-0.8387485187600184,-1.1761853208015205,-0.7272799749518472,1.025558409511392,0.8241748379249014,0.122389328469652,0.5979353979551183,11.328978377128806,-0.8906373696739462,0.1191793688240615,-1.0815204029135386
2.14,-0.3344262121232089,0.936606994269292,1.2281150108888736,0.0141490786684111,0.1513931209819861,0.011024796388436,-0.6568700533451935,-0.9759223186433784,-0.653133851824923,-0.3317640745817515,0.9446948929761562,1.235895448233643,-0.8544441606948902,-1.2161853213975666,-0.7253061965699035,0.9609733797668748,0.8005890474130528,0.1511216349220967,0.5095971597657345,11.210821723158006,-0.8931505060009783,0.1186598795596891,-1.0785886480500393
2.16,-0.3473873291218413,0.917120587039,1.215171675946763,0.0174942835203663,0.1458397560331905,0.011198519412674,-0.6404623637388029,-0.9734772377665386,-0.6416665680682195,-0.3485390449569518,0.9211711865601258,1.2213498487346062,-0.8701398026297618,-1.2561853219936132,-0.7233324181879598,1.0083269502878287,0.8203844803195304,0.1222540438419905,0.5733641878351736,11.1406741246401,-0.8981458052612338,0.1159187141549286,-1.0740921507556362
2.18,-0.3600467736789099,0.8976444130895918,1.2024726136993684,0.0217039611772714,0.138200913872147,0.0113664757920412,-0.6267185772351725,-0.9744509942922822,-0.6287233420339452,-0.365706406380524,0.8966474801291943,1.2068535936951177,-0.8858354445646335,-1.2961853225896596,-0.721358639806016,0.9452076086806516,0.6871893251815198,-0.0486878262871803,0.6471613017137168,11.182228737035077,-0.9047305252738606,0.112269788775842,-1.0686112006011812
2.2,-0.3718467832900725,0.8791023848776328,1.1906635284700162,0.0255168794917461,0.1298273526805578,0.0114522804026975,-0.6164176766526415,-0.9772791629691632,-0.6149605138443436,-0.3832661588524679,0.8711237736833616,1.192406683115178,-0.9015310864995052,-1.336185323185706,-0.7193848614240723,0.8710949010477752,0.515045029126554,-0.1414084338440535,0.6881414094800808,11.260583712898551,-0.9132410132269808,0.1086931885539277,-1.061267797236059
2.22,-0.3840877896473937,0.859513990236599,1.1785264842906118,0.0290148229225431,0.1205646768369493,0.0114570188182926,-0.6085516832981293,-0.981393966455623,-0.5994025184501736,-0.4026676671227046,0.8302384267291747,1.159915502777799,-0.6259511741575314,-1.0772791644592794,-0.5419956965588059,0.8956236372919533,0.3932996677256106,-0.205740174322988,0.777899769708501,11.39247828491989,-0.9227440196807212,0.1057742150964287,-1.0526929387010908
2.24,-0.3962842539483561,0.8397494584547559,1.166811232878228,0.0293237274317578,0.1144772294307872,0.011310709250585,-0.6117760944703117,-0.9940055859482376,-0.5723222463893307,-0.4026676671227046,0.8302384267291747,1.159915502777799,-0.6259511741575314,-1.0772791644592794,-0.5419956965588059,1.5023239568440785,-0.1612205586091208,-0.6305809746307345,1.3540136030421424,11.39247828491989,-0.9263628965222496,0.1044167800534959,-1.0510162904211613
2.26,-0.4085439536207484,0.8197734818605419,1.1556701963345473,0.0255390309092526,0.1146852596775595,0.0110730267311462,-0.6133102106343481,-1.002116687775362,-0.5431608907320453,-0.4026676671227046,0.8302384267291747,1.159915502777799,-0.6259511741575314,-1.0772791644592794,-0.5419956965588059,1.51536146597555,-0.0767058082018212,-0.4055550913562133,1.4580677828642696,12.358254944162582,-0.930674544005534,0.1096119226406948,-1.0444122137318048
2.28,-0.4201819053315022,0.8007032436496123,1.145617693949789,0.0208748422889733,0.1184896830442014,0.0108683931887913,-0.6112574891832162,-1.0047667835107266,-0.5164569114031942,-0.4089271788642798,0.8194656350845819,1.1544955458122108,-0.6278578736585094,-1.0972791647573026,-0.5274027331016983,1.3456775103625722,0.1026360725565944,-0.1325047867682283,1.335198966442558,12.32012909421246,-0.9298482955898496,0.1160882616853344,-1.0423201876146189
2.3000000000000003,-0.432351899985275,0.7806081755762954,1.135571775541811,0.0165064816695113,0.1244552665740545,0.0107217900919444,-0.6055043180202871,-1.0046985559324226,-0.4896133851428795,-0.4214462023474305,0.7979200517953963,1.1436556318810347,-0.6316712726604654,-1.1372791653533492,-0.4982168061874832,1.3726603144265177,0.287658558146453,0.0034113789151968,1.3421763130157331,12.194802808839995,-0.9261794628272434,0.1220168628231361,-1.0428675295552805
2.32,-0.4443705214301425,0.7605331540165442,1.1260453150387004,0.0133050619144416,0.1309890372506678,0.0106544050505534,-0.5964443189488592,-1.0031267648439706,-0.4643937966553478,-0.4339652258305811,0.7763744685062107,1.1328157179498586,-0.6354846716624214,-1.1772791659493955,-0.4690308792732681,1.3421826942339583,0.452999953571398,0.0785895544226034,1.260979424376582,11.985155068145104,-0.9213864306559404,0.1265300080591148,-1.0447688025320356
2.34,-0.4555924856769484,0.7414992960107153,1.117451712985851,0.0114478822951212,0.1367505823554284,0.010661982763698,-0.5852042208825292,-1.000825863473601,-0.4414765092166595,-0.4466749192638296,0.7528288851872228,1.1234351003643932,-0.6392980706643774,-1.217279166545442,-0.4398449523590531,1.2814406104111375,0.5620049033164987,0.1150450685184822,1.1458643719344186,11.985155068145104,-0.9158569486786357,0.1298773603602426,-1.0476245977975571
2.36,-0.4671513296890062,0.7215175361142223,1.1088760780661722,0.0108789952607614,0.1416700834200336,0.0107559061170988,-0.5712203679644144,-0.9976224713499416,-0.4172960021774834,-0.459384612697078,0.7292833018682349,1.1140544827789278,-0.6431114696663334,-1.2572791671414885,-0.4106590254448379,1.4057976243089123,0.6991926459057385,0.1601696061829638,1.2090253519588037,11.944460257784158,-0.9109407971737687,0.1317598638707048,-1.0502169719650358
2.38,-0.4784135517712789,0.7015972709143871,1.1007868277940602,0.0118220211474273,0.1450183816452656,0.0109464759862166,-0.5557365062166522,-0.9946885157227212,-0.3928293938571863,-0.4721896411053753,0.7047377185343457,1.105403513366318,-0.6469248686682894,-1.2972791677375348,-0.3814730985306229,1.4551400215659198,0.7741930873881142,0.1466977813610159,1.223330416014856,11.944460257784158,-0.9073898128224204,0.1321690779616471,-1.0518051189085376
2.4,-0.4893547890327091,0.6817305981520623,1.0931942875133775,0.0141456685175896,0.146590186098252,0.0112212796760604,-0.5393444891253736,-0.9922984044463724,-0.3676488428310974,-0.4850900044887216,0.6791921351855555,1.0974821921265634,-0.6507382676702453,-1.3372791683335812,-0.3522871716164078,1.507042638921974,0.8196008545639288,0.1195055638174402,1.2590275513044424,11.974272314184418,-0.9056434978343174,0.1313185041237914,-1.052051846000985
2.42,-0.499441158739453,0.662883308355812,1.0864566050747126,0.0171832135182338,0.1464103011591128,0.0115205189992413,-0.523350197759988,-0.9919922007029416,-0.3428370026406723,-0.5163220134889778,0.6321156779297437,1.0748118453718227,-0.5052875797430303,-1.0922984059364886,-0.2676488413409813,1.476091571218171,0.7997145682692774,0.0153101871715521,1.2405920095212546,12.026726126263384,-0.9060357342466536,0.1293772138216344,-1.050713036955391
2.44,-0.5098197698362372,0.6429665204597654,1.079778771581799,0.0183105023890304,0.1468175642585377,0.0117044599386113,-0.5153332316876962,-0.9989897541979076,-0.3267583078256484,-0.5163220134889778,0.6321156779297437,1.0748118453718227,-0.5052875797430303,-1.0922984059364886,-0.2676488413409813,0.9640564387963352,0.4008483036145926,-0.3498776747483056,0.8039347407511971,12.09058827492936,-0.9017298428979869,0.1291495675037856,-1.0536844022604228
2.46,-0.5200191187531292,0.6229468231176135,1.073434338020668,0.0166864235031496,0.149585352671017,0.0117449985274466,-0.5046576345017622,-1.002471389610792,-0.308259767643401,-0.5163220134889778,0.6321156779297437,1.0748118453718227,-0.5052875797430303,-1.0922984059364886,-0.2676488413409813,1.0819960135078992,0.5337798592967014,-0.1740817706442188,0.9249270091123696,11.399801146159916,-0.901376798702726,0.1319903077474572,-1.0521239055857392
2.48,-0.5299731632853769,0.6028837350294658,1.0674911423934883,0.0139754473847301,0.1532976626657933,0.0117282901613991,-0.4910852816534741,-1.0034580109361952,-0.2868852135067165,-0.5213748892864081,0.6211926938703788,1.0721353569584129,-0.4984761978665616,-1.1122984062345118,-0.2476488410429581,1.2669389764509456,0.6786176424144003,-0.049331066270164,1.0687277068342242,11.63027099007104,-0.8994971650738867,0.1362230052715047,-1.0514517342507037
2.5,-0.5391532258466418,0.5838342447917199,1.0622627815628964,0.0116350702720759,0.1568344978243498,0.0117300304566772,-0.4758663232978827,-1.0019043565960106,-0.264560366639907,-0.5314806408812687,0.5993467257516489,1.0667823801315934,-0.4848534341136243,-1.1522984068305584,-0.2076488404469116,1.353171573438206,0.7609479177795697,0.0776827170092309,1.1162423433404731,11.802057768983104,-0.8975601966524037,0.1404372360063248,-1.0506257687495693
2.52,-0.5484845032267328,0.5638288021924467,1.057234896082086,0.0101807540244542,0.1599546994736273,0.0117987102124674,-0.4580119270874004,-0.9988928696981648,-0.2393287917544748,-0.5415863924761293,0.5775007576329192,1.0614294033047738,-0.471230670360687,-1.1922984074266048,-0.1676488398508652,1.552804630801922,0.8927198105241174,0.1505743448922958,1.2615787442716102,12.055041648560293,-0.8960832645174384,0.1438103433937237,-1.0493373638023809
2.54,-0.5574414868516206,0.5438963852087438,1.0527297864473897,0.0103290350894842,0.1620024535250669,0.011974936181596,-0.4386796537125992,-0.994802376702008,-0.2124478085299746,-0.5510110058833431,0.5536547894843871,1.0580764265077565,-0.4576079066077497,-1.2322984080226511,-0.1276488392548187,1.6681248348861013,0.9666136687400572,0.2045246498078357,1.3440491612250096,12.055041648560293,-0.8956278255430217,0.1457421770688554,-1.0472957116086083
2.56,-0.5660028786436755,0.5240510293565287,1.0487754949019448,0.0125279289590078,0.1627368312627571,0.0122874243324342,-0.418587758000537,-0.9902809672852324,-0.1843051071624455,-0.5604356192905567,0.529808821335855,1.0547234497107392,-0.4439851428548123,-1.2722984086186977,-0.0876488386587722,1.7436592676612697,1.0045947856031106,0.2260704708387795,1.407135068376454,12.161573978451996,-0.8976695164559846,0.1465092540310335,-1.0424332417763664
2.58,-0.5737591923398327,0.5052588153946224,1.0455548876227043,0.0161589879142623,0.1620904039037617,0.0126762568015659,-0.399014198902221,-0.9885310254047732,-0.156093286851387,-0.5695196636039471,0.5049628531724217,1.052370472928623,-0.430362379101875,-1.312298409214744,-0.0476488380627258,1.7190791994725785,0.978677954915802,0.0874970940229591,1.4105910155529282,12.338534636306576,-0.9027880516179124,0.1460623835841308,-1.0346472633970194
2.6,-0.5815201622187298,0.4854818885313454,1.0427631582257482,0.0202209084356544,0.1598218782807622,0.01306947489151,-0.3782149240613004,-0.9893452553222196,-0.124449492270329,-0.578263138823514,0.4791168849940874,1.0510174961614078,-0.4167396153489377,-1.3522984098107904,-0.0076488374666794,1.8938073686061685,1.0399637420460297,-0.0407114958723198,1.5821897290528963,12.338534636306576,-0.9097779459596024,0.1455599088226824,-1.0250594354686462
2.62,-0.5888661926299562,0.4656696379643722,1.0406230768691949,0.0238524927257624,0.1556798698518391,0.0133803847619888,-0.357587277077487,-0.991809910733196,-0.0910373194207742,-0.6004309084217948,0.4360146257652345,1.0365406836122315,-0.2993638351798078,-1.0893452568123356,-0.0244494907802129,1.9671982874841412,1.0313823491906708,-0.1232327705488256,1.6706086424777444,12.466304711716475,-0.9185730983715136,0.1457745558400035,-1.0136010218423943
2.64,-0.5959541695493696,0.4457113425789152,1.0389061726538509,0.0238746947788674,0.1528841850293718,0.0134646767347777,-0.3521447293815435,-1.0023868994375893,-0.0823098986014723,-0.6004309084217948,0.4360146257652345,1.0365406836122315,-0.2993638351798078,-1.0893452568123356,-0.0244494907802129,0.7376684377697448,0.2721273847971717,-0.5288494352196582,0.4363710409650903,12.56577868756358,-0.9176227481966716,0.1495236322265486,-1.009494161048718
