t,x,y,z,roll,pitch,yaw,v_x,v_y,v_z,ref_x,ref_y,ref_z,ref_v_x,ref_v_y,ref_v_z,a_com,a_x,a_y,a_z,thrust,wind_x,wind_y,wind_z
0.0,1.4666619502063936,2.0919481385685765,2.1454608702211937,0.031974127556815,0.0997005777829314,0.0422590550772105,2.5136422805101932e-05,0.003417276865228,-0.0002426683714077,1.4666590283941785,2.09211541214628,2.145455679915293,-0.1000661208876283,-0.0949869749430091,-0.1001910497225101,0.1712987226445096,0.001256821140255,0.1708638432614045,-0.0121334185703871,10.256014283831972,-0.9403844969739332,0.2515406128231764,-0.8799830999954273
0.02,1.4668242286172233,2.0922271478454992,2.145362319668117,0.0401939445471867,0.0939077694316542,0.042604138511116,0.015754636766056,0.0207864356537759,-0.0101907816309065,1.4666590283941785,2.09211541214628,2.145455679915293,-0.1000661208876283,-0.0949869749430091,-0.1001910497225101,1.2728607695796292,0.786475017162548,0.8684579394273942,-0.4974056629749404,10.256014283831972,-0.952645768301184,0.2489445323948041,-0.8650914529561942
0.04,1.4672579256673226,2.092657385487549,2.144970353305235,0.0541997561357444,0.0774488348293121,0.0427388494314747,0.0252176760459163,0.0206096736520176,-0.0284127954883604,1.4666590283941785,2.09211541214628,2.145455679915293,-0.1000661208876283,-0.0949869749430091,-0.1001910497225101,1.0266719853958763,0.4731519639930119,-0.0088381000879152,-0.9111006928726934,9.195475759825058,-0.9556110308001436,0.2381807465704128,-0.8625917726454729
0.06,1.4677382615081465,2.092993557878643,2.144241053686136,0.0677886859498529,0.056082635625698,0.0422672954164417,0.0239533872664585,0.0144559737774618,-0.0474299804643548,1.4656583671853023,2.09116554239685,2.1444537694180683,-0.1200661211856515,-0.1149869752410323,-0.1201910500205333,1.001398737610498,-0.0632144389728885,-0.3076849937277896,-0.9508592487997222,9.09684114713582,-0.9658126717355175,0.2236658096389255,-0.8566607217587131
0.08,1.4681178293774069,2.093182703088987,2.1430743605507923,0.0815502866865353,0.0313908829984049,0.0411962460191209,0.0132544762388503,0.0044316147519173,-0.0683156880353844,1.4636570447675497,2.0892658028979896,2.1424499484236184,-0.160066121781698,-0.1549869758370787,-0.1601910506165798,1.2758989495569928,-0.5349455513804108,-0.5012179512772278,-1.0442853785514783,9.09684114713582,-0.9804430596139784,0.2070513041117876,-0.8488434516007407
0.1,1.468187452625174,2.093138644689808,2.1414823355674635,0.0946697051444931,0.0073719883223217,0.0397408980041873,-0.006286272267264,-0.0086565225754882,-0.0899287270240515,1.461655722349797,2.0873660633991293,2.140446127429168,-0.2000661223777444,-0.1949869764331252,-0.2001910512126262,1.5970783052232287,-0.9770374253057164,-0.6544068663702771,-1.0806519494333553,9.066573174789028,-0.995216282585254,0.1898496876838863,-0.8424203715094859
0.12,1.4678199004606751,2.0928273852677863,2.139563117890201,0.1065600533957012,-0.0127072914016248,0.038249562348139,-0.0314881427864656,-0.0237069803652825,-0.1110820895073416,1.4576543999022422,2.083466323870467,2.1364423064049154,-0.2400661229737909,-0.2349869770291716,-0.2401910518086726,1.8090849217895024,-1.2600935259600825,-0.7525228894897149,-1.057668124164507,9.079321422678731,-1.0109130476783124,0.1712462784359327,-0.8364546954458644
0.14,1.4668679395638369,2.0921645114639382,2.1370995654098928,0.1184951822262653,-0.029885628342734,0.0367782880689708,-0.0624693498283566,-0.0420707234957958,-0.1342375338302745,1.4536530774546874,2.0795665843418045,2.132438485380663,-0.2800661235698374,-0.2749869776252182,-0.2801910524047192,2.140815763516584,-1.5490603520945494,-0.918187156525668,-1.1577722161466444,9.119542419311074,-1.024823714650601,0.152043751557523,-0.8335742374688093
0.16,1.465256151490957,2.091108026738961,2.134166348998227,0.1298472486373922,-0.0424316804117314,0.035595569194617,-0.0970785188959007,-0.0629248513691641,-0.1579644806609988,1.4486517549922313,2.074666844798241,2.1274346643415094,-0.3200661241658838,-0.3149869782212646,-0.3201910530007656,2.342892036998644,-1.7304584533772038,-1.0427063936684131,-1.186347341536215,9.119542419311074,-1.035069309411248,0.1336097432948907,-0.834774817875677
0.18,1.4629200309242771,2.0895920808387194,2.130752499610548,0.1400720921310414,-0.0497408223260933,0.0348710769372469,-0.1346913290285225,-0.0874800514024261,-0.1822299227719856,1.442650432514874,2.068767105239776,2.1214308432874542,-0.3600661247619302,-0.354986978817311,-0.360191053596812,2.5526912345541417,-1.880640506631092,-1.2277600016630974,-1.21327210554934,9.153353317201436,-1.0426800094057993,0.116161446614052,-0.8376666773183769
0.2,1.4599879197916965,2.087660971773362,2.1270562668358566,0.1479273868828492,-0.0512543211151316,0.0347526262292358,-0.1714415783422191,-0.1140521615407532,-0.2054784417728153,1.456185464472851,2.085218078268598,2.121641003471949,-0.2346913305186387,-0.1874800528925422,-0.2822299242621018,2.548112780841038,-1.8375124656848263,-1.3286055069163585,-1.1624259500414833,9.200663344046006,-1.047221569308587,0.1016754294951254,-0.8432012350724797
0.22,1.456126279904234,2.084914451563696,2.1228751394280225,0.1500722531945905,-0.046625387661661,0.0351109105316486,-0.2122197931745064,-0.1575577220089737,-0.2098866632187226,1.456185464472851,2.085218078268598,2.121641003471949,-0.2346913305186387,-0.1874800528925422,-0.2822299242621018,2.9895773166445787,-2.038910741614365,-2.175278023411023,-0.2204110722953678,10.65836776375636,-1.052999674437592,0.0903838982615608,-0.8490059544524075
0.24,1.4514987609494698,2.0813695639266343,2.118648001883068,0.1453463563778285,-0.0363569895832722,0.0358114442401505,-0.2477736051584114,-0.1933036269097173,-0.2125246404059466,1.456185464472851,2.085218078268598,2.121641003471949,-0.2346913305186387,-0.1874800528925422,-0.2822299242621018,2.5242831593346398,-1.7776905991952516,-1.7872952450371793,-0.1318988593611986,10.65836776375636,-1.052395007462808,0.0927855967386618,-0.8514604819655751
0.26,1.4464988647370165,2.0774154112156524,2.1145572027928954,0.138455774603661,-0.0237374196351473,0.0366548900873132,-0.2762305491775822,-0.220589514705315,-0.2177950450379521,1.4538385511676646,2.0833432777396728,2.118818704229328,-0.2546913308166619,-0.2074800531905654,-0.302229924560125,1.9887775772376048,-1.4228472009585391,-1.364294389779884,-0.2635202316002727,10.413815848324704,-1.0465324725577976,0.0966623013795437,-0.8605739296187382
0.28,1.4407087991778385,2.072746208331991,2.110113041864417,0.1308369027132307,-0.0093451207939736,0.0375640934684669,-0.3007936000209509,-0.2446705892269969,-0.2264871370921261,1.4491447245572917,2.0795936766818217,2.113174105744086,-0.2946913314127083,-0.2474800537866119,-0.3422299251561714,1.7739744087295584,-1.228152542168437,-1.204053726084099,-0.4346046027087019,10.130471754888276,-1.037909863559761,0.1004907566312248,-0.8730331734073293
0.3,1.434479036753537,2.0676293800014456,2.1054577994979877,0.1237332191972379,0.0047358222052865,0.0383571398139986,-0.3206105780256396,-0.2657267805814068,-0.238770881524843,1.444450897946919,2.075844075623971,2.107529507258844,-0.3346913320087548,-0.2874800543826583,-0.3822299257522179,1.570800901515006,-0.9908489002344312,-1.0528095677204945,-0.6141872216358452,9.875338016570822,-1.0279733292815303,0.1040445926803889,-0.886496785486564
0.32,1.4278962268239572,2.0621175603987987,2.100518280784208,0.1174995846105957,0.0174762362136017,0.0389494941175728,-0.3365290343115218,-0.284497240560516,-0.2546005040325956,1.437757071306744,2.070094474536318,2.099884908743799,-0.3746913326048012,-0.3274800549787047,-0.4222299263482643,1.463133937043044,-0.7959228142941144,-0.93852299895546,-0.7914811253876275,9.65052276012375,-1.0185462314308051,0.10680849253629,-0.8989481774741461
0.34,1.4213772128428048,2.056549389249823,2.0955124628273096,0.1124795020826994,0.027781173450209,0.0392959434665026,-0.348850736698947,-0.3008320814174042,-0.2715909892924523,1.431063244666569,2.0643448734486647,2.092240310228755,-0.4146913332008477,-0.3674800555747513,-0.4622299269443108,1.3297819040255745,-0.6160851193712596,-0.8167420428444094,-0.8495242629928373,9.46047959954467,-1.008820519075119,0.1082974780388419,-0.9122931488632164
0.36,1.4142795891168196,2.050356499732428,2.089875236572068,0.1079033670484654,0.0366056456324203,0.0394317769440851,-0.3602023733090161,-0.3175653332490283,-0.2913456410545613,1.4233694180114926,2.05759527234611,2.083595711698809,-0.4546913337968941,-0.4074800561707977,-0.5022299275403572,1.4134245972369794,-0.5675818305034552,-0.8366625915812026,-0.98773258810545,9.355281739390191,-0.9997816835950468,0.1088837382414194,-0.9249692916675164
0.38,1.4069677286836018,2.043835466645385,2.083824766930048,0.1037504647728626,0.0435296132940133,0.0393546986211613,-0.370433831502157,-0.3336512849780538,-0.3127374446403581,1.4146755913415152,2.049845671228655,2.0739511131539627,-0.4946913343929405,-0.4474800567668441,-0.5422299281364037,1.4326983636130772,-0.5115729096570432,-0.8042975864512747,-1.0695901792898392,9.266201625333451,-0.9923657328907434,0.1090925986773712,-0.9356391672832904
0.4,1.3994583129834264,2.037000376361394,2.0773325052333336,0.0998762103153006,0.04884424648918,0.0391032637845338,-0.3795396705656246,-0.3482386257756796,-0.3342972168723869,1.388446037108494,2.027152902396483,2.068187894698029,-0.4704338329922731,-0.4336512864681699,-0.4127374461304742,1.3788859591104798,-0.4552919531733812,-0.7293670398812929,-1.077988611601438,9.196910811235284,-0.9857679022062784,0.1091754880992517,-0.9454041213914324
0.42,1.392187698987934,2.0302167643030744,2.071014872234481,0.0968324336480523,0.0519049058500358,0.0386943739190983,-0.3850742647414968,-0.3645437680144642,-0.3284856171248261,1.388446037108494,2.027152902396483,2.068187894698029,-0.4704338329922731,-0.4336512864681699,-0.4127374461304742,0.9086584723432188,-0.2767297087936105,-0.8152571119392299,0.2905799873780396,9.138206819524385,-0.9910967147875208,0.1103165883200059,-0.9418574169244684
0.44,1.3844315571575048,2.0227670290670767,2.0644809618318734,0.0946061227741053,0.0525174220179302,0.0380723968796908,-0.3903913593434807,-0.3797795151012463,-0.3256930376659256,1.388446037108494,2.027152902396483,2.068187894698029,-0.4704338329922731,-0.4336512864681699,-0.4127374461304742,0.8188375668182087,-0.2658547300991909,-0.7617873543391024,0.1396289729450217,10.871895139865046,-0.9908204841986952,0.1118073581966828,-0.9418874551361548
0.46,1.3765618534422623,2.015015364383105,2.057931233923825,0.0931623192706335,0.0505462818709689,0.0372593626252482,-0.3964863151881556,-0.3947059563681928,-0.3293962578017968,1.3837416987785711,2.022816389531801,2.064060520236725,-0.4904338332902964,-0.4536512867661931,-0.4327374464284975,0.8271350781747553,-0.3047477922337477,-0.7463220633473266,-0.1851610067935577,10.471548918437293,-0.992067020570669,0.1119373687435751,-0.9410939340689988
0.48,1.3689607878540495,2.007379784173124,2.05159587106476,0.0923391983851934,0.0464997038884534,0.0363235928550847,-0.4035437952960812,-0.4083456597966557,-0.3372910841595274,1.3743330221187258,2.0141433638024377,2.055805771314115,-0.5304338338863428,-0.4936512873622395,-0.4727374470245439,0.8633913051289464,-0.3528740053962781,-0.6819851714231467,-0.3947413178865294,10.13023929904648,-0.9948470453475216,0.1109222306529926,-0.9394789741777066
0.5,1.360788043904294,1.9990682604447372,2.0447293328624867,0.0921496970650022,0.0405665653782201,0.0352307715188712,-0.413698054565226,-0.4221348934932692,-0.3491107767533257,1.3649243454588802,2.0054703380730743,2.047551022391506,-0.5704338344823893,-0.533651287958286,-0.5127374476205904,1.0403810362755628,-0.5077129634572436,-0.6894616848306723,-0.5909846296899168,9.879430096277249,-0.998725888338934,0.1087969197424749,-0.9373311695594382
0.52,1.3523802480124152,1.9904827270892,2.0375961057360983,0.0927630297014501,0.0339576845698146,0.0341259816986546,-0.4268057093507063,-0.4357890993564141,-0.3637307778925774,1.3535156687692325,1.9947973123139089,2.037296273439094,-0.6104338350784357,-0.5736512885543325,-0.5527374482166368,1.195818114347021,-0.655382739274013,-0.682710293157246,-0.7310000569625857,9.686683701022956,-1.003786710782777,0.1058291353407111,-0.9342227452682612
0.54,1.3436830165999925,1.9816220642966385,2.0301577915787603,0.0941954788871045,0.0275239063080604,0.0330822551601306,-0.4423769822997381,-0.4496908439816854,-0.3793634704119134,1.3421069920795845,1.9841242865547428,2.027041524486682,-0.6504338356744822,-0.6136512891503789,-0.5927374488126833,1.3039402979849288,-0.7785636474515911,-0.6950872312635636,-0.7816346259667956,9.549444486749053,-1.009085101288297,0.102273964320544,-0.9309416652847876
0.56,1.3351071721653491,1.972931443711827,2.022795339692028,0.0959347988847566,0.0222860026744744,0.0321840128389883,-0.459630472666586,-0.4643624424422864,-0.3948447719048099,1.3296983153750357,1.972451260780676,2.015786775519369,-0.6904338362705286,-0.6536512897464253,-0.6327374494087297,1.3716863955930152,-0.8626745183423934,-0.7335799230300533,-0.7740650746448252,9.515782636327458,-1.0134576214690134,0.0978807248467059,-0.9291248031549044
0.58,1.3257027619709012,1.9634706491115643,2.0147185998521944,0.0976073824212374,0.0185509089331106,0.0313841937565311,-0.480030169591243,-0.4809182199257559,-0.4120550691438059,1.3162896386555856,1.959778234991708,2.003532026537155,-0.730433836866575,-0.6936512903424717,-0.6727374500047761,1.5703787232341544,-1.019984846232852,-0.827788874173474,-0.8605148619498043,9.501611520035112,-1.0160799463338788,0.0934870575213659,-0.9293425292907852
0.6,1.315869518074911,1.9536653126942176,2.0062877333219333,0.0985803887269065,0.0175381679260585,0.0307936344463865,-0.5020818519308271,-0.4986990254300387,-0.4301727654518681,1.301701253491339,1.9394247381152767,1.994115846395004,-0.5800301710813591,-0.5809182214158721,-0.5120550706339221,1.6812827378955515,-1.102584116979202,-0.8890402752141369,-0.9058848154031102,9.47228798976812,-1.0172283649503393,0.0898696486229856,-0.9310308039737456
0.62,1.306111105586908,1.9439432473891645,1.9982202311534327,0.0970762888530567,0.0198262272279632,0.0303808835522857,-0.5235057849243427,-0.5230379412482529,-0.4179885854205397,1.301701253491339,1.9394247381152767,1.994115846395004,-0.5800301710813591,-0.5809182214158721,-0.5120550706339221,1.7319223215495163,-1.071196649675782,-1.2169457909107089,0.6092090015664214,11.358921678434854,-1.022576120579449,0.0890402875467686,-0.9276509765795958
0.64,1.2954308685316525,1.933251909286301,1.9899576209912475,0.0926768944688264,0.025128178636506,0.0300213913431973,-0.5430107458268726,-0.5440145814377504,-0.4092260366602193,1.301701253491339,1.9394247381152767,1.994115846395004,-0.5800301710813591,-0.5809182214158721,-0.5120550706339221,1.497702569125337,-0.9752480451264922,-1.048832009474876,0.4381274380160227,11.358921678434854,-1.0197868026459918,0.0927690442233425,-0.9299395301096686
0.66,1.2843900221315134,1.9221922374979048,1.9817907988687424,0.087490015967182,0.0320380417358069,0.0297328032487744,-0.5597644452408899,-0.5606779673628564,-0.407826152171114,1.2959009517805251,1.9336155559011177,1.988995295688665,-0.6000301713793823,-0.6009182217138953,-0.5320550709319453,1.1835482152484325,-0.8376849707008638,-0.8331692962552983,0.0699942244552609,10.891569762026847,-1.0147676002069332,0.0964258716045246,-0.9351889550940192
0.68,1.2736161214216597,1.9114053415964491,1.9739998635704747,0.0827209358320962,0.0392036354742979,0.0294946436893453,-0.5732758842514032,-0.5739314827905307,-0.4123229383354277,1.2843003483588982,1.9219971914728005,1.9787541942759863,-0.6400301719754288,-0.6409182223099418,-0.5720550715279917,0.972671246020447,-0.6755719505256663,-0.6626757713837195,-0.2248393082156852,10.444900000124107,-1.0090880334556225,0.0998876391912617,-0.9414582286022511
0.7000000000000001,1.2620219961583574,1.8997998237651883,1.9656562541762568,0.0782866487503876,0.0466679605537328,0.0292505131394836,-0.5852362483709539,-0.5859428999405228,-0.42203807096056,1.272699744937271,1.910378827044483,1.968513092863308,-0.6800301725714752,-0.6809182229059882,-0.6120550721240382,0.976867767084252,-0.5980182059775352,-0.6005708574996049,-0.4857566312566119,10.08361340599822,-1.002962180154629,0.1026670090918587,-0.9483781871295625
0.72,1.2502092465817374,1.8879695790157929,1.95706676415172,0.0746339688387212,0.0535243521800636,0.0289911335684049,-0.5953388402197972,-0.5966241880406697,-0.43642851509579,1.2590991414858417,1.8967604625863632,1.9562719914208275,-0.7200301731675217,-0.7209182235020347,-0.6520550727200847,1.0286364274512043,-0.5051295924421662,-0.5340644050073451,-0.7195222067614998,9.791207603434486,-0.9970704001299474,0.1044231930454092,-0.9553132443268388
0.74,1.2388152966864938,1.876541420637182,1.948617792630894,0.0718897580372509,0.0591827196761239,0.0287180116296131,-0.6034822836501588,-0.6059635280461155,-0.4522361744183403,1.245498538034412,1.883142098128244,1.9440308899783465,-0.7600301737635682,-0.7609182240980812,-0.6920550733161311,1.0042671904162632,-0.4071721715180776,-0.4669670002722892,-0.7903829661275147,9.555981000200518,-0.9914527217822672,0.1054182795497251,-0.9622427343306494
0.76,1.226662339943126,1.8643177799849493,1.939381396070444,0.0694923388166902,0.0642040937008837,0.0283896896618806,-0.6113322138450551,-0.6158951624606359,-0.4706575746194469,1.2308979345680815,1.8685237336552227,1.9307897885209648,-0.8000301743596145,-0.8009182246941275,-0.7320550739121775,1.1175942371649956,-0.3924965097448163,-0.4965817207260192,-0.9210700100553332,9.355911815294348,-0.9862624661174478,0.1057869533761095,-0.9689207535281498
0.78,1.2143582436010611,1.851897226159632,1.9297602032935324,0.0673022184899549,0.0684343275642069,0.0280165296396522,-0.6186396816363818,-0.6256126901446173,-0.4906054021304193,1.2152973310868496,1.8529053691673003,1.9165486870486816,-0.840030174955661,-0.840918225290174,-0.772055074508224,1.168059557789895,-0.3653733895663369,-0.4858763841990687,-0.9973913755486202,9.283880352259075,-0.9815696192692712,0.1058613336579305,-0.9752019636379734
0.8,1.2019125343436463,1.839286080468163,1.919725511290284,0.0651982435573804,0.0720394721035083,0.0276053116570062,-0.6255234885159106,-0.6349545830962624,-0.5119256831557992,1.183426259519242,1.8206165916524009,1.9052299331870115,-0.718639683126498,-0.7256126916347334,-0.5906054036205355,1.2136846213862729,-0.344190343976436,-0.4670946475822557,-1.066014051268993,9.283880352259075,-0.9774658820697628,0.1057868799785399,-0.9808807522391236
0.8200000000000001,1.1899951433159397,1.8271048302314157,1.9100990886613236,0.0628563675803246,0.0747901685897269,0.0271466203144907,-0.6286244434917233,-0.6464718200321032,-0.50029510817035,1.183426259519242,1.8206165916524009,1.9052299331870115,-0.718639683126498,-0.7256126916347334,-0.5906054036205355,0.8329660000421278,-0.1550477487906376,-0.5758618467920418,0.5815287492724641,9.218121290975432,-0.9791776134806645,0.1068409020371776,-0.9800207914699556
0.84,1.1773935984494908,1.8140763991890636,1.9001752386389823,0.0604820713319133,0.0766921469022793,0.0266096636471753,-0.6314382019103759,-0.6558343015428909,-0.4931649741786433,1.183426259519242,1.8206165916524009,1.9052299331870115,-0.718639683126498,-0.7256126916347334,-0.5906054036205355,0.6050043537406774,-0.1406879209326306,-0.4681240755393834,0.3565066995853322,11.2124917262463,-0.9775106380065544,0.1087727721063775,-0.9811541733797352
0.86,1.164732331240921,1.800872362425803,1.890310962856971,0.0587087136068047,0.0774724857726355,0.0260518128443758,-0.634658563489215,-0.6642350234348195,-0.4935945564226162,1.176239862687977,1.8133604647360533,1.8993238791508065,-0.7386396834245211,-0.7456126919327566,-0.6106054039185587,0.450353744039974,-0.1610180789419546,-0.4200360945964321,-0.0214791121986468,10.740263526407034,-0.976370268958934,0.1096793554630752,-0.9823491402399948
0.88,1.1526387228920634,1.7881808977898697,1.8808784847657176,0.0576297610554682,0.0773009236492439,0.0255168877786463,-0.6382793690630669,-0.6713801960504583,-0.4992677589677241,1.1618670690254471,1.798848210903359,1.8875117710783955,-0.7786396840205676,-0.7856126925288031,-0.6506054045146051,0.490787509592312,-0.1810402786925957,-0.357258630781937,-0.2836601272553946,10.331902053419071,-0.9759252170431636,0.1097364694905358,-0.9833292326791842
0.9,1.1398281446247085,1.7746823218853325,1.8707944046832772,0.05735635426541,0.0762756515949086,0.0249718113084944,-0.6426473429390696,-0.678105283986497,-0.509197302832183,1.1474942753629171,1.7843359570706645,1.8756996630059848,-0.8186396846166141,-0.8256126931248495,-0.6906054051106516,0.6381650352477573,-0.2183986938001314,-0.3362543968019382,-0.4964771932229439,10.027011680001124,-0.9763689092022284,0.1088352055377686,-0.9837215044468184
0.92,1.126924367092461,1.7610557373977955,1.8604713255795369,0.0582776134709353,0.0743885241185196,0.0244644218880688,-0.6475887414294405,-0.684330923082708,-0.5227356083651524,1.1311214816705848,1.7678237032081674,1.861887554903772,-0.8586396852126605,-0.865612693720896,-0.7306054057066981,0.7849549635185145,-0.2470699245185448,-0.3112819548105494,-0.676915276648471,9.790356381340644,-0.977591191502855,0.1066699323776903,-0.9836829733257884
0.94,1.113915909198972,1.7473050770555494,1.8498620156491317,0.0605745776549118,0.0716502596591629,0.0240010669645329,-0.6531045814694432,-0.6906569187136636,-0.5375112086382486,1.1147486879782529,1.7513114493456703,1.8480754468015588,-0.898639685808707,-0.9056126943169424,-0.7706054063027445,0.8496485677915419,-0.2757920020001358,-0.3162997815477797,-0.7387800136548106,9.560776809329582,-0.9797225995259752,0.1033366733160396,-0.982948510707806
0.96,1.1014436510877843,1.7341005651391344,1.8395038211171453,0.0634526735992296,0.0684866854312922,0.0235665358694356,-0.6595795683368543,-0.6990911838290154,-0.5520900279511028,1.0973758942710192,1.733799195468272,1.8332633386844448,-0.9386396864047536,-0.9456126949129888,-0.8106054068987909,0.902225381384879,-0.3237493433705551,-0.4217132557675862,-0.7289409656427104,9.560776809329582,-0.982373458879908,0.0988723999252133,-0.9821444272883636
0.98,1.0881673046717548,1.7200099437508751,1.8282944193490471,0.0662483683287115,0.0650470150329869,0.0230743911525779,-0.6678446649710579,-0.7094917630769298,-0.568108299920687,1.0790031005488845,1.7152869415759728,1.817451230552429,-0.9786396870008,-0.9856126955090352,-0.8506054074948374,1.0405153866671544,-0.4132548317101803,-0.5200289623957244,-0.8009135984792082,9.540582058666589,-0.985150598081176,0.0944819888567963,-0.9813326379577386
1.0,1.0747081970893473,1.7057007486670133,1.816758537310291,0.0684504460896386,0.0620597950460375,0.0225617534116287,-0.6777717120428038,-0.7207979609274591,-0.5846928008530632,1.0547750714232018,1.6845353555970288,1.7998890043530127,-0.767844666461174,-0.809491764567046,-0.6681083014108031,1.1196227540738422,-0.4963523535872982,-0.565309892526461,-0.8292250466188089,9.489442664853414,-0.9877457492036172,0.0905924782639764,-0.9806872661540263
1.02,1.061023050376627,1.6910813418902284,1.8052191080956197,0.0681777196632301,0.0612233977699531,0.0220221956666419,-0.6899527080319973,-0.7396996754739559,-0.568341302735786,1.0547750714232018,1.6845353555970288,1.7998890043530127,-0.767844666461174,-0.809491764567046,-0.6681083014108031,1.3901645287207152,-0.6090497994596711,-0.9450857273248404,0.8175749058638604,9.489442664853414,-0.9922949149842072,0.0892422446340362,-0.9775594531379348
1.04,1.0478088709326745,1.67687140643006,1.794528852654034,0.0651132043594678,0.0629762703938107,0.0214930972686251,-0.7001350628166018,-0.75469944817147,-0.5578085560410823,1.0547750714232018,1.6845353555970288,1.7998890043530127,-0.767844666461174,-0.809491764567046,-0.6681083014108031,1.0483466541076023,-0.5091177392302249,-0.749988634875709,0.526637334735186,11.544788586368668,-0.9924891869867516,0.0920491530580976,-0.976685279781268
1.06,1.0337079925765067,1.6616520726834494,1.783421996280928,0.060615709758267,0.0663191473406802,0.0209465364270574,-0.709221593478856,-0.7661393548297957,-0.5537368789640512,1.04709662475859,1.6764404379513584,1.7932079213389047,-0.7878446667591972,-0.8294917648650691,-0.6881083017088263,0.7583123664541384,-0.4543265331127144,-0.5719953329162808,0.2035838538515522,11.046296481787977,-0.9904096043789375,0.0958720792931516,-0.9782242905709416
1.08,1.0194406304382675,1.646236468642613,1.7723252623866108,0.0561883290328149,0.0703503244983829,0.0204434005625379,-0.7169131305883142,-0.774799691191387,-0.5564109033221114,1.0317397314293666,1.6602506026600174,1.7798457553106886,-0.8278446673552436,-0.8694917654611156,-0.7281083023048728,0.5943727266403891,-0.3845768554729067,-0.4330168180795679,-0.1337012179030094,10.582091709049564,-0.9870030439982064,0.0993335035381587,-0.9814654612848271
1.1,1.0050324360588725,1.6306681361230844,1.761109242435522,0.0523646006180131,0.0744770953300978,0.0199841460838199,-0.723416851140765,-0.7817203925380662,-0.5650399601807353,1.0163828381001432,1.6440607673686765,1.7664835892824726,-0.8678446679512901,-0.909491766057162,-0.7681083029009192,0.6415900373752378,-0.3251860276225427,-0.3460350673339607,-0.4314528429311959,10.191740862041115,-0.98293974703316,0.1018201397760166,-0.9857748259071788
1.12,0.9912339444655196,1.615761254608702,1.750251120535303,0.0494467015578902,0.0781256955785069,0.0195824651815832,-0.7286817146704309,-0.787241978145821,-0.5774944101238734,0.9990259447411174,1.625870932047533,1.7511214232244543,-0.9078446685473366,-0.9494917666532086,-0.8081083034969657,0.7302739537254165,-0.263243176483291,-0.2760792803877365,-0.6227224971569023,9.881988259799073,-0.9785134130729398,0.1034650195151775,-0.9908895415089326
1.14,0.9766106609984536,1.5999635793453393,1.7385420386634955,0.0471796109429298,0.0814203732639582,0.0191911289772209,-0.7333341249040503,-0.792379297676559,-0.5928639925804369,0.9816690513820916,1.60768109672639,1.735759257166436,-0.9478446691433832,-0.9894917672492552,-0.8481083040930122,0.8430021320137535,-0.2326205116809698,-0.2568659765369019,-0.7684791228281751,9.643587110782391,-0.9747515567384246,0.1042708426062082,-0.9955259258633952
1.16,0.9618969964714824,1.5840584547947962,1.726506234075717,0.0454483206550732,0.0841330068450413,0.0188150369584168,-0.7377758392450982,-0.7978967159434469,-0.6099478540383093,0.9633121580081646,1.5884912613903457,1.7193970910935163,-0.9878446697394294,-1.0294917678453015,-0.8881083046890585,0.924701374675952,-0.2220857170523948,-0.2758709133443948,-0.854193072893622,9.526606278012878,-0.9715539208240744,0.1044322351730246,-0.9997863084632204
1.18,0.9478381190493632,1.568846284117123,1.714742743396951,0.0439851389303314,0.0863348885569611,0.018459745523763,-0.7418560886993192,-0.8030787662402024,-0.6274628859070045,0.9439552646193364,1.5683014260394,1.7020349250056956,-1.0278446703354758,-1.069491768441348,-0.928108305285105,0.935786330109847,-0.2040124727110515,-0.2591025148377723,-0.8757515934347593,9.449965951877855,-0.9684830436433494,0.10438400388718,-1.00405318525269
1.2,0.9329572627821456,1.5527307879736578,1.7019864085495011,0.0425869780578015,0.0883717591693493,0.0180907742850973,-0.7459865065571466,-0.8081646038611814,-0.6473169410768489,0.9107453146143972,1.5286923458051125,1.6833695991016009,-0.8418560901894353,-0.9030787677303184,-0.7274628873971206,1.0453583149744043,-0.2065208928913708,-0.2542918810489514,-0.99270275849222,9.308346988223091,-0.965623489958049,0.1042076782926894,-1.0081253175079437
1.22,0.918016955258768,1.536481658697186,1.6891425531889794,0.0406610237859342,0.0904333305364873,0.0176939108785735,-0.747620283901804,-0.816188446986462,-0.6344031170233835,0.9107453146143972,1.5286923458051125,1.6833695991016009,-0.8418560901894353,-0.9030787677303184,-0.7274628873971206,0.7645556529692433,-0.0816888672328708,-0.4011921562640297,0.6456912026732708,9.308346988223091,-0.96756381976747,0.1046742945538336,-1.0072476751340906
1.24,0.9038052629239816,1.5209245023038185,1.6771801006952556,0.0386270545950265,0.0923883423944043,0.0173098493797661,-0.7482654449153051,-0.8211098156939685,-0.625640477139258,0.9107453146143972,1.5286923458051125,1.6833695991016009,-0.8418560901894353,-0.9030787677303184,-0.7274628873971206,0.5035373879550378,-0.0322580506750547,-0.2460684353753239,0.4381319942062756,11.3893578614352,-0.965473860902911,0.1069227818140957,-1.0083256199329151
1.26,0.8888355627521974,1.5044610014619972,1.664696467190911,0.0370420149128613,0.0939856715381002,0.0169350252822841,-0.7486991799512601,-0.8250545770458516,-0.6235059403589163,0.9023267537125028,1.5196615581278092,1.6760949702276298,-0.8618560904874585,-0.9230787680283415,-0.7474628876951438,0.2253082081913428,-0.0216867517977503,-0.1972380675941576,0.106726839017085,10.90887523766378,-0.9634376072603608,0.1082870549225687,-1.009871293845044
1.28,0.8738568355326886,1.4879287252592788,1.6521895771824897,0.0363208336200322,0.0948818618501071,0.0166040860633873,-0.74921375758014,-0.8280472722678497,-0.6275306246921595,0.8854896319087142,1.501599982773203,1.6615457124796873,-0.901856091083505,-0.963078768624388,-0.7874628882911903,0.2520867847099837,-0.0257288814439926,-0.1496347610999038,-0.2012342166621605,10.475687999864933,-0.9618230263530672,0.1085497961177031,-1.0114918837605618
1.3,0.8596149059364122,1.4721749657269367,1.6401874013213986,0.0367346875190024,0.0950173918720788,0.0163488479548675,-0.7499826058828843,-0.8301902330410038,-0.6358364006824214,0.8686525101049255,1.4835384074185969,1.6469964547317448,-0.9418560916795514,-1.0030787692204346,-0.8274628888872367,0.4306080682834507,-0.0384424151372186,-0.1071480386577061,-0.4152887995130971,9.884513549350231,-0.9607530245733832,0.1075003928644286,-1.0130443286405657
1.32,0.8446041725027068,1.455553178982712,1.6273430924466317,0.0386711458966816,0.0943817956567344,0.0161622545535216,-0.7511117480109638,-0.8320448411971424,-0.6483004084011889,0.8498153882713345,1.463476832034188,1.630447196954,-0.981856092275598,-1.043078769816481,-0.8674628894832832,0.6325860055591527,-0.0564571064039731,-0.0927304078069291,-0.6232003859383717,9.884513549350231,-0.9604958676357288,0.1048459522440857,-1.014185460391914
1.34,0.8295693336624925,1.4388837538305643,1.6142339655758475,0.0421017621378052,0.0928693625455805,0.0160457932514462,-0.7523682333707361,-0.8353147156055427,-0.662029715660652,0.8309782664377434,1.443415256649779,1.6138979391762551,-1.0218560928716445,-1.0830787704125275,-0.9074628900793296,0.7084573239278114,-0.0628242679886148,-0.1634937204200159,-0.6864653629731599,9.689711190125308,-0.9618433654333588,0.100705324442344,-1.014031918765354
1.36,0.8145023860472104,1.422115854295959,1.6008444573185865,0.0458328990043517,0.0905250525266381,0.0159086970362972,-0.7543552437287072,-0.8413392414423468,-0.6762303383143999,0.8111411445892512,1.4223536812504696,1.5963486813836094,-1.0618560934676908,-1.123078771008574,-0.947462890675376,0.7776580313273029,-0.0993505178985554,-0.3012262918402064,-0.7100311326873943,9.636460888297734,-0.963450705734236,0.09623161398461,-1.0139205326061331
1.38,0.8001427556632404,1.406059667855067,1.5878579961789991,0.0489691722472055,0.0877791929518335,0.0157177460145326,-0.7571694819944216,-0.8483903363072294,-0.6900502207575997,0.7903040227258579,1.4002921058362583,1.5777994235760624,-1.1018560940637372,-1.1630787716046205,-0.9874628912714226,0.7883955646654236,-0.1407119132857182,-0.3525547432441267,-0.690994122159988,9.620827049782749,-0.9655902654662872,0.0917914641172052,-1.013469446508591
1.4,0.7849581339137806,1.3890068602717318,1.5738977109746526,0.0516746057967894,0.0846391673519886,0.0154546800025319,-0.7612573101057595,-0.8564517283437929,-0.7052785016932407,0.7622842815635194,1.3636401510397056,1.553355485141119,-0.8571694834845377,-0.9483903377973456,-0.7900502222477158,0.8854333973961863,-0.2043914055668949,-0.4030696018281765,-0.7614140467820496,9.605831280437997,-0.9679503582643164,0.0878448383836899,-1.0128375789252697
1.42,0.7696688521297228,1.3717151705252566,1.5599364421317188,0.051975344631431,0.0827526406900681,0.0150865576357518,-0.7675249598030381,-0.8718223241685314,-0.6884336645292524,0.7622842815635194,1.3636401510397056,1.553355485141119,-0.8571694834845377,-0.9483903377973456,-0.7900502222477158,1.1824626715213356,-0.3133824848639333,-0.7685297912369271,0.8422418581994162,9.568920543236343,-0.9730841135830776,0.0858473143274425,-1.0097169164773283
1.44,0.7542562758931199,1.354141772586004,1.5463127790340343,0.0491193278603139,0.0833647800919803,0.0146369072963085,-0.7731411271014376,-0.8843382625389944,-0.6749240187410994,0.7622842815635194,1.3636401510397056,1.553355485141119,-0.8571694834845377,-0.9483903377973456,-0.7900502222477158,0.9626793050364648,-0.2808083649199711,-0.6257969185231471,0.6754822894076473,11.699005531190778,-0.9733447592376362,0.0886018336383465,-1.0085896001147483
1.46,0.7395219848428246,1.337253941411809,1.5335465358831268,0.0450401487147666,0.0852235829797928,0.0141855095197976,-0.7774187099306152,-0.8924007781049499,-0.6695343726618913,0.753712586728674,1.354156247661732,1.545454982918642,-0.8771694837825609,-0.9683903380953688,-0.810050222545739,0.5299767848002253,-0.2138791414588836,-0.4031257782977748,0.2694823039604055,11.207073610171392,-0.9714075656365444,0.0925633569145862,-1.009820052813089
1.48,0.7239352447443889,1.3193453850334025,1.520152782302116,0.0407872018647183,0.0877210620856853,0.0137428943519123,-0.7809423508897445,-0.898003395634912,-0.670420222032107,0.7365691970589833,1.3351884409057853,1.5296539784736876,-0.9171694843786072,-1.0083903386914153,-0.8500502231417855,0.3338790870307856,-0.1761820479564635,-0.2801308764981081,-0.044292468510787,10.714027473331043,-0.9688261035819578,0.0963228382578118,-1.0119116650230084
1.5,0.708285847998888,1.3013429443778428,1.506678824288834,0.0371478454855846,0.0902238687994414,0.013348240507731,-0.7837763429489318,-0.90202533732862,-0.6771661305850585,0.7194258073892925,1.3162206341498384,1.5138529740287332,-0.9571694849746538,-1.0483903392874616,-0.8900502237378319,0.4174769699753077,-0.1416996029593664,-0.2010970846853921,-0.3372954276475715,9.991145672511266,-0.966079085779984,0.0991579531581367,-1.0145013417891906
1.52,0.6925852223291606,1.2832722612652416,1.4930152782903552,0.0343204673400591,0.0923841598446715,0.0130040352384271,-0.7861399502040226,-0.9050363993658735,-0.6888377594910781,0.7002824176897995,1.295252827364089,1.496051969553977,-0.9971694855707002,-1.088390339883508,-0.9300502243338784,0.6141662135943746,-0.1181803627545385,-0.1505531018626882,-0.5835814453009791,9.991145672511266,-0.9632728342335368,0.1011586820493917,-1.0175448158476474
1.54,0.6776303465074693,1.266055076674783,1.479796623777607,0.0324026263545271,0.0939357070346169,0.0127212893693232,-0.7879670297732283,-0.9073512435830214,-0.7020176210592061,0.6811390279903063,1.2742850205783398,1.47825096507922,-1.0371694861667466,-1.1283903404795546,-0.9700502249299248,0.6752878542830623,-0.0913539784602845,-0.1157422108573891,-0.6589930784064002,9.742972736569754,-0.9610330838693286,0.1022522195917622,-1.0203061223266323
1.56,0.6618493550410529,1.2478794531717865,1.465595818576385,0.0309262419692239,0.0950725796243119,0.0124549955954944,-0.7900519161246958,-0.9100890491249776,-0.7174382285168717,0.6609956382759121,1.2523172137776897,1.459449960589562,-1.077169486762793,-1.168390341075601,-1.0100502255259711,0.7899959883561328,-0.1042443175733764,-0.1368902770978064,-0.7710303728832801,9.633150194870725,-0.9590794332518964,0.1026729669422436,-1.0230475920560964
1.58,0.6460244490209449,1.2296498356688046,1.451071403780576,0.0297924895646089,0.0958880747006096,0.0122130232273832,-0.7923347369878043,-0.9127239463940862,-0.7342289617679576,0.6398522485466167,1.229349406962138,1.4396489560850032,-1.1171694873588394,-1.2083903416716473,-1.0500502261220177,0.8574419482112507,-0.1141410431554246,-0.1317448634554296,-0.8395366625542966,9.5521732216921,-0.9574926362223024,0.1027314311052316,-1.0254953392577504
1.6,0.6309468960043026,1.2122846847044142,1.4369507678177975,0.0289879418077832,0.0965019807314599,0.0120069627001387,-0.7946535703246597,-0.9150443200464272,-0.7513144999962567,0.6064077121715546,1.1840136383491002,1.414359955692178,-0.8923347384779204,-1.0127239478842025,-0.7753986498735408,0.8698803631552714,-0.115941666842767,-0.1160186826170528,-0.8542769114149529,9.426087086487314,-0.9559897022349854,0.1024994502350872,-1.027984621665716
1.62,0.6150631514881529,1.1939172569773004,1.422116057033504,0.0274194513278669,0.0971207205692759,0.0117493110647686,-0.7933899236019751,-0.9213225298514782,-0.7292350085383774,0.6064077121715546,1.1840136383491002,1.414359955692178,-0.8923347384779204,-1.0127239478842025,-0.7753986498735408,1.1494745151965662,0.0631823361342265,-0.3139104902525502,1.103974572893962,9.426087086487314,-0.9609867015795724,0.103591093504451,-1.0232766308796295
1.64,0.5992137257979891,1.175449372189329,1.4077499475490107,0.0249555621106912,0.0976130006865657,0.0114381053333823,-0.7916662635576172,-0.9249931929599104,-0.7086991777113774,0.6064077121715546,1.1840136383491002,1.414359955692178,-0.8923347384779204,-1.0127239478842025,-0.7753986498735408,1.0466197009411864,0.0861830022178988,-0.1835331554216113,1.0267915413500028,12.038675604339916,-0.960438321121032,0.1063534411506086,-1.022677098482012
1.66,0.5841894611607331,1.157858751543742,1.3944223019071211,0.0228497344577303,0.0976290453723779,0.0111601170787296,-0.7900060830833495,-0.9266036294381104,-0.6952245000630342,0.5974843647867755,1.173886398870258,1.4066059691934425,-0.9123347387759436,-1.0327239481822257,-0.7836325874946575,0.6835873071236329,0.0830090237133818,-0.0805218239099903,0.6737338824171601,11.62300001271342,-0.9604475290182029,0.1090978228821278,-1.0214478655705908
1.68,0.5684066660843986,1.1393214626314363,1.3806201698268068,0.0213637852119786,0.0968886964956971,0.0109149549522854,-0.7884466841217953,-0.9271467768708362,-0.6859089779709184,0.579637670017217,1.1536319199125742,1.3910979961959715,-0.95233473937199,-1.072723948778272,-0.8001004627368907,0.4730372239678113,0.0779699480777107,-0.0271573716362993,0.4657761046057862,10.915445330932016,-0.96112316241519,0.1109280031596964,-1.0199474732047735
1.7,0.55265206081473,1.12078280043506,1.3669606418445122,0.0209918735456266,0.0951332093772859,0.0107386976353097,-0.7871682987613641,-0.9268033786555306,-0.6806606986049312,0.5617909752476586,1.13337744095489,1.375590023198501,-0.9923347399680366,-1.1127239493743184,-0.816568337979124,0.2706317967621674,0.0639192680215616,0.01716991076528,0.2624139682993631,10.915445330932016,-0.9627917382759658,0.1115640468642238,-1.0178156158021432
1.72,0.5369201195701012,1.1022592425562865,1.3533715265005477,0.0221586048584926,0.0920623426488407,0.0106498657536746,-0.786219457087159,-0.925822147237368,-0.678486654030736,0.5419442804482979,1.1111229619674037,1.3592586564389186,-1.032334740564083,-1.1527239499703648,-0.8330362132213572,0.1283509391208823,0.0474420837102529,0.0490615709081321,0.1087022287097561,10.678976452879397,-0.965626681454868,0.1107525911938619,-1.0148456048429366
1.74,0.5219883978064093,1.084679484216472,1.3404993523018591,0.0249344438320556,0.087684967533662,0.0106461544058259,-0.7857399833144517,-0.9251855301040712,-0.6765737959313431,0.5220975856489372,1.0888684829799171,1.342927289679336,-1.0723347411601296,-1.1927239505664111,-0.8495040884635906,0.1036122891062418,0.0239736886353647,0.0318308566648384,0.095642904969645,10.502129827542376,-0.9706035870914822,0.1081324521523993,-1.0101266277987893
1.76,0.506261468856953,1.0661538128259662,1.326992688816382,0.0287512938487663,0.081698259091786,0.0106525914045712,-0.7873242420520106,-0.927619154265299,-0.6741700255554801,0.5012508908346752,1.06561400397753,1.3261842260386978,-1.112334741756176,-1.2327239511624577,-0.8659719637058239,0.1884841792135325,-0.0792129368779426,-0.121681208061386,0.1201885187931517,10.526295001719518,-0.9763128089961496,0.1042258668642191,-1.005303569135166
1.78,0.4904737869165486,1.047556448220628,1.3135396082206985,0.0324191111998325,0.0751544090066387,0.0106081129801459,-0.7915965205453503,-0.9320081244016072,-0.6712280323908758,0.4794041960055122,1.0413595249602412,1.3090294655170036,-1.1523347423522223,-1.272723951758504,-0.8824398389480571,0.3397452948998651,-0.2136139246669888,-0.2194485068154172,0.1470996582302153,10.526295001719518,-0.9825470397301148,0.100644399328233,-0.9998473633179282
1.8,0.4753726610891418,1.02979515756589,1.3008170862725263,0.0353822676023863,0.0691074233788684,0.0105141801247076,-0.7978971806523499,-0.9372779526580972,-0.6681232608760699,0.4508939608892811,1.0009560420005474,1.279978206601155,-0.8915965220354665,-1.0320081258917235,-0.672734629194541,0.4390586913955441,-0.3150330053499794,-0.2634914128245014,0.1552385757402963,10.559021584336731,-0.9892156504163856,0.0974093021568546,-0.9938297405087012
1.82,0.4593029213397641,1.0109087248586464,1.2876986265762334,0.0357124624227471,0.0646419312766804,0.0102790912146353,-0.8090150706951493,-0.9504090588012872,-0.6427546087601961,0.4508939608892811,1.0009560420005474,1.279978206601155,-0.8915965220354665,-1.0320081258917235,-0.672734629194541,1.53264635330833,-0.5558945021399697,-0.656555307159501,1.26843260579369,12.179011414304114,-0.9961465564151204,0.0960241059115989,-0.9881529395350246
1.84,0.4429953998697356,0.9917920094171788,1.2751092626760954,0.0324035510456784,0.0639177114805274,0.0099366984082677,-0.8207536775828758,-0.9600111080836986,-0.6176679662433292,0.4508939608892811,1.0009560420005474,1.279978206601155,-0.8915965220354665,-1.0320081258917235,-0.672734629194541,1.4657198528841604,-0.5869303443863216,-0.4801024641205631,1.2543321258433435,12.179011414304114,-0.9996494952965022,0.1002906002231116,-0.9824886281742654
1.86,0.4264736201088841,0.9725369314230928,1.2629741351379582,0.0277882560401369,0.065844095401625,0.0096022096309437,-0.8305450762016816,-0.9647955536770648,-0.5970578430862571,0.4419779956689265,0.9906359607416302,1.2732508603092092,-0.9115965223334896,-1.0520081261897467,-0.673035948555274,1.1656967692092073,-0.4895699309402923,-0.2392222796683052,1.0305061578536057,11.92894607330527,-1.0004100809409855,0.1054803453719472,-0.9795546204822714
1.88,0.4106156961622919,0.9541869766750052,1.251787545181154,0.0237140120604013,0.0690081783767991,0.009347652271745,-0.8380378633615279,-0.966657179447266,-0.5814943965492532,0.4241460652282171,0.9699957982237958,1.2597961677253184,-0.951596522929536,-1.0920081267857933,-0.6736385872767401,0.868660431413239,-0.3746393579923124,-0.0930812885100662,0.7781723268501961,11.609377067269634,-0.9993971692484364,0.1104202442357566,-0.978666352957994
1.9,0.3937884870939864,0.934849736527948,1.2402977774766877,0.0203099386120738,0.0728600488356977,0.0091552990743442,-0.8441436009751447,-0.9671186475104628,-0.5684535969843449,0.4063141347875078,0.9493556357059612,1.2463414751414277,-0.9915965235255826,-1.1320081273818396,-0.6742412259982061,0.720339221949973,-0.305286880680844,-0.02307340315984,0.6520399782454112,11.104828487896157,-0.9973287218360074,0.1142873479418614,-0.9792930184155896
1.92,0.3768554505115993,0.915513677849919,1.2290336422787198,0.0180042471781649,0.0765873786444369,0.0090403176153856,-0.8487902727821054,-0.9667618207263676,-0.5586052398738908,0.3864822043169961,0.9267154731583244,1.2328566506214635,-1.031596524121629,-1.172008127977886,-0.6748438647196722,0.5447683498756238,-0.2323335903480328,0.0178413392047604,0.4924178555227088,11.104828487896157,-0.9948908120950584,0.116974942171808,-0.980671628798514
1.94,0.3598430245656067,0.8961914061624718,1.2179515370157177,0.0168260971426152,0.0797605297448371,0.0090005562656996,-0.8522156260732838,-0.965706714682101,-0.5501009282087554,0.3666502738464844,0.9040753106106876,1.2193718261014994,-1.0715965247176755,-1.2120081285739326,-0.6754465034411382,0.4614369156011241,-0.1712676645589217,0.0527553022133309,0.4252155832567661,10.92312603137816,-0.9928026765392444,0.1184684665040922,-0.982024363461615
1.96,0.3436219705134838,0.8778518165264423,1.207573561926183,0.0166982491627686,0.0821643033484054,0.009030109311028,-0.8550874297369605,-0.9649122364222752,-0.5427448857487959,0.3458183433610716,0.8804351480481497,1.2058719356134988,-1.111596525313722,-1.252008129169979,-0.6760491421626044,0.3968306082599065,-0.1435901831838337,0.0397239129912962,0.3678021229979789,10.848678181680045,-0.9909641649209796,0.1189571006509156,-0.9833942358613432
1.98,0.3264916137285166,0.8585618358900505,1.196795867682269,0.017493696892668,0.0841455068156544,0.0091267323819402,-0.8577869437845389,-0.964196521686318,-0.535431868023177,0.3239864128607577,0.8557949854707106,1.1923569791574613,-1.1515965259097682,-1.2920081297660253,-0.6766517808840704,0.3914072429438268,-0.1349757023789199,0.0357857367978553,0.3656508862809438,10.808482949201789,-0.9896626046621296,0.1185760001656585,-0.9843382685110664
2.0,0.3093095402053566,0.8392820146211541,1.18616039604869,0.0191828684894829,0.0856451128927482,0.0092869028806376,-0.8602830198049477,-0.9638998082664272,-0.5284972239448062,0.2836022665392896,0.8103520098057346,1.1700242742811102,-0.957786945274655,-1.064196523176434,-0.4722329216067989,0.3688079542488394,-0.1248038010204399,0.0148356709945451,0.3467322039185372,10.764667652795652,-0.988809813230137,0.117371372292005,-0.9849522495421976
2.02,0.2920954281872286,0.819940975015904,1.1758126703696106,0.0197984881081986,0.086642585762965,0.0093716511857149,-0.8609560298653132,-0.9698451251851994,-0.5058210027099166,0.2836022665392896,0.8103520098057346,1.1700242742811102,-0.957786945274655,-1.064196523176434,-0.4722329216067989,1.17261539442783,-0.0336505030182732,-0.2972658459386157,1.133811061744483,10.764667652795652,-0.9924813499734988,0.1173621019290114,-0.9805874359672996
2.04,0.2757360511923057,0.8014740688179041,1.1664318976113737,0.0184097144189802,0.0869827453944455,0.0093122607567429,-0.8611377800361003,-0.9736052849004352,-0.4828446558000336,0.2836022665392896,0.8103520098057346,1.1700242742811102,-0.957786945274655,-1.064196523176434,-0.4722329216067989,1.1641352493717745,-0.0090875085393571,-0.1880079857617955,1.148817345494149,11.847172648812377,-0.993639208931854,0.1197720309859081,-0.9778126245791512
2.06,0.2585140059388445,0.7819804838582936,1.1570227835368143,0.0160171700431599,0.0865523927324132,0.0091834777518328,-0.8611543980148605,-0.975464800105001,-0.4593036877251522,0.2740243970865431,0.7997100445739703,1.165301945065042,-0.9777869455726782,-1.0841965234744573,-0.4595931323235234,1.1807150914338027,-0.000830898938009,-0.0929757602282865,1.1770484037440687,11.82255694568721,-0.995457944342042,0.12310739014038,-0.974184785183616
2.08,0.2412907181670223,0.7624748779059791,1.1480755013911037,0.0137029331567404,0.0851578350213668,0.0090611625386221,-0.8612489377810608,-0.9750658033121348,-0.4366334400267875,0.25486865818105,0.7784261141104416,1.1558572866329062,-1.0177869461687248,-1.124196524070504,-0.4343135537569721,1.13369778481009,-0.0047269883100165,0.0199498396433073,1.1335123849182365,11.768616613495396,-0.9984381945455444,0.1264470423280873,-0.9692540023341384
2.1,0.2240638188089118,0.7429929562827117,1.1395749310725696,0.0122386480830499,0.0825894146187984,0.0089991767328706,-0.861535562438256,-0.973289249688054,-0.4145708616372533,0.2357129192755569,0.7571421836469129,1.1464126282007705,-1.0577869467647711,-1.1641965246665502,-0.4090339751904209,1.1067922814011766,-0.01433123285976,0.0888276812040511,1.103128919476709,11.703000832265388,-1.002394411407316,0.1289400892836562,-0.96343576972265
2.12,0.2076891452281454,0.7245293909554531,1.1319060372738587,0.0121305728832536,0.0788468043782785,0.0090264058080006,-0.8622513956736827,-0.9705739177898218,-0.3937665257409323,0.2145571803402615,0.7338582531535819,1.138231948696962,-1.0977869473608175,-1.2041965252625966,-0.3837543966238697,1.0496497470888169,-0.0357916617713338,0.1357665949116016,1.0402167948160483,11.657411162596873,-1.007787422241328,0.130369194275024,-0.9561537794459876
2.14,0.1904287030261969,0.7051547493447623,1.1242708981761298,0.0137935556025015,0.0734167358018401,0.009164152053113,-0.8640025169855494,-0.967243790327227,-0.3707741442596556,0.193401441404966,0.7105743226602509,1.1300512691931537,-1.137786947956864,-1.2441965258586432,-0.3584748180573185,1.1649096327039254,-0.087556065593336,0.1665063731297433,1.1496190740638346,11.640945015846228,-1.014466100440179,0.1301373458241384,-0.9477417477829854
2.16,0.1731038589975714,0.685830361630418,1.1171108156223093,0.0171536921129813,0.0669622474940706,0.0093928892045349,-0.8686796842147803,-0.9658857328260732,-0.3463741349452697,0.1712457024547694,0.6862903921520187,1.1225025791535088,-1.1777869485529104,-1.2841965264546895,-0.3331952394907673,1.244066585847347,-0.2338583614615419,0.0679028750576848,1.220000465719295,11.78981119598484,-1.021935698332861,0.1284091811524121,-0.9388284373717926
2.18,0.1556536481432781,0.6664989198546836,1.110454503751806,0.0209012030484686,0.0605060954221903,0.0096245074338535,-0.8762669535324855,-0.9674013012390978,-0.3204620047746933,0.1480899634896717,0.6610064616288854,1.115585878578028,-1.2177869491489568,-1.324196527050736,-0.3079156609242161,1.3521298877057346,-0.3793634658852629,-0.075778420651229,1.2956065085288238,11.78981119598484,-1.0301292911597226,0.1263068603118986,-0.9289565609316488
2.2,0.1389089086625884,0.6480884097680976,1.1046227255943284,0.0241094332919667,0.055136294945889,0.0098150749914909,-0.8860974190299186,-0.970397768941424,-0.2946959746972328,0.1118403004666538,0.6181288547927287,1.094431403513071,-0.9414692865655704,-1.067401302729214,-0.2204620032845771,1.3869978159138383,-0.4915232748716525,-0.1498233851163044,1.288301503873024,11.888189795330618,-1.0374373204240028,0.1244708332322162,-0.9199889854145602
2.22,0.1209525074979398,0.6285601728034069,1.0989438008449623,0.0243915229037393,0.0543556852316978,0.0099104334499251,-0.9087138549009244,-0.9814149389272238,-0.274839641977335,0.1118403004666538,0.6181288547927287,1.094431403513071,-0.9414692865655704,-1.067401302729214,-0.2204620032845771,1.6024630690647876,-1.1308217935502962,-0.5508584992899912,0.9928166359948892,11.974322568109528,-1.0366043902137885,0.1234040012146712,-0.9221187669992572
2.24,0.1025872641882425,0.6088582550030652,1.0936785776358058,0.0208357776072347,0.0606068108719536,0.009908802428618,-0.9258229907145912,-0.9875759905572068,-0.252425636605203,0.1118403004666538,0.6181288547927287,1.094431403513071,-0.9414692865655704,-1.067401302729214,-0.2204620032845771,1.4431464949025186,-0.8554567906833344,-0.3080525814991575,1.1207002686065974,11.741974669935187,-1.0366587350645962,0.1282317590114931,-0.9196890559661236
2.26,0.0839467759661335,0.5890923143606478,1.0888750360509998,0.0163859270148195,0.0705220939034948,0.0098989363848481,-0.9367727489713144,-0.9886686588352884,-0.2290497457554814,0.1024256076009981,0.6074548417654366,1.0922267834802255,-0.9545097531721872,-1.0874013030272371,-0.2004620029865539,1.2918237136551431,-0.5474879128361643,-0.0546334139040705,1.1687945424860833,11.719551210000644,-1.0308879784616627,0.1337845080000032,-0.923321714890641
2.28,0.0660827933329243,0.5703240538230024,1.0847416020181908,0.012862201003669,0.0814608519021671,0.0099330052032952,-0.942671863069822,-0.9871564354344748,-0.2072292331090982,0.0835962218696867,0.5861068157108523,1.087817543414534,-0.9805906863854214,-1.1274013036232835,-0.1604620023905074,1.1327192270286417,-0.2949557049253704,0.0756111700406736,1.0910256323191592,11.671305031580232,-1.0222481622124855,0.1388556315009165,-0.9301796647280454
2.3000000000000003,0.0472080276237281,0.5506119965667886,1.0808357568725322,0.0103920632198488,0.0932163786345296,0.0100333827907294,-0.9441075432191502,-0.984397829546283,-0.1845401046974755,0.0647668361383753,0.564758789656268,1.0834083033488424,-1.0066716195986554,-1.16740130421933,-0.120462001794461,1.1450629153202072,-0.0717840074664188,0.1379302944095939,1.1344564205811327,11.671305031580232,-1.012970799980988,0.1428733871947076,-0.937715164114991
2.32,0.0283537106023299,0.5309640496549934,1.0773787841377511,0.0093798823665312,0.1039587554743978,0.0102147150542498,-0.9410202274500798,-0.9807076944247648,-0.1623414260219078,0.0446334037464022,0.5414107635718814,1.0809990633129531,-1.0327525528118893,-1.2074013048153764,-0.0804620011984146,1.1357045729569333,0.1543657884535199,0.1845067560759083,1.1099339337783842,11.628356112754773,-1.0038339478697258,0.1457754429143528,-0.9449211834249456
2.34,0.0096016671599488,0.5114008514009828,1.0743613143943704,0.0102832292045554,0.112658165753608,0.0105176226033011,-0.9343662734987092,-0.9761347267764956,-0.140549904995041,0.0244999713544291,0.5180627374874948,1.078589823277064,-1.0588334860251232,-1.247401305411423,-0.0404620006023681,1.1619568892212175,0.3326976975685347,0.2286483824134655,1.0895760513433426,11.628356112754773,-0.9962665169334812,0.1468912570830179,-0.9508104486073212
2.36,-0.0080685711846012,0.4928918962518712,1.071901243619857,0.0129222189278158,0.1186565277699988,0.0109246788235541,-0.926090753451641,-0.9726906403736384,-0.1195144605935198,0.0037145156321251,0.493714711388207,1.077180583256076,-1.0849144192383573,-1.2874013060074694,-0.0004620000063216,1.1432802416394463,0.4137760023534054,0.1722043201428491,1.0517722200760602,11.620562545846042,-0.9905424180452028,0.1460727213727626,-0.9553169794796852
2.38,-0.0264864919496479,0.473450502014417,1.0697551918047878,0.0167189024751265,0.1226019951917625,0.0114139265762312,-0.9162152271240068,-0.9718988461685016,-0.0961458830791355,-0.0177229634205096,0.4683666852740181,1.076771343249989,-1.1109953524515912,-1.3274013066035155,0.0395380005897247,1.2690974877416523,0.493776316381711,0.0395897102568487,1.1684288757192116,11.658814729371445,-0.9871086372644934,0.1442117484007851,-0.9576970957981066
2.4,-0.0447004874698078,0.4539995246591398,1.068091694686802,0.0204293853990476,0.1242915039428206,0.0118723672047083,-0.905818618059906,-0.9732571246375208,-0.0713066213869879,-0.0722972533058483,0.4248555597059919,1.064947897650831,-0.9316138952492786,-1.0718988476586175,0.0038541184109805,1.3480757785100008,0.5198304532050446,-0.0679139234509573,1.2419630846073808,11.755343514552806,-0.9861883879329544,0.1428992467664721,-0.957061900074438
2.42,-0.0619202682125314,0.4354109756461722,1.0667539433820203,0.0210024167798051,0.1266413515155679,0.0121254800802397,-0.9067184332302488,-0.9820492654678176,-0.0707494545256202,-0.0722972533058483,0.4248555597059919,1.064947897650831,-0.9316138952492786,-1.0718988476586175,0.0038541184109805,0.442780539974261,-0.0449907585171438,-0.4396070415148445,0.0278583430683862,11.857739911359204,-0.981703994204256,0.1444924169930204,-0.9588768002271216
2.44,-0.0800275577636019,0.4157237768423811,1.0653829070815082,0.0183111685451197,0.131583588766301,0.01221607523983,-0.903549766366899,-0.9859624078435164,-0.0660513254843147,-0.0722972533058483,0.4248555597059919,1.064947897650831,-0.9316138952492786,-1.0718988476586175,0.0038541184109805,0.3443310523033698,0.1584333431674911,-0.1956571187849365,0.2349064520652748,10.332663353292446,-0.9774951961230256,0.1472140675614633,-0.9626590750280916
2.46,-0.0980309587654926,0.3960025120382275,1.0641512249179712,0.0147597821058557,0.1374246273018598,0.0122563135223919,-0.8966942559411205,-0.985865980038578,-0.0572210764522614,-0.081613392258341,0.4141365712294057,1.0649864388349408,-0.9346936288743328,-1.0918988479566407,0.0238541187090037,0.5589736565519021,0.3427755212889238,0.0048213902469174,0.4415124516026669,10.893290658269509,-0.9722278643652728,0.1511636679860949,-0.9667575721637276
2.48,-0.1158629286688869,0.3763115155253863,1.0631279743423372,0.0119103723401198,0.1431184776837755,0.0123353883023172,-0.8866824226459316,-0.9834468556787036,-0.0454539307963327,-0.1002456701633266,0.3926985942762334,1.0650635212031605,-0.9408530961244416,-1.1318988485526873,0.0638541193050502,0.7819122161199317,0.5005916647594477,0.1209562179937229,0.5883572827964336,10.893290658269509,-0.9675265524619088,0.1546355087761362,-0.9700459013164636
2.5,-0.1325909525403304,0.3576635985700551,1.0624000151973931,0.0104453071590956,0.1476550844631411,0.0124848384288863,-0.8746826102550658,-0.9799425460051406,-0.031791081387396,-0.1188779480683122,0.371260617323061,1.0651406035713802,-0.9470125633745504,-1.1718988491487337,0.1038541199010966,0.9259442986425868,0.5999906195432891,0.1752154836781427,0.6831424704468364,11.0707317948536,-0.9632842175500296,0.157411750044899,-0.9725988247663504
2.52,-0.1499340037466525,0.3381135866389431,1.0619386461905125,0.01054882886594,0.1510674960784103,0.0127472509332414,-0.8602585290833057,-0.9754341542762468,-0.0149564081737171,-0.1378181993358032,0.3478226403400863,1.067217685969402,-0.9531720306246592,-1.21189884974478,0.143854120497143,1.131134315457316,0.7212040585880042,0.2254195864446861,0.841733660683941,11.230666824714715,-0.960199977867464,0.1589089712104999,-0.9739218026497212
2.54,-0.1669745156396831,0.3186603174840959,1.0618335444856175,0.0128348596838587,0.1528108243307425,0.0131516417972819,-0.8446854812653434,-0.9704835154786644,0.0035984998858666,-0.1567584506032942,0.3243846633571117,1.069294768367424,-0.959331497874768,-1.2518988503408266,0.1838541210931896,1.2362374933080995,0.7786523908981158,0.2475319398791198,0.927745402979191,11.40009815331723,-0.9587887466083482,0.1587839818952086,-0.9736440303035993
2.56,-0.1828702025839134,0.3002459944930732,1.0620956324755495,0.0165685760300253,0.152918216745245,0.0136281015950211,-0.8294712728313619,-0.9685521781413045,0.0230685015151351,-0.1758526885520379,0.2999466863592358,1.072371850780347,-0.9654909651248764,-1.291898850936873,0.223854121689236,1.2392368272721632,0.7607104216990734,0.096566866868003,0.9735000814634236,11.50062893341601,-0.9601296896356376,0.1571668650482348,-0.9709451752902842
2.58,-0.1992891131597572,0.2808699448235761,1.0627949958057936,0.0206888273715438,0.1514641644102528,0.0141121955288521,-0.8133084350205751,-0.9692268305383144,0.0459723723990116,-0.1951009131820344,0.2745087093464589,1.0764489332081713,-0.9716504323749852,-1.331898851532919,0.2638541222852824,1.402034043291994,0.8081418905393378,-0.0337326198505016,1.145193544193829,11.62217052604774,-0.9642367075381454,0.1562159716149014,-0.9646145435982748
2.6,-0.2153854765584604,0.2614612898603399,1.0639780633551927,0.0243139020690511,0.1483660283780875,0.0145162013193735,-0.797263739834637,-0.971554281109753,0.071311625367661,-0.239954534910786,0.2324086032966604,1.065093614425744,-0.7662517600632998,-1.0692268320284306,0.1459723738891278,1.5041002383330058,0.8022347592969048,-0.116372528571923,1.26696264843247,11.92456740561829,-0.9701971512100545,0.1560587739192738,-0.9559654263418148
2.62,-0.231336889266624,0.2419114953359117,1.0653660910185272,0.0243094616893527,0.1475399583813551,0.0147170777865622,-0.7980535833766116,-0.9818036198968892,0.0662095241521662,-0.239954534910786,0.2324086032966604,1.065093614425744,-0.7662517600632998,-1.0692268320284306,0.1459723738891278,0.5738123282211915,-0.0394921770987266,-0.5124669393568149,-0.2551050607747441,11.92456740561829,-0.9648957258527922,0.1571799838245982,-0.9592501205912716
2.64,-0.2464683740521597,0.223212190371969,1.0666197244216042,0.0209211890236689,0.1511159406713985,0.0147796406914586,-0.7942214067164607,-0.98559723482428,0.0660799140837833,-0.239954534910786,0.2324086032966604,1.065093614425744,-0.7662517600632998,-1.0692268320284306,0.1459723738891278,0.2696937658797159,0.1916088330075449,-0.189680746369536,-0.0064805034191407,10.02068250951561,-0.9622288087427228,0.1605456183997341,-0.9614726860267416
