t,x,y,z,roll,pitch,yaw,v_x,v_y,v_z,ref_x,ref_y,ref_z,ref_v_x,ref_v_y,ref_v_z,a_com,a_x,a_y,a_z,thrust,wind_x,wind_y,wind_z
0.0,0.9193415382390516,-1.1337222885903786,2.763518638545892,0.0241589117056046,0.099566218237048,0.0416735194001634,0.0006577481422625,-0.0060467160428668,-0.0009008807759166,0.9193624693036782,-1.1339430334733045,2.7634896043637984,-0.0993115704414938,0.0929792559936736,-0.1009502607141409,0.3074369597743965,0.0328874071131283,-0.3023358021433434,-0.0450440387958309,10.261015272598344,-0.9401380981676184,0.2562845925063064,-0.8804101765390245
0.02,0.9195180305044568,-1.1340740418714357,2.763395261572319,0.0143036272556017,0.0942309721943499,0.0409007952143053,0.0163365998734726,-0.0248005945023478,-0.0117508530412077,0.9193624693036782,-1.1339430334733045,2.7634896043637984,-0.0993115704414938,0.0929792559936736,-0.1009502607141409,1.337213751649154,0.7839425865605064,-0.9376939229740492,-0.5424986132645562,10.260384523739049,-0.9465273271957816,0.258125910599967,-0.8791555250539307
0.04,0.919935180826524,-1.1345470932377058,2.763007925221971,-0.0014237078650164,0.079855307089364,0.0397770028478532,0.0253544842156133,-0.0234302736898339,-0.028357485971893,0.9193624693036782,-1.1339430334733045,2.7634896043637984,-0.0993115704414938,0.0929792559936736,-0.1009502607141409,0.947338738825713,0.4508942171070348,0.0685160406256955,-0.8303316465342656,9.66394154737054,-0.9518860534060448,0.2737534012744046,-0.8651084428819447
0.06,0.920443814527836,-1.134937982687446,2.76223949249973,-0.0183467283367331,0.0587808534402998,0.0389411709372143,0.0239585924936571,-0.0153606929305535,-0.0476726695169783,0.9183693535992632,-1.1330132409133675,2.762480101756657,-0.119311570739517,0.1129792562916968,-0.1209502610121641,1.0489792213269862,-0.0697945860978117,0.4034790379640177,-0.9657591772542656,9.247499772689936,-0.9625486913397344,0.2871720207594705,-0.8482743285571304
0.08,0.920815358650136,-1.1351297439178576,2.761073374051802,-0.034590285096424,0.035612156991906,0.0386315250626872,0.0125030331506411,-0.0039009030163619,-0.0680341452897319,0.9163831221904334,-1.131153655793494,2.7604610965423744,-0.1593115713355635,0.1529792568877433,-0.1609502616082106,1.3011017642590483,-0.5727779671508025,0.572989495709584,-1.0180737886376796,9.078579672229353,-0.9768469336996324,0.2984379512519282,-0.8294028338058138
0.1,0.9208631743549294,-1.1350636571249213,2.759491034223969,-0.0500362204148693,0.0134458191101716,0.0387758791627911,-0.007476973391912,0.0102461028831998,-0.0892277552693246,0.9143968907816036,-1.1292940706736203,2.758442091328092,-0.1993115719316099,0.1929792574837898,-0.200950262204257,1.6190333082813586,-0.9990003271276588,0.7073502949780857,-1.0596804989796342,9.078579672229353,-0.9914152955569684,0.3074148302885826,-0.8116689691607935
0.12,0.9204737696674956,-1.1347150431230253,2.7575895083610686,-0.0640015129959823,-0.00486464494959,0.0391793087782571,-0.0325652915938459,0.0260036887029826,-0.1099168898773697,0.9104106593429712,-1.1254344855239446,2.754423086084006,-0.2393115725276564,0.2329792580798362,-0.2409502628003035,1.8067688783427127,-1.2544159100966914,0.7878792909891418,-1.0344567304022536,9.073384350694596,-1.0057855510371692,0.3151645841373432,-0.7955854943746831
0.14,0.9195039750571726,-1.133991600027327,2.755152885080268,-0.0777179286833503,-0.0202816480133523,0.0397251987292225,-0.063156287882021,0.045642747038595,-0.1327201199034105,0.9064244279043392,-1.1215749003742688,2.750404080839921,-0.2793115731237029,0.2729792586758827,-0.28095026339635,2.145628675839123,-1.5295498144087558,0.9819529167806186,-1.140161501302042,9.090476589303307,-1.017747809759424,0.3214822715930144,-0.7835616090205155
0.16,0.917882411874504,-1.132828658191786,2.7522501313686947,-0.0895285375116488,-0.0311768516084502,0.040271523055709,-0.097437808943743,0.0693788729535461,-0.1564284064421885,0.9014381964508056,-1.1167153152096918,2.745385075580935,-0.3193115737197493,0.3129792592719291,-0.3209502639923964,2.398285434618088,-1.7140760530861032,1.1868062957475576,-1.185414326938898,9.08117454899093,-1.0257373187018168,0.3263346541566356,-0.7766628377474962
0.18,0.9155400575073296,-1.131165058144844,2.7488661970268047,-0.0987419604117701,-0.0367256426298552,0.0406410795042735,-0.1348961666309069,0.0951890009928713,-0.1807474566687911,0.8954519649823711,-1.1108557300302138,2.7393660703070477,-0.3593115743157957,0.3529792598679755,-0.3609502645884428,2.579102302134352,-1.8729178843581933,1.2905064019662578,-1.2159525113301288,9.12393229302279,-1.0299291101889765,0.3294433824356265,-0.7763015608218506
0.2,0.9126159435507948,-1.1290967091102853,2.7451995612160616,-0.1052242406314112,-0.0366963798790687,0.0406669257301147,-0.1703652051857904,0.1207365000119479,-0.203881354376947,0.908795249175784,-1.1264056080952003,2.7398288241933653,-0.234896168121023,0.1951890024829874,-0.2807474581589072,2.472804392440368,-1.7734519277441727,1.27737495095383,-1.1566948854077967,9.12393229302279,-1.031432005205348,0.33003356972601,-0.7817911521816618
0.22,0.9087863548627876,-1.1262478934558116,2.741073221222325,-0.1060743775205474,-0.0310292158521544,0.0405185576187527,-0.2100311451744273,0.1613188797721384,-0.2060705153807227,0.908795249175784,-1.1264056080952003,2.7398288241933653,-0.234896168121023,0.1951890024829874,-0.2807474581589072,2.839502054975009,-1.983296999431848,2.029118988009524,-0.1094580501887848,9.130343433219878,-1.0345749125774262,0.3272652517172267,-0.7836974806321179
0.24,0.9042175346233852,-1.1226705280277538,2.736936998139869,-0.1005049990337993,-0.0202670614196642,0.0403052702683853,-0.2440670635798925,0.1930814411651938,-0.2075081774172561,0.908795249175784,-1.1264056080952003,2.7398288241933653,-0.234896168121023,0.1951890024829874,-0.2807474581589072,2.328825304784791,-1.701795920273259,1.5881280696527722,-0.0718831018266696,10.325473625954146,-1.0320293734140302,0.3232793375046756,-0.7888641156565723
0.26,0.8993045364452006,-1.1187560450840617,2.732943420131823,-0.0935578705565279,-0.0074384712157675,0.0400267429444381,-0.2708443483122815,0.21709414222661,-0.2126910426183594,0.906446287494574,-1.1244537180703706,2.7370213496117763,-0.2548961684190463,0.2151890027810106,-0.3007474584569304,1.816930709739074,-1.338864236619447,1.2006350530708088,-0.2591432600551627,10.325473625954146,-1.0260262821357349,0.3182003658087001,-0.7984992242983229
0.28,0.8936420230715152,-1.1141853863203617,2.728595959156567,-0.0864075772834556,0.0070347403263289,0.0397272620122716,-0.2935171958773379,0.2386581488086504,-0.2219660194527861,0.9017483641321534,-1.120549938020711,2.731406400448598,-0.2948961690150927,0.2551890033770571,-0.3407474590529769,1.6317855188854635,-1.133642378252822,1.0782003291020206,-0.463748841721337,10.013324090646163,-1.0173358399556798,0.3129719559467411,-0.8119660653624643
0.3,0.8875790586802639,-1.1092087572415548,2.724017291720637,-0.0801532184717859,0.0210932539859321,0.0394930305014755,-0.3113730899543266,0.2580673701208436,-0.2354464313847138,0.897050440769733,-1.1166461579710512,2.72579145128542,-0.3348961696111392,0.2951890039731035,-0.3807474596490233,1.4809391708378783,-0.8927947038494338,0.9704610656096596,-0.6740205965963864,9.743394574859847,-1.007471709551328,0.3084017916698589,-0.826638744687296
0.32,0.881526706162981,-1.104135173542503,2.719384256161524,-0.0751760981426736,0.0331946543769654,0.0393712223912605,-0.3247069179062727,0.2751907766228748,-0.2516051532301389,0.8903525173775102,-1.110742377891589,2.7181765020924398,-0.3748961702071856,0.3351890045691499,-0.4207474602450697,1.3528731553288011,-0.6666913975973077,0.8561703251015601,-0.8079360922712538,9.513059045989394,-0.9964803661091484,0.3042556068330316,-0.8422478906909151
0.34,0.8749132986557031,-1.098452825005866,2.714153504889696,-0.0709613484133886,0.0440472627469636,0.0393623631833975,-0.3358151655593158,0.292271623452205,-0.2707524766349848,0.8836545939852875,-1.104838597812127,2.710561552899459,-0.4148961708032321,0.3751890051651965,-0.4607474608411163,1.3980061586936368,-0.555412382652154,0.8540423414665099,-0.9573661702422936,9.325882344558522,-0.9860650199110242,0.3006174833781163,-0.8569364966540328
0.36,0.868096995590474,-1.0924262246550582,2.7085204394201545,-0.0674381420034766,0.0528073345054378,0.0394850647804934,-0.345205739031733,0.3095055320475869,-0.2916871833755042,0.8759566705781635,-1.0979348177177637,2.701946603691577,-0.4548961713992785,0.4151890057612429,-0.5007474614371626,1.4347930355336884,-0.4695286736208587,0.8616954297690937,-1.0467353370259695,9.219627128115462,-0.9768162322988092,0.2975627224601597,-0.8697903204753803
0.38,0.8611060750594829,-1.0860576929638042,2.702451740812572,-0.06419947448515,0.0596355052818235,0.0397372029324704,-0.3534371393048637,0.3264104191259997,-0.3141589040822017,0.8672587471561384,-1.0900310376084994,2.6923316544687945,-0.494896171995325,0.4551890063572893,-0.5407474620332091,1.465016543515979,-0.411570013656537,0.8452443539206406,-1.1235860353348752,9.081417209331448,-0.9681179306374595,0.2945228155667878,-0.8818454019565821
0.4,0.8543190419432731,-1.0796992712604676,2.696257965162556,-0.0612525463233361,0.0645816368217873,0.0400767545714673,-0.3606027888858339,0.341971328676102,-0.3367093930226298,0.8434342180942397,-1.0697371720075042,2.6867437956084617,-0.4491310404860847,0.4264104206161158,-0.4141589055723178,1.4159916943577855,-0.3582824790485078,0.7780454775051154,-1.1275244470214052,9.081417209331448,-0.9610245050338844,0.2915615921073347,-0.8918806613404904
0.42,0.8470564596451512,-1.072681707628531,2.6895468455508404,-0.0584533013091381,0.0681901934964582,0.0405147373597334,-0.3652348604390996,0.35907789930966,-0.3317795937400754,0.8434342180942397,-1.0697371720075042,2.6867437956084617,-0.4491310404860847,0.4264104206161158,-0.4141589055723178,0.9197741117820109,-0.2316035776632835,0.8553285316778986,0.246489964127719,9.026367439860223,-0.9661287866918656,0.2886696380540051,-0.8882679338462839
0.44,0.839710033635829,-1.0653385870230268,2.682933104780453,-0.0564506244339358,0.0699966621447918,0.0410002392847702,-0.3693787505848195,0.3746491170830687,-0.3300268116565278,0.8434342180942397,-1.0697371720075042,2.6867437956084617,-0.4491310404860847,0.4264104206161158,-0.4141589055723178,0.8104117680523888,-0.2071945072859987,0.7785608886704348,0.087639104177381,10.76400884339364,-0.9637736117011262,0.2888547223054861,-0.8890344462152501
0.46,0.8322735126788934,-1.0576843093351904,2.676294712562464,-0.05521626907956,0.0702088613024931,0.0415157829000337,-0.3741718917974755,0.3900114466120575,-0.3341639297686256,0.8389429076893788,-1.065473067801343,2.6826022065527386,-0.468269820722329,0.446410420914139,-0.434158905870341,0.8307994907243736,-0.2396570606327974,0.768116476449443,-0.2068559056048885,10.03281484474246,-0.9621048563717964,0.2891753147923048,-0.8895835758875641
0.48,0.8251142060349269,-1.0501338023122306,2.6698590981306776,-0.0547091773989013,0.0691060625145622,0.0420241785351957,-0.3792951932973,0.4040695302862758,-0.3430341019713511,0.8299602868796572,-1.0569448593890207,2.674319028441292,-0.5065473811948173,0.4864104215101855,-0.4741589064663875,0.869709563238544,-0.256165074991227,0.7029041837109146,-0.4435086101362756,10.03281484474246,-0.9619538476087124,0.2896604105644415,-0.8889778041958069
0.5,0.817465818975452,-1.0419024839568418,2.662865336720468,-0.0549797243044865,0.0666700747109011,0.0425670490001133,-0.3853807387265052,0.4183713480256584,-0.3560349042615656,0.8209776660699355,-1.0484166509766983,2.6660358503298456,-0.5448249416673058,0.526410422106232,-0.514158907062434,1.0131593088091904,-0.304277271460257,0.7150908869691303,-0.6500401145107276,9.768324985298932,-0.9628661840246134,0.2904149122753039,-0.8876660037028306
0.52,0.8096854626349281,-1.0333865251179202,2.655577287507568,-0.0561631239751935,0.0630230017899918,0.0431109901572654,-0.3924850260488197,0.4325993063128724,-0.3721019600801447,0.8100811672365894,-1.0378884425345736,2.655752672188597,-0.5831025021397942,0.5664104227022785,-0.5541589076584804,1.1303273619377228,-0.3552143661157247,0.7113979143607008,-0.8033527909289545,9.563501347509373,-0.9645911301075908,0.2915400215921046,-0.8857302244762775
0.54,0.8017498261534208,-1.0245831398716212,2.6479572470233257,-0.0582203056084088,0.0583749308063262,0.0436548558232074,-0.4008839910295854,0.4471387072322195,-0.3890927169351999,0.7991846684032433,-1.027360234092449,2.645469494047348,-0.6213800626122826,0.606410423298325,-0.5941589082545269,1.1943854176408522,-0.4199482490382877,0.7269700459673539,-0.8495378427527595,9.369763969885753,-0.9678072515932477,0.2932471912736888,-0.8821847393644807
0.56,0.7940333396615734,-1.0159305968332142,2.6403976545949943,-0.060408455091146,0.053530238664714,0.0441896463841393,-0.4110888069497509,0.4628774158508018,-0.4057976252606319,0.787331230558085,-1.0158320256354232,2.6341863158911982,-0.659657623084771,0.6464104238943713,-0.6341589088505732,1.2558853242893893,-0.5102407960082739,0.7869354309291143,-0.8352454162715989,9.369763969885753,-0.9716501861736232,0.295305449233583,-0.8776319590530033
0.58,0.7856780758180097,-1.0064892884697056,2.6320898600466034,-0.0622244480778177,0.0487670762771074,0.044774864023524,-0.4240625517502783,0.4802968475168725,-0.424127579915702,0.7745208537011143,-1.0033038171634965,2.6219031377201474,-0.6979351835572594,0.6864104244904178,-0.6741589094466197,1.4210400164800463,-0.6486872400263716,0.8709715833035342,-0.9164977327535044,9.348297298838588,-0.9753986457029584,0.2968815132037515,-0.8733931519282231
0.6,0.7770372541890196,-0.9966904454989668,2.6234073698567077,-0.0631631192110941,0.0452190223276601,0.0453482515901177,-0.4394401553105369,0.4985301343553671,-0.4431907012878594,0.7644749482304958,-0.982474446093862,2.610883481050818,-0.4825567731693743,0.5802968490069886,-0.5241275814058182,1.52670072103286,-0.768880178012929,0.9116643419247284,-0.9531560686078716,9.31434244904267,-0.9782167401306552,0.2976955231355909,-0.8704156852138238
0.62,0.7679774982079558,-0.9864589148174284,2.6146494137211684,-0.061338334323428,0.0470099832313089,0.0457734578477167,-0.4644814188282355,0.5229457618901331,-0.43148046614279,0.7644749482304958,-0.982474446093862,2.610883481050818,-0.4825567731693743,0.5802968490069886,-0.5241275814058182,1.8441240153742813,-1.2520631758849292,1.2207813767383002,0.5855117572534707,11.2529530460788,-0.9861034077549256,0.296662359957179,-0.8616086380600425
0.64,0.7589682866812217,-0.9763254585825224,2.606520732742514,-0.0569136422648272,0.0546107353717899,0.0460103120334412,-0.4819016374185353,0.5418676834742937,-0.4247483857884072,0.7644749482304958,-0.982474446093862,2.610883481050818,-0.4825567731693743,0.5802968490069886,-0.5241275814058182,1.3293081264974052,-0.8710109295149898,0.9460960792080308,0.3366040177191387,11.2529530460788,-0.9843004866672004,0.2949085599223001,-0.8621401054863593
0.66,0.7491870021650733,-0.9653160048723513,2.5980357562886334,-0.051705893846078,0.0657195954331259,0.0461563343771821,-0.4947449855155166,0.5579571619274346,-0.4244072982003397,0.759649380498802,-0.976671477603792,2.60564220523676,-0.4942556174531935,0.6002968493050118,-0.5441275817038413,1.0294892519801426,-0.6421674048490672,0.8044739226570452,0.0170543794033778,10.261425625310949,-0.9766064270632174,0.2921628045788288,-0.8704258477661779
0.68,0.7391951240070994,-0.9540086565113663,2.589482465872916,-0.0468485773046638,0.0782491181077248,0.046252699192158,-0.5033329320224319,0.5720161055695738,-0.4309138062889445,0.7499982450354146,-0.9650655406236524,2.5951596536086434,-0.5176533060208319,0.6402968499010583,-0.5841275822998878,0.8856372974383548,-0.4293973253457622,0.702947182106961,-0.3253254044302434,9.892598036718482,-0.9659575185786966,0.289211757881188,-0.8826372506082225
0.7000000000000001,0.7295772677455661,-0.943019205356424,2.581185247428474,-0.042818203134395,0.090550662079538,0.0463285553422292,-0.5083023292796575,0.584163467473349,-0.4421653585156322,0.7403471095720271,-0.9534596036435126,2.5846771019805272,-0.5410509945884703,0.6802968504971048,-0.6241275828959343,0.8643649949981922,-0.248469862861278,0.6073680951887594,-0.5625776113343833,9.609727838406798,-0.9532835983105816,0.2861466974349914,-0.8971662213421285
0.72,0.7193814475783529,-0.931211592476342,2.5721769656229987,-0.0392849597062172,0.1033892334031958,0.0464022085333957,-0.5106888563739661,0.5960434846965139,-0.458288731464447,0.7295260896802577,-0.9398536666335704,2.5721945503226085,-0.5644486831561086,0.7202968510931512,-0.6641275834919808,1.0084560923029044,-0.1193263547154321,0.5940008611582448,-0.8061686474407415,9.609727838406798,-0.9394725534777048,0.2832250236738077,-0.9128553923685344
0.74,0.7091661791972397,-0.9191724767547904,2.562815897776032,-0.0364867800275396,0.115819720736993,0.0464699032549212,-0.5104137811254149,0.6074226063734245,-0.4770404575943883,0.7187050697884882,-0.9262477296236284,2.55971199866469,-0.5878463717237471,0.7602968516891977,-0.7041275840880272,1.0967991035082758,0.0137537624275596,0.5689560838455288,-0.9375863064970624,9.385988230398652,-0.926107841798398,0.2806942735268194,-0.9278094730018344
0.76,0.6994954676408286,-0.9075187570649628,2.5535578581387166,-0.0341479221707972,0.1269168633030133,0.0465567535663539,-0.5073794935262278,0.6186499905372315,-0.4965871586481548,0.7072991076825279,-0.9116417925987852,2.54622944699187,-0.6112440602913854,0.800296852285244,-0.7441275846840736,1.137249509212471,0.1517143799593556,0.5613692081903487,-0.9773350526883272,9.281262924023396,-0.9120873288367468,0.2781958329513441,-0.943083748889872
0.78,0.6894075567791053,-0.8950228817175985,2.543392956387565,-0.0317421274446605,0.1373557589992292,0.0467017614299046,-0.5014024156337711,0.6302652624404751,-0.5189850875801696,0.6953082033623766,-0.8960358555590408,2.531746895304149,-0.6346417488590238,0.8402968528812905,-0.78412758528012,1.296444389438243,0.2988538946228358,0.5807635951621815,-1.1198964466007375,9.207330727975204,-0.8984507053418098,0.2756989149797044,-0.9575559409690646
0.8,0.6794640248930089,-0.8822973208989384,2.5327626465294464,-0.0292961230794752,0.1461002961457962,0.0469147700848326,-0.4931648375740906,0.6416026594033213,-0.5430133654831346,0.6643374359974167,-0.8635096185955747,2.517443702008557,-0.5072926472133132,0.7302652639305912,-0.6189850890702857,1.3908202626189698,0.4118789029840225,0.5668698481423096,-1.2014138951482511,9.129495555305766,-0.8855006412783782,0.2729867706290295,-0.9712291549249216
0.8200000000000001,0.6697111809196336,-0.8693282005841912,2.521935281335654,-0.0263558673182825,0.1540638214349526,0.0471947740836449,-0.4820791849614216,0.6544606891041442,-0.5370100112521726,0.6643374359974167,-0.8635096185955747,2.517443702008557,-0.5072926472133132,0.7302652639305912,-0.6189850890702857,0.9003622655054324,0.5542826306334514,0.6429014850411474,0.3001677115480994,10.949106584385843,-0.879070971224072,0.2682398887127524,-0.9812486673313175
0.84,0.6606694653202232,-0.8567948188585601,2.511759331873757,-0.0234932295065119,0.1618191312948792,0.04747101209623,-0.4700139169753447,0.6642931745752341,-0.5346512745318172,0.6643374359974167,-0.8635096185955747,2.517443702008557,-0.5072926472133132,0.7302652639305912,-0.6189850890702857,0.7871024409678158,0.6032633993038439,0.4916242735544918,0.1179368360177735,10.949106584385843,-0.867639735675289,0.2671818001438837,-0.9899906208232084
0.86,0.6514124401117493,-0.8434093670767012,2.501034031609376,-0.0209717537787795,0.1699108025419682,0.0477381950982534,-0.4561305322652541,0.6737978430824355,-0.5383021824717755,0.6592645095252836,-0.8562069659562688,2.5112538511178544,-0.5084706935292217,0.7502652642286144,-0.6389850893683089,0.8608371263285165,0.6941692355045298,0.475233425360072,-0.1825453969979185,10.531328165942796,-0.855381243145628,0.266038318825097,-0.9998393513413464
0.88,0.6424447839634688,-0.8298386360938061,2.4901789308045643,-0.0189750298372705,0.1777732819180353,0.0479786456619017,-0.4411524164265797,0.6828674352264377,-0.5472575676596846,0.6491186565810173,-0.841601660677657,2.4988741493364484,-0.5108267861610385,0.7902652648246609,-0.6789850899643554,0.9833620640424312,0.7489057919337211,0.4534796072001079,-0.447769259395453,10.185336469073263,-0.8434775939540112,0.2652772152191426,-1.0092209350117416
0.9,0.6337874949047788,-0.8160909071467393,2.4790966145186446,-0.0174913856480349,0.1853213006588807,0.048190154201699,-0.4251287873416083,0.6915268530847816,-0.5605472741590063,0.638972803636751,-0.8269963553990451,2.486494447555043,-0.5131828787928554,0.8302652654207073,-0.7189850905604018,1.1273403496019498,0.8011814542485673,0.4329708929171949,-0.6644853249660854,9.915835537336534,-0.8314295197940486,0.2649624690879187,-1.0182974652693235
0.92,0.6258762896629478,-0.8028741390585875,2.468291048637462,-0.0166375905750441,0.191964372793369,0.0483585153971437,-0.4083354028242621,0.6993427509076084,-0.5762436491314175,0.6287091460608939,-0.8103910500906311,2.4721147457438346,-0.5155389714246723,0.8702652660167538,-0.7589850911564483,1.213962735835464,0.8396692258673122,0.3907948911413439,-0.7848187486205582,9.560409546395933,-0.8194788872671378,0.2648292914762609,-1.0274474291751674
0.94,0.6179148086454801,-0.7888053006509723,2.4565790294862864,-0.0165191603335635,0.1979180928559633,0.0484909143168886,-0.3886346362601702,0.7071919023434452,-0.5942033057202933,0.6184454884850368,-0.7937857447822169,2.457735043932627,-0.5178950640564891,0.9102652666128004,-0.7989850917524948,1.389495093789371,0.985038328204596,0.3924575717918377,-0.8979828294437942,9.560409546395933,-0.8090736886822207,0.2651303813069977,-1.0354252450441228
0.96,0.6103654165932302,-0.7745698653370179,2.4444994070344053,-0.0170437436228869,0.2023164525540187,0.0485927663530646,-0.3673126761305663,0.7159573347670911,-0.6128852839686485,0.6081229285933843,-0.7761804394589016,2.4423553421065174,-0.520251156688306,0.9502652672088469,-0.8389850923485411,1.4836400343529568,1.0660980064801957,0.4382716211822957,-0.934098912417758,9.507911435091046,-0.8016491184542847,0.2662677052798685,-1.0404850543000466
0.98,0.6032544459663838,-0.7601497118930739,2.432041076075383,-0.017738481565686,0.2048350895015382,0.0487034207506974,-0.3450237164145739,0.7255400267651536,-0.6320054682509524,0.5977414663859364,-0.7575751341206851,2.425975640265507,-0.5226072493201228,0.9902652678048932,-0.8789850929445876,1.5445121868571663,1.1144479857996186,0.4791345999031249,-0.9560092141151944,9.49179735429334,-0.7964683988564356,0.2675944138751206,-1.0436379890979828
1.0,0.5969168389716598,-0.7462657777218629,2.419848549212241,-0.0182194400722161,0.2053856293518202,0.0488447634522984,-0.3233331160800434,0.7353484556045102,-0.6504509173299651,0.5860032601456551,-0.7238727105548162,2.400440802662835,-0.3938589269167216,0.8255400282552697,-0.7320054697410685,1.505757293603044,1.084530016726523,0.490421441967831,-0.9222724539506344,9.482442736907617,-0.7933287855754253,0.2689181193740281,-1.0450742230874048
1.02,0.5908081524899977,-0.7314062593742319,2.4068876857834187,-0.0172941217266788,0.2018396542640852,0.049157980263155,-0.2885534235423309,0.7498110242478208,-0.6432466694809356,0.5860032601456551,-0.7238727105548162,2.400440802662835,-0.3938589269167216,0.8255400282552697,-0.7320054697410685,1.9174814809083105,1.7389846268856255,0.7231284321655262,0.3602123924514755,9.474001577227682,-0.7914623802139671,0.2644105213760735,-1.0519887945306663
1.04,0.5853810004954234,-0.716278843103714,2.394084329074325,-0.014566131630985,0.1921568749699141,0.0496731514818007,-0.2568780411257442,0.7618986731333827,-0.63771447912069,0.5860032601456551,-0.7238727105548162,2.400440802662835,-0.3938589269167216,0.8255400282552697,-0.7320054697410685,1.7175900536795967,1.583769120829337,0.6043824442780954,0.2766095180122774,11.248175959579385,-0.7990095217807335,0.2667227132160666,-1.0405237202853777
1.06,0.5805221731205793,-0.7009379776919284,2.381342723375396,-0.0112558616920918,0.1779986038309965,0.0502366646931993,-0.2314212857543834,0.7714058934182971,-0.6368028861359154,0.5820646708764878,-0.7156173102722635,2.3931207479654244,-0.4036259690171511,0.8455400285532929,-0.7520054700390917,1.3594710675048265,1.2728377685680383,0.4753610142457232,0.0455796492387305,10.868179000717646,-0.8128942659564532,0.2692744119121915,-1.0230817358699609
1.08,0.5763160513032232,-0.6862067180487856,2.369214444885194,-0.0083005759522699,0.1618438472490128,0.0507224905357072,-0.2132934779902012,0.7787826376209303,-0.6397696074860731,0.5741874923381535,-0.699106509707158,2.3784806385706028,-0.4231600532180102,0.8855400291493394,-0.7920054706351382,0.9897413865951388,0.9063903882091092,0.3688372101316561,-0.148336067507887,10.525635708274422,-0.8299995015779578,0.2710422916968945,-1.003734318361889
1.1,0.5721939767085917,-0.6705618501103652,2.356357516231044,-0.0056988886358272,0.1434084202497666,0.0511405086936466,-0.2005520203299114,0.7853554580025431,-0.6458451956177812,0.566310313799819,-0.6825957091420527,2.3638405291757816,-0.4426941374188692,0.925540029745386,-0.8320054712311846,0.7785555250334653,0.6370728830144875,0.3286410190806443,-0.3037794065854027,10.023239890808329,-0.8484815483563296,0.2725946865033355,-0.9834607978635258
1.12,0.5682620800064346,-0.6547940045507403,2.3433510950602368,-0.0037142762939262,0.1247019448309011,0.0514563708101357,-0.1938428035132715,0.7911669835866577,-0.6545596257433222,0.5574564310514416,-0.664084908547145,2.347200419751158,-0.4622282216197283,0.9655400303414324,-0.8720054718272311,0.6219499825557476,0.3354608408319956,0.2905762792057287,-0.4357215062770481,10.023239890808329,-0.8673583203455536,0.2737135961874466,-0.963365197137024
1.14,0.5644062571568851,-0.6389190379119035,2.330154941761181,-0.0024300609118788,0.1067076667571353,0.0516754088175353,-0.1924778716222853,0.7961297520310576,-0.6645680424891575,0.5486025483030642,-0.6455741079522372,2.3305603103265344,-0.4817623058205874,1.005540030937479,-0.9120054724232776,0.5627177699746099,0.0682465945493093,0.2481384222199956,-0.5004208372917651,9.843241247896003,-0.8840546500420694,0.2741377364231687,-0.9463016249507124
1.16,0.5607216505143022,-0.623744328113421,2.3174250595435586,-0.0017478474886815,0.0909870885609973,0.0518158344015274,-0.1956686090620646,0.8009364489268198,-0.6748988023782636,0.5392603134496654,-0.6260633073424283,2.3129202008870093,-0.5012963900214464,1.0455400315335253,-0.952005473019324,0.5916285581843214,-0.1595368719889647,0.2403348447881093,-0.5165379944553072,9.761482000149044,-0.9001860642894441,0.2742331974846754,-0.9301745348065874
1.18,0.5567373290463979,-0.6076743316254458,2.303801924691408,-0.0014299203918393,0.0764014268055209,0.0519147975848054,-0.2028344681919349,0.8057909582417472,-0.6869196065739478,0.5294297264912451,-0.6055525067177183,2.2942800914325834,-0.5208304742223056,1.0855400321295716,-0.9920054736153704,0.7406340717061981,-0.3582929564935153,0.2427254657463684,-0.6010402097842094,9.701911314777137,-0.9145741798203424,0.2740076726440154,-0.9161061040746252
1.2,0.5525744910175322,-0.5915080770523965,2.2899260917554654,-0.0014533018710036,0.064141973618004,0.0519762492274612,-0.213228240890148,0.8105771210968225,-0.7001054717653206,0.5465956056368012,-0.5673847837133584,2.2694559443627105,-0.3028344696820511,0.893159349695967,-0.7573560320810164,0.8729331397971979,-0.5196886349106533,0.2393081427537635,-0.6592932595686385,9.628642091381153,-0.9269400301846776,0.2734580369648225,-0.9044827213719504
1.22,0.548220288764724,-0.5751647770612164,2.276162841394,0.0008664079792056,0.0536214886218267,0.0521791101829313,-0.2218865691567571,0.8221694813164648,-0.67549706455463,0.5465956056368012,-0.5673847837133584,2.2694559443627105,-0.3028344696820511,0.893159349695967,-0.7573560320810164,1.4273429592090654,-0.432916413330453,0.5796180109821192,1.2304203605345287,9.564260943007866,-0.935264971514078,0.261390246528996,-0.9117954946297752
1.24,0.5439028107126581,-0.5594847452483508,2.2635146874610754,0.0052521466204229,0.0446163266370538,0.0524708259610607,-0.2323131461161997,0.8274569459669759,-0.6571931786906423,0.5465956056368012,-0.5673847837133584,2.2694559443627105,-0.3028344696820511,0.893159349695967,-0.7573560320810164,1.0859362633730765,-0.5213288479721301,0.2643732325255554,0.915194293199384,11.915432597626932,-0.9477453814302516,0.2637172712982447,-0.8907206945959092
1.26,0.53912025290148,-0.5429103820748534,2.250507764801472,0.0098425071810808,0.0362130757974272,0.052718753543891,-0.2455780333560375,0.8297114579815931,-0.644756288273447,0.5435672609399806,-0.5584531902163987,2.2618823840419005,-0.3228344699800743,0.910633027986811,-0.7714433171824302,0.9161281312662962,-0.6632443619918923,0.1127256007308563,0.6218445208597656,11.394630276233327,-0.9581274676413928,0.2641631767641482,-0.8744527541066824
1.28,0.5340493837322492,-0.5263099944817501,2.2376837062509547,0.0136198297590418,0.0290030341615224,0.0528685417746198,-0.2609846888933617,0.8303439952487347,-0.63850330158203,0.5375105715463396,-0.5405900032224794,2.24673526340028,-0.3628344705761207,0.9455803845684988,-0.7996178873852576,0.8319630112017052,-0.7703327768662088,0.0316268633570815,0.3126493345708525,10.94641648232755,-0.967004271174701,0.2633312902241384,-0.862344941975149
1.3,0.528648436799519,-0.5097080008441878,2.224926663630961,0.016335734222827,0.0231940943617024,0.0529252464889818,-0.2784536731781779,0.8300957893928274,-0.6374793906400172,0.5314538821526986,-0.5227268162285601,2.2315881427586595,-0.4028344711721672,0.9805277411501868,-0.8277924575880851,0.8750363016858689,-0.8734492142408068,-0.0124102927953673,0.0511955471006353,10.584668456672262,-0.9739163730574836,0.2620784386978889,-0.8540330117407323
1.32,0.5231754339691476,-0.4939464456684067,2.212789359280096,0.017913448957775,0.019334237673619,0.0529133297375458,-0.2968484014828851,0.8292512337746927,-0.6401713610938021,0.5233971927292553,-0.5031162614055563,2.215032293606898,-0.4428344717682136,1.0154750977318747,-0.8559670277909125,0.930491816890631,-0.9197364152353616,-0.0422277809067339,-0.1345985226892443,10.102782722291522,-0.9794030745183028,0.2603991062779071,-0.8487304057552891
1.34,0.5170234353537675,-0.4773793766470777,2.199941040480864,0.0183473621984087,0.0174393177112654,0.0528402045051133,-0.3173563892351858,0.8276254411433117,-0.6445714723918897,0.5153405033058119,-0.4835057065825526,2.198476444455136,-0.4828344723642601,1.0504224543135627,-0.88414159799374,1.051881341649719,-1.0253993876150336,-0.0812896315690481,-0.2200055649043797,10.102782722291522,-0.9831588293268668,0.258044716049108,-0.84755859915575
1.36,0.5104592173972612,-0.4608426427574002,2.1869922816443874,0.0174253746643189,0.0178519925440134,0.0527067240200652,-0.3377500773349493,0.8262739528730237,-0.6500572114537031,0.5062838138674675,-0.4630214678450067,2.181216231048304,-0.5228344729603065,1.0853698108952508,-0.9123161681965676,1.058090695438565,-1.0196844049881748,-0.0675744135143985,-0.2742869530906688,10.022860373506774,-0.9848738004122068,0.2561455372356917,-0.8492395636992571
1.38,0.5038541724871493,-0.4451533613438057,2.174580452696256,0.0154228457856925,0.0199704618462414,0.0525241257973612,-0.3562664666684274,0.8254184926549158,-0.656160568278401,0.4962271244142218,-0.4416635451929185,2.163251653386401,-0.562834473556353,1.1203171674769383,-0.9404907383993948,0.9757554133379108,-0.9258194666739078,-0.0427730109053947,-0.3051678412348935,9.964902361357415,-0.9848882937290946,0.2552233592671207,-0.8525637709802505
1.4,0.4965344152279333,-0.4286414379992769,2.161380128758773,0.0124403860767445,0.0235483197810617,0.0522802361014456,-0.3745334831482891,0.8261315417858122,-0.6635858468885327,0.4860408491537278,-0.4038824367110599,2.1417724242823364,-0.3889005312235956,0.8405117568249069,-0.679242055323093,0.9865686653455656,-0.9133508239930864,0.0356524565448157,-0.3712639305065879,9.90816574813016,-0.983628439866166,0.2556115025897574,-0.8562461980890239
1.42,0.4887830476575618,-0.4118192042829089,2.148335183814059,0.0184654287085675,0.0304222116148756,0.0527044946048155,-0.3988388284452424,0.8517124603282135,-0.6388298571255149,0.4860408491537278,-0.4038824367110599,2.1417724242823364,-0.3889005312235956,0.8405117568249069,-0.679242055323093,2.1552217012547343,-1.2152672648476608,1.279045927120065,1.2377994881508925,9.843418636464776,-0.9828753431027312,0.244584872736117,-0.8685783294294005
1.44,0.4806121971009487,-0.3947337625523131,2.135795871680344,0.0330567416434708,0.0414969030999831,0.0538937303710922,-0.4162497205342357,0.8545716157441761,-0.6164952570080453,0.4860408491537278,-0.4038824367110599,2.1417724242823364,-0.3889005312235956,0.8405117568249069,-0.679242055323093,1.4231552053750764,-0.8705446044496662,0.14295777079813,1.1167300058734786,11.55530260434989,-0.9775691410890124,0.2370117280389979,-0.8722537423856532
1.46,0.4725818468741267,-0.3785345155985593,2.1242248287458274,0.047696433097351,0.0538186651347646,0.0552885635978392,-0.4276798276207448,0.850129917405422,-0.6026323101462182,0.4821518438414919,-0.3954773191428108,2.1349800037291056,-0.3954273441346292,0.843530409658905,-0.6838583527320314,0.9254152146947326,-0.5715053543254578,-0.2220849169377037,0.6931473430913548,11.55530260434989,-0.9681817467957156,0.2263352544280842,-0.8836309324000896
1.48,0.4639397883955024,-0.3616131838518501,2.112269312960756,0.0626400879754724,0.0674655289806735,0.0569367139379716,-0.435444984029667,0.8418900024720263,-0.5939389849421007,0.47437383321702,-0.3786670840063127,2.1213951626226435,-0.4084809699566964,0.8495677153269015,-0.6930909475499082,0.7137362175011976,-0.3882578204461084,-0.4119957466697854,0.4346662602058737,11.053151767047892,-0.9566178769443168,0.2144256786355265,-0.8986812678279179
1.5,0.4551815578208217,-0.3448882746770739,2.100426137261852,0.0768422868846851,0.0811206275116237,0.0587141223737859,-0.4395607345230786,0.8307355123814933,-0.5908481358125663,0.466595822592548,-0.3618568488698146,2.107810321516182,-0.4215345957787637,0.8556050209948979,-0.702323542367785,0.6142381452770546,-0.2057875246705781,-0.5577245045266466,0.1545424564767195,10.421446597862086,-0.943419583598632,0.2019580637063109,-0.9157797308352637
1.52,0.4463766464093043,-0.3284352620902149,2.088598639357047,0.0895276413894632,0.0944112577481018,0.0605194667603908,-0.4403689461160803,0.8153775080555531,-0.5920901507541897,0.4581651306769728,-0.3447447484499166,2.093763850668826,-0.434588221600831,0.8616423266628943,-0.7115561371856619,0.7714663051129933,-0.0404105796500853,-0.7679002162970128,-0.0621007470811674,10.221396832637764,-0.929779880547263,0.1899180369490368,-0.9335193826811354
1.54,0.4380266750393197,-0.3131175460413106,2.077319839085089,0.0995760420723434,0.106523665560962,0.0621680328985171,-0.438263704016255,0.7981795291415551,-0.5951065415264403,0.4497344387613974,-0.3276326480300187,2.0797173798214703,-0.4476418474228982,0.8676796323308907,-0.7207887320035387,0.8793479634310226,0.105262104991266,-0.8598989456998996,-0.1508195386125288,10.221396832637764,-0.9147082981608574,0.1774310367070491,-0.9533144567667406
1.56,0.429309393443391,-0.2973603195797825,2.0653742203743475,0.1080595376777982,0.1186401632432383,0.0637835638767745,-0.4332779635076881,0.7787003468687056,-0.5993540107598859,0.4409774062002705,-0.3103696149684208,2.065440094103668,-0.4606954732449655,0.873716937998887,-0.7300213268214155,1.0275421467350214,0.2492870254283435,-0.9739591136424752,-0.2123734616722827,10.162797341985424,-0.8992943787637977,0.1661125214349214,-0.9728613644531756
1.58,0.4207198126365525,-0.2820078882141329,2.0533332095905377,0.1144671795448553,0.1300738634317002,0.0652386361887468,-0.4256672634808703,0.7579821052920427,-0.6045513328037684,0.4318940329935918,-0.292955649265123,2.050931993515418,-0.4737490990670328,0.8797542436668835,-0.7392539216392923,1.133777365000504,0.3805350013408898,-1.0359120788331455,-0.2598661021941228,10.130830647200128,-0.8845060325977188,0.1566889651523736,-0.9908695406956972
1.6,0.4127289458832253,-0.2678138883032055,2.0417918121370504,0.1188016085254256,0.1401453258329715,0.066434693586583,-0.4156983225313387,0.7375904142034412,-0.6100775619619939,0.399436449462509,-0.2441087829495307,2.023105642950349,-0.4142516599102302,0.7238422485959138,-0.6201639415569131,1.1680539989844425,0.4984470474765773,-1.0195845544300752,-0.2763114579112768,10.130830647200128,-0.8697404203101543,0.1489560502338895,-1.0076298218270088
1.62,0.404545990471696,-0.253188347647732,2.0296241793304084,0.1254649470120044,0.1499417350177507,0.0677622322401597,-0.4027216152892871,0.7242874358862255,-0.6061750926507459,0.399436449462509,-0.2441087829495307,2.023105642950349,-0.4142516599102302,0.7238422485959138,-0.6201639415569131,0.9494648883442974,0.6488353621025816,-0.665148915860786,0.1951234655624023,10.132978465927408,-0.8563772958645435,0.138788999394105,-1.0235012123949816
1.64,0.3966494556387231,-0.2389182725609449,2.0175254772721765,0.1344558684845686,0.1591289974862375,0.069216972010717,-0.3873425303868185,0.7030394155211755,-0.6041200637696823,0.399436449462509,-0.2441087829495307,2.023105642950349,-0.4142516599102302,0.7238422485959138,-0.6201639415569131,1.315501582641502,0.7689542451234294,-1.0624010182524957,0.1027514440531784,10.717395185883106,-0.8432534140069764,0.1285990272721153,-1.036876562339942
1.66,0.3890837098425901,-0.2251259964616989,2.005442789130391,0.1428484531352649,0.1677043185521112,0.0705853495611767,-0.3698022592560178,0.677441759337553,-0.6042833683918097,0.3952939328634067,-0.2368703604635716,2.01690400353478,-0.4119685391961022,0.7170142772566881,-0.6232864633075421,1.55155388388267,0.8770135565400378,-1.2798828091811263,-0.0081652311063717,10.618108644858694,-0.8291834585712439,0.1173920590791843,-1.051445452128995
1.68,0.3822544758816162,-0.2125213856011175,1.993947756652799,0.1493467123538405,0.1747930689493483,0.0716468422550038,-0.3499441721477346,0.6509907189398266,-0.6057096799918333,0.3870088996652021,-0.2223935154916533,2.0045007247036417,-0.4074022977678461,0.7033583345782365,-0.6295315068088,1.6553213634387418,0.9929043554141592,-1.3225520198863194,-0.0713155800011799,10.559884273126954,-0.8164465310541992,0.1073238896093567,-1.064644844786819
1.7,0.3754986186403098,-0.1998067158504758,1.981812082650808,0.1544495165497795,0.1804432410270981,0.0723633744617434,-0.3266946103684326,0.6221283702319284,-0.6077815740264002,0.3787238664669975,-0.2079166705197351,1.9920974458725036,-0.4028360563395901,0.689702391899785,-0.6357765503100579,1.855983594186901,1.1624780889650992,-1.443117435394914,-0.1035947017283434,10.538210550760596,-0.8051047713730165,0.0984926312590043,-1.076621750690654
1.72,0.3692275590541151,-0.1876794833628353,1.9696343466733792,0.1577599578565482,0.183826699061402,0.0725733068590652,-0.3016880415394962,0.5923563786940115,-0.6098374929717034,0.3706671453402057,-0.1941226226817393,1.979381914866302,-0.3982698149113341,0.6760464492213335,-0.6420215938113157,1.9467452115260135,1.2503284414468212,-1.4885995768958438,-0.1027959472651607,10.549384459111934,-0.7955693130410394,0.090970715026087,-1.0871656131462355
1.74,0.3634732110134929,-0.1761584664073947,1.9574244959745632,0.1591782610458515,0.1846005948495013,0.072193455676028,-0.2752181533426133,0.5616436951510095,-0.6109916182176544,0.3626104242134139,-0.1803285748437436,1.966666383860101,-0.393703573483078,0.6623905065428819,-0.6482666373125736,2.028087717932462,1.323494409844142,-1.535634177150097,-0.0577062622975466,10.5896103078112,-0.789254090225486,0.0855360863850828,-1.094894622173714
1.76,0.3585093918515187,-0.1657954283611704,1.945814387586013,0.1584099506153439,0.1824884008834203,0.071186297221179,-0.2488097803280462,0.5311185929111801,-0.6110016830321718,0.3546678591223285,-0.1668759255727092,1.9537947267663685,-0.389137332054822,0.6487345638644304,-0.6545116808138316,2.018157658192891,1.3204186507283555,-1.5262551119914702,-0.0005032407258742,10.672623874089368,-0.7863118213344412,0.082208870578884,-1.0999563025131176
1.78,0.3538252579432306,-0.1555188401118878,1.9336072383276208,0.1548259437240426,0.1768424642411588,0.0693585066236049,-0.221581453252966,0.4987300599090371,-0.6094958264371807,0.3468394500669495,-0.1537646748686361,1.9407669435851045,-0.3845710906265659,0.6350786211859788,-0.6607567243150895,2.116994608769191,1.361416353754008,-1.61942665010715,0.0752928297495569,10.769521855365385,-0.7858331881232172,0.0816711940760441,-1.1030641249586974
1.8,0.3496567687981402,-0.1458660250475099,1.921454654097543,0.1490375898186655,0.1683164959536213,0.066936938327885,-0.1971531230897662,0.4687434531986522,-0.6056225633048068,0.3427461852805823,-0.130582337116436,1.9031324470057616,-0.2577713334750482,0.4653562793604646,-0.5746141489586288,1.9435419109567755,1.221416508159992,-1.4993303355192444,0.1936631566186952,10.953193991465923,-0.7899440440680722,0.0840660681613659,-1.1021874792849244
1.82,0.3460021879371711,-0.1367773583591131,1.9094520018192345,0.1426534265794272,0.1560855699780741,0.0639709068309964,-0.1702431606806043,0.4416909246203372,-0.5943983738513758,0.3427461852805823,-0.130582337116436,1.9031324470057616,-0.2577713334750482,0.4653562793604646,-0.5746141489586288,1.9886979460375376,1.3454981204580954,-1.3526264289157512,0.5612094726715477,10.953193991465923,-0.8033903003930547,0.0886279805544028,-1.092785890407479
1.84,0.3429818929178848,-0.1286430555706136,1.898293271594506,0.1365112139029393,0.1406229449395351,0.0606756602553937,-0.1498959417504456,0.4161755689165495,-0.5806621311589375,0.3427461852805823,-0.130582337116436,1.9031324470057616,-0.2577713334750482,0.4653562793604646,-0.5746141489586288,1.770400419529566,1.0173609465079336,-1.2757677851893856,0.6868121346219169,11.392252050632123,-0.817196623557493,0.0933590556708458,-1.0827773803906813
1.86,0.3401529146259817,-0.1205970396405568,1.8868534858718464,0.1298780634616334,0.1221003817814478,0.0570017143315107,-0.1348729463157087,0.3900389094382122,-0.5638509051956829,0.3401684719458318,-0.1259287743228313,1.8973863055161757,-0.2650093095194646,0.45868152325075,-0.5676378134629184,1.7258568009153383,0.7511497717368448,-1.306832973916866,0.8405612981627286,11.495193435604053,-0.8355113598501072,0.0987526002064623,-1.0684580121393572
1.88,0.3375545106954217,-0.113064384478609,1.8757702621295715,0.1230613743731393,0.1027012633911875,0.0533372503574995,-0.1264251434807574,0.3648338616778203,-0.5451706239421512,0.3350130452763308,-0.116621648735622,1.885894022537003,-0.2794852616082975,0.4453320110313211,-0.5536851424714977,1.624509705305645,0.4223901417475653,-1.260252388019592,0.9340140626765858,11.59091726760562,-0.8552485865292108,0.1043598373552164,-1.052087752228775
1.9,0.335056243808386,-0.1060236584668947,1.8650756542901457,0.116077041291976,0.0836484750012753,0.049850200818716,-0.1243835709946377,0.3408616251334861,-0.525141870686342,0.3298576186068299,-0.1073145231484127,1.8744017395578303,-0.2939612136971303,0.431982498811892,-0.539732471480077,1.5652372824396967,0.1020786243059852,-1.1986118272167112,1.0014376627904609,11.66039000249748,-0.876669488786344,0.110682483082059,-1.0332355987761963
1.92,0.332663268176802,-0.0997650481767618,1.8552951596192253,0.109383341262905,0.0667655389660111,0.0468101096451496,-0.1279594686388529,0.3194342907606215,-0.5053281171325616,0.3239783943328873,-0.0986748731721749,1.863607090128229,-0.3084371657859632,0.418632986592463,-0.5257798004886562,1.4701211958359006,-0.1787948822107594,-1.0713667186432296,0.9906876776890172,11.70845183853362,-0.8975934246596162,0.1172642835609983,-1.0136770558466597
1.94,0.330018791346089,-0.0935993988349795,1.8454148492023237,0.1024083036357371,0.0509513362589769,0.0439616742005372,-0.1366542139716169,0.2985044626188639,-0.4836777056471959,0.3180991700589446,-0.0900352231959371,1.852812440698627,-0.3229131178747961,0.405283474373034,-0.5118271294972354,1.5671603459209158,-0.4347372666382007,-1.0464914070878797,1.0825205742682864,11.73881084894947,-0.9177190804851542,0.1241574703013259,-0.993458540261737
1.96,0.3271493589379696,-0.0878383431623715,1.8359723870105984,0.0955178267209426,0.0377581694345608,0.0415072606492247,-0.14995439371205,0.2789543446363566,-0.4615945456044338,0.3118580469827812,-0.0817293110251849,1.842366608043811,-0.3373890699636289,0.391933962153605,-0.4978744585058147,1.6176895960999664,-0.6650089870216549,-0.9775058991253666,1.104158002138106,11.791962234411583,-0.9353905613766992,0.130899818748294,-0.9744244144481238
1.98,0.3241421845697323,-0.082712103010207,1.8274133492825555,0.0890657790019524,0.0280344508997151,0.0395435277704905,-0.1659067208230977,0.2618704424704229,-0.4404117161204774,0.305255025104397,-0.0737571366599186,1.8322695921637808,-0.3518650220524618,0.378584449934176,-0.483921787514394,1.577219641029295,-0.7976163555523843,-0.854195108296682,1.0591414741978191,11.791962234411583,-0.9514253341455854,0.1378153881550612,-0.9561870131926
2.0,0.3206201841589913,-0.0776487280398286,1.8188404234203104,0.0824630514996858,0.0210719710678096,0.0378560412646231,-0.1856302308412809,0.245571270651213,-0.4179682071775792,0.3158468485285774,-0.0696185808866859,1.805392763476532,-0.202359129703093,0.2574568293521916,-0.4098932942172248,1.7017571382981258,-0.9861755009091588,-0.8149585909604962,1.12217544714491,11.810399095712455,-0.9641049653336348,0.1444154739998779,-0.9408731219921193
2.02,0.3166230293911339,-0.0729104113330495,1.810651935247685,0.0755093271228934,0.0198187707502516,0.0366586129048982,-0.2126013839627185,0.2296302157178577,-0.4022117769186673,0.3158468485285774,-0.0696185808866859,1.805392763476532,-0.202359129703093,0.2574568293521916,-0.4098932942172248,1.7534433463846486,-1.348557656071879,-0.7970527466677632,0.7878215129455968,11.42567283059725,-0.9684775764158308,0.1506861574355511,-0.9341481699247752
2.04,0.3121160676155217,-0.0684591835519876,1.8027749821016923,0.0682025464969728,0.0250255639857629,0.0359282385784683,-0.2359307805237797,0.2166186583725323,-0.3861257622203446,0.3158468485285774,-0.0696185808866859,1.805392763476532,-0.202359129703093,0.2574568293521916,-0.4098932942172248,1.5591032978354888,-1.1664698280530614,-0.6505778672662721,0.8043007349161302,11.42567283059725,-0.9720865571128994,0.1568979587136513,-0.9289316766127472
2.06,0.3074490067339577,-0.0644470502942498,1.7955976211025484,0.0614503752732291,0.0337195393441256,0.0354698627101123,-0.2536072395864996,0.206527446537916,-0.3701353713391512,0.3138232572315464,-0.067044012593164,1.801293830534359,-0.2096496114790921,0.2565741067285454,-0.4037896098365743,1.2942008748842562,-0.8838229531359972,-0.5045605917308155,0.7995195440596736,11.396126614594325,-0.970502726176551,0.1635190389483223,-0.9283787408848
2.08,0.302225052415005,-0.0604089306350013,1.7883754736524868,0.0547958320682572,0.0449582979568027,0.0350914409953336,-0.2673447523844579,0.1979518293389304,-0.352892958030404,0.3097760746374846,-0.0618948760061201,1.7930959646500149,-0.2242305750310902,0.2548086614812528,-0.3915822410752732,1.1827523884220923,-0.6868756398979103,-0.4287808599492793,0.8621206654373603,11.373551761857923,-0.9666646839167564,0.1703783646153004,-0.9294148401410104
2.1,0.2967764750347808,-0.0565219579404751,1.7814967954892955,0.0487524755972353,0.0568232707382229,0.0347292655709633,-0.2764551091439831,0.1912185805324063,-0.3358402115402172,0.3057288920434227,-0.0567457394190763,1.7848980987656704,-0.2388115385830884,0.2530432162339603,-0.3793748723139722,1.0236349479122957,-0.4555178379762631,-0.3366624403262033,0.8526373245093394,11.314850201093575,-0.9611234747949654,0.1763484181930904,-0.9324826970910703
2.12,0.2914717503858052,-0.0529383508054681,1.7752739537543096,0.0436365271752592,0.0676264803113321,0.0343562874026403,-0.2812785919399413,0.1863257302101343,-0.320068573869722,0.3009526612717609,-0.0516848750943971,1.777310601319391,-0.2533925021350866,0.2512777709866678,-0.3671675035526712,0.860160632336257,-0.2411741397979089,-0.2446425161135995,0.7885818835247582,11.314850201093575,-0.9547105778285778,0.1819259107692656,-0.9365335838018048
2.14,0.2858234356403119,-0.0492530989497107,1.7690409079404528,0.0389284651589807,0.077747321251302,0.0339168276623481,-0.2831066841351341,0.1824641749897885,-0.3041197441851268,0.2961764305000992,-0.0466240107697179,1.7697231038731114,-0.2679734656870847,0.2495123257393753,-0.3549601347913701,0.8255584444818709,-0.0914046097596404,-0.193077761017292,0.7974414842297606,11.237199100179168,-0.948435485122724,0.1868053206901056,-0.9405978704793856
2.16,0.2801655306656229,-0.0456327421523274,1.7631183336869378,0.034921910061048,0.0861505758470876,0.0334334200657264,-0.2824934419536429,0.1797369982354317,-0.2889907519577391,0.2910356756396375,-0.041607282576221,1.7624407906458646,-0.2825544292390828,0.2477468804920828,-0.3427527660300691,0.7692528271625346,0.0306621090745612,-0.1363588377178412,0.7564496113693836,11.237199100179168,-0.9430488604657732,0.1908291240394458,-0.9439723768103996
2.18,0.2745401664866558,-0.0420565439820043,1.7574903385510328,0.031622498739635,0.0926394769408529,0.0329203840009354,-0.2801080894794184,0.1779136742856498,-0.2745886122425027,0.2855303966903758,-0.0366346905139064,1.75546366163765,-0.297135392791081,0.2459814352447903,-0.3305453972687681,0.7355882765333588,0.119267623711225,-0.0911661974890926,0.7201069857618203,11.15989238275779,-0.9384533202637518,0.1944178660235358,-0.946574834957885
2.2,0.2692511281586744,-0.0386863735452079,1.7524055339286708,0.0290977290519845,0.0970464464950051,0.0324189263651286,-0.2768255249575522,0.1768230175281339,-0.2613900046324489,0.2605347620126849,-0.0331608602677218,1.7437609079389076,-0.2466850605931002,0.1601676299628015,-0.2685920301441975,0.6822169831642643,0.1641282260933074,-0.0545328378757981,0.6599303805026907,11.15989238275779,-0.9352800756873916,0.1974331539228059,-0.9478538993689748
2.22,0.2636681318051801,-0.0350779223385155,1.7472804568442883,0.0296054938292827,0.1026203200740154,0.0321457474375412,-0.2813099975809859,0.1833325224710323,-0.252053684287168,0.2605347620126849,-0.0331608602677218,1.7437609079389076,-0.2466850605931002,0.1601676299628015,-0.2685920301441975,0.6116596825475161,-0.2242236311716855,0.3254752471449226,0.4668160172640434,11.135823680369867,-0.9259963658457634,0.1981683471294923,-0.9547929172175544
2.24,0.2580275875902171,-0.0313715599118479,1.7423212169688005,0.0345489968507025,0.1110388089924061,0.0322987895646024,-0.281954682398736,0.1857691474302648,-0.2443557311337019,0.2605347620126849,-0.0331608602677218,1.7437609079389076,-0.2466850605931002,0.1601676299628015,-0.2685920301441975,0.4050038347323123,-0.032234240887502,0.1218312479616234,0.3848976576733068,10.875058885320868,-0.9209270735782824,0.1942096030671495,-0.9599632967286656
2.26,0.2526961217344864,-0.027863725986919,1.7377440395926165,0.0405537975943834,0.1202091841353659,0.0326315335381269,-0.2788774758958782,0.1831279811112123,-0.237867336836651,0.2580679114067539,-0.0315591839680938,1.7410749876374656,-0.2400004548158365,0.1566184210982318,-0.2673927137245365,0.3825709736118586,0.1538603251428905,-0.1320583159526239,0.3244197148525446,10.783224127788344,-0.912796699441122,0.1885671798199522,-0.9684277993144592
2.28,0.2471810439862468,-0.0242572688455393,1.733052619255598,0.0467141192090286,0.13024121021414,0.0330530862231657,-0.2724557329101937,0.1776017644839289,-0.2316673951019421,0.2531342101948919,-0.0283558313688378,1.7357031470345816,-0.2266312432613092,0.1495200033690925,-0.2649940808852143,0.5249217339271566,0.3210871492842215,-0.2763108313641724,0.3099970867354473,10.742253317882389,-0.902977444677293,0.1828468082724237,-0.9784174863919192
2.3000000000000003,0.2418244425601816,-0.0207812499986315,1.728478988453514,0.052136228528005,0.1401885008770001,0.0334833477480425,-0.2632350448388837,0.1703283966688265,-0.2260522446494244,0.2482005089830299,-0.0251524787695817,1.7303313064316976,-0.2132620317067819,0.1424215856399532,-0.2625954480458923,0.6508703451659451,0.4610344035654995,-0.3636683907551188,0.2807575226258824,10.723569256472729,-0.8921578979714607,0.1775873133763766,-0.9891110798031628
2.32,0.2366883750781291,-0.0174639258480474,1.7240125576542598,0.0566009633189534,0.1494901352733611,0.0338657288081355,-0.2506705318607109,0.1619387481424077,-0.2209076783409944,0.2439352683488942,-0.0223040470567827,1.72507939747078,-0.1998928201522547,0.1353231679108139,-0.2601968152065702,0.7979971041259294,0.6282256489086424,-0.4194824263209398,0.2572283154214982,10.712175066522832,-0.8821109005359261,0.1732664535366653,-0.9987976454137176
2.34,0.2320713934221673,-0.0144747181027228,1.7198602069035471,0.0599694985253885,0.1570892850434858,0.0341339134113337,-0.2359291676365864,0.1532995085675319,-0.216465387503593,0.2396700277147586,-0.0194556153439836,1.719827488509862,-0.1865236085977274,0.1282247501816745,-0.2577981823672481,0.8827205496424952,0.7370682112062266,-0.4319619787437889,0.2221145418700734,10.712175066522832,-0.8718671545166365,0.1694460615358598,-1.0083866262287362
2.36,0.227537051435013,-0.0115101607702655,1.7155777913957395,0.0626574914136542,0.1633159806547238,0.0342743767286847,-0.2182543527792962,0.1437319636742774,-0.2120283919381567,0.2357390173694862,-0.016784644074413,1.7146355453699271,-0.1731543970432001,0.1211263324525352,-0.255399549527926,1.0291063176023467,0.8837407428645069,-0.4783772446627241,0.2218497782718112,10.711401122162895,-0.8626006770446787,0.1663514283758192,-1.0168501828363077
2.38,0.2233736520653198,-0.0087415961773145,1.7113830841088058,0.0645002716337183,0.1674595066692935,0.034239293707235,-0.1990309093893692,0.1337240873538525,-0.2076661364407234,0.2321422373130769,-0.0142911332480709,1.7095035680509756,-0.1597851854886728,0.1140279147233959,-0.2530009166886039,1.1053592597381376,0.9611721694963492,-0.5003938160212481,0.2181127748716663,10.723479658964608,-0.8552976004211885,0.1640846370092121,-1.0234092337531842
2.4,0.219605278146733,-0.0061795077545446,1.707276805297998,0.0654084152899518,0.1694110554980252,0.0340040493075458,-0.1789847924627384,0.1231235437430206,-0.2031763199150019,0.2134221065958514,-0.0020553918096219,1.7009997772867695,-0.1870065896586702,0.1378735266328425,-0.2024015622445338,1.1558295517894754,1.0023058463315402,-0.530027180541593,0.2244908262860737,10.741056547007249,-0.849293431339378,0.1624819863547186,-1.0287410693086618
2.42,0.2164654437583483,-0.0040451154831179,1.7034431886973165,0.0619461725775173,0.1672182997544744,0.0332230702198844,-0.1529362698825913,0.1039892546080918,-0.2004208200338966,0.2134221065958514,-0.0020553918096219,1.7009997772867695,-0.1870065896586702,0.1378735266328425,-0.2024015622445338,1.6219119341862105,1.3024261290073584,-0.9567144567464388,0.1377749940552661,10.764364433206538,-0.8511878168156576,0.1641538642722504,-1.0280631866978227
2.44,0.2136643844578491,-0.0020955585053113,1.6994793160514274,0.0538409548303904,0.1590403044669141,0.0317836997496106,-0.1294133098401362,0.0928145901914136,-0.1959392359025772,0.2134221065958514,-0.0020553918096219,1.7009997772867695,-0.1870065896586702,0.1378735266328425,-0.2024015622445338,1.321256381545995,1.1761480021227535,-0.5587332208339096,0.2240792065659733,10.758135148053045,-0.8524516393854382,0.1714414357282838,-1.0255968122606105
2.46,0.2112712820187547,-0.000304014589374,1.6956218691168288,0.0449584427843061,0.1471979384217959,0.0302128440025617,-0.1117208201078271,0.0871098279634498,-0.1899266199095009,0.2115520406992647,-0.0006766565432935,1.6989757616643242,-0.1846017257125304,0.1387034144886405,-0.2013486474052959,0.9768828692397816,0.8846244866154512,-0.2852381113981922,0.3006307996538115,10.772810862817096,-0.8599487186988051,0.1803159614221501,-1.0168206278673655
2.48,0.2091700815385483,0.00141001741695,1.691896311309396,0.0367864941544507,0.1337631474792847,0.0287657786650321,-0.099782614055208,0.0845167281182282,-0.182878572612059,0.2078119089060912,0.0020808139893633,1.6949277304194337,-0.1797919978202507,0.1403631902002365,-0.19924281772682,0.705194833484087,0.5969103026309597,-0.1296549922610766,0.3524023648720953,10.803366188936709,-0.8712749742394608,0.1891857688532507,-1.0034626693044506
2.5,0.2073431057204554,0.0030102770558545,1.6884931177786304,0.0301169529449364,0.1210269406100154,0.0275971456996469,-0.093403298791402,0.0839061943547154,-0.1756782359940574,0.2040717771129178,0.0048382845220201,1.690879699174543,-0.1749822699279711,0.1420229659118325,-0.1971369880483441,0.4819576281270806,0.3189657631902987,-0.0305266881756444,0.3600168309000826,10.82280566675945,-0.8851194458805942,0.1975421657897508,-0.9872974402043154
2.52,0.205504869968757,0.0046946271991482,1.6850607898114929,0.024291780782906,0.108771991870484,0.0265981530570011,-0.0910187397714652,0.0844678443058543,-0.1679175355199119,0.2005721317143584,0.0076787438402568,1.686936959413576,-0.1701725420356915,0.1436827416234285,-0.1950311583698683,0.4069092166459814,0.1192279509968377,0.0280824975569485,0.3880350237072755,10.827525058960418,-0.8986647111110727,0.2044838455334114,-0.9714091940150502
2.54,0.2036748193519556,0.0064009365390747,1.681782367439286,0.019624770603542,0.0984610015504198,0.025816440218725,-0.0922374303641193,0.0860183368994838,-0.1603142169290177,0.197072486315799,0.0105192031584934,1.682994219652609,-0.1653628141434119,0.1453425173350245,-0.1929253286913924,0.3927457435738793,-0.0609345296327015,0.0775246296814746,0.3801659295447068,10.799240417203691,-0.9107628406227182,0.2101181852376842,-0.9569268901439676
2.56,0.2017882694174784,0.0081470497946208,1.678652444504037,0.0160468354041601,0.0906349571591769,0.0252232642748518,-0.0963689531858939,0.088306378958276,-0.153043679356584,0.1936930841145465,0.01340115686952,1.6791041256336043,-0.1605530862511322,0.1470022930466206,-0.1908194990129166,0.4334897169536333,-0.2065761410887316,0.1144021029396098,0.3635268786216838,10.799240417203691,-0.9200964392783608,0.2144775092631385,-0.9452070940970638
2.58,0.1998952260978171,0.0098525371706431,1.6758101880981524,0.0135181242709004,0.0859810400840306,0.0248051669473094,-0.1027100557522677,0.0909244948089472,-0.1464954126235447,0.1904339251106011,0.0163246049733364,1.6752666773565612,-0.1557433583588526,0.1486620687582166,-0.1887136693344407,0.4741938147314815,-0.3170551283186905,0.1309057925335609,0.327413336651966,10.775969816510042,-0.9273342428074284,0.2185569861744539,-0.9349568017661556
2.6,0.1977574622324841,0.0117032641786754,1.672949303637217,0.0116171061845245,0.0845342561653628,0.0244919423299707,-0.1104049342844821,0.0939097956617119,-0.1399425744108297,0.1947597233102037,0.0143987619110905,1.6684854174669752,-0.1214071909027003,0.09632072635222,-0.1362357657011948,0.5269318396364701,-0.38474392661072,0.1492650426382351,0.3276419106357509,10.757092627239215,-0.932241903713155,0.2209726984564909,-0.9284171898858448
2.62,0.1955188883093789,0.0136422488681429,1.6702372553032114,0.0112001622690546,0.0848492278690899,0.0243219796623268,-0.1129405318903946,0.0996006812119258,-0.1314908752918264,0.1947597233102037,0.0143987619110905,1.6684854174669752,-0.1214071909027003,0.09632072635222,-0.1362357657011948,0.5249920274701885,-0.1267798802956257,0.2845442775106954,0.4225849559501643,10.721651026179645,-0.937756614883642,0.2216673315086056,-0.9221832065693856
2.64,0.1932372579670656,0.0156908937489942,1.6676917836805665,0.0128457700752239,0.0850916513716408,0.0243089407314719,-0.1151162312041815,0.1047480951287885,-0.1234774999186298,0.1947597233102037,0.0143987619110905,1.6684854174669752,-0.1214071909027003,0.09632072635222,-0.1362357657011948,0.4884765153189995,-0.108784965689343,0.2573706958431308,0.4006687686598293,10.809807942223417,-0.9400026676688,0.222358391128037,-0.9173838871747166
