t,x,y,z,roll,pitch,yaw,v_x,v_y,v_z,ref_x,ref_y,ref_z,ref_v_x,ref_v_y,ref_v_z,a_com,a_x,a_y,a_z,thrust,wind_x,wind_y,wind_z
0.0,1.8021971000237016,-1.2228215569681986,2.765274767493352,0.0317575760313526,0.099771729809836,0.0422341477245861,8.211919304003351e-05,-0.0047292314770435,-0.0004597601930388,1.8021921795978575,-1.2228622474217226,2.765263833116561,-0.100098805182586,0.0977491722927772,-0.1003899491107065,0.2376118334617859,0.0041059596520016,-0.2364615738521794,-0.0229880096519449,10.258776676376328,-0.939775170515832,0.2502199829886286,-0.882467598232119
0.02,1.802378644572324,-1.2231949246051583,2.765139423476615,0.0211465479467425,0.093961815722749,0.0413453546236228,0.0163547782159285,-0.0262012870793627,-0.0127494993571416,1.8021921795978575,-1.2228622474217226,2.765263833116561,-0.100098805182586,0.0977491722927772,-0.1003899491107065,1.4806132953829985,0.8136329511444258,-1.0736027801159582,-0.6144869582051358,10.259818480502872,-0.9458752640851946,0.2526320025943683,-0.8812646698071407
0.04,1.8027910850535749,-1.2237039903887743,2.7647250344302905,0.0050099472395257,0.0793934735541652,0.0400846000737693,0.0248989409159852,-0.0258187001970625,-0.030166856146764,1.8021921795978575,-1.2228622474217226,2.765263833116561,-0.100098805182586,0.0977491722927772,-0.1003899491107065,0.9701976686538628,0.4272081350028349,0.0191293441150111,-0.8708678394811235,9.202031102357068,-0.951340114861858,0.2681079635473238,-0.8678230289206865
0.06,1.8032866873579383,-1.2241549396616926,2.763913874743137,-0.0122598232242862,0.0583161889987885,0.0390823734796307,0.0231554145163441,-0.0189220504267785,-0.0500815735806668,1.801191191546032,-1.2218847556987948,2.7642599336254543,-0.1200988054806092,0.1177491725908004,-0.1203899494087297,1.0573547569671131,-0.0871763199820529,0.3448324885141988,-0.9957358716951372,9.202031102357068,-0.9619875246744254,0.281318393285182,-0.8517802413551262
0.08,1.8036399467799336,-1.224430053805082,2.762695784273669,-0.0288187664964235,0.0352735689446065,0.0386008658223289,0.0115103541300554,-0.0086098540248298,-0.070782276889621,1.79918921544238,-1.2199297722529392,2.7622521346432403,-0.1600988060766557,0.1577491731868469,-0.1603899500047762,1.294669787550113,-0.5822530193144364,0.5156098200974327,-1.0350351654477108,9.092319097229849,-0.9762463660793752,0.2924619757508583,-0.8336454149926075
0.1,1.8036670962293884,-1.2244697612260806,2.7610549748119677,-0.0445586604605714,0.0132977490053259,0.0385832356130192,-0.0085306739162923,0.0044386530807116,-0.0923106291050212,1.7971872393387285,-1.2179747888070838,2.7602443356610262,-0.2000988066727022,0.1977491737828933,-0.2003899506008226,1.6088631793507135,-1.0020514023173923,0.6524253552770749,-1.07641761077001,9.06355843243955,-0.9906086471155184,0.3014236129932627,-0.816687066004875
0.12,1.8032581092012376,-1.2242414569403657,2.759092549297204,-0.0587861823270003,-0.0048177719093916,0.0388510689977496,-0.0335657433827053,0.0192068536340879,-0.1132267240556259,1.7931852632052745,-1.214019805331426,2.75623653664901,-0.2400988072687486,0.2377491743789397,-0.2403899511968691,1.790486999921795,-1.2517534733206486,0.7384100276688194,-1.0458047475302337,9.057322823749928,-1.0049710426184664,0.3093335776240773,-0.8008594836040822
0.14,1.8022700463804764,-1.223673154241251,2.756588423960727,-0.0730420548529559,-0.020050384936883,0.0392606728036652,-0.0639889369146778,0.0371366302080285,-0.1361499301325568,1.7891832870718205,-1.210064821855768,2.7522287376369934,-0.2800988078647951,0.2777491749749863,-0.2803899517929156,2.105065895358577,-1.521159676598625,0.8964888286970273,-1.1461603038465469,9.07861523577003,-1.0168928632208605,0.3159455626062923,-0.7891339226091423
0.16,1.800634329983767,-1.222702973614152,2.753616889662017,-0.0860002805461661,-0.0308035115764788,0.0396622681056198,-0.0980429356321456,0.0589350264874448,-0.1598858459378286,1.7841813109234652,-1.205109838365209,2.747220938610076,-0.3200988084608415,0.3177491755710327,-0.320389952388962,2.3442688668957765,-1.7026999358733912,1.089919813970815,-1.1867957902635908,9.071822224596872,-1.0251929759152396,0.3215922634742855,-0.7823635914968969
0.18,1.798282137452064,-1.2212571664006229,2.750162917443129,-0.0967117282278279,-0.0362539507218656,0.0398981447975753,-0.1352865017827929,0.0840160084943066,-0.1843024547859221,1.7781793347602088,-1.1991548548597488,2.741213139568257,-0.3600988090568879,0.3577491761670791,-0.3603899529850084,2.555537940281344,-1.8621783075323648,1.2540491003430916,-1.2208304424046743,9.088268163794057,-1.0290448340869325,0.3255656771909798,-0.7817942863472543
0.2,1.795352830236104,-1.2194019082293983,2.7464276769851463,-0.1045694028727319,-0.0361828321869169,0.0398227291743689,-0.1705394104480539,0.109505741011301,-0.2075466972454415,1.7915178123629243,-1.2170563659759075,2.740947794703833,-0.2352865032729091,0.1840160099844228,-0.2843024562760383,2.466165465183792,-1.7626454332630506,1.274486625849717,-1.1622121229759668,9.115372428305363,-1.0305429592089546,0.3273098463033701,-0.7866682374302265
0.22,1.7915220620354824,-1.2167666014572107,2.742221170707749,-0.1064217403958036,-0.0305222913523529,0.0396070887644118,-0.2099808815960511,0.1509590443567644,-0.210424528953963,1.7915178123629243,-1.2170563659759075,2.740947794703833,-0.2352865032729091,0.1840160099844228,-0.2843024562760383,2.8645627589179594,-1.972073557399856,2.07266516727317,-0.1438915854260744,9.12480235506382,-1.0335908198398605,0.3256351865138451,-0.7875983357367138
0.24,1.7869563850891823,-1.2133876999666011,2.7379913769001,-0.1013829045968323,-0.0198096899494221,0.0393581311428491,-0.2438202360296289,0.1834943389128874,-0.2124587051387059,1.7915178123629243,-1.2170563659759075,2.740947794703833,-0.2352865032729091,0.1840160099844228,-0.2843024562760383,2.349353726605239,-1.691967721678891,1.6267647278061528,-0.101708809237147,10.57487758534262,-1.0311039940950142,0.321829977855627,-0.7923688338814263
0.26,1.7817777967757698,-1.2094406428448372,2.7336814610993354,-0.0942715083150531,-0.0063460537345806,0.0390480145885081,-0.2717256146344718,0.2091903366012419,-0.2183083258677028,1.7891649473301954,-1.2152162058760632,2.738104770141073,-0.2552865035709323,0.204016010282446,-0.3043024565740615,1.919122530580484,-1.3952689302421466,1.2847998844177255,-0.2924810364498459,10.300642784994125,-1.025162633709935,0.3171200942231573,-0.8017211006272438
0.28,1.7763952655114537,-1.2052558163770324,2.729442548732158,-0.0875207381012163,0.0073419032234026,0.0387578909829891,-0.2930851317899636,0.2300218448969816,-0.2275770283731676,1.784459217264737,-1.2115358856763747,2.732418721015552,-0.2952865041669787,0.2440160108784924,-0.3443024571701079,1.562121599881095,-1.067975857774589,1.041575414786984,-0.4634351252732413,9.997718731312489,-1.0164102649799205,0.3118941962698986,-0.8151800244965036
0.3,1.7703409461296595,-1.2004488856301396,2.7247537283480727,-0.0812063194504709,0.0213667085812144,0.0385209495553207,-0.3108819860465089,0.2496284716600542,-0.2410150663141923,1.779753487199279,-1.2078555654766865,2.7267326718900318,-0.3352865047630252,0.2840160114745389,-0.3843024577661544,1.4846958427229842,-0.8898427128272657,0.9803313381536268,-0.6719018970512316,9.73539014851849,-1.0060870651723506,0.3071107668944966,-0.830331406642546
0.32,1.7639728292135892,-1.1952651808675965,2.7197583424658336,-0.075929270202952,0.0340507685037147,0.038394056080047,-0.3248288719453498,0.2678518482865464,-0.2580322947307411,1.7730477571040186,-1.2021752452471954,2.7190466227347083,-0.3752865053590716,0.3240160120705853,-0.4243024583622008,1.428454711329051,-0.6973442949420428,0.911168831324613,-0.8508614208274381,9.508600663304604,-0.9950600569368856,0.3029728009974192,-0.8458581850988546
0.34,1.7573600137202436,-1.189728139803217,2.714396628744129,-0.0716962241454507,0.044765735571081,0.0383947178823546,-0.3357309375154021,0.2851338119837278,-0.277331548444254,1.766342027008758,-1.1964949250177048,2.7113605735793853,-0.4152865059551182,0.3640160126666318,-0.4643024589582473,1.4053313637919684,-0.545103278502615,0.864098184859069,-0.9649626856756466,9.32094502741893,-0.9851758886593718,0.2994877298209304,-0.8597454631994392
0.36,1.7508923048775076,-1.184145160566669,2.7089290339935843,-0.0682641057836986,0.0530076477169707,0.0385228739188816,-0.3445341955883219,0.3016580707175793,-0.2972682350087618,1.7586362968985962,-1.189814604773313,2.702674524409161,-0.4552865065511646,0.4040160132626783,-0.5043024595542938,1.3674976696260943,-0.4401629036459908,0.8262129366925719,-0.9968343282253904,9.22171503310892,-0.9754654634889128,0.2963001303910588,-0.873049188146199
0.38,1.743914797931528,-1.1779335797447654,2.702748683814765,-0.0649590782656214,0.0598309759863684,0.0387821037832284,-0.3527277114522382,0.3185728466694626,-0.3198059474642745,1.7499305667735334,-1.1821342845140197,2.692988475224036,-0.495286507147211,0.4440160138587247,-0.5443024601503402,1.4673035051089744,-0.4096757931958156,0.8457387975941671,-1.1268856227756363,9.149235615397629,-0.9667686767786476,0.2932193287570651,-0.8850703611517963
0.4,1.7367811580340784,-1.1713884230261646,2.69610363685942,-0.0618360410230708,0.0650060998238383,0.0391472673633651,-0.3602255331108866,0.3350139252580046,-0.3436311462128039,1.7262784123589163,-1.1620049374112922,2.6867583864415514,-0.4527277129423543,0.4185728481595787,-0.4198059489543906,1.4951308389121312,-0.3748910829324187,0.8220539294270995,-1.19125993742647,9.076959374520811,-0.9599031581799636,0.290310972503464,-0.8947070240200351
0.42,1.7295341796437342,-1.1645095930919962,2.6892527874629137,-0.0590506626715427,0.0683280449290123,0.0396074162468349,-0.364090232219536,0.3521720835748937,-0.3388284933695566,1.7262784123589163,-1.1620049374112922,2.6867583864415514,-0.4527277129423543,0.4185728481595787,-0.4198059489543906,0.9115971840135588,-0.1932349554324725,0.857907915844458,0.2401326421623661,9.022579063229388,-0.965448634775268,0.2874298350443665,-0.8906889175537331
0.44,1.7225857127489024,-1.1576719601765857,2.682833698129876,-0.057182915048156,0.0693989786993443,0.0401106860978989,-0.367336407249145,0.3669772645414595,-0.3372883094135995,1.7262784123589163,-1.1620049374112922,2.6867583864415514,-0.4527277129423543,0.4185728481595787,-0.4198059489543906,0.7617466809803093,-0.16230875148045,0.74025904832829,0.0770091977978532,10.757525878256274,-0.9635833277076996,0.2876425128429175,-0.8908285688005269
0.46,1.7151975552413827,-1.1501720091451968,2.676049273429101,-0.0560811106002058,0.0684611692344127,0.0406910994688009,-0.3714251519476931,0.3822715437288773,-0.341492507499344,1.7217511352294927,-1.1578192089296964,2.6825603269520077,-0.4727277132403776,0.4385728484576019,-0.4398059492524138,0.8190056327900943,-0.2044372349274043,0.7647139593708857,-0.2102099042872229,10.366781268612613,-0.9630143449211735,0.2880716570926966,-0.8902072440202615
0.48,1.7077189346727388,-1.1423702420860466,2.669128693615633,-0.0557909880884072,0.0655308602090465,0.0413190544888856,-0.376373400532942,0.3971698328534517,-0.3505341091941884,1.7126965809706458,-1.149447751966505,2.6741642079729195,-0.512727713836424,0.4785728490536484,-0.4798059498484603,0.905807297537733,-0.2474124292624419,0.7449144562287235,-0.4520800847422207,10.02871672071342,-0.9644393450070614,0.2888082154306582,-0.88778909209245
0.5,1.700510803987657,-1.134685854250176,2.662347785240577,-0.0562906304948523,0.0610288017063525,0.0419533731916377,-0.3823725543360336,0.4110314850356334,-0.3627705358030531,1.7036420267117989,-1.141076295003313,2.665768088993832,-0.5527277144324705,0.5185728496496949,-0.5198059504445067,0.9719379914982502,-0.2999576901545814,0.693082609109083,-0.6118213304432324,9.57731337864061,-0.9669057714032436,0.2898238706558144,-0.8846051861878174
0.52,1.692774674035986,-1.1263149997345143,2.654930767814756,-0.0576990728714414,0.055060145523345,0.0426309138813471,-0.391215269677638,0.4253908471973365,-0.3784090329395959,1.692587472423149,-1.1307048380103195,2.655371969984942,-0.592727715028517,0.5585728502457413,-0.5598059510405532,1.1499429214022472,-0.4421357670802206,0.7179681080851541,-0.7819248568271403,9.57731337864061,-0.9706982845610708,0.291302760506383,-0.8801875754769928
0.54,1.6848342455284135,-1.1176531562338186,2.6471889137457496,-0.0599941868707824,0.048676482120227,0.0432811896688341,-0.402598032269631,0.4402701299472885,-0.3950194900087025,1.6815329181344998,-1.1203333810173255,2.6449758509760515,-0.6327277156245634,0.5985728508417878,-0.5998059516365997,1.2518662302971182,-0.5691381295996473,0.7439641374975992,-0.8305228534553316,9.426839978755195,-0.976014884602606,0.2933205658910567,-0.8740213670146589
0.56,1.6766365898853963,-1.108669032551993,2.639108423600537,-0.0623644408361211,0.042700843808359,0.0439168535060492,-0.4166677866676099,0.4572864581644435,-0.4121821128623747,1.6694783638309492,-1.1089619240094304,2.63357973195226,-0.6727277162206098,0.6385728514378342,-0.639805952232646,1.3982748639223146,-0.7034877198989486,0.8508164108577521,-0.8581311426836102,9.389782195672524,-0.9811700285421716,0.2953242531832687,-0.8678639750769187
0.58,1.6685649797052755,-1.0998080923527431,2.631108795906578,-0.0639952225486266,0.0381166117245803,0.0445053003341565,-0.4323385777863851,0.4743822921910335,-0.4290110629513506,1.6564238095124977,-1.0965904669866342,2.621183612913568,-0.7127277168166563,0.6785728520338806,-0.6798059528286925,1.4327026876241948,-0.7835395559387587,0.8547917013294992,-0.8414475044487946,9.374158237257689,-0.9856951238609136,0.2968753980728102,-0.8625591624518893
0.6,1.6597248431024358,-1.0901265962147118,2.6223337197474987,-0.064815645533802,0.0352553998783843,0.0450628673246508,-0.4509532654127531,0.4927721572511648,-0.4476463362847263,1.6469480508159562,-1.0760889777431917,2.6096582427590107,-0.5323385792765012,0.5743822936811496,-0.5290110644414667,1.606212271593264,-0.9307343813183988,0.9194932530065648,-0.9317636666687834,9.35601811581273,-0.988713506610139,0.2976331624051764,-0.859261860163071
0.62,1.6504721105957187,-1.0800182115624255,2.613462115372813,-0.0632380438725408,0.0361433630654632,0.0455391097906657,-0.4728562317884058,0.5168445490500969,-0.4369927039369845,1.6469480508159562,-1.0760889777431917,2.6096582427590107,-0.5323385792765012,0.5743822936811496,-0.5290110644414667,1.712249883322465,-1.0951483187826376,1.2036195899466056,0.5326816173870874,9.316024909631324,-0.9991898011170676,0.296522607437832,-0.8474927638979711
0.64,1.64081071475525,-1.06946031718085,2.6048071387362706,-0.0589661342738012,0.0409988095058303,0.0459507066012146,-0.4916249926058826,0.5370530196593621,-0.4291094646542401,1.6469480508159562,-1.0760889777431917,2.6096582427590107,-0.5323385792765012,0.5743822936811496,-0.5290110644414667,1.4342194118911784,-0.9384380408738374,1.0104235304632614,0.3941619641372185,11.203462268603287,-0.9989984224971912,0.2953795549426433,-0.8457090287982312
0.66,1.631318328755982,-1.0590952916583167,2.596665592509981,-0.0543362667577772,0.0477498525294419,0.0462680841684281,-0.5062781651990472,0.5528805829012186,-0.42824612500379,1.6416246650231912,-1.07034515480638,2.604368132114596,-0.5523385795745244,0.5943822939791727,-0.5490110647394899,1.0793199022672502,-0.732658629658231,0.7913781620928206,0.0431669825225078,10.751834259383031,-0.9950291204681372,0.2931650157621864,-0.8495720636632019
0.68,1.6210596954508851,-1.0478838869996556,2.588054095496048,-0.0497491914081406,0.0558565147218451,0.0465497558657937,-0.5185161989417714,0.5674179900880514,-0.4332152059036955,1.6309778934376613,-1.058857508932757,2.5937879108257667,-0.5923385801705708,0.6343822945752192,-0.5890110653355364,0.9820863538834552,-0.6119016871362071,0.7268703593416415,-0.2484540449952776,10.309380697557572,-0.9888519083642052,0.2905383664063157,-0.8569004502911833
0.7000000000000001,1.6105861245939088,-1.036395633639574,2.57928585762915,-0.0457722285016343,0.0640217543539403,0.0468075812924922,-0.5280214807978735,0.5807185843679434,-0.4435846813607821,1.6203311218521312,-1.047369863059134,2.5832076895369376,-0.6323385807666173,0.6743822951712657,-0.6290110659315828,0.9679646334156052,-0.4752640928051055,0.6650297139946026,-0.5184737728543304,9.950925326774268,-0.9818860126060436,0.2880412451922228,-0.8653556509991933
0.72,1.5999472594888224,-1.0246512834888608,2.570258523242213,-0.0424742076956,0.0715523053321304,0.0470627546747893,-0.5352921221593391,0.5931660194063987,-0.4586310566267768,1.607684350236799,-1.0338822171557085,2.570627468218306,-0.6723385813626638,0.7143822957673122,-0.6690110665276293,1.0418664423628805,-0.3635320680732801,0.6223717519227623,-0.7523187632997336,9.658709591713889,-0.9748853678483445,0.2857628032709046,-0.8740953184256185
0.74,1.5897239517713784,-1.013269189404465,2.561381216751802,-0.039945868114317,0.0777148673439269,0.0473127695102629,-0.5404647648810597,0.6044437668927777,-0.4750858796931135,1.5950375786214666,-1.0203945712522833,2.558047246899674,-0.7123385819587102,0.7543822963633586,-0.7090110671236758,1.0304186324469558,-0.2586321360860288,0.5638873743189499,-0.8227411533168333,9.429457896729218,-0.9680734253993124,0.2834753259073445,-0.8829286518347848
0.76,1.5788657698382509,-1.001052730088435,2.551680780511139,-0.0376326683691879,0.0830454377002795,0.0475995067291348,-0.545038930397098,0.6165571035805474,-0.4941784802899878,1.581390806991233,-1.0059069253339568,2.544467025566141,-0.7523385825547566,0.794382296959405,-0.7490110677197221,1.1534549334836937,-0.2287082758019198,0.6056668343884852,-0.9546300298437173,9.321207975256584,-0.961801467365017,0.2813905101275342,-0.89103300167876
0.78,1.5679230533886537,-0.9885947590221362,2.541582240802964,-0.0353655865012672,0.0873065659780738,0.0479210405221849,-0.5489777769349093,0.6285345765572363,-0.5147859626352186,1.5667440353460984,-0.990419279400729,2.5298868042177074,-0.7923385831508031,0.8343822975554515,-0.7890110683157686,1.2079349108755182,-0.1969423268905645,0.598873648834447,-1.030374117261537,9.234795409008257,-0.9564622910092396,0.2793073548994265,-0.8981254766849042
0.8,1.5569065657603938,-0.9759009412110272,2.5310560345848105,-0.0330219219319508,0.0906323675982248,0.0482759801710944,-0.5524743368641194,0.6401168189064805,-0.5368074226250941,1.5404741645419082,-0.9571680301942744,2.515842942671203,-0.6489777784250255,0.7285345780473524,-0.6147859641253347,1.256303077745245,-0.1748279964605026,0.5791121174622105,-1.101072999493774,9.16538391938684,-0.9515950840903352,0.2770032127457446,-0.9047661859796112
0.8200000000000001,1.546400982551238,-0.9636164672117392,2.520948979240082,-0.0305642873823781,0.0932176794006428,0.0486415805640494,-0.5531461020994363,0.6521820628082515,-0.5259755628033176,1.5404741645419082,-0.9571680301942744,2.515842942671203,-0.6489777784250255,0.7285345780473524,-0.6147859641253347,0.8114039778975977,-0.0335882617658434,0.6032621950885497,0.541592991088824,9.10209201822272,-0.9552695772350216,0.273593590540022,-0.9040690420486522
0.84,1.535339802350571,-0.9504630495868982,2.510502918257606,-0.0282513968417164,0.0953081566282524,0.049017721733408,-0.5529828758258677,0.6626388182225189,-0.5196534693316051,1.5404741645419082,-0.9571680301942744,2.515842942671203,-0.6489777784250255,0.7285345780473524,-0.6147859641253347,0.6110221814207393,0.0081613136784286,0.5228377707133691,0.3161046735856265,11.06670100125757,-0.9529918791230472,0.2736428410060668,-0.9043810422002144
0.86,1.524282717620652,-0.9371055444784592,2.500107563494437,-0.0265640203358657,0.0964187152508458,0.0493669313739621,-0.5528233890791806,0.6726358197474755,-0.520482916064664,1.533984386757658,-0.9498826844138007,2.50969508302995,-0.6689777787230486,0.7485345783453756,-0.6347859644233579,0.5016309833815501,0.0079743373343543,0.4998500762478319,-0.0414723366529479,10.604712577138343,-0.9507590601978728,0.2735125209720231,-0.9054941392584174
0.88,1.5132259288137586,-0.9235539057689386,2.489634385153431,-0.0254869006865224,0.0964574003944191,0.0496895713117457,-0.5529598184519823,0.6820484717113667,-0.5270109257008395,1.5210048311891575,-0.9353119928528538,2.497399363747443,-0.7089777793190951,0.7885345789414221,-0.6747859650194044,0.5727816769439902,-0.0068214686400835,0.4706325981945591,-0.3264004818087751,10.202848428109064,-0.949391485269784,0.2734298732180188,-0.9062410266042557
0.9,1.5027165116575318,-0.9105115490521132,2.47951747005599,-0.0251866311512549,0.0954278570419232,0.0499613530396696,-0.5533719726843693,0.6904411161121978,-0.537575976169473,1.508025275620657,-0.9207413012919068,2.485103644464936,-0.7489777799151416,0.8285345795374686,-0.7147859656154508,0.6749567440859591,-0.0206077116193525,0.4196322200415547,-0.5282525234316715,9.89675603041269,-0.9491798894580784,0.2736780167780533,-0.9059908430537416
0.92,1.4916420209429346,-0.896614712268277,2.4686184133427678,-0.0258183114597993,0.0930860375805725,0.0502033795256983,-0.5541447161387777,0.6988777157162261,-0.5519119743635608,1.493045720022354,-0.9041706097011576,2.470807925152627,-0.788977780511188,0.868534580133515,-0.7547859662114973,0.8326076350026927,-0.0386371727204182,0.4218299802014158,-0.7167999097043909,9.664774518283592,-0.9500255958494884,0.2743966545366477,-0.9048840087248768
0.94,1.480548120979469,-0.8825493765112951,2.457417410465144,-0.0275762062368535,0.0892650043771107,0.0504012330517259,-0.5553546230043118,0.7073698480424692,-0.5674495823744946,1.4780661644240511,-0.8875999181104081,2.456512205840318,-0.8289777811072345,0.9085345807295616,-0.7947859668075438,0.8874083738211003,-0.0604953432767063,0.4246066163121509,-0.7768804005466923,9.48547249895728,-0.9523091019069811,0.2757606689663701,-0.9022972606116534
0.96,1.4694141856233565,-0.8682969127805855,2.445901395011341,-0.0300384126543695,0.0840827571260184,0.0505923037690367,-0.5582689501834321,0.7175792613775865,-0.5833683874383706,1.4620866088108473,-0.8700292265047576,2.441216486513108,-0.8689777817032809,0.948534581325608,-0.8347859674035901,0.9567311249979225,-0.1457163589560162,0.5104706667558689,-0.7959402531937998,9.434007580499385,-0.9554630983232522,0.277819261641005,-0.8985143971515837
0.98,1.4587585179157194,-0.8545506026046822,2.434663332079742,-0.0321771161970822,0.078566632196128,0.0508137908137919,-0.5633925779844008,0.7287544241529698,-0.5987756730244448,1.445107053182742,-0.8514585348842059,2.4249207671709967,-0.9089777822993274,0.9885345819216544,-0.8747859679996366,0.9855458817706292,-0.2561813900484322,0.5587581387691609,-0.7703642793037091,9.414764697737157,-0.9601277656664328,0.279904243107271,-0.8928723051862986
1.0,1.447414531540973,-0.8398459203588832,2.422511846533267,-0.0338476927752075,0.0728217003142666,0.0510915383519929,-0.570881514194071,0.741022323978057,-0.6155795101116928,1.4305888890164993,-0.8181128813970338,2.40472454842852,-0.6633925794745169,0.8287544256430859,-0.6987756745145609,1.1056157475878037,-0.3744468104835086,0.6133949912543624,-0.8401918543623987,9.39999665708092,-0.9653397363292197,0.2815669878365446,-0.8866196406964416
1.02,1.4358655098636224,-0.8248441005554935,2.4103212637999585,-0.0335032196540087,0.0693604300180441,0.0514294694915307,-0.5838942510544912,0.7582003722117443,-0.6010267014934029,1.4305888890164993,-0.8181128813970338,2.40472454842852,-0.6633925794745169,0.8287544256430859,-0.6987756745145609,1.300193159109445,-0.650636843021013,0.8589024116843647,0.7276404309144946,9.36521743121375,-0.9723740049046296,0.2785406175589394,-0.883814357267749
1.04,1.424646104575618,-0.8102931158720857,2.3990127546059923,-0.0307229062292392,0.0702380324780202,0.0517692070196082,-0.5958988267028541,0.7723856505104162,-0.5901999659012167,1.4305888890164993,-0.8181128813970338,2.40472454842852,-0.6633925794745169,0.8287544256430859,-0.6987756745145609,1.0753489671859426,-0.600228782418144,0.7092639149335944,0.5413367796093083,10.951308377375426,-0.9757106128548028,0.2789711624335784,-0.8769510955985621
1.06,1.4126197503286977,-0.79471928751631,2.3872605308829824,-0.0266302338958965,0.0739831446284436,0.052114484217448,-0.6057699424893234,0.7839777856715949,-0.5859004600276752,1.423954963221754,-0.8098253371406029,2.397736791683374,-0.6833925797725401,0.8487544259411091,-0.7187756748125841,0.7910472097503687,-0.4935557893234632,0.579606758058937,0.2149752936770776,10.951308377375426,-0.9746561442416396,0.2777340714364016,-0.8763195177567188
1.08,1.4004228441786353,-0.7789394643880834,2.3755217640058666,-0.022602424876872,0.0792210591510975,0.0524176282509095,-0.6131821819392942,0.7934056576508197,-0.5884654013288723,1.410687111632264,-0.7932502486277412,2.383761278193083,-0.7233925803685866,0.8887544265371555,-0.7587756754086306,0.613198555932217,-0.3706119724985413,0.4713935989612394,-0.1282470650598555,10.476761478777917,-0.9711879856569176,0.2760710143182796,-0.8791917539120782
1.1,1.388100826411727,-0.7629852662074553,2.363664506671582,-0.0190979596114172,0.0849175626794298,0.0526791148125616,-0.6184863462821872,0.8016407779810626,-0.5971124120093947,1.3974192600427735,-0.7766751601148795,2.369785764702792,-0.763392580964633,0.928754427133202,-0.798775676004677,0.6533034515810138,-0.2652082171446523,0.4117560165121436,-0.4323505340261213,9.764012515333889,-0.9661905337152104,0.2742483434632604,-0.8841705900227375
1.12,1.3763139669823652,-0.7476835750332158,2.3521954510702057,-0.0163617031507624,0.0900959167507703,0.0528935986649907,-0.621903418169256,0.8087719355500087,-0.6097277825097065,1.382151408423481,-0.7581000715722154,2.353810251182698,-0.8033925815606795,0.9687544277292484,-0.8387756766007235,0.7444416723536343,-0.1708535943534372,0.3565578784473056,-0.6307685250155903,9.519833370360177,-0.9607807309979514,0.2724714373432233,-0.8899975159429263
1.14,1.363852104447382,-0.7314353766883261,2.3398384163526176,-0.0141417069921432,0.094832999857646,0.0530840001341902,-0.6240535088768323,0.8157803925195087,-0.6254227880365099,1.3668835568041882,-0.7395249830295514,2.3378347376626043,-0.843392582156726,1.008754428325295,-0.87877567719677,0.866133011769162,-0.1075045353788162,0.3504228484750016,-0.7847502763401681,9.519833370360177,-0.9555176352849925,0.270647412700472,-0.8962422150129136
1.16,1.3513546001384935,-0.7150407987739633,2.3271483589665234,-0.0122851463967232,0.0986674983330542,0.0532567302121735,-0.6255663200964248,0.8232789041175329,-0.6428693398589277,1.3506157051699943,-0.7199498944719862,2.32085922412761,-0.8833925827527723,1.0487544289213413,-0.9187756777928164,0.9524946777595912,-0.0756405609796229,0.3749255799012085,-0.8723275911208916,9.397268475061535,-0.95085478567198,0.2690097011433635,-0.9018765451489168
1.18,1.338831833149957,-0.6984961468451308,2.3140924107017384,-0.0104413129551243,0.1016624538514225,0.0534313211961215,-0.6266379524051697,0.8307063298855677,-0.6618565165723445,1.3333478535208994,-0.6993748058995198,2.302883710577714,-0.9233925833488188,1.0887544295173877,-0.9587756783888628,1.0208182121358935,-0.0535816154372481,0.3713712884017395,-0.9493588356708382,9.316232798490091,-0.9465002042741896,0.2671594479411301,-0.90732561510206
1.2,1.326918050458254,-0.6826438409707734,2.301324566148115,-0.0086211380179471,0.1038161793373042,0.0536006468590078,-0.6274013505850343,0.8374834003594954,-0.6811825970184113,1.3074999355296983,-0.6569608303508525,2.280999584873121,-0.7266379538952858,0.9307063313756838,-0.7618565180624606,1.0247058680390335,-0.0381699089932296,0.3388535236963863,-0.9663040223033436,9.245889625796735,-0.9426534779739096,0.2651185516099275,-0.9123634839644514
1.22,1.3143781726726398,-0.6658099349575418,2.2877957748452524,-0.0063008321241402,0.1060069415127143,0.0537976214476593,-0.6262857449457809,0.8452961289801195,-0.6690358894901225,1.3074999355296983,-0.6569608303508525,2.280999584873121,-0.7266379538952858,0.9307063313756838,-0.7618565180624606,0.7242682655957694,0.0557802819626696,0.3906364310312049,0.6073353764144418,9.179971679677692,-0.9436651080963736,0.2581003642532218,-0.919486386582842
1.24,1.3018777699698365,-0.6488462270739371,2.2745069669831537,-0.0040588870040185,0.1083104058054818,0.0539776870225436,-0.6238075385743296,0.8508458220102048,-0.6606397818083578,1.3074999355296983,-0.6569608303508525,2.280999584873121,-0.7266379538952858,0.9307063313756838,-0.7618565180624606,0.5182548208928371,0.1239103185725676,0.2774846515042617,0.4198053840882343,11.224098946309825,-0.9419091232100716,0.2585984139497163,-0.918551091605816
1.26,1.2900543748850988,-0.6326341305038584,2.261967436442452,-0.0025012217195192,0.1099760604279364,0.0541009077780049,-0.6209452687054897,0.8555318973395115,-0.6597178699134794,1.3002335559907454,-0.6476537670370957,2.2733810196924966,-0.746637954193309,0.950706331673707,-0.7818565183604838,0.278396355651095,0.1431134934419931,0.234303766465338,0.0460955947439223,10.751878867550658,-0.9394374523821428,0.2591854587767053,-0.9185944036194736
1.28,1.2776689283359877,-0.6154787384718572,2.248728694191702,-0.0016386077868472,0.1108156818613207,0.054167276810915,-0.6178435819736441,0.8598211601151502,-0.6644534031498875,1.2857007969128398,-0.629039640409582,2.2581438893312478,-0.7866379547893555,0.9907063322697536,-0.8218565189565302,0.3551179760801805,0.1550843365922816,0.214463138781934,-0.2367766618204092,10.323094428107652,-0.937844268560722,0.2597750063433302,-0.9184921365611092
1.3,1.2653442171454068,-0.5982425720437925,2.2353447387069467,-0.0018368492217183,0.1105209270269413,0.0541503326287215,-0.61486429653265,0.863668927515304,-0.6738818114151569,1.2711680378349342,-0.6104255137820683,2.242906758969998,-0.826637955385402,1.0307063328658,-0.8618565195525767,0.5305099860539987,0.1489642720497064,0.19238837000769,-0.471420413263468,9.745096817333431,-0.9370069024727968,0.2606121167419527,-0.918245882058724
1.32,1.2530786227063253,-0.5809322427581609,2.221731312417978,-0.0033325094068274,0.1088308233334703,0.0540379331510337,-0.6119601554732774,0.8673444399869956,-0.6869627233290281,1.254635278727226,-0.5898113871247523,2.2256696285789466,-0.8666379559814484,1.0707063334618463,-0.9018565201486232,0.6947187987249785,0.1452070529686266,0.1837756235845811,-0.6540455956935587,9.745096817333431,-0.937492278731148,0.2620447673613623,-0.9169502696768528
1.34,1.2414797263534505,-0.5644155853166243,2.208545767655953,-0.0060197239333286,0.1056419729077301,0.0538487780083836,-0.6092651711268509,0.8714484646840436,-0.7003189962385681,1.238102519619518,-0.5691972604674362,2.208432498187895,-0.9066379565774948,1.1107063340578929,-0.9418565207446696,0.7115054205267447,0.1347492173213282,0.2052012348523979,-0.6678136454770001,9.562868340429304,-0.9396312155504528,0.2641745889665404,-0.914306580687196
1.36,1.2293139778939288,-0.5469162749339695,2.194387831918765,-0.0092860405946266,0.1005109020065872,0.0536410471239044,-0.6077720598346326,0.8783175203937436,-0.7147759986420446,1.220569760496909,-0.5475831337952192,2.1901953677819423,-0.9466379571735412,1.1507063346539392,-0.981856521340716,0.8037695972230414,0.0746555646109148,0.3434527854849989,-0.7228501201738236,9.48777337982756,-0.9432212512360756,0.2668293407055776,-0.9098223595739346
1.38,1.2171511211141566,-0.5292639825053751,2.1799395767887773,-0.0121559223671626,0.094179748583807,0.0534883584022247,-0.6088608536867909,0.886480384551748,-0.7293154460169616,1.2020370013593986,-0.5249690071081009,2.1709582373610887,-0.9866379577695876,1.1907063352499856,-1.0218565219367624,0.8354839215725748,-0.054439692607916,0.4081432079002245,-0.726972368745854,9.48777337982756,-0.948084937710618,0.2690740340134697,-0.904074003427331
1.4,1.204939778023156,-0.511440987401337,2.1651984470779664,-0.0143345262437723,0.0874483331663004,0.0534031313162163,-0.6124109424600044,0.8952194681661534,-0.7440530737816977,1.186708078429817,-0.4849399632777877,2.1434738044879293,-0.708860855176907,0.9864803860418642,-0.8293154475070778,0.8748891141870271,-0.177504438660675,0.436954180720267,-0.7368813882368042,9.480455923701811,-0.9540227663234948,0.2708755186260649,-0.8972734727134195
1.42,1.1932166881672643,-0.4942959251870176,2.151227221971277,-0.0142185088966707,0.0831255766721684,0.053447338513422,-0.6214026901542219,0.908328519150377,-0.7258364025703957,1.186708078429817,-0.4849399632777877,2.1434738044879293,-0.708860855176907,0.9864803860418642,-0.8293154475070778,1.2088691557858111,-0.4495873847108755,0.6554525492111829,0.9108335605650996,9.46557297399886,-0.9583653426093076,0.264619743075449,-0.9019489007391598
1.44,1.1806877258028217,-0.4760118369200957,2.1368670587875376,-0.011398990897623,0.0828979526854664,0.053607294223359,-0.6305177692810637,0.9191623553067816,-0.7115479616661842,1.186708078429817,-0.4849399632777877,2.1434738044879293,-0.708860855176907,0.9864803860418642,-0.8293154475070778,1.0057537183942626,-0.455753956342092,0.5416918078202326,0.7144220452105776,11.620416528807256,-0.9634756806652696,0.2661681314337267,-0.8916878646396041
1.46,1.1680015664548762,-0.4575444915107203,2.1227015393425868,-0.0073578721581417,0.0855171554582575,0.0538101514422588,-0.6373097109028084,0.9267671575904688,-0.705666907167194,1.179619469878048,-0.475075159417369,2.1351806500128587,-0.7288608554749302,1.0064803863398877,-0.8493154478051009,0.5885369376412414,-0.3395970810872339,0.3802401141843547,0.2940527249495062,11.090626177056947,-0.963949753292746,0.265912327389067,-0.888033389620317
1.48,1.1552031159247695,-0.438951122799765,2.1085790489261864,-0.0034301079585868,0.089563052592668,0.0539937038110194,-0.6419821045863942,0.9322351517157026,-0.7068612267063477,1.16544225277451,-0.4553455516965318,2.118594341062717,-0.7688608560709767,1.0464803869359338,-0.8893154484011474,0.3645429386560908,-0.233619684179287,0.2733997062616899,-0.0597159769576804,10.169701097109282,-0.9614313250825546,0.2644885778719578,-0.889121614681811
1.5,1.1429756216032845,-0.4211977063365738,2.0950841475805086,-0.0002406936226244,0.0938097241536034,0.0541310595154018,-0.6447854055951244,0.9363931629605242,-0.713589053625852,1.1512650356709715,-0.4356159439756945,2.102008032112576,-0.8088608566670231,1.0864803875319802,-0.929315448997194,0.4195569362923782,-0.1401650504365137,0.2079005622410812,-0.3363913459752177,10.169701097109282,-0.9575215229337144,0.2626446368378957,-0.8927351957906617
1.52,1.1300618373899185,-0.4024314309912297,2.080693812251495,0.0024047188677077,0.0980447313385038,0.0542269271501885,-0.6463783834173115,0.9401305797396324,-0.7253023383445707,1.1350878185376312,-0.4138863362250549,2.0834217231326315,-0.8488608572630696,1.1264803881280263,-0.9693154495932405,0.619892937176471,-0.0796488911093518,0.1868708389554163,-0.5856642359359343,9.588925053275489,-0.9531015986333994,0.2607319498560974,-0.8975337290829241
1.54,1.1171293873257655,-0.3835946402188117,2.066037624750563,0.0042879805191049,0.1015675430863393,0.0542654379918527,-0.646808132599873,0.9435346764431508,-0.7397221649236551,1.1189106014042909,-0.3921567284744152,2.064835414152688,-0.8888608578591161,1.1664803887240731,-1.009315450189287,0.7411207008606683,-0.0214874591280778,0.1702048351759078,-0.720991328954218,9.588925053275489,-0.9489334736727254,0.2587870555246912,-0.9027020094457372
1.56,1.1041923614827027,-0.3646827369433666,2.0510758165050844,0.0057741110782762,0.1042597201903958,0.0542670839264261,-0.6468880042857402,0.947445579509272,-0.7557433381308104,1.1017333842560493,-0.3694271207088744,2.0452491051578425,-0.9288608584551624,1.2064803893201197,-1.0493154507853333,0.8245901000079867,-0.0039935842933602,0.1955451533060648,-0.8010586603577674,9.469051237200802,-0.9453788059573917,0.2570626205149409,-0.9072648241927144
1.58,1.0919027701148252,-0.3466435537330337,2.0365519129646854,0.0070896437074418,0.1061272337828169,0.0542511440415447,-0.6467707415442524,0.9511595264953802,-0.7722924351800303,1.0835561670929064,-0.3456975129284325,2.0246627961480965,-0.968860859051209,1.2464803899161658,-1.0893154513813796,0.8480562568465941,0.0058631370743911,0.1856973493054081,-0.8274548524609959,9.39199683734114,-0.9421941023331591,0.255145681137171,-0.9116635816366028
1.6,1.0789694599335642,-0.3275813779281518,2.02090918599851,0.0084380945187871,0.1074535265316666,0.054218995823894,-0.6465884132821257,0.9548109962665962,-0.7911806998324147,1.0595642330376125,-0.2990855774082647,1.997937291205684,-0.7467707430343685,1.0511595279854964,-0.8578389287103038,0.9619420677252174,0.0091164131063359,0.1825734885607999,-0.9444132326192178,9.323061904251515,-0.939492202928557,0.2531356649555106,-0.9156694887259058
1.62,1.066055623357143,-0.3084322890842983,2.005222889338273,0.0104065856306507,0.1088659177882882,0.0542213002695487,-0.6445202369042141,0.9595289608694172,-0.7747144287663041,1.0595642330376125,-0.2990855774082647,1.997937291205684,-0.7467707430343685,1.0511595279854964,-0.8578389287103038,0.8626624866456344,0.1034088188955784,0.2358982301410461,0.8233135533055269,9.245872505134685,-0.940048920415158,0.2443821803003352,-0.9254020457750768
1.64,1.0532002209267035,-0.2892185867087116,1.9898704024991456,0.0126368590386902,0.1106482228525619,0.0542358925046778,-0.641106127590996,0.9617005989606524,-0.7615579173741474,1.0595642330376125,-0.2990855774082647,1.997937291205684,-0.7467707430343685,1.0511595279854964,-0.8578389287103038,0.6882331480208168,0.170705465660903,0.1085819045617608,0.6578255696078394,11.510933789487352,-0.9391353588463096,0.2452456512598163,-0.9230098810933096
1.66,1.0410578409342914,-0.2709356614964087,1.9754584069720569,0.0142211410245305,0.111967871865141,0.0541993830344077,-0.637274240241293,0.9628641246749748,-0.7561350071529058,1.0520965256072687,-0.2885739821284098,1.989358901918581,-0.7667707433323917,1.0711595282835196,-0.8749482274163585,0.3370649344575541,0.1915943674851539,0.0581762857161272,0.2711455110620764,10.59010262738684,-0.9381465914832184,0.2460884711909426,-0.9211065863935304
1.68,1.0283570826605362,-0.2516736138589555,1.960340866011259,0.0149896710935637,0.1125007153592743,0.0540771078575512,-0.6331043215862716,0.9633682978368172,-0.7561517650094374,1.0371611107465817,-0.2675507915686999,1.9722021233443747,-0.8067707439284382,1.111159528879566,-0.9091668248284678,0.2100160291047617,0.2084959327510682,0.0252086580921184,-0.0008378928265773,10.252051940375168,-0.937256314249594,0.2467920002274091,-0.9200768633954038
1.7,1.01573915994172,-0.2324070801884624,1.9451723728760932,0.0144624060377169,0.1118726798808863,0.0538393220530956,-0.6289734342592334,0.9633878547997846,-0.7608697543732414,1.022225695885894,-0.2465276010089899,1.9550453447701688,-0.8467707445244846,1.1511595294756125,-0.9433854222405772,0.3135443996488143,0.2065443663519128,0.0009778481483702,-0.2358994681902038,10.252051940375168,-0.93720842758547,0.2478778932356564,-0.9187984496083385
1.72,1.0038295580498136,-0.2141062328171652,1.9306383220354304,0.0124481297219352,0.1098452873776979,0.0534851513431339,-0.6249918487193751,0.9632331037980204,-0.7687625626728884,1.0052902809954043,-0.2235044104194777,1.936177636325357,-0.8867707451205311,1.1911595300716589,-0.9776040196526866,0.4420785963455258,0.1990792769929139,-0.0077375500882048,-0.3946404149823501,9.997044198620642,-0.9383736279960596,0.2497346809514938,-0.9166718064683989
1.74,0.9913740156975338,-0.1948326151293186,1.9151675298348096,0.008841688264137,0.1057930457882537,0.0529945217952702,-0.6209152293136629,0.9646458055888982,-0.7779103555782312,0.9883548661049144,-0.2004812198299654,1.9173099278805452,-0.9267707457165776,1.2311595306677054,-1.011822617064796,0.5057090743896551,0.2038309702856067,0.0706350895438856,-0.4573896452671366,9.813722461832183,-0.9412651114202388,0.2523936990567546,-0.9130662387440912
1.76,0.9789827412567592,-0.1754981255603357,1.8995143407399544,0.0049247260667099,0.0997400114950312,0.0524875066268776,-0.6188440041868459,0.9687435689775598,-0.7869283521059519,0.9704194511995236,-0.176458029225552,1.8975867545004312,-0.966770746312624,1.2711595312637518,-1.0460412144769051,0.5059790007732436,0.1035612563408505,0.2048881694330762,-0.4508998263860364,9.766456116697556,-0.9454951566659554,0.2552239595882576,-0.9078988640865904
1.78,0.967221832144513,-0.1570406936661728,1.884478704533825,0.0016064105183728,0.0929349179747052,0.0520553578597679,-0.6195049542026071,0.9738388822945552,-0.79530450950708,0.9514840362792316,-0.1514348386062374,1.877008116185014,-1.0067707469086704,1.3111595318597982,-1.0802598118890148,0.4913224133147117,-0.0330475007880581,0.2547656658497654,-0.4188078700564035,9.77024480867749,-0.95168286512019,0.2579175607901739,-0.9006431543047639
1.8,0.9548014359306864,-0.1375014865304228,1.8684777440053584,-0.0012984839894492,0.0853913338580713,0.0516675428058212,-0.6227436602243521,0.9797420632175016,-0.8043536595074693,0.9362465844343826,-0.1083487495514451,1.844713479058471,-0.7195049556927232,1.073838883784671,-0.856031457589527,0.5639678125431262,-0.1619353010872515,0.2951590461473197,-0.4524575000194653,9.77453197171053,-0.9586713332596628,0.2601843242376821,-0.8924842180805386
1.82,0.9422575639321978,-0.1177857110857761,1.8526013500539016,-0.0017787703803775,0.0798105808683977,0.0514603786352629,-0.6316730028898532,0.9909307987506878,-0.7812046980819402,0.9362465844343826,-0.1083487495514451,1.844713479058471,-0.7195049556927232,1.073838883784671,-0.856031457589527,1.3608778218030446,-0.4464671332750525,0.5594367766593167,1.1574480712764568,11.95760781437366,-0.964522280946526,0.2543103346061859,-0.8950359574719925
1.84,0.929520480836884,-0.0978744740529299,1.8372001230857389,0.0008351472532882,0.0785224804486629,0.051452514871754,-0.6410750241575515,0.9993555771330792,-0.7602180136343153,0.9362465844343826,-0.1083487495514451,1.844713479058471,-0.7195049556927232,1.073838883784671,-0.856031457589527,1.2245568778285043,-0.4701010633849145,0.4212389191195653,1.049334222381243,11.95760781437366,-0.9704237464128906,0.2558975269789677,-0.8842129228633676
1.86,0.9172674387358708,-0.078835666089086,1.8228922418008933,0.0045931275779623,0.0799932965006298,0.0515272366064991,-0.6479825306349181,1.0040709833090318,-0.7468963314966615,0.9290515348774554,-0.0976103607135984,1.836153164482576,-0.7395049559907464,1.0938388840826945,-0.8681768472060164,0.7864730067137704,-0.3453753238683299,0.2357703087976337,0.6660841068826917,11.518453432559,-0.9726605767171694,0.2557597759567108,-0.8784333177701785
1.88,0.9042497587342366,-0.0587259437842579,1.808044958531527,0.0083786483818131,0.0830102921855561,0.0515996415447252,-0.653237847390143,1.0067033159303298,-0.7387957082685452,0.9146614357636008,-0.0761335830379049,1.819032535330785,-0.7795049565867929,1.1338388846787408,-0.8924676264389952,0.5004188893087318,-0.2627658377612474,0.1316166310649014,0.4050311614058111,11.049114043808004,-0.971739450016066,0.2546059678038939,-0.877604908666774
1.9,0.8911448524539819,-0.0385756627681112,1.793302182228689,0.0114452378917541,0.0865451296722932,0.0516287336452467,-0.6568783454385977,1.0083159252364344,-0.7361008930585852,0.9002713366497465,-0.0546568053622115,1.8019119061789943,-0.8195049571828393,1.1738388852747872,-0.916758405671974,0.2403942794180514,-0.1820249024227338,0.0806304653052314,0.1347407604980033,10.66811703100575,-0.9694422563846624,0.253304544316094,-0.8790592549596083
1.92,0.8779814519431542,-0.0183997163062996,1.778562612157038,0.0136443097236231,0.0899081494095025,0.0515971369180637,-0.6592504677612206,1.0094225722604804,-0.7379730686901124,0.8838812375060897,-0.0311800276567158,1.783576738065555,-0.8595049577788858,1.2138388858708336,-0.9410491849049528,0.1609089303348337,-0.118606116131148,0.0553323512022974,-0.0936087815763597,10.120192913654137,-0.9667746034760044,0.2520523771215572,-0.8816242562106877
1.94,0.8654431814808683,0.0007837361474057,1.7645057589386215,0.0149023576462247,0.0925352901512159,0.0515009061746122,-0.6604779912183458,1.009986177990242,-0.7415994166322101,0.8674911383624329,-0.00770324995122,1.7652415699521156,-0.8995049583749323,1.25383888646688,-0.9653399641379318,0.1934868513205024,-0.0613761728562589,0.0281802864880775,-0.1813173971048853,10.120192913654137,-0.964260752586237,0.2507867003720475,-0.8846427291818044
1.96,0.852222868745155,0.0209928750110863,1.7496218649101003,0.0154537988270261,0.0945731841103716,0.0513323512696287,-0.6615011551159665,1.0109197962035037,-0.7466557225184886,0.8501010392038749,0.0167735277691768,1.7462991323578516,-0.9395049589709789,1.2938388870629265,-0.9896307433709104,0.2621294362769224,-0.0511581948810346,0.0466809106630883,-0.2528152943139239,10.021895228776884,-0.9620787539398628,0.2499900676441396,-0.8872921253371471
1.98,0.8389835209998402,0.0412228635110685,1.7346257196035824,0.0154124013770525,0.095944521644219,0.0511088515372582,-0.6624052106558689,1.012043993604914,-0.7527484182735118,0.8317109400304158,0.0422503055044748,1.726749425282763,-0.9795049595670252,1.3338388876589728,-1.0139215226038891,0.3130578132703445,-0.0452027769951179,0.0562098700705115,-0.3046347877511624,9.955691087796367,-0.9604524406235228,0.2495912194277618,-0.8892987597644764
2.0,0.8257263907482965,0.0614777495224258,1.7194973588773144,0.0148967547815972,0.0967297105193618,0.0508402761216361,-0.6633067415135421,1.0133963069141896,-0.7597819597929834,0.8058632604670467,0.0918250631913142,1.6969882986899067,-0.762405212145985,1.032629193422929,-0.776472523482624,0.360943955067512,-0.0450765428836597,0.0676156654637827,-0.3516770759735776,9.856568685458114,-0.9593742745690852,0.249530217414349,-0.8906470503351207
2.02,0.8131211141512914,0.0810019344775337,1.7052706981152037,0.0223854551480859,0.0972720496279757,0.0511305982417303,-0.663212462644125,1.0361064720306834,-0.7373911290559565,0.8058632604670467,0.0918250631913142,1.6969882986899067,-0.762405212145985,1.032629193422929,-0.776472523482624,1.594607937094427,0.004713943470852,1.135508255824691,1.1195415368513428,9.856568685458114,-0.961643638923941,0.2397568341169198,-0.8950179089614034
2.04,0.7998723355095492,0.1017639840400374,1.6907347135078867,0.0370806606662555,0.0976770443758734,0.0518854638562875,-0.6616743831944729,1.038093085754057,-0.7177723953840275,0.8058632604670467,0.0918250631913142,1.6969882986899067,-0.762405212145985,1.032629193422929,-0.776472523482624,0.9889477152122594,0.0769039724826059,0.0993306861686749,0.9809366835964506,11.77030958011801,-0.9635480483182696,0.2311415086347684,-0.8916051363031873
2.06,0.7866581333402104,0.1224800120332729,1.6765088333055895,0.0523126826215228,0.0974739042212029,0.0526232825487372,-0.6599172152817095,1.032992720162729,-0.7057887941133452,0.7982392083455868,0.1021513551255435,1.6892235734550805,-0.7824052124440082,1.036746233386532,-0.7812173445244464,0.6570922074822272,0.0878583956381684,-0.2550182795663991,0.599180063534116,11.34261086665174,-0.9642575246386048,0.2216578091458127,-0.8905778750839709
2.08,0.774136993363361,0.1420296657741065,1.6631611870055454,0.0662616394368288,0.0964520700638068,0.0532031183504738,-0.6582625642513154,1.024800003208613,-0.6998318457645979,0.7829911041026671,0.1228039389940021,1.673694122985428,-0.8224052130400547,1.044980313313738,-0.7907069866080912,0.5131854312826027,0.0827325515197097,-0.4096358477057915,0.2978474174373635,10.90113310086508,-0.9650835387418284,0.210621038740699,-0.8909897341117943
2.1,0.760990472055785,0.1624102266710722,1.6491919378770807,0.0802416082198635,0.0941916976484074,0.0536258444626615,-0.6565406862521275,1.0133519021548696,-0.6975971922909371,0.7677429998597475,0.1434565228624607,1.6581646725157757,-0.8624052136361011,1.053214393240944,-0.8001966286917361,0.5895285356285872,0.0860938999593941,-0.5724050526871749,0.1117326736830404,10.57863756259576,-0.9663588796792392,0.1995198305115308,-0.8918829121968054
2.12,0.7478773761973329,0.1825333594033996,1.635228759695578,0.0934770059075041,0.0903173289688862,0.0537856686327804,-0.6549941733943679,0.9992220624187876,-0.6988395935104295,0.7504948955870254,0.1645208107272795,1.642160739941941,-0.9024052142321476,1.0614484731681502,-0.809686270775381,0.7134206924682871,0.0773256428879765,-0.7064919868040975,-0.0621200609746186,10.351559465354512,-0.9686403147069844,0.1873835297407993,-0.8926012049061802
2.14,0.7354434312807445,0.2013410203368079,1.621927126886374,0.1046497912516899,0.0849221985593622,0.0535861317500546,-0.6542930579898771,0.9814816338332932,-0.7012508628381752,0.7332467913143034,0.1855850985920984,1.626156807368106,-0.942405214828194,1.0696825530953562,-0.8191759128590259,0.8958635344994914,0.0350557702245402,-0.8870214292747203,-0.1205634663872856,10.139636715936833,-0.9719371084459384,0.1750815158643269,-0.8931584397602779
2.16,0.7223414058333492,0.2207478943435945,1.6078711425586203,0.1144367750650708,0.0780222476904377,0.0530057020065343,-0.6562629200382409,0.960300880440039,-0.7042168612131687,0.7149986870266802,0.2068552384550975,1.6099156337421805,-0.9824052154242404,1.0779166330225622,-0.8286655549426707,1.073896895837652,-0.09849310241819,-1.0590376696627102,-0.148299918749678,10.139636715936833,-0.9761629469813484,0.1632176456760988,-0.8934919957735342
2.18,0.7091717618551634,0.2397077459347706,1.5937543659796285,0.1221414616254883,0.0707473086245039,0.0521383633493347,-0.660851299645529,0.9369994650779891,-0.7072791328465919,0.6957505827241559,0.2283312303162766,1.5934372190641637,-1.0224052160202868,1.0861507129497685,-0.8381551970263156,1.1972747103862742,-0.2294189803644042,-1.1650707681024886,-0.1531135816711604,10.15390392140398,-0.9814865199512663,0.1530783962175908,-0.892257594454386
2.2,0.6958852200909194,0.2581824823136012,1.5795782327218533,0.1277312882662599,0.0637615436286099,0.0510797665881361,-0.6677416886063002,0.9121312024043182,-0.7101274810291244,0.676129196872887,0.28655771918867,1.5583904093372989,-0.7608513011356451,0.8677221487461259,-0.6892005765622835,1.2980957551413086,-0.3445194480385605,-1.243413133683552,-0.1424174091266217,10.182790945871602,-0.9866482597915988,0.1447147620555008,-0.8910180459301233
2.22,0.68307839644536,0.2753641818523995,1.5662037482034377,0.1351169211745672,0.0590895674048397,0.0504133714321682,-0.6799419891214414,0.8954441693854829,-0.6978337872075422,0.676129196872887,0.28655771918867,1.5583904093372989,-0.7608513011356451,0.8677221487461259,-0.6892005765622835,1.2025382648904188,-0.6100150257570602,-0.834351650941767,0.6146846910791093,10.182790945871602,-0.9923148753486176,0.1327750142336274,-0.8917586157817606
2.24,0.669342369033361,0.2930050669555009,1.5523667470877256,0.1450616336874444,0.057857665498262,0.0503058405261683,-0.6926200453508601,0.8691553281699047,-0.68666380466575,0.676129196872887,0.28655771918867,1.5583904093372989,-0.7608513011356451,0.8677221487461259,-0.6892005765622835,1.5625338333921954,-0.6339028114709322,-1.314442060778909,0.5584991270896067,11.1450503371816,-0.9978115901553296,0.1243997673308478,-0.8875384045285817
2.26,0.6553774716153786,0.3100813283127634,1.5387354578461114,0.1549771324945241,0.0592500572697557,0.0505475643391066,-0.7029585928683124,0.8395337463056524,-0.6770458610640782,0.6685206838615305,0.2952349406761313,1.551498403571676,-0.7808513014336683,0.8538666854797532,-0.6855848653054218,1.6407532691085551,-0.5169273758726167,-1.4810790932126172,0.4808971800835948,11.01342960328384,-0.9996339993184072,0.1151259544744273,-0.8880577207114471
2.28,0.6412302516763027,0.3265417121325834,1.525285597594973,0.1644817892806514,0.0619877626270359,0.0509610083128144,-0.7110568309025519,0.8077580995103961,-0.668494449305997,0.6533036578388176,0.3125893836510539,1.53771439204043,-0.8208513020297148,0.8261557589470078,-0.6783534427916984,1.6944024253201553,-0.404911901711974,-1.588782339762812,0.4275705879040581,10.93562509305957,-0.999527818840922,0.1061303873997021,-0.890810665493849
2.3000000000000003,0.6276599333221642,0.3415724846187008,1.512657526477091,0.1730843249475062,0.0649712351293012,0.0513863957273501,-0.7169103094906095,0.77582291663862,-0.6612423864757893,0.6380866318161047,0.3299438266259764,1.5239303805091844,-0.8608513026257613,0.7984448324142625,-0.6711220202779751,1.6633637094212976,-0.2926739294028813,-1.596759143588805,0.362603141510387,10.844097819681338,-0.9985040929527426,0.0966184171275344,-0.8948155634717603
2.32,0.6132722757370356,0.3567202431067577,1.4995079292935336,0.1816944920263074,0.0678746154548493,0.0517599844076531,-0.721483374258637,0.7404202022948378,-0.654155458374316,0.6208696057635895,0.3459127232742616,1.510507940103625,-0.9008513032218076,0.7707339058815171,-0.6638905977642517,1.8196769316251344,-0.2286532384013717,-1.7701357171891086,0.3543464050736633,10.844097819681338,-0.9973906612627044,0.0872608320177759,-0.8988459836829553
2.34,0.5988084287450376,0.3711174130839415,1.486496921588197,0.1891157540193153,0.0700802147771392,0.0519139182447192,-0.7247392209144149,0.7013806981110545,-0.6472631755240484,0.6036525797110742,0.3618816199225468,1.4970854996980654,-0.9408513038178542,0.7430229793487717,-0.6566591752505283,1.9888357066696511,-0.1627923327888969,-1.9519752091891664,0.3446141425133775,10.831883650612326,-0.99678650470047,0.0784522932424113,-0.9024442936880972
2.36,0.5842838772156451,0.384698769468228,1.473625870949752,0.1943661957784434,0.0715212003951333,0.0517527304160092,-0.7276302535515079,0.6594060945351987,-0.6400739921820776,0.585435553643658,0.3771577434075135,1.483843844855349,-0.9808513044139006,0.7153120528160264,-0.649427752736805,2.134191751098911,-0.1445516318546502,-2.09873017879279,0.3594591670985414,10.866292184472512,-0.9967354263934588,0.0714092969008705,-0.9053086525249012
2.38,0.5704339261120084,0.3968078304737037,1.4615396752145928,0.1969460697902813,0.0722986456662854,0.0512945652231879,-0.7301936259635029,0.6180549358363577,-0.6323894749397454,0.5662185275613404,0.3917410937291615,1.4707829755754755,-1.020851305009947,0.6876011262832811,-0.6421963302230815,2.106858448678393,-0.1281686205997501,-2.067557934942049,0.3842258621166106,11.00441986288206,-0.997358812648407,0.0659632028952284,-0.907456669176488
2.4,0.5558030503263411,0.4086968289636266,1.4489866494100194,0.1969576491726336,0.0725852216257942,0.0504961989383928,-0.7328173339335108,0.5733492394540104,-0.62319634840037,0.5339242448138333,0.4277105772655216,1.4299202014676056,-0.830193627453619,0.5180549343462416,-0.5919198508376298,2.285824089968143,-0.1311853985003941,-2.235284819117367,0.4596563269687714,11.00441986288206,-0.9986621261231872,0.0627954263652273,-0.9087207914476004
2.42,0.5410934217354092,0.4197863412525446,1.4365875569127513,0.1966531528729736,0.0729374806722241,0.0496724979573682,-0.7379928436405067,0.5375171441641267,-0.6175114091765325,0.5339242448138333,0.4277105772655216,1.4299202014676056,-0.830193627453619,0.5180549343462416,-0.5919198508376298,1.8323778864969715,-0.2587754853497936,-1.7916047644941868,0.2842469611918752,11.094245514389511,-0.9968919211873252,0.0597790583619847,-0.9125184779955846
2.44,0.5262952566006521,0.4301242260360633,1.4243128644457714,0.197353032800666,0.0735316187747175,0.04895118462252,-0.7415832368339028,0.4981314994794912,-0.6102072004408406,0.5339242448138333,0.4277105772655216,1.4299202014676056,-0.830193627453619,0.5180549343462416,-0.5919198508376298,2.010889974465343,-0.1795196596698078,-1.96928223423177,0.365210436784591,10.756506972045829,-0.9982607991322032,0.0563073122978438,-0.9136123825593732
2.46,0.5121807641310501,0.4391875192044844,1.4128101629761818,0.1973690195708082,0.0737634220306925,0.0481385164488846,-0.7440591668826113,0.4581324620551641,-0.6009265951594811,0.525622308539297,0.432891126608984,1.4240010029592294,-0.8501936277516422,0.4980549340482184,-0.5838259260172066,2.056807513397413,-0.1237965024354248,-1.999951871216357,0.4640302640679772,11.10460060922378,-1.0005481364514484,0.0538741648751411,-0.9132710275980812
2.48,0.4972784680192358,0.4478911463249557,1.4009159777960505,0.1957801383073996,0.0733731288912855,0.0470301311717652,-0.7461177048715568,0.4145413275617898,-0.5888251724829094,0.5090184359902247,0.4432522252959089,1.4121626059424768,-0.8901936283476887,0.4580549334521719,-0.5676380763763604,2.264326067436191,-0.1029268994472754,-2.179556724668713,0.605071133828583,11.267389117221684,-1.002739212483324,0.0527297569411537,-0.9127950460777656
2.5,0.4823395221446418,0.4557145382001758,1.389291205204019,0.1919415171217929,0.0720784213267766,0.0455787822282021,-0.7478193785699976,0.3709059471025794,-0.5740836172209559,0.4924145634411523,0.4536133239828337,1.4003242089257242,-0.9301936289437353,0.4180549328561255,-0.5514502267355141,2.304482356591842,-0.0850836849220382,-2.18176902296052,0.7370777630976766,11.413814098529656,-1.0052130969947128,0.0535730176789297,-0.9114966903071752
2.52,0.4681169498092649,0.4623585131395719,1.3785467080249292,0.1868739714560882,0.0697418816462933,0.0438925660427161,-0.7493481888969246,0.3311914317380267,-0.5575465765782208,0.4738106908622776,0.4619744226399562,1.3892952043910138,-0.9701936295397816,0.3780549322600791,-0.5352623770946678,2.1523555148235185,-0.0764405163463488,-1.9857257682276364,0.8268520321367545,11.413814098529656,-1.0090883090109148,0.0560275809715618,-0.9083542623095668
2.54,0.4531111781173062,0.4685580477179087,1.3675976878680507,0.18070445703274,0.0658237002896341,0.0418068615416203,-0.7512999327464036,0.2912315479916419,-0.538072828667445,0.4552068182834028,0.4703355212970787,1.3782661998563035,-1.010193630135828,0.3380549316640325,-0.5190745274538217,2.22476317322261,-0.0975871924739524,-1.9979941873192408,0.9736873955387916,11.548673947961106,-1.0144042549924064,0.0595050749626438,-0.9032070735709689
2.56,0.438050275579697,0.4739671602304052,1.3570562451293413,0.1737868444019397,0.0604229258830209,0.0394389617736369,-0.7550317641990292,0.2521567392474254,-0.5168913530740571,0.435602945689627,0.4776966199393,1.3676418915626145,-1.0501936307318744,0.2980549310679861,-0.5028866778129754,2.2301469417401565,-0.1865915726312783,-1.953740437210824,1.059073779669395,11.650526273654576,-1.0205981492018634,0.0635905417734828,-0.8967809225866036
2.58,0.4228836784803833,0.478609941829283,1.3469561912846155,0.1661052260433454,0.0542879513477165,0.0369464981737992,-0.7617217286099616,0.2145619735639781,-0.4940228420800113,0.41499907308095,0.4840577185666203,1.3574222795099464,-1.0901936313279208,0.2580549304719397,-0.4866988281721291,2.225472323854893,-0.3344982205466196,-1.879738284172365,1.1434255497022872,11.741997218500728,-1.0275594859152766,0.0683796386341274,-0.8890597738335251
2.6,0.4083235902409842,0.4823407084448364,1.3378001355446556,0.1582125983642612,0.0485873034388133,0.0346223865916077,-0.7707336679255986,0.1805377134785801,-0.4708231909542795,0.3847975920498852,0.4893380405074819,1.3222550491806149,-0.8617217301000777,0.114561972073862,-0.4234521571105861,2.107776753443779,-0.450596965781852,-1.7012130042698983,1.15998255628659,11.831243133439784,-1.0356930596440377,0.0745127945626574,-0.8793949736522286
2.62,0.3927411361764696,0.4856451657747054,1.3285750403050671,0.1508610884448456,0.0446549394007668,0.0326318362063531,-0.7873732400150935,0.1514550823824564,-0.4533697071576055,0.3847975920498852,0.4893380405074819,1.3222550491806149,-0.8617217301000777,0.114561972073862,-0.4234521571105861,1.8889804706742488,-0.8319786044747424,-1.4541315548061873,0.8726741898337026,11.907210826364462,-1.0371746466721352,0.07843946344595,-0.8776724792519415
2.64,0.3768151295005034,0.4883641950644523,1.3197101960763955,0.144846968068902,0.0446619365685205,0.0313657998499543,-0.8038634471799091,0.1219285822661187,-0.4339002505641415,0.3847975920498852,0.4893380405074819,1.3222550491806149,-0.8617217301000777,0.114561972073862,-0.4234521571105861,1.9511540697132344,-0.824510358240782,-1.4763250058168855,0.9734728296731998,11.420481706329156,-1.0420118097790787,0.0827385200255588,-0.8722466149090413
