t,x,y,z,roll,pitch,yaw,v_x,v_y,v_z,ref_x,ref_y,ref_z,ref_v_x,ref_v_y,ref_v_z,a_com,a_x,a_y,a_z,thrust,wind_x,wind_y,wind_z
0.0,-0.0150089033123537,0.1101803686100421,2.558785744048089,0.0247914873486962,0.0995657714406004,0.0417025384262097,0.0011788811905001,-0.0067491588266475,-0.0012651485629319,-0.0149717986715174,0.1099398269920924,2.558744673178636,-0.0061624894699353,0.0044072638444046,-0.1013101189075471,0.3483586751285191,0.0589440595250074,-0.3374579413323791,-0.0632574281465984,10.261453199176684,-0.9399166954907788,0.2556190830159944,-0.8809563572620887
0.02,-0.0150328137472499,0.1100424151149229,2.5586637313994043,0.0223855822121102,0.1007353464736745,0.0415663350868966,-0.0034425348978445,-0.0068103335898154,-0.0114590624121046,-0.0149717986715174,0.1099398269920924,2.558744673178636,-0.0061624894699353,0.0044072638444046,-0.1013101189075471,0.559636284960185,-0.2310708044172329,-0.0030587381583921,-0.5096956924586362,10.260920100456133,-0.9336409865228033,0.2582913502072447,-0.8854136234872295
0.04,-0.0151463150877299,0.1099190357754076,2.558287588688432,0.0197437235639121,0.1041600723956779,0.0414630385470526,-0.0073721987942862,-0.005438636446601,-0.0257581792588683,-0.0149717986715174,0.1099398269920924,2.558744673178636,-0.0061624894699353,0.0044072638444046,-0.1013101189075471,0.7446283535917455,-0.1964831948220875,0.0685848571607212,-0.7149558423381842,9.649384030771216,-0.9272628810699084,0.257365701134605,-0.8951157063636458
0.06,-0.0153084362130086,0.109839782056289,2.557638023758809,0.0174553687554291,0.1088035158842925,0.0414019458699763,-0.0092498657181852,-0.0030322818605874,-0.04192287882933,-0.0150334235662168,0.1099838996305364,2.5577315719895606,-0.0076336513122815,0.0067912155009249,-0.1213101192055703,0.8225170023683672,-0.0938833461949474,0.120317729300678,-0.8082349785230858,9.4770941327115,-0.918281468133672,0.2555044806362269,-0.9085385621950928
0.08,-0.0154960527076557,0.1098118688659541,2.5566008844070733,0.0154579555217672,0.1143449662100924,0.0413694614024745,-0.009204126241465,6.148304475423521e-05,-0.061066389307989,-0.0151566733556155,0.1100720449074245,2.5557053696114096,-0.0105759749969739,0.0115591188139657,-0.1613101198016168,0.9695971674306052,0.0022869738360101,0.1546882452670837,-0.9571755239329498,9.3516898695525,-0.9073222017912204,0.2530019794584988,-0.9242250647849702
0.1,-0.015662063296145,0.1098504910024323,2.555162545873315,0.0139307903195409,0.1199210412174158,0.0413623871830729,-0.0072450270453141,0.0036007760183264,-0.0819048151910863,-0.0152799231450142,0.1101601901843126,2.5536791672332586,-0.0135182986816662,0.0163270221270064,-0.2013101203976632,1.0613725284960898,0.0979549598075423,0.1769646486786102,-1.0419212941548617,9.251106684624574,-0.8957950560922171,0.2502334447924897,-0.9402068646193468
0.12,-0.0157709736606942,0.1099648936795214,2.5532922823814093,0.0129768622075272,0.1250516510142931,0.0413831078862362,-0.0036634242147863,0.0075905196435204,-0.1041211209962556,-0.0155502891186475,0.1104867306268527,2.549652964825305,-0.0164606223663586,0.0210949254400471,-0.2413101209937097,1.1427053170647496,0.1790801415263883,0.1994871812596985,-1.1108152902584656,9.184799268999086,-0.8846624231326619,0.2472868204705043,-0.9553035049263958
0.14,-0.0157960750076071,0.1101506086091646,2.5510904911937216,0.0127178506611065,0.1292582967464327,0.0414359186815696,0.0008748140235215,0.0116846473824834,-0.1265740669523969,-0.0158206550922809,0.1108132710693929,2.545626762417352,-0.019402946051051,0.0258628287530879,-0.2813101215897562,1.163499323549425,0.2269119119153949,0.2047063869481507,-1.1226472978070647,9.137165059961262,-0.8727805352417893,0.2435983622074516,-0.9712853702928432
0.16,-0.0157197714444789,0.110431220836244,2.5482985012520736,0.0132373933511788,0.1328454804023074,0.041534334666184,0.0065490893287834,0.0160926721361812,-0.151529870187922,-0.0161645791580315,0.111259009094759,2.5406005599944974,-0.0223452697357434,0.0306307320661286,-0.3213101221858026,1.2984800706974302,0.283713765263095,0.2204012376848913,-1.2477901617762537,9.082938081078282,-0.8610354883999826,0.2390571794926678,-0.9872950973386068
0.18,-0.0155216999341274,0.1107988855599078,2.544996102956098,0.0146473735454479,0.1354868273687551,0.0416810418498724,0.012948034333008,0.0203399920953117,-0.1774989071608405,-0.0165820613158994,0.1118239447029512,2.534574357556742,-0.0252875934204358,0.0353986353791693,-0.361310122781849,1.354046809847364,0.3199472502112316,0.2123659979565272,-1.2984518486459262,9.032062374592895,-0.8502528330737499,0.2337741106618752,-1.0024676542354762
0.2,-0.015190861258518,0.1112457257677613,2.5411659608978843,0.0169005013712044,0.1372073960929373,0.0418704335255969,0.0197764648063363,0.0239693045858614,-0.2042555326677274,-0.014874298217477,0.1118158851646734,2.536121157598056,0.0068221646379108,0.0355564721045695,-0.2774989086509566,1.3925842706986602,0.3414215236664147,0.1814656245274848,-1.3378312753443435,8.981632050980807,-0.8393311406150791,0.2271855936965592,-1.0184127211110914
0.22,-0.0146670983512354,0.1117071681786094,2.5372784232803074,0.019009826930393,0.1366083249248306,0.0420028952717022,0.0347910681871604,0.0246058461678951,-0.2035985341212061,-0.014874298217477,0.1118158851646734,2.536121157598056,0.0068221646379108,0.0355564721045695,-0.2774989086509566,0.7521222423237514,0.7507301690412044,0.0318270791016839,0.0328499273260632,8.981632050980807,-0.8421710646072816,0.2185606644197775,-1.024945528298011
0.24,-0.0138117443119777,0.1122015472213879,2.5331813401400565,0.0205819742912203,0.1320667111364314,0.0420090483099024,0.0494348603566754,0.0248572618484843,-0.2064479288404396,-0.014874298217477,0.1118158851646734,2.536121157598056,0.0068221646379108,0.0355564721045695,-0.2774989086509566,0.7460276623798734,0.7321896084757508,0.0125707840294572,-0.1424697359616769,10.591814505790351,-0.8424070204104793,0.2192175212064553,-1.0224470478060872
0.26,-0.0127070200891103,0.1126965813140155,2.5289684508156225,0.0214205458172032,0.1244718116478252,0.0418861807964785,0.0598006431366134,0.0246966830801547,-0.214638131242815,-0.0148060765710979,0.1121714498857191,2.5333461685115464,0.0055969906988913,0.0385997681064211,-0.2974989089489798,0.6605956659969361,0.5182891389969018,-0.008028938416478,-0.4095101201187709,10.259506564689218,-0.8445165655802113,0.2194787559008476,-1.0197729487783591
0.28,-0.0115085459640232,0.1131603970039998,2.524774774495023,0.0214562460636641,0.1158410725576336,0.0416771690456645,0.0655285033965395,0.0242004116715038,-0.2263626086774842,-0.0146696332783397,0.1128825793278105,2.5277961903385275,0.0031466428208525,0.0446863601101242,-0.3374989095450262,0.6529127805158005,0.2863930129963013,-0.0248135704325471,-0.5862238717334558,9.730659483020643,-0.8484163033957134,0.2192266479615695,-1.0171105664153477
0.3,-0.01017006231919,0.1136371987639739,2.520085292936012,0.0206106645476603,0.106456263729938,0.0413894422428926,0.067729254119416,0.0235643847986844,-0.2421168414943111,-0.0145331899855815,0.1135937087699019,2.5222462121655083,0.0006962949428136,0.0507729521138273,-0.3774989101410727,0.7959957373849049,0.1100375361438275,-0.0318013436409697,-0.7877116408413445,9.730659483020643,-0.8528220717495011,0.2187333462293567,-1.0153347700982644
0.32,-0.0088245392000359,0.1141023365800569,2.51504639631524,0.0188221760853348,0.0976940336705348,0.0410600406903376,0.0665991106733268,0.0230784082261598,-0.2609695483529848,-0.0145192640867252,0.1146091678121784,2.514696233962687,-0.0017540529352252,0.0568595441175305,-0.4174989107371191,0.9446400813760576,-0.0565071723044589,-0.024298828626228,-0.9426353429336884,9.535373187633922,-0.8567937133580678,0.2181486802057061,-1.0151168602281326
0.34,-0.007527281166077,0.1145654576923429,2.5096174946341177,0.0162532646489162,0.0901214635803323,0.0407183946684759,0.0630781122559163,0.0235164755225386,-0.2810237747653421,-0.0145053381878689,0.115624626854455,2.5071462557598654,-0.0042044008132641,0.0629461361212336,-0.4574989113331656,1.01828450077772,-0.1760499208705288,0.02190336481894,-1.0027113206178633,9.383112099378195,-0.860546627777707,0.2178470192150766,-1.0153599771448538
0.36,-0.0063807599684574,0.115029466863825,2.50407868475575,0.013703689470128,0.0844258166196024,0.0404301874029507,0.0577487757312809,0.0253100740095972,-0.3010129624406404,-0.0145526709859636,0.1167922506968241,2.498596277542142,-0.006654748691303,0.0690327281249367,-0.4974989119292121,1.0382514715182052,-0.2664668262317655,0.0896799243529282,-0.999459383764914,9.32392662885195,-0.8628635381064663,0.2173475520953796,-1.0175051913045978
0.38,-0.0053017659362995,0.1155625538355318,2.497826825889013,0.0112784073237457,0.0804496026894412,0.0401871121550917,0.0503353496498324,0.0278830223823813,-0.3231839277411426,-0.0146612624810093,0.1181120393392858,2.4890462993095186,-0.0091050965693419,0.0751193201286398,-0.5374989125252585,1.1759364905790886,-0.3706713040724278,0.1286474186392067,-1.1085482650251082,9.228401204894908,-0.8639359348650483,0.2168353185924141,-1.020427598878068
0.4,-0.0043879546885074,0.1161521694439294,2.4911205749690777,0.009237624177777,0.0791172739988023,0.0400076942417447,0.041632420395889,0.0308823144114452,-0.3463437612138066,-0.0027849984538079,0.1169567049546508,2.481667629501956,0.0498914526143938,0.0417153149018911,-0.4231839292312587,1.2461085594324053,-0.4351464626971693,0.1499646014531938,-1.1579916736332043,9.228401204894908,-0.8630036315010107,0.2154856953380644,-1.02565828874536
0.42,-0.0036819404775644,0.116796611056465,2.484584214261005,0.0085893239024633,0.0810559726273321,0.0399558627245922,0.0336892906990981,0.0363809660035801,-0.3405165369009213,-0.0027849984538079,0.1169567049546508,2.481667629501956,0.0498914526143938,0.0417153149018911,-0.4231839292312587,0.5641033192253271,-0.3971564848395468,0.2749325796067478,0.2913612156442674,9.18720983912226,-0.8657911955794171,0.2117520039101118,-1.0286874274003244
0.44,-0.0030742407365275,0.1175769559667034,2.477799790456272,0.0096703429776207,0.0862575952445877,0.0400487470014079,0.0279096381380991,0.0412566629540514,-0.3386074199971374,-0.0027849984538079,0.1169567049546508,2.481667629501956,0.0498914526143938,0.0417153149018911,-0.4231839292312587,0.389940802657946,-0.288982628049946,0.243784847523561,0.0954558451891962,10.9278419555867,-0.8608017532633452,0.2115255709082533,-1.0318506489950978
0.46,-0.0025499248139965,0.118447571222272,2.4709908974258217,0.0121371209655704,0.0933227365138247,0.0402611994359767,0.0251515962923934,0.04542127581693,-0.3426196326425644,-0.0022860839276639,0.1173738581036697,2.4774357902096438,0.0498026732073061,0.0444817734057931,-0.4431839295292819,0.3203460840733149,-0.1379020922852877,0.2082306431439314,-0.200610632271353,10.526987907291186,-0.8526974490934908,0.2092496612311919,-1.0389581194364204
0.48,-0.0020494844586945,0.1193811476379561,2.464049652310025,0.0153373933604095,0.1010421583650265,0.0405466597963835,0.0252872094311456,0.0475486718684422,-0.3515106813929837,-0.0012882548753761,0.1182081644017076,2.468972111625018,0.0496251143931307,0.050014690413597,-0.4831839301253283,0.4571513774608047,0.0067806569376134,0.10636980257561,-0.4445524375209647,10.187114080684296,-0.8435354798754517,0.2056361633525413,-1.048052400579211
0.5,-0.0015469087494299,0.1202915687612664,2.4572493464544647,0.018236159129872,0.1081470848727291,0.040819151146287,0.0277273948817088,0.0482218796361874,-0.3638688369480823,-0.0002904258230882,0.1190424706997454,2.460508433040393,0.0494475555789552,0.0555476074214009,-0.5231839307213748,0.6307371133358688,0.1220092725281559,0.0336603883872618,-0.617907777754928,9.927805607790106,-0.8341534408124811,0.2018259813127866,-1.057344214545231
0.52,-0.0009482306150489,0.1212561881459445,2.449805884954565,0.0208473919959294,0.1148322632603856,0.0410720945158095,0.032111006925155,0.0482551775002324,-0.379979788218787,0.0006985252884908,0.1201534228481734,2.4500447544259654,0.0492699967647798,0.0610805244292048,-0.5631839313174213,0.8348351845457568,0.2191806021723129,0.0016648932022491,-0.805547563535236,9.729317741978775,-0.8250758552007018,0.1982619237514422,-1.0664356887211597
0.54,-0.0002444711446624,0.1222166762330244,2.442023104122507,0.0229375508045926,0.1203563516443861,0.0412700751184285,0.0380886558826473,0.0478586795560969,-0.3975488062820581,0.0016874764000699,0.1212643749966014,2.439581075811538,0.0490924379506044,0.0666134414370087,-0.6031839319134678,0.9281162284248916,0.298882447874613,-0.0198248972067768,-0.8784509031635551,9.570099189746545,-0.8172016802040981,0.1949684624641441,-1.0747996531860324
0.56,0.0005923981813659,0.1231664201919122,2.433877926063227,0.0245248699721167,0.1244912644742605,0.041400988930171,0.0452364927935016,0.0471987728340288,-0.4161065128409866,0.0026719885412946,0.1225136500702245,2.428117397182209,0.048914879136429,0.0721463584448127,-0.6431839325095141,0.9948813021075652,0.3573918455427132,-0.0329953361034033,-0.9278853279464232,9.516842494820594,-0.8098988539576568,0.1918880102930525,-1.0828202258038742
0.58,0.0015261976595377,0.1240531854194852,2.4257871749597792,0.0255567653969009,0.1270992687055948,0.0414557626587485,0.0526149937801696,0.0462151931849036,-0.4346361297373818,0.003652061712165,0.1239012480690428,2.41565371853798,0.0487373203222535,0.0776792754526166,-0.6831839331055606,0.9984442999782326,0.3689250493334014,-0.0491789824562622,-0.9264808448197605,9.480739952185104,-0.803752546510362,0.1892317911632748,-1.089951353606432
0.6,0.0026616837611193,0.1249631557860317,2.416879182226139,0.0260380508102183,0.1285549770545419,0.0414314989124798,0.060469079692454,0.0448574990204791,-0.4552443810220865,0.0041569473485462,0.1263639450787304,2.40405536847291,0.0483022275299467,0.0613798367109808,-0.5346361312274979,1.1047963839269104,0.3927042956142216,-0.0678847082212222,-1.0304125642352362,9.441330234349152,-0.798815252524199,0.1871415305285027,-1.0961381887826935
0.62,0.0040049969498071,0.1258374218905626,2.407833487786672,0.0257897845227819,0.1283704805269212,0.0413057987842422,0.0736005213359975,0.0426524198834869,-0.4468191437219018,0.0041569473485462,0.1263639450787304,2.40405536847291,0.0483022275299467,0.0613798367109808,-0.5346361312274979,0.7878479504362021,0.6565720821771744,-0.110253956849611,0.4212618650092342,9.388614292489365,-0.7987341608685826,0.1822932511171585,-1.1027364231518353
0.64,0.0056139864367184,0.126663497041009,2.398963767975195,0.0245960149692999,0.1259976022128784,0.0410525012374999,0.0864630630946396,0.0401814995935781,-0.4410157544696545,0.0041569473485462,0.1263639450787304,2.40405536847291,0.0483022275299467,0.0613798367109808,-0.5346361312274979,0.7162921093816997,0.6431270879321043,-0.1235460144954375,0.2901694626123663,11.236893655873246,-0.7997432285671934,0.1853071728933551,-1.099488669382795
0.66,0.0073697554418691,0.1274058686849846,2.390580613147459,0.022411335963757,0.1215351276533726,0.0406876043139292,0.0974501034988794,0.0382689310675618,-0.4416526866120464,0.0046399696238457,0.1269777434458402,2.398709007160635,0.0474396742799021,0.0644127654161963,-0.554636131525521,0.5585218387966546,0.5493520202119906,-0.0956284263008189,-0.0318466071195955,10.84039102416591,-0.8028942926479475,0.189145342404168,-1.0950097963072187
0.68,0.0094124004765598,0.1281657158696832,2.381695333462176,0.0194034332294591,0.1148762293404391,0.0402261898671222,0.1058143352777722,0.038021628493463,-0.4470261547656106,0.0056060141744446,0.1282053401800598,2.3880162845360853,0.0457145677798129,0.0704786228266272,-0.5946361321215675,0.4972315652982138,0.4182115889446398,-0.0123651287049362,-0.2686734076782104,10.473534801379174,-0.8078904229383085,0.1932870067477072,-1.0896459192501915
0.7000000000000001,0.0115842706655108,0.1289364369055281,2.372654929873175,0.0163459244853353,0.1071770910417659,0.0397660112265187,0.1106565356041875,0.0391099825164698,-0.4567001753794105,0.0065720587250436,0.1294329369142794,2.377323561911535,0.0439894612797237,0.0765444802370581,-0.634636132717614,0.5436407207815565,0.2421100163207658,0.0544177011503398,-0.4837010306899925,10.183155869124676,-0.8140976140067512,0.1966682881268187,-1.0841187924863878
0.72,0.0137062942793441,0.1296971379686567,2.363855403461951,0.0136515280609788,0.0996616321085676,0.0393649530955407,0.1122914382276871,0.0409019571229868,-0.4690604224095424,0.007451847950638,0.1309638265190206,2.364630839257183,0.0422643547796346,0.082610337647489,-0.6746361333136605,0.6298011317563128,0.081745131174981,0.0895987303258467,-0.6180123515065972,9.950136717973692,-0.8212575781213832,0.1994536362284995,-1.0784584387030902
0.74,0.0159467923851204,0.130539852605215,2.3543218140568176,0.0111119379627175,0.0921367589677059,0.0389924607265723,0.1114935004357519,0.0432757066413163,-0.4837076309434364,0.0083316371762325,0.1324947161237618,2.3519381166028306,0.0405392482795454,0.0886761950579199,-0.7146361339097069,0.7429873978254005,-0.0398968895967612,0.1186874759164766,-0.7323604266946976,9.762294484296037,-0.8283833135503994,0.2013746064437339,-1.0734847699470278
0.76,0.0181483076543701,0.1314356222387846,2.344482191035804,0.0089278409594205,0.0854260264951001,0.0386738114066204,0.1085851997616425,0.0461507253306826,-0.4995632482377216,0.0091682987393248,0.1341772521637637,2.338245393933577,0.0388141417794562,0.0947420524683508,-0.7546361345057533,0.8187254501022736,-0.1454150337054705,0.1437509344683139,-0.7927808647142626,9.604953788498278,-0.834986470092547,0.2026669064543689,-1.069218307261835
0.78,0.0202708214875853,0.1323927056218655,2.3343115403896477,0.007134851282884,0.0798690245628662,0.0384073207736136,0.103728064065673,0.0493423630222267,-0.5167013393687147,0.0099618326399148,0.1360114346390264,2.3235526712494226,0.0370890352793671,0.1008079098787817,-0.7946361351017998,0.90483767320079,-0.2428567847984758,0.1595818845772055,-0.8569045565496508,9.604953788498278,-0.840010843819342,0.203409237220352,-1.0663572333383933
0.8,0.022179180851334,0.1333636131742893,2.32432046759167,0.0057892891469145,0.0760635064881273,0.0381982188441092,0.0973404719699697,0.0526591593107732,-0.5341327252762426,0.0254572246908689,0.1348598237729768,2.308476473421212,0.0982830689380547,0.0513987274579293,-0.6167013408588308,0.942941786456048,-0.3193796047851645,0.1658398144273237,-0.8715692953763954,9.540104690697262,-0.8437376415503378,0.2036283182681558,-1.0648807547222972
0.8200000000000001,0.0240378555610855,0.1345254535093314,2.3137382183912654,0.007108145016173,0.0748574981901965,0.0381859722607976,0.0891358929958364,0.0627486864732713,-0.5216114014484228,0.0254572246908689,0.1348598237729768,2.308476473421212,0.0982830689380547,0.0513987274579293,-0.6167013408588308,0.9026311883968812,-0.410228948706666,0.5044763581249084,0.6260661913909893,9.479427996179766,-0.8489720770459284,0.1982472276107237,-1.065791409760238
0.84,0.0257446655373085,0.1358564955073571,2.303411324453914,0.0123389073880699,0.0770207346264269,0.0384653262505529,0.0823449237040396,0.0688065104928886,-0.5122040102844219,0.0254572246908689,0.1348598237729768,2.308476473421212,0.0982830689380547,0.0513987274579293,-0.6167013408588308,0.6544339238748639,-0.3395484645898387,0.3028912009808607,0.4703695582000455,11.00588762818552,-0.847654486927377,0.1949165601699783,-1.0652030937187411
0.86,0.0273387769646887,0.1372506447919801,2.29319302101837,0.0187189700981604,0.0813661632155518,0.038859005425796,0.0777469504005752,0.0700641124823635,-0.5100638817481777,0.0264400553802495,0.1353738110475561,2.3023094600126237,0.097194069912531,0.0518100003450698,-0.636701341156854,0.2612617050724672,-0.2298986651732198,0.0628800994737485,0.1070064268122061,10.587900272168554,-0.8438321747241175,0.189508996183538,-1.0677538689982609
0.88,0.0287897122262103,0.1385710210462764,2.283471883094081,0.0245431170150949,0.0865389999123595,0.0392529342392669,0.0754246242061267,0.068873525736188,-0.5133138813526399,0.0284057167590106,0.1364017855967147,2.2899754331954467,0.0950160718614837,0.0526325461193508,-0.6767013417529004,0.2084058131542541,-0.1161163097224228,-0.0595293373087751,-0.1624999802231075,10.587900272168554,-0.8382754522108656,0.1835824063828992,-1.0726618937964536
0.9,0.0302899700758431,0.1399210687507433,2.2731280964061464,0.0299729100657097,0.0923123523988065,0.039646785902542,0.0748967925366824,0.0662278323045331,-0.5210935241521036,0.0303713781377716,0.1374297601458733,2.27764140637827,0.0928380738104364,0.0534550918936318,-0.7167013423489469,0.4117072445707596,-0.026391583472219,-0.132284671582749,-0.3889821399731874,10.272263433707847,-0.831727945004662,0.1777831206498734,-1.0789929898458142
0.92,0.0317980763518817,0.141206607532369,2.262585601653545,0.0345246758446055,0.0978417629572005,0.0399885644081462,0.0760388413407025,0.0625971233430127,-0.5327624602901344,0.0322281396139804,0.1384988619837459,2.2633073795312915,0.090660075759389,0.0542776376679128,-0.7567013429449934,0.6136986101244415,0.0571024402010067,-0.1815354480760173,-0.5834468069015386,10.025776626048357,-0.8254074223592391,0.1725802776215983,-1.085547581028438
0.94,0.0332666570253439,0.1423537374321827,2.252337463570054,0.0380469975534921,0.1025038045246096,0.0402461364706233,0.0785230383201177,0.0584772725439887,-0.5454096934076424,0.0340849010901891,0.1395679638216185,2.2489733526843123,0.0884820777083417,0.0551001834421939,-0.7967013435410398,0.6765665354703599,0.1242098489707618,-0.2059925399511986,-0.6323616558754019,9.761973923597909,-0.8192508536968082,0.1676372304126852,-1.0922292919083645
0.96,0.0348747310178419,0.1434728221696091,2.2412769741150416,0.0409912169516226,0.106563545322089,0.0404348443361133,0.0821834233295383,0.0537369801645682,-0.5600391518352982,0.0358872126151217,0.1406576293038482,2.2336393258224323,0.0863040796572944,0.0559227292164749,-0.8367013441370862,0.7903952241538565,0.1830192504710288,-0.2370146189710244,-0.7314729213827864,9.761973923597909,-0.813761454011867,0.1634413436068397,-1.0982819582885703
0.98,0.0365645363907791,0.1444931074597593,2.22991067885392,0.0432252489068394,0.1096409257264697,0.0405314367453589,0.0866049201221318,0.0486278079017913,-0.5759128539502243,0.037635074188778,0.1417678584304349,2.217305298945651,0.0841260816062471,0.0567452749907559,-0.8767013447331327,0.8625944787834174,0.2210748396296757,-0.2554586131388491,-0.7936851057463057,9.63996604993372,-0.8090739225420185,0.1598355558811753,-1.1037586969918405
1.0,0.0383480773205062,0.1454071061274311,2.218213112402096,0.0447638259825242,0.1116924875784979,0.0405288197035293,0.0914570201746603,0.0431466188784126,-0.5930526989902911,0.0408947823968857,0.1469244978548489,2.2011150361564087,0.0782379488454313,0.0423387071616863,-0.6759128554403404,0.9318806200732704,0.2426050026264226,-0.2740594511689349,-0.8569922520033413,9.63996604993372,-0.8054518659320908,0.1569537931690969,-1.1083838514128257
1.02,0.0401810395290582,0.1461758559555701,2.207087615652408,0.0461444217923313,0.1123479869818363,0.040453731507637,0.1010700444402071,0.0378683851710301,-0.5771997642656334,0.0408947823968857,0.1469244978548489,2.2011150361564087,0.0782379488454313,0.0423387071616863,-0.6759128554403404,0.963827689454914,0.4806512132773388,-0.2639116853691222,0.7926467362328882,9.58276697605288,-0.8054422665371569,0.1490403154665049,-1.116371059063212
1.04,0.0423034773860782,0.1468657495427165,2.1956719547444528,0.0476711556127057,0.1113958004198315,0.0402915073138909,0.1105332806048103,0.0313881430320955,-0.5656408853616613,0.0408947823968857,0.1469244978548489,2.2011150361564087,0.0782379488454313,0.0423387071616863,-0.6759128554403404,0.8141775887405746,0.4731618082301596,-0.3240121069467302,0.5779439451986002,11.668541184345486,-0.8052278396200684,0.1492718599617872,-1.1143931215509355
1.06,0.0446060717342994,0.1474166536038518,2.1844050898446885,0.0487258595571588,0.1086722344563075,0.0399977605392709,0.1191061895511368,0.0241114240387383,-0.5615715544812712,0.04167716188534,0.1473478849264658,2.1943559076020054,0.0765645545900912,0.0410808870136654,-0.6959128557383636,0.5979231993416648,0.4286454473163288,-0.3638359496678601,0.2034665440195093,11.184664248041372,-0.8071570811185875,0.149620510459767,-1.1112556549286172
1.08,0.0469415040394663,0.1478002026912236,2.173722160540533,0.0489021295981165,0.1043078021835799,0.0395634395068892,0.1261204655878462,0.016741262868454,-0.563114115214423,0.0432419208622486,0.1481946590696995,2.1808376504931983,0.073217766079411,0.0385652467176234,-0.7359128563344101,0.5145358044164273,0.3507138018354678,-0.3685080585142166,-0.0771280366575921,10.760247588169475,-0.8109438850843438,0.1502064448628113,-1.1074319047198202
1.1,0.0495189011541894,0.1480516704529008,2.162400268509973,0.0479677561668491,0.0980849291097816,0.0389441407190533,0.1308650101767493,0.0088935006680222,-0.5691714554819158,0.0448066798391573,0.1490414332129332,2.167319393384392,0.0698709775687308,0.0360496064215814,-0.7759128569304565,0.5495212598862885,0.2372272294451555,-0.3923881100215884,-0.3028670133746414,10.429353170646207,-0.8158044748133795,0.1512209197042733,-1.1037236656394966
1.12,0.0521579778045678,0.1481474146956042,2.150916063521244,0.0457230185145093,0.0910309044302022,0.0382014684257944,0.1325211691505127,0.0012189140200789,-0.5790773860785019,0.0462040993905319,0.1497624253413648,2.1518011362457825,0.0665241890580506,0.0335339661255395,-0.815912857526503,0.6320000074120768,0.0828079486881711,-0.3837293323971632,-0.4952965298293033,10.16397948618578,-0.821794102469601,0.1529568811526608,-1.099507393931047
1.14,0.054800949128965,0.1481052311825614,2.139212591850323,0.0424349855139516,0.0838604143124092,0.0374024118369705,0.1314695639234654,-0.0047348168328294,-0.5908108751736543,0.0476015189419065,0.1504834174697965,2.1362828791071733,0.0631774005473704,0.0310183258294975,-0.8559128581225495,0.6599764218676427,-0.0525802613523654,-0.297686542645422,-0.5866744547576186,9.852319636725952,-0.8290010520893282,0.1552828851755806,-1.0947992205696708
1.16,0.0572688872426016,0.1479711876914732,2.127862599514753,0.0390628629206179,0.0774414303496298,0.0366687630994277,0.128262110951894,-0.0089603435567474,-0.6033177821904797,0.0489152687805141,0.151141518590827,2.1197646219536628,0.0598306120366902,0.0285026855334555,-0.8959128587185958,0.6792745280571492,-0.1603726485785703,-0.2112763361959011,-0.6253453508412721,9.852319636725952,-0.8360460593832405,0.1575706970591902,-1.0904899269442845
1.18,0.0597806768279766,0.1477546821160911,2.1156437299354125,0.0355866409909056,0.0714563501895457,0.0359584467585591,0.122949612356499,-0.0123925922187057,-0.6179749746490268,0.0501453489063547,0.1517367287044566,2.1022463647852514,0.05648382352601,0.0259870452374136,-0.9359128593146424,0.798179589707854,-0.2656249297697511,-0.1716124330979128,-0.7328596229273565,9.774498444819985,-0.8423793896703676,0.1596738749882566,-1.0868016556137032
1.2,0.0621656622800136,0.1474778729012864,2.1031165341999096,0.0323128101787243,0.0666404183979382,0.0353271168034471,0.1156745638686252,-0.0150674033084554,-0.6340678067008739,0.0659281574458016,0.1471350525051558,2.0847449812029613,0.1069849273485692,-0.0210489067928877,-0.717974976139143,0.8931127984690955,-0.3637524243936894,-0.1337405544874874,-0.8046416025923542,9.686642585084885,-0.8471402679603548,0.1612443374932889,-1.0846052580865355
1.22,0.0643952158854287,0.1471769077473669,2.090583409983339,0.0303694126308041,0.0638656661022591,0.0348686307495918,0.1075848792859849,-0.0153709495858944,-0.6167742016734923,0.0659281574458016,0.1471350525051558,2.0847449812029613,0.1069849273485692,-0.0210489067928877,-0.717974976139143,0.9547302129819644,-0.4044842291320148,-0.0151773138719492,0.8646802513690821,9.612654747697889,-0.8522612491096994,0.1558685301470035,-1.0897800741599075
1.24,0.066355429383755,0.1468751342013803,2.078994753348936,0.030100104435152,0.063869018465742,0.0346245665209278,0.0995032149432094,-0.0165068903593497,-0.6041185528273751,0.0659281574458016,0.1471350525051558,2.0847449812029613,0.1069849273485692,-0.0210489067928877,-0.717974976139143,0.7529427396992296,-0.4040832171387738,-0.0567970386727622,0.632782442305857,11.822941830340824,-0.8543338617205625,0.1579686756393222,-1.084996794573094
1.26,0.0682665963877405,0.1465284464578014,2.0669855947095246,0.030858927993482,0.065895798643465,0.0344992353095546,0.0922534099586516,-0.0181430007668826,-0.5977651705100799,0.0669980067192873,0.1469245634372269,2.07756523144157,0.1037919903469832,-0.0227801697077241,-0.7379749764371661,0.4888813671267207,-0.3624902492278911,-0.0818055203766482,0.3176691158647604,11.292153820391832,-0.8537369981549182,0.1586474757701989,-1.083004265512506
1.28,0.0700460953164056,0.1461452688901866,2.0550321646884337,0.03239633843761,0.0692005741982862,0.034467244599877,0.0862767943784262,-0.020137610262543,-0.5978581450150506,0.0691377052662587,0.1465035853013692,2.063205731918787,0.0974061163438113,-0.0262426955373969,-0.7779749770332126,0.3150676319956807,-0.2988307790112707,-0.0997304747830191,-0.0046487252485349,10.838041768763103,-0.8514103049281706,0.1580504538332038,-1.0834017390885775
1.3,0.0716387710469212,0.1457392626493719,2.0436281408186017,0.034371557240607,0.0729490287090043,0.0344945573719821,0.0818186392981999,-0.02254750604652,-0.6025516778496001,0.0712774038132301,0.1460826071655114,2.048846232396004,0.0910202423406394,-0.0297052213670698,-0.8179749776292591,0.345369348951132,-0.2229077540113158,-0.1204947891988508,-0.2346766417274715,10.480289491110852,-0.8478197793657245,0.1561662190611973,-1.085820727592775
1.32,0.0732366913944143,0.1452515328153625,2.0314880438539715,0.0366263083361981,0.0770869607462268,0.0345460821536076,0.0783310001808167,-0.0261630116819137,-0.6113889398317021,0.0730978086600429,0.14548850273817,2.032486732843419,0.0846343683374675,-0.0331677471967426,-0.8579749782253056,0.5082634822436348,-0.1743819558691586,-0.1807752817696857,-0.4418630991050998,10.205945816627718,-0.843766409151281,0.1536771462595404,-1.089386988576093
1.34,0.0747778593563934,0.1446819744752683,2.0191481374415123,0.0386318628203118,0.0810810273560226,0.0345786594832341,0.0760516604169908,-0.0305788986831468,-0.6222259229747984,0.0749182135068557,0.1448943983108286,2.0161272332908338,0.0782484943342955,-0.0366302730264154,-0.897974978821352,0.5961032867934266,-0.1139669881912927,-0.2207943500616505,-0.5418491571548167,9.892194965495946,-0.8392278379522261,0.1503297031965717,-1.0944544921086377
1.36,0.0762843334183376,0.1440172488723244,2.006575011054481,0.0401762057687265,0.0846869643063904,0.0345659730191393,0.0747555604733791,-0.0355858162897847,-0.6345470021793351,0.0765789715035891,0.1442137307377454,1.9987677337233472,0.0718626203311236,-0.0400927988560882,-0.9379749794173984,0.668128153403146,-0.0648049971805855,-0.2503458803318984,-0.6160539602268367,9.82307093446434,-0.8352533327831737,0.1475288667617461,-1.0991570393855727
1.38,0.0776988180347922,0.1432880638831658,1.994388817076678,0.0410622616055243,0.0876380521521357,0.0344941048108102,0.0742191302015499,-0.0408455948762073,-0.647599784671726,0.0780800826502433,0.1434465000189204,1.98040823414096,0.0654767463279517,-0.043555324685761,-0.9779749800134449,0.7041451537296634,-0.0268215135914601,-0.2629889293211268,-0.6526391246195418,9.82307093446434,-0.8314505404599735,0.1451047673261489,-1.103841768601206
1.4,0.0791819126265498,0.142409134289087,1.981278059108093,0.0411941178998649,0.0901965336230023,0.0343380776961009,0.0741343498900011,-0.0467114789524759,-0.6628618213007936,0.0814097745448697,0.1412457841393554,1.962008827843092,0.0473237133010344,-0.0624591238282098,-0.7475997861618421,0.8175352374125103,-0.0042390155774431,-0.2932942038134337,-0.7631018314533833,9.752242658684736,-0.8281038672538006,0.1435893053514804,-1.1079903307243524
1.42,0.0807258981080358,0.1414446335378398,1.9681853927081476,0.0418137540751735,0.091223660419769,0.0341492934165792,0.0803732049228637,-0.0498096938977634,-0.6439449356614789,0.0814097745448697,0.1412457841393554,1.962008827843092,0.0473237133010344,-0.0624591238282098,-0.7475997861618421,1.007932054082999,0.3119427516431336,-0.1549107472643734,0.9458442819657352,9.671660857151435,-0.8314597772603304,0.1389165894608046,-1.109745321721638
1.44,0.0823124664448009,0.1404608295227348,1.9560952614610252,0.0437074509247797,0.0898094796414823,0.0339541208137159,0.0861348522358762,-0.0537916091222598,-0.6298414684613565,0.0814097745448697,0.1412457841393554,1.962008827843092,0.0473237133010344,-0.0624591238282098,-0.7475997861618421,0.7873373096703062,0.2880823656506249,-0.1990957612248201,0.7051733600061227,11.900480306177997,-0.8320482981463443,0.1383394273273397,-1.1075330223956812
1.46,0.0840883233304373,0.1393245560830504,1.9435849785725288,0.0462080536551291,0.0858570615483617,0.0336615059216419,0.0909526851175298,-0.0597372760324888,-0.6222394551923974,0.0818830116778801,0.1406211929010733,1.9545328299814733,0.0419446299209313,-0.0667818296186103,-0.7675997864598653,0.5393354114657318,0.2408916440826788,-0.2972833455114513,0.380100663447952,11.375360615369573,-0.8353079631246243,0.1368223882398349,-1.1038754368843269
1.48,0.0859347172655817,0.1380562615865793,1.931152357777132,0.0484841085048771,0.0796670413578458,0.0332287567432115,0.0929919850297235,-0.0667466944220991,-0.6213547713192499,0.0828294859439008,0.1393720104245091,1.9395808342582368,0.031186463160725,-0.0754272411994113,-0.8075997870559117,0.3676729383837187,0.1019649956096824,-0.3504709194805139,0.0442341936573775,10.548356871221586,-0.8402275787023621,0.1345995672345864,-1.100255526705731
1.5,0.0877841674497749,0.1366415984404296,1.918683536090903,0.0502957308814504,0.0722607168077391,0.0326825566083954,0.0915363119925414,-0.0742694270625715,-0.6255416218970948,0.0837759602099215,0.1381228279479449,1.924628838535,0.0204282964005188,-0.0840726527802123,-0.8475997876519582,0.4365781949788835,-0.0727836518591006,-0.3761366320236193,-0.2093425288922479,10.548356871221586,-0.8468226992418737,0.1324583215187549,-1.0957321432390477
1.52,0.0894834335463734,0.1351543644630492,1.906720753090627,0.0515041927613501,0.0649230189598551,0.0320954487924126,0.0872121315274198,-0.0818405672798432,-0.6334670166713743,0.0841845261379318,0.1364413748923407,1.9076768427819604,0.0096701296403126,-0.0927180643610133,-0.8875997882480047,0.5891361965044752,-0.2162090232560823,-0.3785570108635824,-0.3962697387139724,10.262995719947869,-0.8546084825427374,0.130204924642575,-1.0907974460843106
1.54,0.091156738157659,0.1334293753050682,1.8939443947925276,0.0520965705604633,0.0575098961807213,0.0314341375989837,0.0801561669834866,-0.0902224867762937,-0.6438227562943787,0.0845930920659422,0.1347599218367365,1.8907248470289213,-0.0010880371198936,-0.1013634759418143,-0.9275997888440513,0.7537979723203078,-0.352798227196658,-0.4190959748225274,-0.51778698115022,10.034411526086842,-0.8627049318208413,0.1281756323116,-1.085967060482142
1.56,0.0926636047224948,0.1315289520292811,1.880942501490868,0.0516940276346063,0.0509219599672774,0.0307429807136042,0.07080977803466,-0.0992508937976868,-0.6558219129951813,0.0847327038249474,0.1328623334916122,1.872772851260981,-0.0118462038800998,-0.1100088875226154,-0.9675997894400976,0.8843739046030032,-0.4673194474413306,-0.4514203510696528,-0.5999578350401324,9.926425385145194,-0.8702406350161219,0.1268978992660883,-1.0816700728956925
1.58,0.0939614335348107,0.1294452507649816,1.8676847728970216,0.050004461833059,0.0455999154028035,0.0300343396396684,0.0593406013962301,-0.1084798817713203,-0.6693320047665485,0.0846033614149475,0.1307486098569679,1.8538208554781397,-0.022604370640306,-0.1186542991034164,-1.007599790036144,0.9990480612209586,-0.5734588319214948,-0.4614493986816778,-0.6755045885683597,9.847597000884887,-0.8761226009797931,0.1269788168651874,-1.0783197036346726
1.6,0.0949615201037328,0.1272998244788027,1.8548256407577044,0.0471402298333165,0.0422781480268172,0.029373661501825,0.046445721096806,-0.1164471158712379,-0.6835548527535633,0.0969284636046222,0.1240212566764156,1.8342181726586944,0.0255179047402414,-0.1294815783579292,-0.7693320062566646,1.0392836018155704,-0.6447440149712085,-0.3983617049958802,-0.7111423993507393,9.77154461282953,-0.8808199038841067,0.1284524972304128,-1.075666064212741
1.62,0.0957411234194667,0.1248936003464896,1.841324364134476,0.0438056963011623,0.0414191461248703,0.0287931487664308,0.0324855868998164,-0.1237768200048458,-0.664069644670643,0.0969284636046222,0.1240212566764156,1.8342181726586944,0.0255179047402414,-0.1294815783579292,-0.7693320062566646,1.2532789429321896,-0.6980067098494799,-0.3664852066803961,0.9742604041460156,9.697805047778274,-0.8877899539762363,0.1268821969638572,-1.074576976343529
1.64,0.0962530954830895,0.1223497967185954,1.828217437980431,0.0406653841349222,0.0431666168346651,0.0283453976360364,0.0196676829357808,-0.1301263009140051,-0.648141160362773,0.0969284636046222,0.1240212566764156,1.8342181726586944,0.0255179047402414,-0.1294815783579292,-0.7693320062566646,1.07043353622852,-0.6408951982017796,-0.3174740454579647,0.7964242153934986,11.420638527538358,-0.8883405396240618,0.1315327967314243,-1.0708947026142368
1.66,0.0965228543189379,0.1196897618561395,1.815339346390108,0.0376618087882631,0.0466869046766213,0.0279776695939474,0.0082299161221908,-0.1354605318273948,-0.640402865890423,0.0971836426520246,0.1227264408928363,1.826524852596128,0.0187533654090437,-0.133681917675251,-0.7893320065546878,0.7401988423056078,-0.5718883406794963,-0.2667115456694832,0.3869147236175041,10.932655871195491,-0.8865447933689147,0.1354061805245872,-1.0700001013127014
1.68,0.0965821305387677,0.1170738252069531,1.8031881342999052,0.0349386753063018,0.0510290731125438,0.0276701714502453,-0.0012149911233297,-0.1395752628905827,-0.6390310762787937,0.0976940007468294,0.1201368093256777,1.8111382124709945,0.0052242867466482,-0.1420825963098945,-0.8293320071507343,0.5196611668612201,-0.4722453622760335,-0.2057365531593941,0.0685894805814602,10.932655871195491,-0.8833901237742064,0.1388543411615476,-1.0708116058866115
1.7,0.0964666851250968,0.1142455394218981,1.7903757268125875,0.032267031139551,0.0561084824134819,0.0273713822663631,-0.0096557004143255,-0.1429873048325981,-0.6424964428026,0.0982043588416343,0.1175471777585192,1.795751572345861,-0.0083047919157472,-0.1504832749445381,-0.8693320077467808,0.4870738360184501,-0.4220354645497867,-0.1706020971007721,-0.1732683261903123,10.261552446006135,-0.8794067892294489,0.1417449811263581,-1.072861673795631
1.72,0.0961970621558738,0.1113577594209159,1.7774442097688223,0.0298497267033098,0.0612898811009668,0.0270874737727795,-0.0167366860805087,-0.1456160357781593,-0.6504622147837291,0.0980382630033193,0.1145375122596284,1.7783649321909254,-0.0218338705781426,-0.1588839535791816,-0.9093320083428272,0.5488718148260693,-0.3540492833091611,-0.131436547278059,-0.3982885990564566,10.261552446006135,-0.8749348102516764,0.1440038796330242,-1.075917984335545
1.74,0.0958003037354554,0.1084238492593076,1.7643329619330632,0.027708400159603,0.0662647256479816,0.0268120258358036,-0.0224696235450165,-0.1476401482978697,-0.6603471998180461,0.0978721671650044,0.1115278467607376,1.7609782920359898,-0.0353629492405381,-0.1672846322138252,-0.9493320089388736,0.5802510934782388,-0.2866468732253904,-0.101205625985519,-0.4942492517158503,10.02607363257448,-0.8707269767952583,0.1455266289033949,-1.079333105423612
1.76,0.0953274921981545,0.1056025498503638,1.7516774737535772,0.0259044256612164,0.0706178862501362,0.0265536234321289,-0.0269424479344673,-0.1492342479904284,-0.6713154297129805,0.0973678443601296,0.1083081642959808,1.742591651866153,-0.0488920279029336,-0.1756853108484687,-0.98933200953492,0.5975980649165753,-0.2236412194725394,-0.0797049846279332,-0.54841149474672,9.840389493191651,-0.8662202758867029,0.1467124165319016,-1.0833369086903764
1.78,0.0947467396386057,0.1026038748372567,1.7381141032414895,0.0241990949439483,0.0747358289911163,0.0262823434307382,-0.0308269247186931,-0.1505362518548267,-0.6845271359728112,0.0965252945886948,0.1048784648653578,1.7232050116814153,-0.0624211065653291,-0.1840859894831123,-1.0293320101309664,0.6916168669251549,-0.1942238392112886,-0.0651001932199163,-0.6605853129915351,9.840389493191651,-0.8618997585496776,0.1476488731973862,-1.0873286276828684
1.8,0.0940958758351814,0.0995833232720723,1.724268321787533,0.0226919232250365,0.0783372021469947,0.026013248207435,-0.0340207573311273,-0.1514474282797191,-0.6993932812391668,0.0932053934026711,0.0950770622445153,1.703887746442849,-0.0547232519609483,-0.1632023701860802,-0.7509576525138154,0.7616316109411325,-0.1596916306217131,-0.045558821244622,-0.7433072633177773,9.7485773907747,-0.8580499989610745,0.1482730318695685,-1.0910879363589605
1.82,0.0934556756054809,0.0966700847497355,1.711206134888571,0.0207706977269591,0.0812388208422431,0.0257133060758542,-0.0331952111965506,-0.1546843752450168,-0.6748145030908761,0.0932053934026711,0.0950770622445153,1.703887746442849,-0.0547232519609483,-0.1632023701860802,-0.7509576525138154,1.240237565286744,0.0412773067288353,-0.161847348264886,1.228938907414534,9.668362828426323,-0.8586300851888058,0.1454128013540363,-1.0959312876413152
1.84,0.092804113521581,0.0935600374046921,1.6979401693939893,0.0182958968882829,0.0836760010034503,0.025355282168579,-0.0320239653831222,-0.1560286649578582,-0.6535363302766065,0.0932053934026711,0.0950770622445153,1.703887746442849,-0.0547232519609483,-0.1632023701860802,-0.7509576525138154,1.0676370753929512,0.0585622906714197,-0.067214485642067,1.063908640713479,12.246103875192604,-0.8565190536362348,0.1499483301254771,-1.0941722807379644
1.86,0.0921757531745853,0.0904373803193406,1.6850232531862996,0.0158920588300637,0.085413524528409,0.0249937102804466,-0.0309063021072707,-0.1561300728991664,-0.639508849627103,0.0926581608830616,0.0934450385426545,1.696378169917711,-0.0595025174093993,-0.1657355938523309,-0.7642437558220162,0.7036150725733209,0.0558831637925751,-0.0050703970654111,0.7013740324751772,11.288736565858926,-0.8548620206377445,0.1540130594268551,-1.0926609459919785
1.88,0.0915673506885476,0.0873225691473785,1.6723171019654066,0.0137654873272454,0.0864206388211493,0.0246466975178354,-0.0300465460091306,-0.1553794253197019,-0.6317764928910755,0.0915636958438426,0.0901809911389329,1.6813590168674346,-0.0690610483063014,-0.1708020411848323,-0.7908159624384179,0.3908068353740573,0.0429878049070046,0.0375323789732262,0.3866178368013728,11.288736565858926,-0.8536936366928163,0.1571472729870727,-1.0916394707469737
1.9,0.0910016221728282,0.0843833496428888,1.6603441058772574,0.0120723712338579,0.0867586553013775,0.0243394215875346,-0.0296043180295762,-0.1541089596891532,-0.6289146059893004,0.0904692308046236,0.0869169437352113,1.6663398638171585,-0.0786195792032035,-0.1758684885173337,-0.8173881690548196,0.158114239893647,0.0221113989777223,0.0635232815274333,0.1430943450887567,10.933941377442352,-0.8530011599087074,0.1596446381552366,-1.09084850169599
1.92,0.0904100737176489,0.0813204188889649,1.6477623605491984,0.0106822743740495,0.0865678900648531,0.0240463148804038,-0.0296413350136921,-0.1522600002676863,-0.6295711203597202,0.0888968392205596,0.0833995739648647,1.6499921004360618,-0.0881781101001056,-0.1809349358498352,-0.8439603756712213,0.0981202364182851,-0.0018508492057979,0.0924479710733464,-0.0328257185209901,10.65954420991693,-0.8528444483747398,0.1614289940999946,-1.0901307607055262
1.94,0.0898132802652775,0.0783003489554881,1.635148085630712,0.0098448879351719,0.0859308812439949,0.0237968365134878,-0.0300966661923844,-0.1498670948897798,-0.6318685843691351,0.0873244476364955,0.079882204194518,1.6336443370549654,-0.0977366409970077,-0.1860013831823366,-0.870532582287623,0.1674191110989099,-0.0227665589346136,0.1196452688953228,-0.1148732004707442,10.361088461610962,-0.8534071229604632,0.162264098691986,-1.0894164949182303
1.96,0.0892017551251132,0.0753316373854765,1.6224748731470662,0.0097169728666235,0.0849862867979113,0.0236024899703716,-0.031087267160921,-0.1471944548681595,-0.6353309775932234,0.0855130927800089,0.0762381732408588,1.616632268508459,-0.1072951718939097,-0.191067830514838,-0.8971047889040246,0.2242345970309091,-0.0495300484268306,0.1336320010810188,-0.1731196612044183,10.361088461610962,-0.8541856486219768,0.1622900401807403,-1.0887981543117198
1.98,0.0885972079717738,0.0725617001087718,1.6103603602264356,0.0103268231300069,0.0839494952929721,0.0234736241887834,-0.0325345282438588,-0.1445887131527741,-0.6397045848546249,0.0834627746510997,0.072467481103887,1.5989558947965423,-0.1168537027908118,-0.1961342778473394,-0.9236769955204264,0.264636047272803,-0.0723630541468877,0.1302870857692692,-0.2186803630700728,10.300253987175893,-0.855190448031914,0.16148238388311,-1.0881885933226447
2.0,0.0879259936275932,0.0696973941789192,1.597506445843088,0.0117739182911698,0.0828300323162137,0.0233976959693013,-0.0345476030838087,-0.1420580313880011,-0.6455100878525618,0.0869704815595808,0.0653322644511331,1.5783751309837044,-0.0562588867727112,-0.15853201280392,-0.6507109075439793,0.3322675336413732,-0.1006537419974966,0.1265340882386487,-0.2902751498968459,10.235467670810069,-0.8562459643485993,0.1597719619853729,-1.08774120362597
2.02,0.0872345497096424,0.0668658974237109,1.584844023970358,0.0137363152232953,0.0818096271381228,0.0233602249625331,-0.0343928379020268,-0.1412638193132116,-0.6187880778701841,0.0869704815595808,0.0653322644511331,1.5783751309837044,-0.0562588867727112,-0.15853201280392,-0.6507109075439793,1.3367128923029137,0.0077382590890951,0.0397106037394748,1.3361004991188865,10.164029777652104,-0.8631840894618288,0.1549114739271349,-1.085167108007684
2.04,0.0865476835667683,0.0640427552582935,1.5727405804930594,0.0158650757133962,0.080888118765338,0.023335904629156,-0.034349552952129,-0.1412104861117225,-0.5930643883308391,0.0869704815595808,0.0653322644511331,1.5783751309837044,-0.0562588867727112,-0.15853201280392,-0.6507109075439793,1.2861890622434522,0.0021642474948901,0.0026666600744545,1.2861844769672504,12.056793983631906,-0.865248123392879,0.1547050297920842,-1.0807418160099411
2.06,0.0858920704243484,0.0613537207861822,1.561673181698623,0.0178081253366997,0.0799800375648094,0.0233068850696674,-0.0347093484238882,-0.1418631414771612,-0.5731911814579485,0.0864078926918537,0.0637469443230939,1.5718680219082646,-0.0610037584784817,-0.1613206727341492,-0.6529121720818502,0.9943587924137866,-0.0179897735879588,-0.0326327682719368,0.9936603436445312,11.739393540143285,-0.8670302741237266,0.1542355771244047,-1.0770785692048124
2.08,0.0851898823350374,0.0585047599760724,1.5503939931115494,0.019658941824046,0.0789156396955599,0.0232611917729635,-0.0355515901400591,-0.1430078598788686,-0.5559260355122585,0.0852827149563995,0.0605763040670155,1.5588538037573851,-0.0704935018900227,-0.1668979925946076,-0.6573147011575919,0.8661769678501618,-0.0421120858085453,-0.0572359200853675,0.8632572972844976,11.739393540143285,-0.8689313499150775,0.1536219885747853,-1.073774509847076
2.1,0.0844651464321145,0.0556285365077124,1.5394249093113672,0.0212628713216599,0.0777252836057873,0.0231964987405146,-0.0369424205716924,-0.1445555863825504,-0.5419681529630701,0.0841575372209453,0.0574056638109371,1.5458395856065057,-0.0799832453015637,-0.1724753124550659,-0.6617172302333337,0.7056067457810588,-0.069541521581664,-0.0773863251840908,0.6978941274594197,11.49625000441847,-0.870875514450566,0.1529710387934301,-1.0708151492158482
2.12,0.0837064806030768,0.0527167279632202,1.52870325701602,0.022544675876767,0.0764366335371859,0.0231085365374638,-0.0389100955101878,-0.1465365741182047,-0.5308716559922377,0.082557872314914,0.0539561575618358,1.5326052410018387,-0.0894729887131047,-0.1780526323155243,-0.6661197593090755,0.572119528805143,-0.098383746924769,-0.0990493867827152,0.5548248485416185,11.291480046270408,-0.8727285656768968,0.1523797055700061,-1.0683471674951364
2.14,0.0829449514532237,0.049909591883119,1.5187145096980803,0.0233568349416206,0.0751642550815458,0.022997741211455,-0.0411977978826533,-0.1488270197387021,-0.5211168817694014,0.0809582074088827,0.0505066513127344,1.5193708963971722,-0.0989627321246457,-0.1836299521759827,-0.6705222883848173,0.5138952797602652,-0.1143851186232794,-0.1145222810248702,0.4877387111418163,11.126758929293828,-0.8753424836291896,0.1519906496084586,-1.0652922163394116
2.16,0.0820909557590898,0.0469036069782927,1.5083947304544876,0.0236382217802317,0.0738497388915537,0.0228455238880484,-0.044125193820866,-0.1516183398696437,-0.511391650920998,0.0791212989175629,0.0469177120671217,1.5060264885656118,-0.1084524755361867,-0.1892072720364411,-0.674924817460559,0.5266432143947187,-0.1463697969106343,-0.1395660065470802,0.4862615424201688,11.08007123805237,-0.8779974170023911,0.1521174482312212,-1.062201358301402
2.18,0.08117288894541,0.0438394748241715,1.4982619214651522,0.0231790567962973,0.0726616739106255,0.0226507994670301,-0.047566057834172,-0.154594197028929,-0.5023996303520926,0.0770471468409546,0.0431893398249974,1.4925720175071582,-0.1179422189477276,-0.1947845918968994,-0.6793273465363008,0.5038643292150983,-0.1720432006652974,-0.1487928579642639,0.4496010284452734,11.044330102685308,-0.8805243268276723,0.1529439871964412,-1.0591571422823622
2.2,0.0801809593035045,0.0407164840988948,1.4882996231004977,0.0218795510486545,0.0716863869742399,0.0224111343065916,-0.0514596217510341,-0.1574498563472794,-0.4942650254758413,0.0787945860537014,0.0361097649727251,1.4731419399475476,-0.0621489665464995,-0.1494691982843518,-0.4606076585791834,0.4729863280526791,-0.1946781958431079,-0.1427829659175192,0.4067302438125614,10.99691457573681,-0.8827219611862965,0.1544651643865308,-1.0563664176238778
2.22,0.0791585736049976,0.0376368594838527,1.479148917171699,0.0179441986626313,0.0715584259354451,0.022023633389408,-0.0558215047065521,-0.164932627019882,-0.4693053377248181,0.0787945860537014,0.0361097649727251,1.4731419399475476,-0.0621489665464995,-0.1494691982843518,-0.4606076585791834,1.320988164675386,-0.2180941477759001,-0.374138533630132,1.2479843875511598,10.945002696680604,-0.8907759986228106,0.1582225555967157,-1.0477638739254709
2.24,0.0780002526858308,0.0343164498171544,1.4700364295796824,0.0117603597010422,0.072508344620662,0.0215069981650972,-0.0596760839244558,-0.1663193493020798,-0.4433702621010522,0.0787945860537014,0.0361097649727251,1.4731419399475476,-0.0621489665464995,-0.1494691982843518,-0.4606076585791834,1.312829889252121,-0.1927289608951821,-0.0693361141098872,1.296753781188295,12.162485127360014,-0.8929594744235523,0.1659667419893722,-1.041969641899131
2.26,0.0767725280800548,0.0310089950890206,1.4614209719700906,0.0054892993156191,0.0740481943101153,0.0210024304863592,-0.0628142022039415,-0.1642522924399364,-0.41945527278988,0.0781730963882364,0.0346150729898816,1.4685358633617558,-0.065065548288965,-0.1484441985354364,-0.4522492642246015,1.2104206130110924,-0.1569059139742864,0.1033528431071684,1.1957494655586125,12.032998739373395,-0.8937319202456095,0.1733387733954366,-1.03769384341126
2.28,0.075554828043094,0.0279281959378135,1.453663417984529,0.0001129500948603,0.0757181789254763,0.020573421092105,-0.0651553838500527,-0.1602015872060925,-0.3983154597261373,0.0769301170573064,0.0316256890241945,1.4593237101901722,-0.0708987117738959,-0.1463941990376055,-0.4355324755154379,1.0825675969212778,-0.1170590823055581,0.2025352616921952,1.0569906531871345,11.780259494674285,-0.8944638668859201,0.1805195224368452,-1.033244062833422
2.3000000000000003,0.0742313418930648,0.0247836708324703,1.44591982412953,-0.0047082007774845,0.0774389738337089,0.0201896938112866,-0.0670277669391949,-0.1545106280339435,-0.3772027971532042,0.0756871377263764,0.0286363050585075,1.4501115570185883,-0.0767318752588269,-0.1443441995397747,-0.4188156868062742,1.0973118923648149,-0.0936191544571113,0.284547958607452,1.0556331286466518,11.780259494674285,-0.8951591578820342,0.1868380089873828,-1.0289566585255585
2.32,0.0728754459083382,0.0217656996479272,1.4385864425910515,-0.0085939793883257,0.0789455822896039,0.0198833124349634,-0.068448982813905,-0.1476691587581552,-0.3572305294185886,0.0741525002211999,0.025749421067712,1.441735243282463,-0.0825650387437579,-0.1422942000419438,-0.4020988980971106,1.0579662504981568,-0.0710607937355049,0.3420734637894135,0.9986133867307816,11.700606091511872,-0.8963183383324927,0.192339778018226,-1.0240200518737268
2.34,0.0714953099663284,0.0188945423489535,1.4316485117980566,-0.0115095619070034,0.0801205058257519,0.0196602233394924,-0.0695037842126202,-0.1399963002206079,-0.3375457564696592,0.0726178627160234,0.0228625370769165,1.4333589295463376,-0.0883982022286889,-0.1402442005441129,-0.3853821093879468,1.0576810130881225,-0.052740069935761,0.3836429268773658,0.9842386474464698,11.624021090339738,-0.8981441594002917,0.1971756253812319,-1.0184524285663965
2.36,0.0701659391918826,0.0163143380240623,1.4254208279543732,-0.013442562093067,0.0809088335637088,0.0195233053171543,-0.070391726625633,-0.13219051859295,-0.3189723163036361,0.0709373961237236,0.0200269030735668,1.425400535527941,-0.0942313657136199,-0.1381942010462821,-0.3686653206787832,1.0083294949424384,-0.044397120650641,0.3902890813828913,0.9286720083011568,11.593942070323465,-0.9003637449232563,0.201258655337216,-1.012523759460995
2.38,0.0687485726185033,0.0137624110604054,1.4192463820563903,-0.0146317037155293,0.0814300795408179,0.0194562388870628,-0.0713143144001569,-0.1234774009942799,-0.2994410413919283,0.0691111004443005,0.0172425190576628,1.4178600612272738,-0.1000645291985509,-0.1361442015484512,-0.3519485319696195,1.0703273870254153,-0.0461293887261904,0.4356558799335081,0.9765637455853876,11.593942070323465,-0.9030475322611824,0.2046131174770666,-1.006175872878165
2.4,0.0673118539782947,0.0113922063929309,1.4134603770897802,-0.0147237559598067,0.0816852722083687,0.0194831777820031,-0.0723318170887853,-0.1140778509139254,-0.2801358243845455,0.0651828568984954,0.0075885410106914,1.404274329986794,-0.0791896172066535,-0.1177145040280907,-0.2390149663804365,1.0748002804435344,-0.0508751344314231,0.4699775040177232,0.96526085036914,11.586892753130089,-0.905965641650421,0.2070891782334857,-0.999620265306066
2.42,0.065844464095406,0.0092188124145517,1.408042692027511,-0.0132658619157088,0.0819749020261551,0.0196294616842937,-0.0743472225194672,-0.1039148085504519,-0.2626686515577261,0.0651828568984954,0.0075885410106914,1.404274329986794,-0.0791896172066535,-0.1177145040280907,-0.2390149663804365,1.0154449956715503,-0.1007702715340924,0.5081521181736756,0.8733586413409711,11.435399942448385,-0.9087715382398778,0.2087860924888901,-0.9926767214295192
2.44,0.0644153012474894,0.0073360435344076,1.4032246810231277,-0.0102830933565567,0.0824599441245377,0.0198856539286471,-0.0759556696343781,-0.0952472685076952,-0.2453305057828494,0.0651828568984954,0.0075885410106914,1.404274329986794,-0.0791896172066535,-0.1177145040280907,-0.2390149663804365,0.9725284718520218,-0.080422355745547,0.4333770021378351,0.8669072887438358,11.435399942448385,-0.9125414024179812,0.2083672707745083,-0.9858227226690672
2.46,0.06288201185581,0.0055028352887576,1.398519664935074,-0.0064322651341515,0.0830295020656461,0.0202118476881699,-0.0772687180005507,-0.0887203411251692,-0.2260240664021479,0.0643909607264289,0.0064113959704105,1.4018841803229896,-0.0807646777679528,-0.1165619246348529,-0.2269297513781382,1.021106603922157,-0.0656524183086287,0.3263463691263013,0.9653219690350724,11.485653124843338,-0.916528336612525,0.2073759298859307,-0.9788135279665292
2.48,0.0613255950558373,0.0037813078477817,1.3942093857836502,-0.0026337219729713,0.0835507335578987,0.0205417200268307,-0.07831137873183,-0.083811903803388,-0.2059536379424112,0.0628071683822958,0.0040571058898487,1.3971038809953809,-0.0839147988905514,-0.1142567658483773,-0.2027593213735415,1.0344104563709422,-0.0521330365639657,0.24542186608906,1.003521422986836,11.541583670193177,-0.9207651994521924,0.2067191595633133,-0.9712466596168928
2.5,0.0597501214607797,0.0021456996785727,1.3903059769670676,0.0008159556476061,0.0839581845089093,0.0208540806819407,-0.0791988345619872,-0.0799823867166756,-0.1853711901507473,0.0612233760381627,0.0017028158092869,1.392323581667772,-0.0870649200131501,-0.1119516070619016,-0.1785888913689448,1.047723646846429,-0.044372791507858,0.1914758543356196,1.0291223895831951,11.59401640986016,-0.92506653958757,0.2065564518351467,-0.963587245054286
2.52,0.0582376447650069,0.0006549623365659,1.3869826029352943,0.0036777123875431,0.0842095742580127,0.0211274734810552,-0.0799851678354836,-0.0770851026069557,-0.165468684751245,0.0594820776378997,-0.0005362163319511,1.3887518038403932,-0.0902150411357487,-0.1096464482754259,-0.1544184613643481,1.0063825023402666,-0.0393166636748244,0.144864205485995,0.9951252699751169,11.59401640986016,-0.9297973554627932,0.2068702164103256,-0.9552089087573806
2.54,0.0566292335722083,-0.0008604396885872,1.3838963215721616,0.0062454213933401,0.0843246623135118,0.021389579199797,-0.0808351169896067,-0.0745833664050121,-0.1441770625048386,0.0577407792376367,-0.0027752484731891,1.3851800260130145,-0.0933651622583474,-0.1073412894889503,-0.1302480313597513,1.0727467961643786,-0.0424974577061525,0.1250868100971809,1.0645811123203175,11.605653014392374,-0.9347744988362692,0.2076656895321537,-0.946485858357218
2.56,0.0550020862580976,-0.0023302933954337,1.3812367711495244,0.0083897461354056,0.0843190384298039,0.0216275417017647,-0.0818591455812399,-0.0724986693254817,-0.1228276009117527,0.0559207278093088,-0.0049566516447652,1.3822125089357504,-0.096515283380946,-0.1050361307024746,-0.1060776013551546,1.073771515249562,-0.0512014295816612,0.1042348539765203,1.0674730796542964,11.616340917202251,-0.9398253937911292,0.2089120145407358,-0.937577992425735
2.58,0.0533523268463827,-0.0037622936251085,1.3790042487272074,0.0101480428003913,0.0842552448500166,0.0218445310666923,-0.0830821237340413,-0.0707479666610013,-0.101467167172378,0.0540219233529158,-0.0070804258466795,1.3798492526086017,-0.0996654045035447,-0.102730971915999,-0.0819071713505579,1.073346128837131,-0.0611489076400691,0.0875351332240176,1.0680216869687311,11.606362743275897,-0.9447193752551444,0.210424089662499,-0.9289891113580334
2.6,0.0517605106085511,-0.0050934929872514,1.3772790921141789,0.0114796137224733,0.0841903736273964,0.0220334009913713,-0.0844246213891592,-0.0694422258782837,-0.0811750730699654,0.0491982206596807,-0.0072996919581586,1.3739308903685885,-0.0859608839545243,-0.0663540598627876,-0.0238310295676646,1.0189165103270486,-0.0671248827558944,0.065287039135882,1.0146047051206335,11.595744208430917,-0.949893112428133,0.2123066600398343,-0.9199278107364132
2.62,0.0500460101659483,-0.0064840077788589,1.3758011942639392,0.0120196467180069,0.0842780879360216,0.0221818501913248,-0.0869763056013932,-0.0695543508042307,-0.0680874488900563,0.0491982206596807,-0.0072996919581586,1.3739308903685885,-0.0859608839545243,-0.0663540598627876,-0.0238310295676646,0.666726276279333,-0.1275842106116996,-0.005606246297353,0.6543812089954512,11.012973509577025,-0.9513371381560104,0.2151739488900774,-0.9141479085981348
2.64,0.0482813331392194,-0.0078736051217524,1.3745875605336153,0.0113697103677838,0.084615439938845,0.0222604975191398,-0.0893277798318464,-0.069316664302409,-0.0537634724887073,0.0491982206596807,-0.0072996919581586,1.3739308903685885,-0.0859608839545243,-0.0663540598627876,-0.0238310295676646,0.7258826108194742,-0.1175737115226609,0.0118843250910868,0.716198820067453,11.012973509577025,-0.9550645236875752,0.2171770724755242,-0.9083656096988204
