t,x,y,z,roll,pitch,yaw,v_x,v_y,v_z,ref_x,ref_y,ref_z,ref_v_x,ref_v_y,ref_v_z,a_com,a_x,a_y,a_z,thrust,wind_x,wind_y,wind_z
0.0,0.0501119906577091,1.7924778194313382,1.8861338227643096,0.0324769969521787,0.0997421834061185,0.0422674756445015,0.0013271697116734,-0.005212512319006,-0.0006062350660985,0.0501441727627623,1.7924295951645486,1.886118726573789,-0.0988596652248902,-0.1025646107228136,-0.1005305444196033,0.2706436082505039,0.0663584855836734,-0.2606256159503028,-0.0303117533049287,10.258855249695443,-0.9395779975118892,0.2496205877938379,-0.8827650494464788
0.02,0.0502999614358293,1.7926265978549212,1.8860305960517976,0.0392345782702879,0.0938053319118072,0.0425080814549012,0.0171478235224669,0.0155947941372178,-0.0103607254245907,0.0501441727627623,1.7924295951645486,1.886118726573789,-0.0988596652248902,-0.1025646107228136,-0.1005305444196033,1.3949795438626589,0.7910326905396726,1.0403653228111958,-0.4877245179246111,10.260037203833235,-0.9525213631304646,0.2487508889848863,-0.8655830829997845
0.04,0.0507568333506326,1.7929654663751058,1.885642657721067,0.053030656425171,0.07728051992288,0.0426433046432479,0.0263080805139439,0.0164086938848849,-0.0281943649801644,0.0501441727627623,1.7924295951645486,1.886118726573789,-0.0988596652248902,-0.1025646107228136,-0.1005305444196033,1.0032589904248008,0.4580128495738487,0.0406949873833546,-0.8916819777786822,9.644857282159592,-0.9559246937395324,0.237987652483109,-0.8627161633050159
0.06,0.0512817084466199,1.7932356315191775,1.8848696207287157,0.0673403140908685,0.0546778401926373,0.0421568730849684,0.024655188813331,0.010178009176717,-0.0482655078989454,0.0491555761105134,1.7914039490573204,1.8851134211295932,-0.1188596655229135,-0.1225646110208368,-0.1205305447176265,1.054044900576685,-0.0826445850306412,-0.3115342354083931,-1.0035571459390515,9.088720371437375,-0.9664927938995448,0.2233799473084128,-0.8565426993233449
0.08,0.0516565508486616,1.7933396599770102,1.8837555048452832,0.0804481313276336,0.0311699928819538,0.0411548856663321,0.0142469138479743,0.0007839143029352,-0.0680427505233308,0.0471783828060156,1.7893526568428642,1.8831028102412013,-0.1588596661189599,-0.1625646116168833,-0.160530545313673,1.2121474044808802,-0.520413748267838,-0.4697047436890944,-0.9888621312192696,9.088720371437375,-0.9805528501101152,0.207502925769814,-0.8490674028341166
0.1,0.0517474409588499,1.7932248176682632,1.882168830593668,0.0936222004479905,0.0070500255085819,0.0397202112686962,-0.0051627654650655,-0.0120989671160908,-0.0896795842447042,0.0452011895015178,1.787301364628408,1.8810921993528091,-0.1988596667150064,-0.2025646122129297,-0.2005305459097194,1.5896987593394016,-0.9704839656519936,-0.644144070951301,-1.081841686068668,9.072278854102931,-0.9963868934593316,0.189438848562054,-0.8419482515595486
0.12,0.0513727576227388,1.7928222839670815,1.880141849871924,0.106176114459973,-0.0142889698258262,0.0381459871040472,-0.0316189819329843,-0.027809598095855,-0.1120146205670918,0.0412239961672177,1.7832500723841491,1.877081588434615,-0.2388596673110528,-0.2425646128089762,-0.2405305465057658,1.9010583651627315,-1.322810823395937,-0.785531548988213,-1.1167518161193823,9.07489243505688,-1.012197915730777,0.1709298257585791,-0.8357103303335471
0.14,0.0504101716731933,1.7920775126729684,1.877660751998501,0.1181325403277997,-0.0314547717489805,0.0366804595296612,-0.0632009619222788,-0.0461566737267502,-0.1350402178965993,0.0372468028329176,1.7791987801398907,1.8730709775164205,-0.2788596679070994,-0.2825646134050227,-0.2805305471018123,2.1588276776010926,-1.5790989994647298,-0.9173537815447568,-1.1512798664753725,9.104307867579791,-1.0254088945670226,0.15265725422306,-0.8329927718743481
0.16,0.0488745531284441,1.791006313497791,1.874872063584917,0.1289487967917007,-0.043307434285606,0.035572384731658,-0.0966111319408155,-0.0659088542369968,-0.1573851888037791,0.0322696094837163,1.774147487880731,1.8680603665833249,-0.3188596685031458,-0.3225646140010691,-0.3205305476978587,2.239244191920348,-1.6705085009268343,-0.9876090255123298,-1.1172485453589898,9.131285201961871,-1.036398948498987,0.1332997848953661,-0.8339789777619386
0.18,0.046550095367006,1.7894369202983311,1.87147044846246,0.1393617610882042,-0.0507621237385191,0.0348459366525182,-0.1341447784134986,-0.0900191260650865,-0.1816279687613095,0.0262924161196138,1.76809619560667,1.862049755635328,-0.3588596690991922,-0.3625646145971155,-0.3605305482939052,2.5385981393428407,-1.8766823236341543,-1.205513591404487,-1.2121389978765218,9.166308654423574,-1.0437277118737631,0.1168516911180908,-0.8363306422266169
0.2,0.0434533004040949,1.7873411573137323,1.8675789466192672,0.1478180580728682,-0.0524021402281575,0.0347262326758831,-0.1729647829303977,-0.1178064231899473,-0.2061429837556227,0.039842856446331,1.7849359639950768,1.8623890500243945,-0.2341447799036148,-0.1900191275552026,-0.2816279702514256,2.683334023360098,-1.9410002258449508,-1.3893648562430387,-1.2257507497156608,9.195568198265391,-1.0483274320200968,0.1022091878716998,-0.8418113414376978
0.22,0.0397658305474846,1.784657868991722,1.8636158314906897,0.1496057355911687,-0.0478990655300171,0.0350606539837299,-0.2123961470427797,-0.1605302244604394,-0.2092055667160423,0.039842856446331,1.7849359639950768,1.8623890500243945,-0.2341447799036148,-0.1900191275552026,-0.2816279702514256,2.910985694379655,-1.9715682056191008,-2.136190063524604,-0.1531291480209778,9.227274010519524,-1.0541868415685165,0.0907325876099836,-0.8477336907445983
0.24,0.0351314873538608,1.7810553520375565,1.8594032125305344,0.1447656030608901,-0.0376334579766116,0.03574513213656,-0.2482489721826855,-0.19606152779241,-0.2117748797406817,0.039842856446331,1.7849359639950768,1.8623890500243945,-0.2341447799036148,-0.1900191275552026,-0.2816279702514256,2.5271030629951343,-1.792641256995292,-1.776565166598533,-0.1284656512319723,10.675421938192812,-1.053597448819527,0.0935496671825814,-0.8500968781959124
0.26,0.0298413743269945,1.7768263419686845,1.8551095767515076,0.1374557793801027,-0.0243065777258939,0.0366225634831317,-0.2783690324576424,-0.2244617126812356,-0.2172822467828375,0.0375014086472949,1.7830357727195247,1.85957277032188,-0.254144780201638,-0.2100191278532258,-0.3016279705494489,2.088132912689908,-1.5060030137478446,-1.4200092444412782,-0.2753683521077868,10.130369929908738,-1.0478776666414045,0.0972407190028643,-0.8589790616937221
0.28,0.0243107691128846,1.772330224631311,1.850898129102384,0.1301680739428413,-0.0105897352593253,0.0374757074607994,-0.3019095163810536,-0.2472232992922804,-0.2257056063100413,0.0328185130492226,1.7792353901684208,1.8539402109168517,-0.2941447807976844,-0.2500191284492723,-0.3416279711454953,1.6905599620576972,-1.177024196170559,-1.1380793305522383,-0.4211679763601941,9.876806883220524,-1.0392508877700044,0.101103155633983,-0.8714662395893086
0.3,0.0180557301639741,1.767165002709684,1.846259097362111,0.12302851892818,0.0035560204636629,0.0382632371786667,-0.3219991646923654,-0.2680367233749662,-0.2379351828224707,0.0281356174511503,1.7754350076173169,1.848307651511823,-0.3341447813937309,-0.2900191290453188,-0.3816279717415418,1.5703145648175734,-1.0044824155655885,-1.04067120413429,-0.6114788256214698,9.876806883220524,-1.029416902841607,0.1047588929597751,-0.8847639172633543
0.32,0.0114412802224146,1.761607722267586,1.841339566071604,0.1167832678947921,0.0164040261828598,0.0388573397746367,-0.3382149158020987,-0.2866641452889536,-0.2535852893360221,0.0214527218232757,1.7696346250364103,1.8406750920769923,-0.3741447819897773,-0.3300191296413652,-0.4216279723375882,1.4618971108631569,-0.8107875554866667,-0.9313710956993708,-0.7825053256775655,9.651061502227094,-1.0194060028143996,0.1076143280182641,-0.8980402493481819
0.34,0.0045368890433716,1.7556964151562418,1.8360813044306,0.1115490675776602,0.0272964603085268,0.0392205799260702,-0.3513684527556183,-0.3036977827287485,-0.2715122427974011,0.014769826195401,1.7638342424555038,1.833042532642161,-0.4141447825858239,-0.3700191302374117,-0.4616279729336347,1.4004784889676445,-0.6576768476759781,-0.8516818719897457,-0.8963476730689535,9.458640444662706,-1.0101670263482114,0.1090093905689241,-0.910713315469394
0.36,-0.0022492209720752,1.7497673735652757,1.830736216918931,0.1072193161864933,0.035722207727554,0.0393477846704222,-0.3622932094190379,-0.3195392992675677,-0.2902628275304563,0.0070869305526253,1.7570338598596964,1.8244099731924293,-0.4541447831818703,-0.4100191308334581,-0.5016279735296811,1.3433990306644694,-0.5462378331709816,-0.7920758269409606,-0.9375292366527566,9.351655032769486,-1.001109735244776,0.1095915280639099,-0.923442307826382
0.38,-0.009605393559272,1.7432088464645576,1.824708491361511,0.1030723239114259,0.0427685969013889,0.0392785074783741,-0.3727188989515352,-0.3354274948845847,-0.3116160759276508,-0.0015959651050516,1.7492334772489877,1.8147774137277963,-0.4941447837779167,-0.4500191314295045,-0.5416279741257276,1.42924016465473,-0.521284476624867,-0.7944097808508466,-1.067662419859727,9.270499477495832,-0.9932704034902848,0.109842635098888,-0.9346806516054184
0.4,-0.0171623398352623,1.736340044082534,1.8182388982468265,0.099242446242168,0.0482015352263227,0.0390380325062336,-0.3824479506529384,-0.3505959186585799,-0.3343432287736256,-0.0282413385068488,1.7264374717203284,1.8091276875651283,-0.4727189004416514,-0.4354274963747008,-0.4116160774177669,1.4502232615018105,-0.4864525850701601,-0.7584211886997622,-1.136357642298738,9.192291152397956,-0.986652626260512,0.1098860228134609,-0.9444745125921156
0.42,-0.0248671646535253,1.72915879758238,1.8116168491058944,0.0960672855160272,0.0514262131770843,0.0386072076836624,-0.3878295332538096,-0.366991534025312,-0.3267715094939775,-0.0282413385068488,1.7264374717203284,1.8091276875651283,-0.4727189004416514,-0.4354274963747008,-0.4116160774177669,0.9422162270328578,-0.2690791300435563,-0.8197807683366032,0.3785859639824029,9.131616759098506,-0.9921814622932648,0.1109905241315533,-0.940594158721087
0.44,-0.032285157696542,1.7220449650065244,1.8054340641720588,0.0939476815540434,0.0519483896646072,0.0380095860191273,-0.3929036247619655,-0.3812781826765921,-0.3245443101191543,-0.0282413385068488,1.7264374717203284,1.8091276875651283,-0.4727189004416514,-0.4354274963747008,-0.4116160774177669,0.7661839716632634,-0.2537045754077982,-0.7143324325640049,0.111359968741162,10.88127832281316,-0.991843785723468,0.11251947613287,-0.9406656634614774
0.46,-0.0402059075052268,1.714265411819446,1.7989122859394586,0.0924909543459485,0.0499464593206477,0.0371940724277869,-0.3990497184270422,-0.3959570857201541,-0.3280073053318474,-0.0329685275112653,1.7220831967565813,1.8050115267909508,-0.4927189007396746,-0.455427496672724,-0.4316160777157902,0.8143049148588721,-0.3073046832538312,-0.7339451521781032,-0.1731497606346554,10.124402055454992,-0.993323889282868,0.1126660024832724,-0.9396443354147616
0.48,-0.048262907699991,1.706198427049967,1.792265963795727,0.0917084477946594,0.0455370217284067,0.0362039177837392,-0.406637001922239,-0.4100794433847969,-0.3364337043142689,-0.0424229055200983,1.7133746468290874,1.7967792052425955,-0.5327189013357211,-0.4954274972687704,-0.4716160783118366,0.9055551565966798,-0.3793641747598414,-0.706117883232138,-0.4213199491210767,9.871225579072416,-0.9961063533014972,0.1114988938419958,-0.9380891681101916
0.5,-0.0565019809591456,1.6978531399453114,1.7854133419692997,0.0916245649934987,0.0394750532681806,0.0351099198382296,-0.4172046212383609,-0.4238208373904963,-0.348409993899371,-0.0518772835289313,1.7046660969015932,1.7885468836942402,-0.5727189019317676,-0.5354274978648169,-0.5116160789078831,1.0534846931215578,-0.528380965806094,-0.6870697002849729,-0.5988144792551026,9.871225579072416,-0.9998705514801072,0.1093925463938882,-0.9359833086672612
0.52,-0.0645537243542009,1.6896721773270744,1.778655462357825,0.0922572045857857,0.03318696246589,0.0340661676524262,-0.4299861406632247,-0.436725721285293,-0.3623470408301736,-0.0633316615675667,1.693957546944297,1.7783145621160823,-0.612718902527814,-0.5754274984608634,-0.5516160795039295,1.1447101645151798,-0.6390759712431915,-0.645244194739833,-0.6968523465401305,9.687820279811604,-1.0049830055555151,0.1064139671350237,-0.9327989253112706
0.54,-0.0733156044003006,1.6807948704066644,1.7712449989096992,0.0937440656095156,0.0267527266072616,0.0330294940944695,-0.4456851667157218,-0.4504156742867435,-0.378007663870964,-0.074786039606202,1.6832489969870006,1.7680822405379248,-0.6527189031238605,-0.6154274990569099,-0.591616080099976,1.303005512464013,-0.7849513026248561,-0.6844976500725242,-0.7830311520395206,9.552904867366124,-1.010554250591531,0.10263822935935,-0.9293134571737134
0.56,-0.0824186913251783,1.671627223182447,1.7635135864405755,0.0957227231539417,0.0212267750518901,0.0320948175625761,-0.4639897603805152,-0.4656779557436827,-0.3943728547746059,-0.0872404176597386,1.6715404470148032,1.756849918944866,-0.6927189037199069,-0.6554274996529562,-0.6316160806960224,1.4455231387084986,-0.9152296832396712,-0.7631140728469599,-0.8182595451820929,9.495158959829496,-1.0148833063024043,0.0981191795979172,-0.9275474043500892
0.58,-0.0919159395448657,1.662137089040466,1.7554462882264183,0.0974584262689043,0.0176314398298934,0.0313131176772997,-0.4848643630365479,-0.4824417799174102,-0.4115309649874923,-0.1006947957281762,1.6588318970277045,1.744617597336906,-0.7327189043159533,-0.6954275002490027,-0.6716160812920688,1.589949356939124,-1.0437301328016315,-0.8381912086863758,-0.8579055106443217,9.480348407298152,-1.0172033809131389,0.0938287940651304,-0.9280078843302824
0.6,-0.101343173742624,1.6527993064957254,1.747455784390013,0.098354799714967,0.0168775028409437,0.0307705059401389,-0.5061358333380723,-0.4994786716311049,-0.4286752138693074,-0.1161591576966931,1.6380150000445954,1.7348697399770436,-0.5756730973343003,-0.5824417814075263,-0.5115309664776084,1.6098574453770833,-1.0635735150762216,-0.8518445856847329,-0.8572124440907547,9.448084126419417,-1.0184601688572568,0.0900864715880995,-0.9296979244871656
0.62,-0.1117211371000174,1.642548217289781,1.7389668431263514,0.0968870681566378,0.019909765988561,0.0304045739198362,-0.5300601948967001,-0.5244339871431921,-0.4177261938769042,-0.1161591576966931,1.6380150000445954,1.7348697399770436,-0.5756730973343003,-0.5824417814075263,-0.5115309664776084,1.813162904353751,-1.196218077931388,-1.247765775604362,0.5474509996201582,9.448084126419417,-1.022278351885122,0.0889879200334282,-0.9282427923445862
0.64,-0.1225440917075041,1.6318283456598928,1.7307080316965702,0.0925397358400599,0.0267563892312198,0.0301937503395698,-0.5505302098969723,-0.545476196739125,-0.4090654745513707,-0.1161591576966931,1.6380150000445954,1.7348697399770436,-0.5756730973343003,-0.5824417814075263,-0.5115309664776084,1.5303628311826971,-1.0235007500136115,-1.052110479796642,0.4330359662766764,11.353049086313147,-1.018319123595156,0.0927133074827148,-0.9317962631510052
0.66,-0.1337375472919814,1.6207390454366126,1.7225434286241814,0.0873591670205786,0.0357553007352232,0.0300909086479918,-0.5673466428670462,-0.5621612306438855,-0.4077548903301534,-0.1219158886700361,1.6321905822305205,1.7297544303122676,-0.5938348441938508,-0.6024417817055495,-0.5315309667756316,1.1862761116629823,-0.8408216485036923,-0.8342516952380252,0.0655292110608635,10.897320400177705,-1.0118133205587017,0.0964080912277521,-0.9386339478294988
0.68,-0.1446488256116476,1.6099246311623931,1.714751826436742,0.0825863893389583,0.0451179187534184,0.0300351599555468,-0.580082706206329,-0.5753439699431195,-0.4124623191084313,-0.1334293506167221,1.6205417466023695,1.7195238109827151,-0.6301583379129517,-0.642441782301596,-0.5715309673716781,0.9462449610385684,-0.6368031669641394,-0.659136964961704,-0.235371438913895,10.441918144362717,-1.0041460069438426,0.1000592914586354,-0.9467959467543168
0.7000000000000001,-0.1563637103923717,1.5982920883578773,1.7064016678065592,0.078154053036787,0.054885556415953,0.0299704590888954,-0.5904849257918494,-0.587236587547149,-0.4225546331663666,-0.1449428125634081,1.6088929109742192,1.7092931916531633,-0.6664818316320527,-0.6824417828976425,-0.6115309679677245,0.9374104341549852,-0.5201109792760228,-0.5946308802014744,-0.5046157028967629,10.069060792792698,-0.995708877394078,0.1028968011897012,-0.9560193206504344
0.72,-0.16825943218148,1.5864364714415982,1.6978003712279524,0.0744881556245818,0.063887115542933,0.0298666264206917,-0.5984020236310454,-0.5977969305416233,-0.4372763556632641,-0.1582724491960492,1.5952440753162662,1.6970625722938089,-0.7028053253511536,-0.7224417834936889,-0.651530968563771,0.988597991642716,-0.3958548919598015,-0.528017149723714,-0.7360861248448786,9.768644136837793,-0.9872017130342252,0.1047604058956225,-0.9655839303982632
0.74,-0.1802902926018258,1.574380568329038,1.688873720713315,0.0716342407931398,0.0716585753405524,0.0297055805231921,-0.6042350668233789,-0.6074458176631062,-0.4546723667349246,-0.1716020858286903,1.5815952396583135,1.6848319529344544,-0.7391288190702546,-0.7624417840897354,-0.6915309691598175,1.0365165420436877,-0.2916521596166732,-0.4824443560741465,-0.869800553583025,9.409109804480067,-0.9798151675336728,0.1056992761659406,-0.9740994306813432
0.76,-0.1918164387895577,1.5627457982238984,1.6800536428888693,0.0693682506302021,0.0778177146457521,0.0294835113912933,-0.6087224078466223,-0.6167698140767429,-0.4729017394152392,-0.1858398098043088,1.5669464039854597,1.671601333560199,-0.7754523127893556,-0.8024417846857818,-0.7315309697558638,1.0480734312277356,-0.224367051162172,-0.4661998206818341,-0.9114686340157274,9.409109804480067,-0.9727024704913142,0.1060472535425672,-0.9825799071197784
0.78,-0.2040330359350022,1.550310472864974,1.670378847430417,0.067191264324963,0.0831466469888542,0.0291762149128264,-0.6126609649658559,-0.6262356625583656,-0.4937014767424025,-0.2009856211229049,1.5512975682977042,1.657370714171042,-0.8117758065084565,-0.8424417852818282,-0.7715309703519103,1.1594649547716966,-0.196927855961676,-0.4732924240811342,-1.039986866358164,9.327493662717645,-0.966460355149935,0.1061370845074807,-0.9902097664535529
0.8,-0.2163220939614659,1.5376893997872405,1.660273168478025,0.0651380939677665,0.0874413278442187,0.0288032562698526,-0.6160234031617197,-0.6353487838006345,-0.5158888216476262,-0.234666084183295,1.5189986897370555,1.6456937735932973,-0.6831563916206715,-0.7262356640484817,-0.5937014782325186,1.2110256431437072,-0.1681219097931896,-0.4556560621134464,-1.1093672452611836,9.247733788770349,-0.9609188909515712,0.1059879505478854,-0.9972594638079346
0.8200000000000001,-0.2286702122024735,1.5248560647200355,1.6500540906485222,0.0627803705204796,0.0917396998292729,0.0284054057648236,-0.6183306764376211,-0.6471846757717638,-0.5048812489545628,-0.234666084183295,1.5189986897370555,1.6456937735932973,-0.6831563916206715,-0.7262356640484817,-0.5937014782325186,0.8163616008163985,-0.1153636637950705,-0.591794598556461,0.5503786346531703,9.184509891826565,-0.95946941464575,0.1063461912259323,-1.000098668013232
0.84,-0.2404280066005599,1.5124721151419047,1.6405181857501845,0.0606680880534658,0.0962438558397923,0.0280586842111315,-0.6190870078849625,-0.6559446716940509,-0.4995560685481426,-0.234666084183295,1.5189986897370555,1.6456937735932973,-0.6831563916206715,-0.7262356640484817,-0.5937014782325186,0.5139725483370838,-0.037816572367072,-0.4379997961143578,0.266259020321008,11.164052681223438,-0.9550451450015336,0.1082212276115694,-1.0038019824948925
0.86,-0.252806817417356,1.4992673986035276,1.6305220221410877,0.0590449481358031,0.1007751325271567,0.0277200126199877,-0.6186739984189977,-0.6641230812894258,-0.5006519706444346,-0.2414976480995017,1.5117363330965707,1.639756758810972,-0.6972554769516347,-0.7462356643465049,-0.6137014785305418,0.4130918836450105,0.0206504732982393,-0.4089204797687429,-0.0547951048145978,10.703295901680576,-0.9502369524389116,0.1092225871479766,-1.0082559881115944
0.88,-0.2651678135404991,1.4859085402611425,1.6204412780791215,0.0581756905072416,0.1046487956927259,0.0273951503501817,-0.617420946658018,-0.6713978217272034,-0.5076055011692098,-0.2551607759319151,1.4972116198156011,1.6278827292463218,-0.7254536476135609,-0.7862356649425514,-0.6537014791265883,0.5070591038323644,0.0626525880489836,-0.3637370218888824,-0.3476765262387604,10.30296323323364,-0.9454216975726744,0.109131983696401,-1.013214567644415
0.9,-0.2774978476662851,1.472413391253366,1.6101682379630835,0.0583128103606689,0.1076064836195097,0.0270900301607678,-0.6156784019230382,-0.6778991353320807,-0.5193445201477527,-0.2688239037643286,1.4826869065346315,1.6160086996816714,-0.7536518182754872,-0.8262356655385978,-0.6937014797226347,0.6765872215039214,0.0871272367489905,-0.3250656802438634,-0.5869509489271452,9.987899152609316,-0.9412531057763148,0.107888743294318,-1.01793910975729
0.92,-0.2891768701254625,1.4594766060298046,1.6001587392336103,0.0595791295642063,0.1094997913295558,0.0268297452413859,-0.6138350480631283,-0.6837027264904704,-0.5337074425972637,-0.2838969401298383,1.4661621932238595,1.6021346700872188,-0.7818499889374135,-0.8662356661346443,-0.7337014803186812,0.7800210975948833,0.0921676929954984,-0.2901795579194843,-0.7181461224755492,9.750756320792789,-0.9375279221526408,0.1051964083380152,-1.0226903683907766
0.94,-0.3014314943569612,1.4457382100550296,1.5893133163449515,0.062258443737331,0.1105461645420926,0.0265959418232112,-0.6117767991932951,-0.6901779992076744,-0.5501497668519617,-0.298969976495348,1.4496374799130876,1.588260640492766,-0.8100481595993397,-0.9062356667306908,-0.7737014809147277,0.8895442260913288,0.1029124434916595,-0.3237636358602025,-0.8221162127349024,9.51410747272712,-0.9350308162888336,0.101109409585096,-1.0265079248824107
0.96,-0.3136475995402,1.4318395624856275,1.5781304554998776,0.0654689692878802,0.1107815323525243,0.0263482384791105,-0.6100087436468302,-0.6994135470407499,-0.5673177621108458,-0.3147479671274059,1.4321127665874145,1.573386610883412,-0.838246330261266,-0.9462356673267373,-0.813701481510774,0.9787254791327824,0.0884027773232432,-0.4617773916537726,-0.8583997629442064,9.49257283452971,-0.9336332226558486,0.0964409167455745,-1.0294189184000788
0.98,-0.3258324734481827,1.4177384903803771,1.566598925848537,0.0682708562183997,0.1104814625591113,0.0260339887440077,-0.6086264178335944,-0.7101073474299938,-0.5849741112049891,-0.331230912026012,1.4135880532468403,1.557512581259157,-0.8664445009231923,-0.9862356679227836,-0.8537014821068205,1.0344259939130322,0.0691162906617914,-0.5346900194621973,-0.8828174547071632,9.49257283452971,-0.9327488195810772,0.092227869529771,-1.0318720115891578
1.0,-0.3373865111840655,1.4041367355463177,1.5553116698457363,0.0703002169706878,0.1098952090967295,0.0256675588467675,-0.607698447304303,-0.7209554107604278,-0.6022681233511504,-0.3562637943398624,1.3822331230088774,1.5373502202882878,-0.6603207588374892,-0.8101073489201099,-0.6527275751885249,1.0217931094843946,0.0463985264645694,-0.5424031665216988,-0.8647006073080665,9.450425271248603,-0.9321469884034644,0.0883436460634808,-1.0341636449463194
1.02,-0.3495399101444258,1.389517218969648,1.5433918527332204,0.0700479752752959,0.1105021612664072,0.0252005848821661,-0.607340920683994,-0.740029538750444,-0.5870781196835726,-0.3562637943398624,1.3822331230088774,1.5373502202882878,-0.6603207588374892,-0.8101073489201099,-0.6527275751885249,1.2193096359054745,0.0178763310154483,-0.9537063995008088,0.7595001833788917,9.450425271248603,-0.9335812391003394,0.0867271598531174,-1.0345434822209263
1.04,-0.3616678330712192,1.374537188277822,1.5318003573914865,0.0665004520683814,0.1132487611105782,0.0246545334283422,-0.6052470047011443,-0.7563770933130483,-0.5732460543623124,-0.3562637943398624,1.3822331230088774,1.5373502202882878,-0.6603207588374892,-0.8101073489201099,-0.6527275751885249,1.075817195638004,0.1046957991424846,-0.8173777281302141,0.6916032660630123,11.26322780256578,-0.9310357236850588,0.0899191285973366,-1.0362770466458926
1.06,-0.3737367893495274,1.3592813596040083,1.520413412159352,0.0615536346058307,0.1169365730543376,0.0240692977981866,-0.6015993057569426,-0.7680760514891147,-0.5661032062337241,-0.3628670019282373,1.3741320495196765,1.5308229445364026,-0.6706596270382682,-0.8301073492181331,-0.666278267985232,0.7092101405453802,0.1823849472100847,-0.5849479088033238,0.3571424064294115,11.26322780256578,-0.9273955809553464,0.0941968103928627,-1.0389385536440463
1.08,-0.385122039091627,1.344603301895572,1.5096744107168378,0.0569252504998315,0.120503128184486,0.0235158602848091,-0.5969693835087683,-0.7764041888885578,-0.5646725710050063,-0.3760734171049871,1.357929902541274,1.5177683930326322,-0.6913373634398261,-0.8701073498141796,-0.6933796535786463,0.4817695759535633,0.2314961124087189,-0.4164068699721523,0.071531761435889,10.85312537696609,-0.9230375044736454,0.0984663117543632,-1.0424127554942186
1.1,-0.3970020330484541,1.3290018040263107,1.498354628558413,0.052684757942555,0.1237863246531888,0.0229464093313455,-0.5912473387146532,-0.7833628537927126,-0.5675892755100084,-0.3892798322817369,1.341727755562872,1.5047138415288617,-0.712015099841384,-0.910107350410226,-0.7204810391720606,0.4734764488432222,0.2861022397057544,-0.3479332452077432,-0.1458352252501016,10.519932214678192,-0.9186594383292775,0.1018965898078693,-1.046211597285539
1.12,-0.4087611285996463,1.3132746542775748,1.4869327409946098,0.049306136648789,0.1262427914598918,0.0223941318475206,-0.584992212784199,-0.7891885270434794,-0.5744518095574309,-0.4035201342785646,1.3235256085546674,1.4903042207454205,-0.7326928362429419,-0.9501073510062724,-0.747582424765475,0.5480863134182732,0.3127562965227093,-0.2912836625383386,-0.3431267023711271,10.26064706782836,-0.915057010551098,0.1042422518362732,-1.049564862747007
1.14,-0.4203903873487735,1.2974382560965083,1.475357817471182,0.0467841922603652,0.1277189719480614,0.0218585130727338,-0.5783297181518255,-0.7943673411808254,-0.5827049647911373,-0.4177604362753923,1.3053234615464628,1.4758945999619792,-0.7533705726444999,-0.9901073516023192,-0.7746838103588892,0.5901769266652906,0.3331247316186725,-0.2589407068673,-0.41265776168532,10.059683429329198,-0.912318768425992,0.105809347851691,-1.0523687174944627
1.16,-0.4313154263672673,1.2822931942274596,1.4642011312092085,0.0448791838190422,0.1282521093866878,0.0213509414728735,-0.5720865029974129,-0.7996035071991556,-0.5912712950301322,-0.4325176816822589,1.2861213145233572,1.4608074445387027,-0.7740483090460578,-1.0301073521983657,-0.8017851959523036,0.5911370056918314,0.3121607577206309,-0.2618083009165106,-0.4283165119497445,9.993557144865918,-0.9104359431457864,0.1067611163933053,-1.0545921626792825
1.18,-0.4426906011442794,1.266244773179422,1.4522740089760453,0.0431168042474424,0.1280652866330811,0.0208100819863693,-0.565833952416386,-0.8049500543787805,-0.6010233996496194,-0.4477918704991644,1.2659191674853505,1.4450427544755906,-0.7947260454476157,-1.0701073527944118,-0.8288865815457178,0.6379331861991466,0.3126275290513458,-0.2673273589812452,-0.4876052309743584,9.91700301122728,-0.9092932890688404,0.1074321917506612,-1.056259406516758
1.2,-0.4539441529502437,1.2500913184985314,1.4401441383246074,0.0414995977751634,0.1272418237052575,0.0202635459782856,-0.5599024758264491,-0.8100973764308903,-0.6114712987593081,-0.4709822987650987,1.225997270460483,1.4222228389935645,-0.5896178354962724,-0.9049500558688968,-0.6425715511724942,0.6535211064903304,0.2965738294968434,-0.2573661026054885,-0.5223949554844343,9.91700301122728,-0.9089438272991762,0.107982690184033,-1.057247290098024
1.22,-0.4645568304940074,1.2346233047821331,1.428645953682433,0.0394281632770967,0.1277673991843493,0.0197711762892724,-0.5572076693083216,-0.8175341367123146,-0.5970440131733503,-0.4709822987650987,1.225997270460483,1.4222228389935645,-0.5896178354962724,-0.9049500558688968,-0.6425715511724942,0.8226693671097404,0.1347403259063795,-0.371838014071213,0.7213642792978869,9.88184244891545,-0.9078020309324806,0.1082789531294697,-1.0597740084402782
1.24,-0.475652813138382,1.2182184248525103,1.4168583590078296,0.036975076294436,0.1311812249876424,0.0193538069611078,-0.5521876789859637,-0.8225565574278384,-0.5828414534899335,-0.4709822987650987,1.225997270460483,1.4222228389935645,-0.5896178354962724,-0.9049500558688968,-0.6425715511724942,0.7939422432414485,0.2509995161178946,-0.2511210357761917,0.7101279841708386,11.601466565697592,-0.9051253916948326,0.1112221778305536,-1.0607104525030333
1.26,-0.4866218347183363,1.2017296083479692,1.4052984118700071,0.0350769258609822,0.1360012111668409,0.0190303304960446,-0.544730139014477,-0.8262462361372872,-0.5738656839127214,-0.4768784771200615,1.216947769901794,1.4157971234818394,-0.5943746121122497,-0.9249500561669198,-0.6508811814770692,0.6119498976805378,0.3728769985743341,-0.1844839354724403,0.4487884788606067,11.298830317776265,-0.9004553677154153,0.1133316703365602,-1.063714425014476
1.28,-0.4968830535951375,1.1860065836930562,1.394442953099189,0.0340221543942709,0.1408132046992805,0.0187868433361815,-0.53566707587272,-0.8287588719132941,-0.5692741537412888,-0.4886708338299869,1.198848768784416,1.4029456924583894,-0.6038881653442043,-0.9649500567629664,-0.6675004420862191,0.5232938977513499,0.4531531570878488,-0.1256317888003455,0.2295765085716328,10.988525395031502,-0.8944318704403622,0.1144869670229519,-1.068270783351
1.3,-0.5074812248069738,1.1694136719058317,1.383078828712722,0.0340726747475795,0.145375254082005,0.01860140988668,-0.5245581734571482,-0.8305140536704823,-0.5675294911219825,-0.5004631905399124,1.180749767667038,1.3900942614349396,-0.6134017185761589,-1.0049500573590129,-0.684119702695369,0.5690611204753588,0.5554451207785915,-0.087759087859407,0.087233130965314,10.74953881098827,-0.8883947236978113,0.1142824058583023,-1.0731633714658173
1.32,-0.5178432172511953,1.1527921132912953,1.3717208362247824,0.0357232273254248,0.1489052240054033,0.0185033791309695,-0.5122413501560037,-0.8318035521669839,-0.5683633680584618,-0.5127312249114355,1.1606507665198578,1.3764118673810322,-0.6229152718081135,-1.044950057955059,-0.700738963304519,0.6206091631399094,0.6158411650572237,-0.0644749248250808,-0.0416938468239647,10.572864274906353,-0.8832770990895231,0.1124733699772077,-1.077588541473934
1.34,-0.5279484174151511,1.136137928712307,1.360339490773241,0.0390366771058681,0.1511244770150358,0.0184861458317641,-0.4989976961152951,-0.8341560159911635,-0.5697499888377962,-0.5249992592829588,1.1405517653726776,1.362729473327125,-0.632428825040068,-1.0849500585511056,-0.7173582239136689,0.6761123715399182,0.6621827020354298,-0.117623191208982,-0.069331038966719,10.445110591908817,-0.8794359937948637,0.1088824005954184,-1.0811423248382608
1.36,-0.5372986012443604,1.1202396376768922,1.3495016141084824,0.0426318335509306,0.1519515112881554,0.0184580909077066,-0.4860240930912179,-0.8392780531203543,-0.571014354285287,-0.5375051324852808,1.1194527642105965,1.3486315977579888,-0.6419423782720226,-1.124950059147152,-0.7339774845228189,0.7002646995314745,0.6486801512038592,-0.2561018564595396,-0.0632182723745433,10.42779168042398,-0.8767527012041717,0.1045258354572024,-1.084036506064674
1.38,-0.5468743350366201,1.1033825033186095,1.3380679369066557,0.0460699870037225,0.1515278883675332,0.0183507719489285,-0.4722980426317542,-0.8461497481235781,-0.5722813211320873,-0.5502488445184017,1.0973537630336136,1.3341182406736238,-0.6514559315039772,-1.1649500597431983,-0.7505967451319687,0.7701133981823178,0.6863025229731867,-0.343584750161191,-0.0633483423400138,10.44394416446994,-0.8755632630679785,0.1003145406652109,-1.085889024687024
1.4,-0.5561735305860658,1.086375641979605,1.3266097696096393,0.0488415764424106,0.1496589665892841,0.0181275141906599,-0.4584317891006736,-0.8540443238246465,-0.5734618272889845,-0.5704892371682078,1.0610750159124307,1.3094538708500514,-0.4715478238226375,-0.9461497496136942,-0.5575198937146898,0.7999857924903627,0.6933126765540254,-0.3947287850534164,-0.0590253078448621,10.462167970662447,-0.8760619898009537,0.0969233194606328,-1.0862632144758442
1.42,-0.5647743644424769,1.0699867454640817,1.3159063135082472,0.0485577482429634,0.1480846623079796,0.017721841560239,-0.4476186617552784,-0.8695759627910149,-0.553104784270103,-0.5704892371682078,1.0610750159124307,1.3094538708500514,-0.4715478238226375,-0.9461497496136942,-0.5575198937146898,1.389752435185798,0.5406563672697623,-0.7765819483184222,1.0178521509440763,10.462167970662447,-0.8769925273328175,0.0946811455474994,-1.088024806429668
1.44,-0.5736005471651829,1.052460259377069,1.305068054004748,0.0445680151195687,0.1481429981535998,0.0171317826944257,-0.4354046366377141,-0.8814779123781901,-0.5319099767569233,-0.5704892371682078,1.0610750159124307,1.3094538708500514,-0.4715478238226375,-0.9461497496136942,-0.5575198937146898,1.3602009769413566,0.6107012558782127,-0.5950974793587582,1.0597403756589852,11.973090849368418,-0.8772035306245091,0.0991384827971473,-1.086641421396435
1.46,-0.5821698106078649,1.0347545577497412,1.2946243155439936,0.0394152618656581,0.1489270269707729,0.0165070871329124,-0.4220887308617282,-0.8883144350193303,-0.5135134712603282,-0.5752047154064341,1.0516135184162938,1.3038786719129043,-0.4713977800608142,-0.9661497499117176,-0.5545676082312103,1.185835995135933,0.6657952887992952,-0.3418261320570104,0.9198252748297552,11.826645832176837,-0.8760566238714066,0.1047644838387817,-1.086279903470836
1.48,-0.5904640458573787,1.016945489792159,1.2845212419526826,0.0346752431601789,0.1496793630093976,0.0159235735374031,-0.4080275207292654,-0.8923627110755851,-0.4977156203956726,-0.5846356718828869,1.0326905234240198,1.2927282740386106,-0.4710976925371675,-1.006149750507764,-0.5486630372642513,1.076659488137757,0.7030605066231432,-0.2024138028127398,0.7898925432327814,11.63139730970488,-0.8748792099264936,0.1097633937839753,-1.0859935237823402
1.5,-0.5980787766798893,0.9999683395487076,1.275195895790435,0.0310454467797127,0.1499282361304604,0.0154276888296738,-0.3943013771707301,-0.894718706236346,-0.4846910203728058,-0.5940666283593397,1.013767528431746,1.2815778761643168,-0.4707976050135209,-1.0461497511038105,-0.5427584662972923,0.9534122087831548,0.6863071779267649,-0.1177997580380452,0.6512300011433381,11.462821826670734,-0.873858603309551,0.1139714474836017,-1.085786748802145
1.52,-0.6058121380427176,0.9820582937244944,1.265633184579544,0.0282783544135499,0.149466788139089,0.0149726780794316,-0.3798434905417579,-0.8963510878761015,-0.472325248653702,-0.6034825804596101,0.9928445334096698,1.270722706838371,-0.4704975174898743,-1.0861497516998568,-0.5368538953303333,0.954734866079336,0.7228943314486092,-0.0816190819877771,0.6182885859551901,11.333422453882122,-0.8734412802776762,0.116975765401314,-1.0853524775180896
1.54,-0.6132549012786135,0.9641228287966004,1.2563139000546175,0.0266583904019482,0.1480800199680566,0.0145880619671825,-0.365257142507045,-0.8973679213033011,-0.4602145779523102,-0.6128985325598806,0.9719215383875937,1.2598675375124253,-0.4701974299662276,-1.1261497522959034,-0.5309493243633743,0.949294269504974,0.7293174017356435,-0.0508416713599801,0.6055335350695912,11.2486987510174,-0.8742390505559776,0.1187270787659426,-1.0841090604159491
1.56,-0.6204057218214599,0.9461624029752844,1.2472386087493803,0.0259616361279983,0.1455303914979996,0.0142519007887328,-0.3506775600612849,-0.8986934063169191,-0.4479091459059748,-0.6223069824720598,0.9499985433506162,1.2491599824606534,-0.4698973424425809,-1.1661497528919498,-0.5250447533964153,0.9562227677965796,0.7289791222880065,-0.0662742506808977,0.6152716023167693,11.24884589645535,-0.8763431526783622,0.1196301157911324,-1.081906037664223
1.58,-0.6269316810012793,0.9290745315342294,1.238847956964627,0.0259902712375535,0.1418179134246939,0.0139587051813988,-0.3371351898513873,-0.9000122986313366,-0.4359173950521252,-0.6317079301961479,0.9270755482987376,1.2386000416830554,-0.4695972549189343,-1.206149753487996,-0.5191401824294563,0.9068315118859652,0.6771185104948813,-0.0659446157208754,0.5995875426924785,11.24884589645535,-0.8799042131612533,0.1197885578018524,-1.078585997063605
1.6,-0.633532250024341,0.9110588704056016,1.230265884211891,0.0267103399573507,0.1364350104792576,0.0136675756361607,-0.3238891099370578,-0.9015380512870708,-0.4228840068603086,-0.6437884404938486,0.8840739166026625,1.2170520872120203,-0.3043749422632296,-1.0000123001214527,-0.3891095285085938,0.9322764638532258,0.6623039957164761,-0.0762876327867145,0.6516694095908326,11.2620956852179,-0.8846224984724399,0.1191704936017241,-1.0744915723770734
1.62,-0.6399647444885787,0.8929552995239661,1.2219934698702155,0.0264549449065529,0.1324830150436501,0.0133534228337893,-0.3204344781212503,-0.9083859276203972,-0.4047461865335223,-0.6437884404938486,0.8840739166026625,1.2170520872120203,-0.3043749422632296,-1.0000123001214527,-0.3891095285085938,0.9846425969179132,0.1727315907903731,-0.3423938166663198,0.9068910163393118,11.279309869151804,-0.8829708293115721,0.1181710241115464,-1.0775620269711872
1.64,-0.646020817816402,0.8756522308135598,1.2144847526487836,0.0246301918045779,0.1330417555066023,0.0130714976525854,-0.3167014915184907,-0.9125433836139106,-0.3865603459675605,-0.6437884404938486,0.8840739166026625,1.2170520872120203,-0.3043749422632296,-1.0000123001214527,-0.3891095285085938,0.9512418546365644,0.1866493301379806,-0.2078727996756679,0.9092920282980892,11.706969843923616,-0.8870400077082973,0.1216453809559842,-1.071427158965783
1.66,-0.6522868415061855,0.8573768225266821,1.2069543112972383,0.0222875594656434,0.1365708850136392,0.0128276089938539,-0.309741599698652,-0.9146666387948575,-0.3674526445674219,-0.646832189916481,0.874073793601448,1.2131609919269346,-0.2978228927455981,-1.020012300419476,-0.3797479551998875,1.022316682227351,0.3479945909919346,-0.1061627590473512,0.9553850700069312,11.687417496522356,-0.8867775442183433,0.125578561209656,-1.0689124664293992
1.68,-0.6583812345531066,0.8390801476152069,1.1998013462942825,0.0204645847034573,0.1416437934041236,0.0126601879202404,-0.299772073670898,-0.91502629816735,-0.3488373739136999,-0.6529196887617456,0.854073547599019,1.2053788013567626,-0.284718793710335,-1.0600123010155225,-0.361024808582475,1.0559937329283842,0.4984763013877014,-0.0179829686246191,0.9307635326860992,11.657923895380009,-0.8839747690258001,0.1289895404735642,-1.0686576041785854
1.7,-0.6642457387770707,0.8207901868857461,1.193015347628381,0.019736761696565,0.1470804284798372,0.0125835547688163,-0.2870260352545938,-0.9141681671330332,-0.33071058584647,-0.6590071876070102,0.8340733015965899,1.1975966107865907,-0.271614694675072,-1.1000123016115688,-0.3423016619650624,1.1088037809010975,0.6373019208152086,0.0429065517158488,0.9063394033614948,11.616204555220063,-0.8802900306807828,0.1311544722944584,-1.069525724549336
1.72,-0.6695577171065334,0.8034390832123881,1.1869027030059194,0.020502578983088,0.1517979979785573,0.0126146523226119,-0.2727295178471353,-0.912548845257828,-0.3136413706930445,-0.6644394815005116,0.8120730555643585,1.1907505775472895,-0.2585105956398089,-1.1400123022076152,-0.3235785153476498,1.116210911153461,0.714825870372926,0.0809660937602596,0.8534607576712788,11.589652908623975,-0.8774443657152952,0.1323534476004798,-1.0692176091337695
1.74,-0.6748375265926034,0.7852093875354987,1.180823302622482,0.0232138028939339,0.155764695280557,0.0127763528276454,-0.25597007873995,-0.9108461332973408,-0.2951746759251064,-0.6698717753940131,0.7900728095321271,1.1839045443079883,-0.2454064966045458,-1.1800123028036618,-0.3048553687302372,1.249796826348216,0.8379719553592624,0.0851355980243606,0.9233347383969054,11.58668116733952,-0.8756552713585346,0.1316732498812278,-1.0682438143082795
1.76,-0.6797650407098554,0.7669804449479929,1.1751209383509085,0.0271347237301017,0.1583069418504749,0.0130067639661699,-0.2377477200507077,-0.9124053004370148,-0.2759872889176619,-0.6749764668116329,0.7670725634849946,1.1775265897341225,-0.2323023975692828,-1.220012303399708,-0.2861322221128247,1.3253689849833246,0.9111179344621148,-0.0779583569837039,0.9593693503722216,11.67750312474891,-0.8755638011077987,0.129858963628237,-1.0659865913578752
1.78,-0.6843195083174705,0.7486932258509031,1.169811565219772,0.0309301223367681,0.1592250339347038,0.013195774086595,-0.218802562216712,-0.916208153443538,-0.2558955454226118,-0.6797535557533713,0.743072317422961,1.1716167138256917,-0.2191982985340197,-1.2600123039957545,-0.2674090754954121,1.393788768981084,0.947257891699786,-0.1901426503261583,1.004587174752508,11.67750312474891,-0.8768797089892418,0.1282206718771708,-1.062764567232922
1.8,-0.6882922629395543,0.731236545593193,1.1651477518707556,0.0339687038860583,0.1585220963708943,0.0132912785104223,-0.200466750363069,-0.921023678868388,-0.2360171573140349,-0.695259636428306,0.7028828181787262,1.1570167879486415,-0.164623065153552,-1.016208154933654,-0.1851928361650091,1.373446026646826,0.9167905926821498,-0.2407762712424987,0.9939194054288432,11.739022055557143,-0.8803540866105093,0.1272045618426644,-1.0574497626999526
1.82,-0.6921362738297947,0.7126796307472874,1.1605947830477428,0.0339633612301179,0.1569163713564967,0.0131433031552488,-0.1851561501924254,-0.9335858765301848,-0.2205574816485963,-0.695259636428306,0.7028828181787262,1.1570167879486415,-0.164623065153552,-1.016208154933654,-0.1851928361650091,1.2562094365191714,0.7655300085321809,-0.6281098830898502,0.7729837832719313,11.789392191850313,-0.8828955152125111,0.129496710599933,-1.0524180547741335
1.84,-0.6956831237538696,0.6939191015246463,1.1563645719048623,0.0300515547767791,0.1555251365171138,0.0127480432691266,-0.1703255947144158,-0.941095495548838,-0.2031650491224134,-0.695259636428306,0.7028828181787262,1.1570167879486415,-0.164623065153552,-1.016208154933654,-0.1851928361650091,1.2029510201681706,0.7415277739004785,-0.3754809509326495,0.8696216263091416,11.4166509024044,-0.8856384381667795,0.1341650585200195,-1.0482320162324297
1.86,-0.698777938458721,0.6760122969653481,1.152683571451279,0.0255763175739575,0.1543523761299628,0.0123481798190643,-0.1562185661679978,-0.94345789205839,-0.1851705208030617,-0.6969058670798416,0.6927207366293897,1.1551648595869914,-0.15378716574092,-1.0362081552316773,-0.1710522943134885,1.1493391809141322,0.7053514273208994,-0.1181198254776083,0.8997264159675861,11.55518916757137,-0.889227400838719,0.140515565178502,-1.0422999186894046
1.88,-0.7017468329403497,0.6571437624666319,1.149189750793545,0.0216244177069303,0.1531730062180253,0.0120069177563353,-0.1414465062271505,-0.9434409565087654,-0.1651050843558917,-0.7001983283829126,0.6723965735307166,1.1514610028636911,-0.1321153669156561,-1.076208155827724,-0.1427712106104474,1.245828822033996,0.7386029970423674,0.0008467774812337,1.003271822358499,11.63156579513634,-0.893214369271475,0.1464032615496079,-1.0356925425365722
1.9,-0.7044213083855776,0.6382892915351114,1.1461062010430068,0.0189420257019127,0.1519783320629876,0.0117769867812405,-0.126781690304131,-0.9422646689150792,-0.144215448743648,-0.7034907896859837,0.6520724104320436,1.147757146140391,-0.1104435680903921,-1.1162081564237702,-0.1144901269074064,1.2775145347230163,0.7332407961509704,0.0588143796843132,1.044481780612187,11.693819792903014,-0.8974316171585266,0.1512449760848159,-1.028763490460199
1.92,-0.7068038341965166,0.6194682124670369,1.143449869158871,0.0177265106736318,0.1507010352152303,0.0116671300710817,-0.1122680713792606,-0.9402155131453468,-0.1224488807403233,-0.7056996610477915,0.6297482473035682,1.145467343602243,-0.0887717692651281,-1.1562081570198166,-0.0862090432043653,1.3120857977932894,0.7256809462435232,0.1024577884866151,1.0883284001662317,11.778742929648615,-0.9015124888223562,0.1546067331602452,-1.0221838427140264
1.94,-0.7088006985164975,0.601632922557566,1.1413359556514662,0.0181843714667844,0.1493819063680018,0.0116868401760904,-0.0987145118870603,-0.93755823987069,-0.101141509506937,-0.7079085324095994,0.6074240841750927,1.1431775410640947,-0.0670999704398641,-1.1962081576158632,-0.0579279595013242,1.2696103191945922,0.6776779746100158,0.1328636637328406,1.0653685616693165,11.778742929648615,-0.905956260825544,0.1566738362126317,-1.0151975322236282
1.96,-0.7106258114796545,0.5829054260424957,1.1395572383468389,0.0203922058643348,0.1478272263945536,0.0118330392126861,-0.084577604362927,-0.9354879380956612,-0.0777933768561916,-0.7095756088007756,0.5840999210317162,1.1415947656185226,-0.0454281716146001,-1.2362081582119095,-0.0296468757982831,1.3686431255648657,0.7068453762066613,0.1035150887514324,1.1674066325372712,11.810524732043632,-0.9108561371278898,0.1571853851775938,-1.0079225653858486
1.98,-0.7121690659465443,0.5641983395160942,1.1382561510258635,0.0238054526877719,0.1459891929031632,0.0120594668249239,-0.0705434243423463,-0.9357003469835112,-0.0534671282561152,-0.7107008902213202,0.5597757578734385,1.1407190172655266,-0.0237563727893362,-1.276208158807956,-0.0013657920952421,1.404252200762404,0.7017090010290377,-0.0106204443925006,1.2163124300038173,11.861880173164536,-0.9162422172038776,0.1568046672306123,-1.0003054556923547
2.0,-0.7133769123249732,0.5463974652306701,1.1374798489370688,0.0270699333415447,0.1438664782470784,0.0122654035043962,-0.0573875166692171,-0.9380465759840562,-0.0294437992360234,-0.7156962371636616,0.5174133221669186,1.135582794613058,0.0148624320285795,-1.0357003484736276,0.0465328732340008,1.374502668635533,0.6577953836564565,-0.1173114500272409,1.2011664510045903,11.909461690932403,-0.9221520025713552,0.1563508526349581,-0.9921175550327428
2.02,-0.7144440325765735,0.5275287376756694,1.1370510461132992,0.0277013789678343,0.1426350554465854,0.0123165433996295,-0.0500559990400799,-0.9478804211355206,-0.0152421850515163,-0.7156962371636616,0.5174133221669186,1.135582794613058,0.0148624320285795,-1.0357003484736276,0.0465328732340008,0.9382716912692768,0.3665758814568622,-0.491692257573223,0.7100807092253533,11.961398206422018,-0.9223486568558404,0.158693540069378,-0.9883832372991708
2.04,-0.7153588659709993,0.5085069132587354,1.1369159819313814,0.0248424641528479,0.1435929550192743,0.0121981734147436,-0.0415279164258302,-0.9534526397324452,0.001271852765292,-0.7156962371636616,0.5174133221669186,1.135582794613058,0.0148624320285795,-1.0357003484736276,0.0465328732340008,0.9701691323969732,0.4264041307124853,-0.2786109298462236,0.8257018908404221,11.198248800964391,-0.9245155364528984,0.1624471040962672,-0.98471791606719
2.06,-0.7160836757723424,0.4894234197370184,1.1371469318413825,0.021042923377343,0.1459329333235069,0.0120609379490873,-0.0311823998751751,-0.9545652742299244,0.0209788773072238,-0.7155476128433758,0.5070563186821824,1.1360481233453978,0.0319436033027647,-1.0557003487716508,0.066532873532024,1.1142648748403146,0.5172758275327551,-0.0556317248739723,0.985351227096588,11.41838235486466,-0.9254343418612796,0.1673824193803801,-0.9814773072983444
2.08,-0.7165628787915689,0.4713017382690834,1.13775224829462,0.0181280161811262,0.1488476422323754,0.0120019878596572,-0.0196468442705801,-0.9532251662419088,0.041740205645683,-0.7152503642028042,0.4863423117127098,1.136978780810078,0.0661059458511351,-1.0957003493676971,0.1065328741280705,1.1894302069726037,0.5767777802297505,0.0670053994007879,1.03806641692296,11.589808434017868,-0.9258730005806958,0.1724683709812841,-0.978012251968746
2.1,-0.7168127730197882,0.4522658452858569,1.138835024393818,0.0163418695995891,0.1521380330234743,0.012042357322002,-0.0058195297375053,-0.9506695575033453,0.0655288634076068,-0.7149531155622326,0.4656283047432372,1.137909438274758,0.1002682883995054,-1.1357003499637437,0.1465328747241169,1.38168918477994,0.6913657266537394,0.127780436928182,1.1894328880961904,11.718965992115956,-0.9263784199198636,0.1767789672921632,-0.974202266571212
2.12,-0.7167680164320205,0.4332923809283051,1.140413551968009,0.0162836185165174,0.1552162220537353,0.0122115821189995,0.0096451552312479,-0.947128448614754,0.0911275522858802,-0.7129477497942425,0.4429142977439623,1.1408400957692402,0.1344306309478758,-1.17570035055979,0.1865328753201634,1.5058127420352476,0.7732342484376663,0.177055444429558,1.2799344439136715,11.956841950057424,-0.9272542023513376,0.1797920153107151,-0.9700696971398866
2.14,-0.7164264931145392,0.4153379379491085,1.1423992875341642,0.0181875604503106,0.1576296380939415,0.012514097457474,0.0255209141783205,-0.943304568255851,0.1166216233221068,-0.7109423840262524,0.4202002907446874,1.1437707532637225,0.1685929734962462,-1.2157003511558366,0.2265328759162099,1.5137779238918505,0.7937879473536291,0.191194017945151,1.2747035518113303,11.956841950057424,-0.928802963222237,0.1814822435438744,-0.9651057559679134
2.16,-0.7157289039320469,0.3964948209027369,1.1450273012761745,0.021941316628617,0.1593532844418356,0.0129538095360979,0.0433890931353064,-0.9417530832865952,0.1449079457485936,-0.708082959694553,0.3964862837305114,1.147701410773106,0.2027553160446165,-1.255700351751883,0.2665328765122563,1.674660384424156,0.8934089478492916,0.0775742484627861,1.4143161213243376,12.034013730836705,-0.9311823600546536,0.1814415914675276,-0.959899979358782
2.18,-0.7146645712200574,0.3776465259510629,1.1482365140441635,0.0260001860551616,0.1599927722538408,0.0134015688642886,0.0620745403914708,-0.9432209078568732,0.1746697660149131,-0.7043694767991444,0.3717722767014342,1.1526320682973907,0.2369176585929868,-1.2957003523479294,0.3065328771083027,1.758597732354335,0.934272362808224,-0.0733912285139026,1.4880910133159757,12.130493521253811,-0.9336368966348506,0.1808913556519905,-0.9549618067884992
2.2,-0.7132212902198763,0.3587485671477296,1.152055979941342,0.0295398238834657,0.1593920407230802,0.0137860317423454,0.0811576684451106,-0.9463855541184164,0.2058001373204754,-0.7115608442004839,0.3304854805582193,1.1569700023449094,0.162074541881587,-1.0432209093469895,0.2746697675050292,1.8325397539306527,0.9541564026819904,-0.1582323130771501,1.556518565278113,12.227139562221964,-0.9353856812439716,0.1800846615399242,-0.9514804172568808
2.22,-0.7115280992577231,0.3406511859512826,1.1560311899690048,0.0294993714382939,0.1574299228624149,0.0138779950883753,0.0960128620038189,-0.9570407387076952,0.2111279779291317,-0.7115608442004839,0.3304854805582193,1.1569700023449094,0.162074541881587,-1.0432209093469895,0.2746697675050292,0.9520971849679308,0.7427596779354145,-0.5327592294639472,0.2663920304328174,12.311112341980332,-0.9367103561807324,0.1848192033068599,-0.9443540832769316
2.24,-0.7094523456248831,0.3214512798045365,1.1603483601506857,0.0257036543563693,0.1538865185633268,0.0136931506858944,0.1106448854608359,-0.9617765731912844,0.2206722723190486,-0.7115608442004839,0.3304854805582193,1.1569700023449094,0.162074541881587,-1.0432209093469895,0.2746697675050292,0.9050107652730512,0.7316011728508494,-0.2367917241794526,0.4772147194958442,10.627905546391958,-0.938441221985801,0.1880199815031412,-0.9420702132343464
2.26,-0.7070994696290448,0.302215131627131,1.164904335217406,0.0214135120253892,0.1495489062961074,0.0134918082782709,0.1237361822843451,-0.9616464105499712,0.234619346056853,-0.7099400987816681,0.3200532714647494,1.1597167000199595,0.1820745421796102,-1.0632209096450127,0.2946697678030525,0.9564515940210576,0.6545648411754569,0.0065081320656523,0.697353686890223,10.951012142411855,-0.9423453512017712,0.1927230592056283,-0.9363545158750284
2.28,-0.7045070622050345,0.2830102641786037,1.1697774178644462,0.0182399880315945,0.1453273111998264,0.0134080778085955,0.1347095281532725,-0.9592651704834118,0.2519861818528951,-0.7066986079440363,0.2991888532778096,1.1652100953700604,0.2220745427756566,-1.1032209102410593,0.3346697683990989,1.0340353105435776,0.5486672934463699,0.1190620033279743,0.8683417898021017,11.377169690746996,-0.9463256172102152,0.1967876404671351,-0.9302022659500262
2.3000000000000003,-0.7018619946275978,0.2648200686999878,1.174753617814136,0.0166775053605799,0.1423467208315995,0.0134739159058042,0.1430921938232372,-0.9559907430880836,0.2709575477373518,-0.7034571171064046,0.2783244350908698,1.170703490720161,0.2620745433717031,-1.1432209108371056,0.3746697689951453,1.0498853294808077,0.4191332834982381,0.1637213697664008,0.9485682942228374,11.377169690746996,-0.9497850882820782,0.2000613932356951,-0.9243612496307496
2.32,-0.6989203870405984,0.2457455486786156,1.180405397948946,0.0168488783153938,0.1411504885227834,0.0137183135206668,0.1508165467740673,-0.9518424972638782,0.2933245488501294,-0.6982156262389705,0.2554600168741276,1.1781968861000638,0.3020745439677495,-1.183220911433152,0.4146697695911918,1.2012038864260577,0.3862176475415022,0.2074122912102793,1.1183500556388752,11.688354488756886,-0.95259764921197,0.201822964824523,-0.9195738745623516
2.34,-0.6958172515961054,0.2267593233660614,1.1865191867693174,0.0193378553353867,0.1419080309287839,0.0141677218856256,0.1593544610629219,-0.9473861925385314,0.3169222519090232,-0.6929741353715364,0.2325955986573855,1.1856902814799668,0.342074544563796,-1.2232209120291986,0.4546697701872383,1.274368688669709,0.4268957144427307,0.2228152362673374,1.17988515294469,11.688354488756886,-0.9539978567345684,0.2020307630221839,-0.9163803796421752
2.36,-0.6925233278343804,0.2078287290910091,1.1931171669270484,0.0234404684574652,0.1438823588027748,0.0147640029296086,0.1697682783863101,-0.9463074931027168,0.34168737353286,-0.6867326444892011,0.2087311804257423,1.194183676874771,0.3820745451598424,-1.263220912625245,0.4946697707832847,1.3443608451241431,0.5206908661694126,0.0539349717907255,1.2382560811918435,11.745684622817862,-0.9550794333155326,0.2012967959239805,-0.9133709017213903
2.38,-0.6891822293501888,0.1898338744656361,1.1998578470844348,0.02736168213228,0.1461460671634093,0.0153534623529969,0.1814673833799875,-0.9479058686444504,0.3666158954334429,-0.6794911535919648,0.1838667621791978,1.203677072284476,0.4220745457558889,-1.3032209132212913,0.5346697713793311,1.3791800699812002,0.5849552496838702,-0.0799187770866793,1.2464260950291433,11.813800412987804,-0.9553278559349516,0.2004196703493125,-0.911359934625439
2.4,-0.6854086738344289,0.1708437695561522,1.2074804510757222,0.0309111715321496,0.1483503014767859,0.0159412999224748,0.1953290549726032,-0.9509574475296864,0.3944064268331786,-0.6801088601811894,0.1424385810334136,1.218188641856107,0.2814673848701037,-1.0176203775951609,0.4664841557574442,1.560265769439651,0.6930835796307849,-0.1525789442617942,1.3895265699867847,11.911062794289135,-0.955310187094776,0.2002038233946176,-0.9093015985769984
2.42,-0.6813370556240459,0.1516132852173208,1.2154148525064403,0.027930025097137,0.1485821187938189,0.016025685895938,0.2109573070956437,-0.969539792795632,0.3964436615148592,-0.6801088601811894,0.1424385810334136,1.218188641856107,0.2814673848701037,-1.0176203775951609,0.4664841557574442,1.2182940379403202,0.7814126061520238,-0.92911726329728,0.1018617340840299,12.021105860995704,-0.9557461985890806,0.2071429510910564,-0.9028630730459763
2.44,-0.6769613826541665,0.1321673433661209,1.223394503952337,0.018509698634644,0.1454085791558388,0.0156058581752567,0.2255785374818265,-0.9732439971595084,0.4016153166507445,-0.6801088601811894,0.1424385810334136,1.218188641856107,0.2814673848701037,-1.0176203775951609,0.4664841557574442,0.797257055189424,0.7310615193091397,-0.1852102181938208,0.258582756794265,10.31504174163274,-0.9567924698748468,0.2147470185043136,-0.9000697649220076
2.46,-0.672558958452469,0.1137127168654994,1.231107613126206,0.0095262656340905,0.1403056195419622,0.0152344128045218,0.2367776262719209,-0.9694124214888152,0.4100415554562746,-0.6772941863324884,0.132262377257462,1.2228534834136815,0.3014673851681269,-1.031563279385303,0.4864578078222444,0.7264675874677521,0.5599544395047201,0.1915787835346571,0.4213119402765031,10.618871157485046,-0.9609256018811873,0.2244964772547548,-0.8914697897793206
2.48,-0.6677317628005031,0.0944056561814409,1.2394280480636537,0.001960609033184,0.1343216960877185,0.0150485841706258,0.2451505026664456,-0.9618584982772602,0.4216863266235172,-0.6716648386350863,0.1119099697055587,1.2321831665288303,0.3414673857641733,-1.0594490829655872,0.526405111951845,0.810505259917394,0.418643819726236,0.3776961605777507,0.5822385583621331,10.804879053309378,-0.966666993265666,0.2331906987017981,-0.8807719028677743
2.5,-0.6627725147998854,0.0752719573899304,1.2480077194929096,-0.0030715502938278,0.1291661698382284,0.0151042860701138,0.2502371443164877,-0.9525905224567576,0.4357041122866651,-0.6660354909376842,0.0915575621536555,1.2415128496439791,0.3814673863602198,-1.0873348865458712,0.5663524160814455,0.8778775740149045,0.2543320825021011,0.4633987910251269,0.7008892831573965,11.09657328602043,-0.9717633935157616,0.2400171576316537,-0.8708670733666568
2.52,-0.6577433573340482,0.056327495713608,1.2568905425422088,-0.0058026217283509,0.1262400044801339,0.0153518018142392,0.2523829400082498,-0.9429614510718188,0.4518883223729825,-0.6584061432104799,0.0698108644227381,1.252839897965608,0.4214673869562662,-1.1152206901261552,0.6062997202110461,0.9476973554425064,0.1072897845881049,0.4814535692469424,0.8092105043158659,11.09657328602043,-0.9749596740446572,0.2447119540592895,-0.8637684933158719
2.54,-0.6529357272324287,0.0385108084821414,1.2656399620562315,-0.0064849648706515,0.1263479466413418,0.0157223126232222,0.2539840374473019,-0.933314174353367,0.4682918033876839,-0.6507767954832755,0.0480641666918207,1.264166946287237,0.4614673875523127,-1.1431064937064397,0.6462470243406466,0.9548660252770964,0.0800548719526061,0.482363835922589,0.820174050735073,11.236376282234232,-0.9770251132499024,0.2477985719861895,-0.8587878645014653
2.56,-0.6478194278073759,0.0199505388164637,1.275200103432177,-0.0052059465484771,0.1288073497711085,0.0162494680287547,0.2578500426363223,-0.9234033475990046,0.4869242538423976,-0.6421474477411699,0.0256203238713961,1.276492677212106,0.5014673881483591,-1.1709922972867235,0.6861943284702471,1.0727752479246064,0.1933002594510208,0.495541337718125,0.931622522735684,11.28506424079751,-0.977254495802843,0.2494587120869104,-0.8561869438261231
2.58,-0.6425978627662667,0.001581140395094,1.2851515466740695,-0.0020133205590316,0.1325966694722301,0.0169191933034533,0.2643339442159904,-0.914523218934717,0.507284389428888,-0.6325180999841632,0.0024793359614645,1.2898170907402149,0.5414673887444056,-1.1988781008670075,0.7261416325998475,1.1569710302006206,0.3241950789834025,0.4440064332143778,1.0180067793245178,11.456676322442943,-0.9765113401383352,0.2499882020058966,-0.8547469743161829
2.6,-0.6372177853799049,-0.016644255636507,1.2955298117192378,0.0019883382861946,0.136719364893933,0.0176653597439086,0.2734596371296269,-0.9086318289683524,0.5295208994788257,-0.6293811655554672,-0.0441450205516417,1.310515766145514,0.3643339457061065,-0.9351239439000508,0.580846743278299,1.2373854756004297,0.4562846456818259,0.2945694983182312,1.1118255024968882,11.57067867697242,-0.9759508619650674,0.2505663360022305,-0.8526692199073956
2.62,-0.6319162708665989,-0.0340682641511242,1.305515492134879,-0.0008575828649794,0.1390498828974364,0.0179240904552199,0.2837891175918421,-0.9220428845121228,0.5204970432493434,-0.6293811655554672,-0.0441450205516417,1.310515766145514,0.3643339457061065,-0.9351239439000508,0.580846743278299,0.9591461810742749,0.5164740231107634,-0.6705527771885156,-0.4511928114741159,11.57067867697242,-0.9703621925054398,0.2564121749279493,-0.8531910899300134
2.64,-0.626137670977465,-0.052503060227604,1.3158586662169796,-0.0105526639661305,0.1389346377828123,0.017750646705972,0.2933687017014691,-0.9197994362884816,0.5146613538478763,-0.6293811655554672,-0.0441450205516417,1.310515766145514,0.3643339457061065,-0.9351239439000508,0.580846743278299,0.5719632034405103,0.4789792054813474,0.1121724111820599,-0.2917844700733585,9.640255879309734,-0.9692617623932064,0.2644289004618416,-0.8517950923656317
