t,x,y,z,roll,pitch,yaw,v_x,v_y,v_z,ref_x,ref_y,ref_z,ref_v_x,ref_v_y,ref_v_z,a_com,a_x,a_y,a_z,thrust,wind_x,wind_y,wind_z
0.0,0.7050906433384813,2.392509032593992,1.8251171326107145,0.0314244033820309,0.0996742032150866,0.0422244607217754,0.0001579513687824,0.003962946247521,-0.0002186441606974,0.7050924316969281,2.3926858269882594,1.8251124419367284,-0.0999148111998651,-0.0946227481848419,-0.100172839813515,0.1986057455403056,0.0078975684391223,0.1981473123760508,-0.0109322080348718,10.2549900996828,-0.9404629643222598,0.2521860630431627,-0.8795853537723702
0.02,0.7052557700770811,2.3927948957937195,1.8250187151463708,0.0396885733404821,0.093868291933177,0.0425768021035046,0.0159228488864809,0.0212823969762838,-0.0102245453079415,0.7050924316969281,2.3926858269882594,1.8251124419367284,-0.0999148111998651,-0.0946227481848419,-0.100172839813515,1.273394503932305,0.7882448758849233,0.8659725364381434,-0.5002950573622039,9.629806278761407,-0.9525214544211416,0.2489892695872631,-0.8649528975535902
0.04,0.7056900230412253,2.393235024381466,1.8246325331811677,0.053736671915819,0.0774928268612114,0.042727406499868,0.0252724003158158,0.0211338872481464,-0.028133275316447,0.7050924316969281,2.3926858269882594,1.8251124419367284,-0.0999148111998651,-0.0946227481848419,-0.100172839813515,1.0101469912674563,0.467477571466745,-0.0074254864068704,-0.8954365004252788,9.629806278761407,-0.9560551773533948,0.2380370521062413,-0.8620228126299154
0.06,0.706195677166396,2.39359663595182,1.8238592028338656,0.068055596703715,0.0549632340145675,0.0422309286417745,0.0237609208247114,0.0146460198516087,-0.0482719584147065,0.7040932835849295,2.391739599506411,1.8241107135385928,-0.1199148114978883,-0.1146227484828651,-0.1201728401115382,1.0605936433658338,-0.0755739745552179,-0.324393369826885,-1.006934154912971,9.19085751292414,-0.9664902471041183,0.2234115119770337,-0.855980342831851
0.08,0.7065666881212912,2.39378864062094,1.822676367489236,0.0818080944027555,0.0302594698278974,0.0411497665108971,0.0126250041779518,0.0045340642901009,-0.0690729212567331,0.7020949873609321,2.389847144542714,1.8221072567423229,-0.1599148120939348,-0.1546227490789115,-0.1601728407075846,1.2834916633902036,-0.5567958323379784,-0.5055977780753912,-1.040048142101334,9.090127354575998,-0.9803752052115076,0.2075883185867264,-0.8486151100451619
0.1,0.7066248297110991,2.3937543634171763,1.8211608772672765,0.0942764119778847,0.0075688996062311,0.0397799623379652,-0.0062512960738881,-0.0079104632689581,-0.0894822069333992,0.7000966911369348,2.387954689579017,1.8201037999460523,-0.1999148126899813,-0.194622749674958,-0.2001728413036311,1.5229247512578936,-0.9438150125920036,-0.622226377952956,-1.0204642838333042,9.07315708405713,-0.9960184517892576,0.1894532030486882,-0.8418118061530552
0.12,0.7062300409449788,2.393434498799365,1.819137911887736,0.1067970263325565,-0.013517854361184,0.0382170694507455,-0.0325210713076538,-0.0237221269163316,-0.1118305281920301,0.6960983948831352,2.384062234585518,1.81610034311998,-0.2399148132860277,-0.2346227502710044,-0.2401728418996775,1.8970748938887545,-1.3134887616882809,-0.7905831823686763,-1.1174160629315442,9.087401980037612,-1.0116792388223166,0.1708788141977819,-0.8358579423025733
0.14,0.7052521780009458,2.392770571035971,1.816659685562055,0.1187211250462721,-0.0304891538285151,0.0367631541962768,-0.0638389370569603,-0.0421541470808507,-0.1349351565341363,0.6921000986293356,2.380169779592019,1.8120968862939075,-0.2799148138820742,-0.2746227508670509,-0.280172842495724,2.153120951818358,-1.5658932874653249,-0.9216010082259518,-1.1552314171053082,9.10155953995536,-1.0246723042292758,0.1526172234625414,-0.8333918116760053
0.16,0.7036085170516492,2.3917115900328145,1.813713720029439,0.1300613301287041,-0.0427100561736802,0.0356167327772895,-0.0986916290177674,-0.0630806088764156,-0.1585432240612708,0.6871018023606348,2.3752773245836187,1.8070934294529333,-0.3199148144781206,-0.3146227514630973,-0.3201728430917704,2.3505147269065847,-1.7426345980403597,-1.046323089778247,-1.1804033763567243,9.12598762915968,-1.0354499523415102,0.1332060277613465,-0.8346996648322732
0.18,0.7013762154984824,2.3902783236348184,1.8104717828288817,0.1397515728212017,-0.0494886551599306,0.0349496973496463,-0.1344604662450816,-0.0865644040129134,-0.1815232060915474,0.6811035060770328,2.369384869560317,1.8010899725970586,-0.359914815074167,-0.3546227520591438,-0.3601728436878169,2.4284655261702426,-1.7884418613657054,-1.1741897568248894,-1.1489991015138312,9.16086632124825,-1.042427690825401,0.1166493420362061,-0.8377130121951217
0.2,0.6982799965487492,2.388255799702796,1.8065823581351044,0.1480855643357196,-0.0510252194085301,0.0348389124422297,-0.1727293172513201,-0.114160273188682,-0.2060865405048316,0.6946531921862283,2.385950103434173,1.8013956225243042,-0.2344604677351977,-0.1865644055030295,-0.2815232075816635,2.6596025785832413,-1.913442550311928,-1.3797934587884273,-1.2281667206642102,9.206622306007375,-1.047284185786261,0.1014625803538915,-0.8433372898925975
0.22,0.6943940938560523,2.3855034336458214,1.8023898598773755,0.1501827345636588,-0.0463159403027362,0.0352066950402137,-0.2133877362454591,-0.1580126930276666,-0.2103866554669838,0.6946531921862283,2.385950103434173,1.8013956225243042,-0.2344604677351977,-0.1865644055030295,-0.2815232075816635,2.9977628114667683,-2.032920949706947,-2.1926209919492323,-0.2150057481076106,9.217833633496866,-1.052920537898369,0.0902358226555821,-0.8492669564188691
0.24,0.6897445003602333,2.381948834890174,1.7981513212874376,0.1453024137092444,-0.0359886036172123,0.0359053889327547,-0.2488236845211764,-0.1937919505919557,-0.2130200458265131,0.6946531921862283,2.385950103434173,1.8013956225243042,-0.2344604677351977,-0.1865644055030295,-0.2815232075816635,2.521307422170446,-1.7717974137858663,-1.788962878214453,-0.1316695179764626,10.66995059175406,-1.0522679210953163,0.0927815013679846,-0.8517368142386375
0.26,0.6847257721831426,2.377985751727032,1.7940527567568858,0.1382823022495385,-0.0233399546073942,0.0367423392064247,-0.2771703491897082,-0.2210433112729764,-0.2181270606574763,0.6923085875088764,2.3840844593791424,1.7985803904484876,-0.2544604680332209,-0.2065644058010528,-0.3015232078796868,1.9825814341918877,-1.4173332334265876,-1.3625680340510342,-0.2553507415481604,10.422419146588254,-1.0463699706635947,0.0967850592833017,-0.8608567508989419
0.28,0.6789180848502112,2.373308208212109,1.7896034438985384,0.1305492461677711,-0.0089405515567414,0.0376409331267247,-0.301623356103178,-0.2450543489940384,-0.2266815530959093,0.6876193781541724,2.380353171269081,1.7929499262968542,-0.2944604686292673,-0.2465644063970992,-0.3415232084757332,1.7661107131432026,-1.2226503456734927,-1.2005518860531017,-0.4277246219216532,10.138572242351984,-1.0377100114329136,0.1007369632274718,-0.8733026396078031
0.3,0.6726728231895938,2.368184767693568,1.784945408884086,0.1233558347628364,0.0051283532207912,0.0384212354870091,-0.3213380875399413,-0.2660111323394235,-0.2388649762835516,0.6829301687994684,2.376621883159021,1.787319462145221,-0.3344604692253138,-0.2865644069931456,-0.3815232090717796,1.5622845486484591,-0.985736571838164,-1.0478391672692515,-0.6091711593821116,9.654617430625876,-1.0282681430130605,0.1042409359696963,-0.8860322951215739
0.32,0.6660764109631161,2.3626685080407257,1.7800046471934283,0.1170563086275052,0.017842507518261,0.0390004001014985,-0.3371686624292557,-0.2846671888798479,-0.2546366345447456,0.6762409594149622,2.370890595019158,1.7796889979637855,-0.3744604698213602,-0.3265644075891921,-0.4215232096678261,1.4555074297934676,-0.7915287444657193,-0.9328028270212202,-0.788582913059703,9.654617430625876,-1.018326261725217,0.1072091745408553,-0.899172450905087
0.34,0.6595459589619516,2.3570982969458902,1.774998542625163,0.1119919941516086,0.0281147102337995,0.0393351065219541,-0.3494207806319415,-0.300886953021009,-0.2715883543042883,0.669551750030456,2.3651593068792955,1.77205853378235,-0.4144604704174067,-0.3665644081852386,-0.4615232102638726,1.3234008765804393,-0.6126059101342896,-0.8109882070580554,-0.8475859879771341,9.462585214576391,-1.0086136358672977,0.1087465948905803,-0.9124810123496438
0.36,0.6524375937090993,2.3509056529744115,1.769361728442049,0.1073861503512746,0.036900489049277,0.039460168955122,-0.3607114372893827,-0.3174954153278431,-0.2913098117142532,0.6618625406310485,2.3584280187245312,1.7634280695860132,-0.4544604710134531,-0.406564408781285,-0.501523210859919,1.4073519729680366,-0.5645328328720611,-0.8304231153417052,-0.9860728704982448,9.356711522825208,-0.999597258207064,0.1093679538208819,-0.9251141798663532
0.38,0.6451154227217486,2.344387076795657,1.7633134663043664,0.103214923773238,0.043807352385037,0.0393764516929132,-0.3709180571756774,-0.3334686867822354,-0.3126097441341074,0.6531733312167399,2.350696730554866,1.7537976053747752,-0.4944604716094996,-0.4465644093773314,-0.5415232114559655,1.425664416639981,-0.5103309943147338,-0.7986635727196184,-1.0649966209927086,9.267272459042944,-0.9918447583897044,0.1096155106765231,-0.936262820841722
0.4,0.637596957823316,2.33755707297813,1.7568238727207048,0.0993392483482628,0.0490948193669841,0.0391194902813704,-0.380445425440361,-0.3486781465506203,-0.3353028160342938,0.6265695198629647,2.327713642456545,1.747682979097661,-0.4709180586657935,-0.4334686882723516,-0.4126097456242235,1.4466114930796443,-0.4763684132341794,-0.7604729884192446,-1.1346535950093188,9.19772927307622,-0.9856198191490506,0.1097061449712498,-0.9454730613602064
0.42,0.6303188484349185,2.3307801471834675,1.7505101782084764,0.0962898287976198,0.0521240443409686,0.0387057321287028,-0.3854417483261828,-0.3641526469589988,-0.3282072985700004,0.6265695198629647,2.327713642456545,1.747682979097661,-0.4709180586657935,-0.4334686882723516,-0.4126097456242235,0.8870876131397386,-0.2498161442910929,-0.7737250204189222,0.3547758732146661,9.137950676856237,-0.9909923862408616,0.1108502135406686,-0.9418815660836876
0.44,0.6225562940600071,2.3233407489791054,1.7439814525126398,0.0940886332323138,0.0526825871583138,0.0380803808865733,-0.3906653817193142,-0.3791585047366427,-0.3254736462327209,0.6265695198629647,2.327713642456545,1.747682979097661,-0.4709180586657935,-0.4334686882723516,-0.4126097456242235,0.8061249415720667,-0.2611816696565683,-0.7502928888821953,0.1366826168639784,10.8807439580969,-0.9907784199126828,0.1123570368879369,-0.9418030854139724
0.46,0.6146821057678202,2.315603698974356,1.737435268778684,0.0927269737061029,0.0506089044557334,0.0372647453819145,-0.3966682641740717,-0.3938821743145834,-0.3292571013902047,0.6218603392763068,2.323378955573822,1.7435568816414186,-0.4909180589638167,-0.4534686885703747,-0.4326097459222467,0.8172141343226771,-0.3001441227378776,-0.7361834788970373,-0.1891727578741925,10.465400961764315,-0.992101896312926,0.1124236659321452,-0.9409308009076564
0.48,0.6070778858732674,2.3079846415906315,1.731106046357514,0.0920178735093012,0.0464375812008613,0.0363270447228599,-0.4037174780531222,-0.4073991536078813,-0.3369808679133572,0.6124419781029908,2.314709581808375,1.7353046867289343,-0.5309180595598632,-0.4934686891664212,-0.4726097465182932,0.8544833451159429,-0.3524606939525249,-0.6758489646648935,-0.3861883261576243,10.124526746372794,-0.994905987757292,0.1112906155135197,-0.9393098869078446
0.5,0.5989008162726421,2.2996934730924408,1.7242448870712097,0.0919991782341549,0.0403917430476534,0.0352369689619457,-0.4139533359322244,-0.421061362499484,-0.3488813868890823,0.603023616929675,2.306040208042928,1.7270524918164498,-0.5709180601559096,-0.5334686897624676,-0.5126097471143396,1.0404939814945595,-0.5117928939551097,-0.6831104445801373,-0.5950259487862541,9.875414147656556,-0.9989005994758362,0.1090248755975892,-0.9370481049758524
0.52,0.5904864407738033,2.2911306331634425,1.717113207198487,0.0928289372663488,0.0337126111280987,0.0341404136354199,-0.4271748041872831,-0.4346370601020025,-0.3636842976089981,0.5916052557265568,2.295370834247678,1.7168002968741631,-0.6109180607519561,-0.5734686903585141,-0.5526097477103861,1.2023237438356067,-0.6610734127529327,-0.6787848801259239,-0.7401455359957898,9.681608502561176,-1.0037237170105606,0.1060350311352356,-0.934103515031068
0.54,0.5822237271676584,2.2827413545557937,1.7100551773864745,0.0943880611161449,0.0275439716654512,0.0331555634173843,-0.4420212229752016,-0.4478527873901561,-0.3785255983069995,0.5801868945234386,2.2847014604524287,1.7065481019318762,-0.6509180613480026,-0.6134686909545606,-0.5926097483064325,1.2402981546684688,-0.7423209393959268,-0.6607863644076784,-0.742065034900069,9.51635244960744,-1.0093945802772104,0.1021208087504313,-0.9305612344567662
0.56,0.5731967681857408,2.2736242515493306,1.7023129995062134,0.0964884580647687,0.021925413025786,0.0322150744636107,-0.4600397107077235,-0.4632275349752623,-0.3949485811698471,0.5677685333054192,2.2730320866422784,1.6952959069746882,-0.6909180619440489,-0.6534686915506069,-0.6326097489024789,1.441148092308833,-0.9009243866260924,-0.7687373792553104,-0.8211491431423801,9.51635244960744,-1.0139374635790266,0.0975377914417285,-0.9285329843099516
0.58,0.5637834216770283,2.264180973198056,1.6942340643292302,0.0983149990254662,0.018084766444912,0.0314106817674036,-0.4805288815341588,-0.4802335965241525,-0.4121441899889795,0.5543501720724987,2.260362712817227,1.6830437120025992,-0.7309180625400954,-0.6934686921466534,-0.6726097494985254,1.5848511075335412,-1.0244585413217682,-0.8503030774445086,-0.8597804409566229,9.490817015581342,-1.016563615963888,0.0929349645729761,-0.9288380083792704
0.6,0.553938690374056,2.2543858530177703,1.6858021229803,0.0993057044453882,0.0169976271515589,0.0308103801814916,-0.5027397466945223,-0.4983306887037807,-0.430192296902526,0.5397569776003204,2.2401692933718484,1.6736268548297812,-0.580528883024275,-0.5802335980142685,-0.5035093708986131,1.6930456577515938,-1.1105432580181709,-0.904854608981412,-0.9024053456773234,9.476857537350952,-1.0177627932061832,0.089277771219456,-0.9304928658590712
0.62,0.544167323526331,2.244663578337766,1.6777436892253943,0.097628696426011,0.0192269837642776,0.030378535701848,-0.5242108984404591,-0.5233579393916954,-0.4170113032263547,0.5397569776003204,2.2401692933718484,1.6736268548297812,-0.580528883024275,-0.5802335980142685,-0.5035093708986131,1.775607099405749,-1.0735575872968417,-1.2513625343957335,0.659049683808563,9.44823482076572,-1.023530716660788,0.0886441416551854,-0.9266077888708624
0.64,0.5334718761034106,2.2339617722196548,1.6695147970165491,0.0928753470267668,0.0244535716262379,0.0299866906116723,-0.5438277343781618,-0.5446580727049004,-0.4068700962816449,0.5397569776003204,2.2401692933718484,1.6736268548297812,-0.580528883024275,-0.5802335980142685,-0.5035093708986131,1.5340795364505078,-0.9808417968851346,-1.0650066656602508,0.507060347235494,11.43189760869518,-1.0208416238252649,0.092704179218867,-0.9287238617604728
0.66,0.5224137097487137,2.222887215033676,1.661418676416819,0.0873324518036919,0.0312865741353791,0.029664579691706,-0.5606947538312423,-0.5614859556667222,-0.4035151207038409,0.5339516887700776,2.234366957391705,1.6685917611207952,-0.6005288833222981,-0.6002335983122917,-0.5217824070805399,1.2030480573682747,-0.8433509726540278,-0.8413941480910903,0.1677487788902004,10.53478934107534,-1.0158356308541812,0.0970200804500344,-0.9337399272981678
0.68,0.511045939129681,2.211509387708153,1.6533183818136474,0.0819887886741294,0.0387637392728449,0.0293812461314013,-0.5749888351323494,-0.5754254193953505,-0.4066436555414844,0.5223411111095921,2.22276228543142,1.658521573702823,-0.6405288839183446,-0.6402335989083382,-0.5583284794443933,1.010466649022561,-0.7147040650553549,-0.6969731864314155,-0.1564267418821791,10.53478934107534,-1.0104180696126734,0.10053647437999,-0.9397349621725968
0.7000000000000001,0.500004018625713,2.2004625440223795,1.6455163527381451,0.0774876463942538,0.0457987932696386,0.029118854313624,-0.5864556051606962,-0.5867829253979878,-0.414467892142166,0.5107305334491066,2.211157613471135,1.6484513862848509,-0.6805288845143911,-0.6802335995043847,-0.5948745518082468,0.89679768602843,-0.5733385014173364,-0.5678753001318648,-0.39121183003408,10.171855667299496,-1.004461829481938,0.1036690092970638,-0.946371676172721
0.72,0.4881655231067601,2.188616451738556,1.6371015885060674,0.073532864987748,0.0526332644442017,0.028830142291728,-0.5966608945955411,-0.5973048565859354,-0.4267988213356997,0.4971199557588187,2.1975529414810477,1.6365538952486858,-0.7205288851104376,-0.7202336001004311,-0.6314206241721002,0.9577457689136518,-0.5102644717422444,-0.5260965593973765,-0.616546459676684,9.883522860954145,-0.9984841068912044,0.1058711176744577,-0.9533039154255089
0.74,0.4761399834482205,2.1765696669619103,1.628413783684819,0.0704240918124253,0.0585418631491646,0.0285169676504435,-0.6053067648219599,-0.6069561618510275,-0.4414629980909037,0.4835093780685309,2.1839482694909598,1.6246564042125209,-0.760528885706484,-0.7602336006964776,-0.6679666965359538,0.9784386097246166,-0.4322935113209414,-0.4825652632546084,-0.7332088377601992,9.651711592434369,-0.993061923103,0.1071275262308047,-0.9599229510345436
0.76,0.4639501043719876,2.1643280272162517,1.619413063475006,0.0678533541263224,0.0634822690565464,0.0281647954459538,-0.6132091185322882,-0.6167184474959635,-0.4578809942644101,0.4688988003633419,2.1693435974859705,1.6118452613672594,-0.8005288863025304,-0.800233601292524,-0.7045127688998072,1.033561819062765,-0.3951176855164162,-0.4881142822467987,-0.8208998086753183,9.541271293410318,-0.9883178503139146,0.1077198101503374,-0.9659704511117544
0.78,0.4522285408614806,2.152519720299669,1.6105447975217684,0.0656131700366945,0.0674488816632113,0.0277910636571725,-0.6202108086575331,-0.6257316261930231,-0.4748053704282035,0.4532882226432518,2.153738925466081,1.598120466712902,-0.8405288868985769,-0.8402336018885704,-0.7410588412636606,1.020656116633635,-0.3500845062622437,-0.4506589348529821,-0.8462188081896721,9.463440377010556,-0.9838837578935252,0.1080975274308443,-0.9718165067940316
0.8,0.4397509558017461,2.139910081150291,1.6008483170939658,0.0634007547139531,0.07100211416959,0.0273653674677424,-0.6271386706139167,-0.6347169445386296,-0.4940217506905537,0.4212180004286039,2.121233138990018,1.5868045290003585,-0.6536190108884634,-0.7257316276831393,-0.487245789252757,1.1157962262951966,-0.3463930978191809,-0.4492659172803226,-0.9608190131175088,9.395697370388008,-0.979787884975436,0.1082426697636053,-0.977426734127876
0.8200000000000001,0.4270892155377128,2.12708051150996,1.591128070748676,0.0606966515168667,0.0765346756933876,0.0270259119828998,-0.6381222239993075,-0.6474962671331074,-0.4750434879565618,0.4212180004286039,2.121233138990018,1.5868045290003585,-0.6536190108884634,-0.7257316276831393,-0.487245789252757,1.2689798928114322,-0.5491776692695405,-0.6389661297238891,0.9489131366995944,11.862148346943286,-0.9761985053010618,0.1081396051546493,-0.9834614018825502
0.84,0.4142509970121024,2.114017646551617,1.5818283498804708,0.0575885893468374,0.0856135898432794,0.0268591371053481,-0.6445522620818886,-0.6580162256876155,-0.4560783163073343,0.4212180004286039,2.121233138990018,1.5868045290003585,-0.6536190108884634,-0.7257316276831393,-0.487245789252757,1.1310312257146946,-0.3215019041290567,-0.5259979277254079,0.9482585824613726,11.862148346943286,-0.9711135016446004,0.1117211069312862,-0.9867068085968153
0.86,0.4019748988648945,2.101433682704979,1.5732950453622458,0.0549234738101849,0.0957706441009281,0.0267885703922903,-0.6469464357267073,-0.6661596007262529,-0.4431185446073529,0.4146818103197193,2.1139758227131864,1.5819320711078306,-0.6603006513346494,-0.7457316279811624,-0.4897338730176677,0.7746003921008008,-0.1197086822409321,-0.4071687519318689,0.6479885849990707,11.51799102921268,-0.962365471478546,0.1147215209005205,-0.9939954467502848
0.88,0.3890378772494726,2.088033582834889,1.5645348038388625,0.0527354290845647,0.1070466245844861,0.0267693814060834,-0.6462521622377091,-0.6735153550985715,-0.4338038307801981,0.40160943010195,2.099461190159524,1.5721871553227755,-0.6736639322270216,-0.7857316285772089,-0.4947100405474891,0.594459905597508,0.0347136744499099,-0.3677877186159306,0.4657356913577409,11.169397916276466,-0.9518300278521912,0.1167805019359825,-1.0033468575340223
0.9,0.37614466457518,2.074495431510337,1.5559186305130217,0.0513078795930556,0.1183425747878918,0.0267904117611151,-0.6427790116384514,-0.6799990021036465,-0.4284626350257283,0.3885370498841808,2.084946557605861,1.5624422395377204,-0.6870272131193937,-0.8257316291732554,-0.4996862080773105,0.4545019957577423,0.1736575299628839,-0.3241823502537488,0.267059787723492,10.902505588093844,-0.9402938129063836,0.1178670055094034,-1.01383038232415
0.92,0.3633575269033858,2.060837885545039,1.547372461252426,0.0508636674319383,0.1289940024786591,0.0268425304002363,-0.6359081258247143,-0.6855806151632503,-0.4264535444948228,0.3747965056217929,2.068431925022396,1.5524485153761742,-0.7003904940117659,-0.8657316297693018,-0.5046623756071319,0.4538720110723043,0.3435442906868535,-0.2790806529801903,0.1004545265452738,10.684568372157628,-0.929664145635551,0.1180252577650045,-1.0234029266663616
0.94,0.3513700923320315,2.047765252572511,1.53928179508985,0.0515912210754484,0.1377533395794739,0.02690880772088,-0.6262317516150188,-0.6903730946010818,-0.4253328510346146,0.361055961359405,2.051917292438931,1.542454791214628,-0.713753774904138,-0.9057316303653484,-0.5096385431369533,0.5428075875479552,0.4838187104847791,-0.2396239718915727,0.0560346730104077,10.519579636392336,-0.9194743680735726,0.116921581020092,-1.03265314316022
0.96,0.3389739344386255,2.033897420270229,1.5307849200653387,0.0534851264301522,0.1450550008418415,0.0269723387314914,-0.6138477157839919,-0.696241411412662,-0.4244453603054934,0.3469813350747079,2.0344026598405645,1.5323366628648365,-0.7271170557965101,-0.9457316309613948,-0.5146147106667748,0.6866387795986866,0.6192017915513437,-0.2934158405790144,0.0443745364560627,10.49816545107842,-0.9106103307175986,0.1145304781724201,-1.0408515769591171
0.98,0.3268435917294964,2.019898235968559,1.5223048024863426,0.0560798781653274,0.1502095394891948,0.02698560049773,-0.5998391006368033,-0.7036092521034866,-0.4236326350796038,0.3325726267677014,2.0158880272272968,1.522094130326799,-0.7404803366888822,-0.9857316315574411,-0.5195908781965961,0.7924438419853597,0.7004307573594271,-0.3683920345412261,0.0406362612944799,10.523115766050978,-0.9037564501629282,0.1113814404275477,-1.0473087319005323
1.0,0.3150041416366207,2.0057309529349605,1.5138420164580948,0.0585435158341838,0.153202565863769,0.0268791681318712,-0.5849068554213673,-0.7127183594381079,-0.4226794790857377,0.2968516366976563,1.9847177733633845,1.5011231707323625,-0.6087853033321731,-0.8036092535936027,-0.4050991668331438,0.8758657002591875,0.7466122607718007,-0.4554553667310668,0.0476577996933041,10.550196976562802,-0.8990028276826522,0.1083584078473645,-1.0519762486146484
1.02,0.304023114769189,1.9920287900747675,1.5059034965950524,0.0584410449582265,0.1550477424663996,0.0265539954892975,-0.5716637607271179,-0.7281964519029741,-0.4129626158545589,0.2968516366976563,1.9847177733633845,1.5011231707323625,-0.6087853033321731,-0.8036092535936027,-0.4050991668331438,1.1284594969307045,0.6621547347124723,-0.77390462324331,0.4858431615589381,10.550196976562802,-0.8954320594962748,0.107086777427669,-1.0559630760422372
1.04,0.2927479229039296,1.9773257428613336,1.4977589601648311,0.05519749634958,0.1566555892081346,0.0259763720611191,-0.5565429464921412,-0.7408601023992358,-0.4020066304128066,0.2968516366976563,1.9847177733633845,1.5011231707323625,-0.6087853033321731,-0.8036092535936027,-0.4050991668331438,1.1280964985541262,0.7560407117488344,-0.6331825248130862,0.5477992720876151,11.166243807675528,-0.8926009528440891,0.1098685267822395,-1.0579975199174518
1.06,0.281784386567063,1.9624152280188052,1.4898290671092969,0.0508101164821461,0.1574166448574844,0.025278451372382,-0.5406851976095729,-0.7493730416819878,-0.3915230302425503,0.2907637836643346,1.9766816808274488,1.4970721790640311,-0.610574543871247,-0.8236092538916259,-0.4013924731838518,1.041446358897346,0.792887444128415,-0.4256469641375993,0.5241800085128145,11.165309992422408,-0.8905859510049674,0.1137015294690578,-1.0591004780199216
1.08,0.2716657167748259,1.9481196569419228,1.4824844657641962,0.0469675682522297,0.1571102586425241,0.0245965604437664,-0.5253476147393193,-0.7551247556268796,-0.3821187605302842,0.2785880775976911,1.9606094957555764,1.4889701957273682,-0.6141530249493949,-0.8636092544876723,-0.3939790858852678,0.944409803034154,0.7668791435126776,-0.2875856972445911,0.470213485613305,11.1237457658508,-0.8897129754801184,0.1175242403922582,-1.0591223532507548
1.1,0.2613294422969098,1.932967655462753,1.4749431492328289,0.0437685756603239,0.1555148917422666,0.0238938684895794,-0.5091576061320798,-0.7599237524151293,-0.3725230563327125,0.2664123715310476,1.9445373106837045,1.480868212390705,-0.6177315060275428,-0.9036092550837188,-0.3865656985866839,0.9711131344022385,0.8095004303619757,-0.2399498394124843,0.4797852098785859,11.083590624823046,-0.8904104152823571,0.1204126203593509,-1.0580161280534568
1.12,0.2513176302578997,1.9177276787176043,1.4675921332189217,0.0415863240593366,0.1523101569348046,0.0232099848671467,-0.4929849933150896,-0.7641071578382955,-0.3630514121321186,0.2540577414104967,1.92646512558203,1.4731368984189717,-0.6213099871056906,-0.9436092556797652,-0.3791523112880999,0.9601644782607508,0.8086306408495086,-0.2091702711583098,0.4735822100296966,11.061703516297712,-0.892753831811745,0.1222266393721564,-1.055644771478545
1.14,0.242102005942245,1.903176792658113,1.460789397791445,0.040458602003956,0.1475321331368836,0.0225704559114434,-0.4781191741835444,-0.7675236978410869,-0.3534809994820156,0.2417031112899459,1.908392940480356,1.465405584447238,-0.6248884681838386,-0.983609256275812,-0.3717389239895159,0.9003584318699713,0.7432909565772639,-0.1708270001395673,0.4785206325051472,11.051090163906338,-0.8966130077743698,0.1230661494304292,-1.0521887853237817
1.16,0.2326846616723989,1.8877857110562364,1.45383397012258,0.0402274354283123,0.1409410572533696,0.0219133225388734,-0.4647565114747643,-0.771461044318027,-0.3425026528600594,0.2292590191424413,1.88932075536378,1.4578596051579689,-0.6284669492619864,-1.0236092568718582,-0.3643255366909319,0.88683079910983,0.668133135439003,-0.1968673238470053,0.5489173310978118,11.12755577644657,-0.9017994294343096,0.122839780469026,-1.047806874702805
1.18,0.2235057256405039,1.872311594001476,1.4471089699572457,0.0407989086636524,0.1335681543364528,0.0212866865678391,-0.4540923210060515,-0.7758047840251138,-0.3305221204690426,0.2167254649679831,1.8692485702323036,1.4504989605511645,-0.6320454303401344,-1.0636092574679046,-0.3569121493923479,0.830852257275789,0.5332095234356377,-0.2171869853543395,0.5990266195508409,11.12755577644657,-0.9080678296253544,0.1220183096137507,-1.04238008319855
1.2,0.2149583589582894,1.8575247289752677,1.440949911361114,0.0419124029303653,0.1264751749272759,0.0207267956843687,-0.4463506461242283,-0.7805144917088744,-0.3183797565011111,0.2008011095902014,1.83352135480022,1.4305828639337936,-0.4651346951922693,-0.8758047855152299,-0.3040422354869335,0.7575484789306333,0.3870837440911601,-0.2354853841880333,0.6071181983965723,11.173893570308792,-0.9153188937415612,0.120716662520844,-1.0359122314156175
1.22,0.2060639807504227,1.841803965846726,1.4346961168698231,0.0418111775681159,0.1203862022563242,0.0201066394273855,-0.4437574760481145,-0.7909131081315967,-0.3077237781578794,0.2008011095902014,1.83352135480022,1.4305828639337936,-0.4651346951922693,-0.8758047855152299,-0.3040422354869335,0.7556547310147406,0.1296585038056907,-0.5199308211361109,0.5327989171615866,11.212275803410192,-0.9198630711570696,0.1203097903367022,-1.0320572169482836
1.24,0.1971992649560325,1.825902070747604,1.428660464998173,0.0397239427285774,0.1172096742630571,0.0194860231081892,-0.4428706754759966,-0.7986399391829085,-0.2963052374240054,0.2008011095902014,1.83352135480022,1.4305828639337936,-0.4651346951922693,-0.8758047855152299,-0.3040422354869335,0.6907847093005278,0.0443400286058964,-0.3863415525655944,0.5709270366936997,11.096166521354462,-0.9248326273219236,0.1228184841265628,-1.0262911125569028
1.26,0.1883533279542213,1.8098693308996905,1.4228577781660707,0.0369768329503887,0.1168263413349331,0.0189492169310688,-0.4414553617797726,-0.8040850577419979,-0.2845256896388914,0.1961497626382787,1.824763306945068,1.4275424415789244,-0.4673431700295129,-0.8958047858132531,-0.2987462584905117,0.6527062413579369,0.0707656848111998,-0.2722559279544678,0.5889773892556988,11.140240947150232,-0.9280005481422582,0.126223952048926,-1.021570135945865
1.28,0.179991977089192,1.794559094969178,1.4175626824963514,0.0347152687843368,0.1181419092459367,0.0185387245631072,-0.4385867620040409,-0.8074130151020255,-0.2734460254990464,0.1868470687344333,1.8072472112347635,1.4214615968691855,-0.471760119704,-0.9358047864092996,-0.2881543044976681,0.5959511773527619,0.1434299887865864,-0.1663978680013778,0.5539832069922507,11.116415875231723,-0.9292361960431644,0.1294983923918559,-1.01851817107635
1.3,0.1712664049304795,1.7783859482378872,1.412215071125851,0.0331726705013245,0.1204281836144021,0.0182067327808669,-0.4339809411672836,-0.8098521573331322,-0.2619106450965855,0.1775443748305879,1.7897311155244586,1.415380752159447,-0.4761770693784871,-0.975804787005346,-0.2775623505048245,0.6329059990104289,0.2302910418378628,-0.1219571115553375,0.5767690201230469,11.116415875231723,-0.9291385288398042,0.1319554334088519,-1.016805853141558
1.32,0.1626486805138062,1.762172723430503,1.407096220025582,0.0328303808000497,0.122957061013454,0.0179768949741322,-0.4279347489276555,-0.8114677026364695,-0.2505652587058911,0.1680208334430181,1.7702150197843518,1.4098295051493506,-0.4805940190529743,-1.0158047876013925,-0.2669703965119808,0.6478507150181813,0.302309611981405,-0.0807772651668647,0.5672693195347189,11.085498142724646,-0.9284408871663636,0.1332935335770032,-1.0157913123169129
1.34,0.154586003340276,1.7467467269739638,1.4024423781260973,0.0339814326911775,0.125104481451556,0.0178637121905283,-0.4210682133137542,-0.8124695699775782,-0.2398856848849554,0.1584972920554484,1.7506989240442448,1.404278258139254,-0.4850109687274613,-1.0558047881974388,-0.2563784425191372,0.6368012768968214,0.3433267806950635,-0.0500933670554371,0.5339786910467825,11.078744446105702,-0.927799045699468,0.1331797512998643,-1.0150044198283912
1.36,0.1462480107032506,1.7304766975178345,1.3977648976930197,0.0366547396281357,0.1268169296061328,0.0178391740417068,-0.4130897834043034,-0.8147354085082907,-0.2284159258505693,0.1488633269260165,1.7301828282892366,1.3989918099789789,-0.4894279184019485,-1.0958047887934852,-0.2457864885262936,0.7077159394385627,0.3989214954725428,-0.1132919265356247,0.573487951719305,11.078744446105702,-0.9277716507997504,0.1316714499500579,-1.0138067725876263
1.38,0.1380757325895794,1.7141334640410175,1.3933205986894317,0.0399045186167935,0.1278299592015496,0.0178389170664971,-0.4045701308342375,-0.8195928548312115,-0.2165688935523909,0.1391189380547224,1.7086667325193274,1.3939701606685244,-0.4938448680764356,-1.1358047893895316,-0.2351945345334499,0.7689789317152499,0.4259826285032964,-0.2428723161460366,0.5923516149089231,11.094970466573614,-0.928416211504028,0.1296280865752007,-1.0120823532391152
1.4,0.1300773201856485,1.69767337230449,1.389118541052128,0.0427927509984841,0.1280728698570629,0.0177896850419057,-0.3957959286623309,-0.826066232985331,-0.2042209679926954,0.1178472260478675,1.673153821299457,1.3824921540118122,-0.3975910346190192,-0.9195928563213276,-0.1923310689484757,0.8236542267655487,0.4387101085953276,-0.3236689077059762,0.6173962779847719,11.122184544686206,-0.929651516310596,0.1279957292107955,-1.00985604905778
1.42,0.1226024769290945,1.6818424991183294,1.3853140972164273,0.0427924206710271,0.1287075070020835,0.0175759979067562,-0.3912355776791579,-0.8389085271594212,-0.1968256378401672,0.1178472260478675,1.673153821299457,1.3824921540118122,-0.3975910346190192,-0.9195928563213276,-0.1923310689484757,0.7752616152120704,0.2280175491586489,-0.6421147087045109,0.3697665076264109,11.15307832383769,-0.92896385562514,0.1285672765779168,-1.009355265802242
1.44,0.1148403370141161,1.6649648442185814,1.3814658647417006,0.0395479886280739,0.1304872275410392,0.0171825642423354,-0.3850636386739108,-0.8477549002137635,-0.1883183853813076,0.1178472260478675,1.673153821299457,1.3824921540118122,-0.3975910346190192,-0.9195928563213276,-0.1923310689484757,0.6868851645287184,0.3085969502623548,-0.4423186527171163,0.4253626229429819,10.932637319718197,-0.9283131733217544,0.1320185490178301,-1.0088146856529074
1.46,0.1072161380544104,1.6479588832745702,1.3777906851329786,0.0354253875914156,0.1327095000367087,0.0167546998993577,-0.3775848022186481,-0.8523253733994539,-0.1796309189620313,0.1138713157016773,1.6639578927362435,1.3805688433223275,-0.3961952153759755,-0.9395928566193508,-0.1874835040276926,0.6170378688778626,0.3739418227631352,-0.2285236592845185,0.4343733209638128,10.932637319718197,-0.9273568142242188,0.1363559755700206,-1.0081692428159714
1.48,0.0997533303058786,1.6308901611226452,1.3742875082799817,0.0319177855660265,0.1348874986869624,0.0163771582861054,-0.369036663268146,-0.8545524164377154,-0.1711324392437991,0.1059194950092969,1.6455660356098172,1.376722221943358,-0.3934035768898882,-0.9795928572153972,-0.1777883741861265,0.6128918292255263,0.4274069475251052,-0.1113521519130744,0.4249239859116113,10.910528215370505,-0.9263775164880164,0.1404972358164345,-1.0073934815184526
1.5,0.0928303845104073,1.6146452094162782,1.3711156890744538,0.0295890606773698,0.1366103648080636,0.0160871943187797,-0.3601317536277852,-0.8556324272338661,-0.1631772682189737,0.0979676743169165,1.6271741784833906,1.3728756005643885,-0.3906119384038009,-1.0195928578114437,-0.1680932443445605,0.5994759900467556,0.4452454820180418,-0.054000539807536,0.3977585512412701,10.910528215370505,-0.9256406845741398,0.1436683040870477,-1.0064950764929383
1.52,0.0857315473389631,1.597529506857452,1.3679416179829906,0.0283379256857983,0.1378776773303139,0.0158614071958772,-0.3502327962240087,-0.8560318916864564,-0.1546426812442563,0.0901554355488405,1.6067823213271617,1.3695137356774971,-0.3878202999177135,-1.05959285840749,-0.1583981145029944,0.6538120990767897,0.4949478701888221,-0.0199732226295157,0.4267293487358686,10.903095442533411,-0.9252302874459174,0.145690579792261,-1.005456574507558
1.54,0.0788348389392601,1.5804146307634817,1.364939590247706,0.0286794116245296,0.1384760567709055,0.0157400749284352,-0.3400051486670404,-0.8557051173130524,-0.1459883048603012,0.0823431967807645,1.5863904641709328,1.3661518707906062,-0.3850286614316262,-1.0995928590035366,-0.1487029846614283,0.6700928790769147,0.5113823778484183,0.0163387186702002,0.4327188191977582,10.914310608045524,-0.9253971760652352,0.1463070319275729,-1.0040794734651175
1.56,0.072143844211123,1.563297634639045,1.3621143770118516,0.0305584956837211,0.1383883974934774,0.0157163893805805,-0.3296962028825271,-0.8561571940591363,-0.1369597882601212,0.0746007489748406,1.5649986069998028,1.363032384149754,-0.3822370229455389,-1.139592859599583,-0.1390078548198622,0.685552420628993,0.5154472892256651,-0.0226038373041914,0.451425830008996,10.919600896441809,-0.9263703822460264,0.1455732812357864,-1.0020947859931617
1.58,0.0659775842921866,1.5470145556127717,1.3596033824681082,0.0333674397136153,0.1377091479108523,0.0157526704994982,-0.3199878959024351,-0.8581359950433258,-0.127805806413648,0.066928092131069,1.5426067498137717,1.360155275754941,-0.3794453844594516,-1.1795928601956294,-0.1293127249782961,0.6744669402578125,0.4854153490046003,-0.0989400492094783,0.4576990923236615,10.941293868697358,-0.9283059150338996,0.1438391482086936,-0.9993450393176638
1.6,0.0596834399503512,1.5298093824977428,1.3571549948114685,0.0364591044015205,0.136442911944206,0.015784072790565,-0.3099996781677378,-0.8623185199502301,-0.1174742248363058,0.0499781894970648,1.5041077558606053,1.3532130921474257,-0.3138570427002411,-0.958135996533442,-0.1068035622093653,0.7483307858191339,0.4994108867348634,-0.2091262453452147,0.5165790788671111,10.976179177503582,-0.9308201713739284,0.1419663341514085,-0.9960844512098888
1.62,0.053577516844533,1.512443946742563,1.3548694448515584,0.0370639915878517,0.1347282214998368,0.0156294253855583,-0.3012021201278214,-0.873302943702734,-0.1118014030870439,0.0499781894970648,1.5041077558606053,1.3532130921474257,-0.3138570427002411,-0.958135996533442,-0.1068035622093653,0.7586756540827716,0.4398779019958221,-0.5492211876251929,0.2836410874630962,10.720847733092342,-0.9336729591093572,0.1425043016080264,-0.9920328274641202
1.64,0.0476418499822492,1.4948984163008132,1.3526980279564296,0.0345741626262129,0.1326784929776777,0.0152626535229888,-0.2928685506216847,-0.8805027919393814,-0.1055324578196503,0.0499781894970648,1.5041077558606053,1.3532130921474257,-0.3138570427002411,-0.958135996533442,-0.1068035622093653,0.633612401452855,0.4166784753068309,-0.3599924118323716,0.3134472633696789,10.720847733092342,-0.9358403075273788,0.1449324786273853,-0.9891767351783196
1.66,0.0421513900457719,1.478131119592819,1.350757378092921,0.0312224724170166,0.1304789216250288,0.0148598812230905,-0.2855676012436297,-0.8839746092507392,-0.0990495689637438,0.0468396190700624,1.4945263958952708,1.352145056525332,-0.3126308720598023,-0.9781359968314652,-0.1026031133685087,0.518134213265259,0.3650474689027544,-0.1735908655678908,0.3241444427953252,10.775331965270198,-0.9384009562278351,0.1486957736276311,-0.985466542632348
1.68,0.0365133716463348,1.4604387080203078,1.3488502160821605,0.0281667892370158,0.1280441506813231,0.014491404650444,-0.2787078251255636,-0.8852339633246717,-0.0919980908709885,0.0405624782160576,1.475363675964602,1.3500089852811448,-0.3101785307789247,-1.0181359974275117,-0.0942022156867956,0.4958977827287762,0.342988805903302,-0.0629677036966258,0.3525739046377616,10.78908218462675,-0.941423073742556,0.1521670071504142,-0.9812034563162167
1.7,0.0310029318541627,1.4427334004649173,1.3470853481089642,0.0261621408936774,0.1256910874520048,0.0142221706883675,-0.2727643619699337,-0.8854454892004698,-0.084835600094606,0.0342853373620527,1.4562009560339333,1.3478729140369574,-0.3077261894980471,-1.058135998023558,-0.0858013180050825,0.465485691510027,0.2971731577814968,-0.0105762937899045,0.3581245388191253,10.793119476053109,-0.9444121851527858,0.1547127114753321,-0.9770605156383972
1.72,0.0256016185065978,1.425033539713175,1.3454660111868015,0.0255144228874726,0.1236677203942481,0.0140743596507079,-0.2677252303778167,-0.8847875388083365,-0.077450503350198,0.0281308135720918,1.435038236073462,1.3461568876768557,-0.3052738482171696,-1.0981359986196044,-0.0774004203233694,0.448233755549058,0.251956579605847,0.0328975196066672,0.3692548372204,10.793266261542158,-0.9468511588956472,0.1559878882976595,-0.9736863018130444
1.74,0.0205565702985268,1.408236595123268,1.3440660106374571,0.0264832493902065,0.1222609608914263,0.0140685551209905,-0.2635625840561819,-0.8835977499961855,-0.0702839046402693,0.0219762897821309,1.413875516112991,1.3444408613167542,-0.3028215069362919,-1.138135999215651,-0.0689995226416563,0.4186387430879174,0.2081323160817411,0.0594894406075519,0.3583299354964389,10.802265772588726,-0.9492044726641216,0.1559287642882951,-0.9704935921358332
1.76,0.0153308957138657,1.3905692647743977,1.342742942334895,0.0291373260577241,0.1213131641365536,0.0141965074898469,-0.2592019572033112,-0.8834354026412854,-0.0623810927982787,0.0158830745241919,1.3917127961376188,1.3429348573986954,-0.3003691656554144,-1.1781359998116974,-0.0605986249599432,0.4513752823968301,0.2180313426435376,0.008117367745003,0.3951405920995295,10.806138348848435,-0.9515132898064044,0.1544586120023912,-0.9675016124641812
1.78,0.0101938624578318,1.3728767817829428,1.3415833655790788,0.0325774117883788,0.1207637232219665,0.0143939894596025,-0.2546990529413735,-0.8859838557329308,-0.0539716759105846,0.0098511677982748,1.3685500761473453,1.3416388759226794,-0.2979168243745367,-1.2181360004077435,-0.0521977272782301,0.4936827228684634,0.2251452130968834,-0.1274226545822709,0.4204708443847044,10.823655494605193,-0.9533636944244276,0.1523740805857998,-0.9651500936472356
1.8,0.0053990269989849,1.3560017774933046,1.3406424078493129,0.0356069694115129,0.1204741110383439,0.0145754674366064,-0.2502390130742281,-0.8901229663202793,-0.0454920689632816,-0.0025410901892368,1.3285775889962963,1.3388847817835494,-0.2402706431935941,-0.9859838572230468,-0.0268470288594886,0.5218427111007103,0.2230019933572719,-0.2069555293674252,0.4239803473651479,10.881857230417154,-0.9549279699910516,0.1503436379626467,-0.9630869061804812
1.82,0.0004283655061804,1.3380774659647403,1.3397993690673964,0.0360410809530212,0.1207431809421477,0.014601121220266,-0.2470136433312823,-0.9013485533493576,-0.0393688517300545,-0.0025410901892368,1.3285775889962963,1.3388847817835494,-0.2402706431935941,-0.9859838572230468,-0.0268470288594886,0.6593758476988144,0.1612684871472855,-0.5612793514539194,0.3061608616613552,10.881857230417154,-0.9556029453592642,0.1508620694177303,-0.9614022264437948
1.84,-0.0044719697467372,1.3199701882379529,1.339082095267831,0.0331018637673666,0.1218012794337789,0.0144316518165144,-0.2430758723236817,-0.9084578112839262,-0.0325956724963974,-0.0025410901892368,1.3285775889962963,1.3388847817835494,-0.2402706431935941,-0.9859838572230468,-0.0268470288594886,0.5289696253561503,0.1968885503800338,-0.3554628967284257,0.338658961682858,10.717793829983748,-0.955230065221294,0.1537169958666512,-0.9610999073552388
1.86,-0.0092851807016567,1.3017683488534082,1.3385036364222695,0.029216019591219,0.1232577014449647,0.0142215196417579,-0.2383727529140163,-0.9112980248417024,-0.0255928294356847,-0.0049437966211728,1.318717750424066,1.3386163114949543,-0.2373849612440382,-1.0059838575210702,-0.0214220994492694,0.4450448184405637,0.2351559704832653,-0.1420106778888097,0.3501421530356331,10.760175438839724,-0.954644101519859,0.1575695594208022,-0.960497885752075
1.88,-0.0137639314482496,1.2844510961096387,1.3380827917188098,0.0261278646234606,0.1247413375153827,0.0140774708092393,-0.2332711916028437,-0.9116910061721202,-0.0190652118250712,-0.0097492094850446,1.298998073279605,1.3380793709177647,-0.2316135973449265,-1.0459838581171166,-0.010572240628831,0.4146991494086472,0.2550780655586324,-0.0196490665208881,0.3263808805306759,10.760175438839724,-0.954053412914948,0.1612758938845348,-0.9596944194797224
1.9,-0.0183676464914901,1.2662253301056543,1.3377738423472,0.0240097550830788,0.1262083823357684,0.0140134414641269,-0.2273342408513308,-0.9111056686546176,-0.012177994386347,-0.0145546223489165,1.279278396135144,1.337542430340575,-0.2258422334458147,-1.085983858713163,0.0002776181916072,0.4555868969898938,0.2968475375756466,0.0292668758751279,0.3443608719362075,10.748119324895017,-0.9534856170488002,0.1639985880684694,-0.9589817331473328
1.92,-0.0228468806319104,1.248020740257184,1.337603876347443,0.0233305631343316,0.1274243402519221,0.0140551653753161,-0.2208883712230481,-0.9096584320537122,-0.0051677477923674,-0.0190714670178328,1.2575587189608806,1.3375479827044072,-0.220070869546703,-1.1259838593092093,0.0111274770120456,0.4816307879284209,0.3222934814141348,0.0723618300452699,0.3505123296989818,10.749184995348514,-0.952984288236503,0.1654220803558393,-0.9584437757570484
1.94,-0.0269790831404736,1.2307590604235576,1.3375745441806994,0.0243366620566245,0.1282569988570074,0.0142122691944231,-0.214421386872794,-0.907699506197727,0.0017277362264443,-0.0235883116867491,1.2358390417866174,1.3375535350682393,-0.2142995056475913,-1.165983859905256,0.021977335832484,0.4827188025894798,0.3233492175127056,0.0979462927992613,0.3447742009405917,10.756512038461551,-0.9527317352578636,0.165456057235159,-0.9578058841468424
1.96,-0.0311932577067026,1.212617947184198,1.337690280071283,0.0270973121725851,0.1287468184989917,0.014494900220955,-0.2073526508592113,-0.906786523666371,0.0095078010604218,-0.0279608722581876,1.213119364597453,1.3378303339025823,-0.2085281417484795,-1.2059838605013022,0.0328271946529224,0.5275651020328541,0.3534368006791341,0.0456491265677982,0.3890032416988719,10.771052248008344,-0.9532297050828163,0.1640483164102313,-0.9565999101667328
1.98,-0.0352638356938911,1.194465320630293,1.3379687444261423,0.030655997410438,0.1288180132311523,0.0148267686095821,-0.2000905927479236,-0.9086947084048652,0.0179804152379365,-0.0321891487321483,1.1893996873933874,1.3383783792074364,-0.2027567778493678,-1.2459838610973486,0.0436770534733608,0.5660473655290771,0.3631029055643817,-0.0954092369247094,0.423630708875734,10.845633255878964,-0.95420797083563,0.1619182425184061,-0.9550842448898386
2.0,-0.0391882187010527,1.1762519934103848,1.3384250412728174,0.0339352407134041,0.1284699531651071,0.0151288144937536,-0.1927783058123467,-0.9124584640048664,0.0272305417145962,-0.0452683653312872,1.14903058521005,1.3388677651880392,-0.1767022777557342,-1.0086947098949812,0.0373268479982943,0.6188704151091564,0.3656143467788475,-0.1881877800000653,0.4625063238329863,10.845633255878964,-0.955513265786431,0.1601586407668305,-0.9531954823686672
2.02,-0.0428009180720773,1.1588031337293074,1.3389676199807845,0.0342512461511587,0.1281467060817622,0.0152248171689408,-0.1878298642317159,-0.9229062600406248,0.0294485567830995,-0.0452683653312872,1.14903058521005,1.3388677651880392,-0.1767022777557342,-1.0086947098949812,0.0373268479982943,0.5885641573478368,0.2474220790315395,-0.5223898017879092,0.1109007534251629,10.890241776740368,-0.9563964370904094,0.1613084723091649,-0.9505870102602738
2.04,-0.0465023655167075,1.1402749730573831,1.339588590072588,0.0313881309995743,0.1281468205094412,0.0151261358341464,-0.1825364519119243,-0.929070104462372,0.0326159685974436,-0.0452683653312872,1.14903058521005,1.3388677651880392,-0.1767022777557342,-1.0086947098949812,0.0373268479982943,0.4360208987092126,0.2646706159895817,-0.3081922210873722,0.1583705907172071,10.478476354560373,-0.9559800198543564,0.1637408450454711,-0.9507446162171678
2.06,-0.0500961030079854,1.1216691271798511,1.3402792766940437,0.0276779356374674,0.1284122093993542,0.0149913449086913,-0.1770682898980154,-0.9311604211622424,0.0362898315261846,-0.0470353881088446,1.1389436381111002,1.339241033668022,-0.1720246147572963,-1.0286947101930044,0.0411961345503659,0.3455701395349772,0.2734081006954422,-0.1045158349935126,0.1836931464370496,10.54086853275112,-0.955764773061446,0.1672012373366493,-0.9500840964642124
2.08,-0.0535784486199679,1.1030496987047729,1.341044908153348,0.0246625969287091,0.1288508881843751,0.0149237465584874,-0.1714083441271286,-0.9309730889783596,0.0400820108730004,-0.0505694336639593,1.1187697439132005,1.339987570627988,-0.1626692887604206,-1.068694710789051,0.048934707654509,0.3407737654035095,0.2829972885443413,0.0093666091941391,0.1896089673407912,10.555723057796058,-0.9556674752929096,0.1705215556020713,-0.9490786360905328
2.1,-0.056779574976576,1.0853756197606568,1.3418439604333576,0.0229147576761682,0.1293520728247398,0.0149508585098372,-0.1658136632619289,-0.9297827559595552,0.0438331132171836,-0.054103479219074,1.098595849715301,1.340734107587954,-0.1533139627635448,-1.1086947113850971,0.0566732807586522,0.3420091938662793,0.2797340432599854,0.0595166509402278,0.1875551172091604,10.558633469164306,-0.955498224471208,0.1728740221955289,-0.9482481568182852
2.12,-0.0600317988897959,1.0668023282476655,1.34276554230164,0.0225054641921184,0.1299007114228331,0.0150898261022084,-0.1596822039566242,-0.9277701333585432,0.0481426010329276,-0.0571697584743449,1.0764219554875991,1.3418675732031269,-0.1439586367666691,-1.1486947119811437,0.0644118538627953,0.3879984799607988,0.3065729652652324,0.1006311300505935,0.2154743907871965,10.566890675013385,-0.9551869526109318,0.173957882255148,-0.9477739352490508
2.14,-0.0631586625598913,1.0482766492980016,1.3437763364702549,0.0240117771059271,0.1304041750699679,0.0153694242913339,-0.1533029200861618,-0.9252122252517296,0.0527175852254723,-0.0602360377296158,1.0542480612598972,1.3430010388183,-0.1346033107697933,-1.1886947125771905,0.0721504269669385,0.4128215018167037,0.3189641935231233,0.1278954053406777,0.2287492096272377,10.589262654490083,-0.9549543315370504,0.1735403340373013,-0.947428256242197
2.16,-0.0660075793417435,1.0307103831371294,1.3448259063347148,0.0270446363672692,0.1307565938785818,0.0157483361966611,-0.1469116140061575,-0.9243938894446574,0.0575301447092075,-0.0630684338349648,1.031074167017294,1.3443279687610763,-0.1252479847729175,-1.2286947131732366,0.0798890000710816,0.4021168850158063,0.3195653040002161,0.0409167903536122,0.2406279741867582,10.602348111036918,-0.9553772571617642,0.1717538385566679,-0.9465601473155518
2.18,-0.0688724733966446,1.0122046388139998,1.346036341820868,0.0307425638149219,0.1309191188944892,0.0161789616204929,-0.1399240667488079,-0.9263324801234648,0.0632935973409453,-0.0656669467903919,1.0069002727597898,1.3458483630314568,-0.1158926587760418,-1.268694713769283,0.0876275731752248,0.4631450548476638,0.3493773628674798,-0.0969295339403708,0.2881726315868898,10.67598999484835,-0.9558317697681974,0.1693713031994547,-0.9458917429176966
2.2,-0.0715952092209068,0.9936394833864116,1.3473702861484604,0.0340517846651348,0.1308170272770564,0.0165750059318731,-0.1327424068924539,-0.9299803298249004,0.0698144100583168,-0.075868676734085,0.9658880148078266,1.3492010216879151,-0.0960452991094093,-1.026332481613581,0.0894265739772358,0.5181796122766338,0.3590829928176997,-0.1823924850717861,0.3260406358685748,10.67598999484835,-0.9564918852380848,0.1674143480647975,-0.944980637676163
2.22,-0.0740762087852437,0.9758562000472164,1.348724991709548,0.0342913732975185,0.1312299854792668,0.0167686405745947,-0.1285889151250477,-0.9405622177932772,0.0724863674374885,-0.075868676734085,0.9658880148078266,1.3492010216879151,-0.0960452991094093,-1.026332481613581,0.0894265739772358,0.5838818439403931,0.2076745883703074,-0.5290943984188279,0.1335978689585862,10.719383241998004,-0.9558676678860212,0.1680163133374805,-0.9446689810780432
2.24,-0.0765950575465229,0.9569735810792984,1.3502140082238483,0.0311965604903853,0.1327358886962285,0.0167823379993187,-0.1233661069200567,-0.9467446074994352,0.0763509714552237,-0.075868676734085,0.9658880148078266,1.3492010216879151,-0.0960452991094093,-1.026332481613581,0.0894265739772358,0.4484273414914221,0.2611404102495516,-0.3091194853079015,0.1932302008867618,10.51312431286533,-0.954364831762679,0.1707979350214294,-0.945798317424864
2.26,-0.0789981781005447,0.9380171942732344,1.3517865952192023,0.0272614239363131,0.1349182025889834,0.016763927032887,-0.1170878088457392,-0.9485116814931372,0.0807175709962477,-0.0768291297251791,0.9556246899916908,1.3500952874276877,-0.0872695455815296,-1.0463324819116042,0.0946531693044939,0.3924498973145101,0.3139149037158749,-0.0883536996851008,0.2183299770512001,10.57730422559962,-0.9526442360761268,0.1748327553670521,-0.9464105422873542
2.28,-0.0812644651871131,0.919055237894907,1.3534482207020966,0.0241150655543651,0.1373925176069693,0.0168122729368274,-0.1097623648810179,-0.9479154235855431,0.0852101841568317,-0.0787500357073673,0.9350980403594192,1.3518838189072324,-0.0697180385257701,-1.0863324825076508,0.1051063599590102,0.430700666888537,0.3662721982360645,0.0298128953796938,0.2246306580291991,10.598381080338186,-0.9508980853831964,0.1782646367733217,-0.9469399540146116
2.3000000000000003,-0.0832719999492988,0.9010633176632278,1.355111660006196,0.0223059979832634,0.1397260519729199,0.016944032207894,-0.10187329395961,-0.9463389335655422,0.0896516831132733,-0.0806709416895555,0.9145713907271475,1.3536723503867771,-0.0521665314700107,-1.1263324831036972,0.1155595506135264,0.4594825180739668,0.3944535460703932,0.0788245010000521,0.2220749478220769,10.598381080338186,-0.948987018763746,0.1808822292837296,-0.9476703144469156
2.32,-0.085214619119013,0.8821632082811067,1.3569579941536714,0.0218738078724162,0.141953644089481,0.017185742184366,-0.0927544143235609,-0.943921249518109,0.0947632167875584,-0.0817142723189557,0.8920447410650736,1.3559835413990478,-0.0346150244142513,-1.1663324836997435,0.1260127412680426,0.5364861099630516,0.4559439818024556,0.1208842023716627,0.255576683714255,10.611499359972186,-0.9470558819078648,0.1821920372144507,-0.9486338819315038
2.34,-0.0869668800214416,0.8633173821815301,1.3589114158256277,0.0233480271382655,0.1437952245093968,0.017558371251419,-0.0829037048208562,-0.9409924560368164,0.1003386088653048,-0.0827576029483559,0.8695180914029996,1.3582947324113182,-0.0170635173584918,-1.20633248429579,0.1364659319225588,0.5845923917212246,0.4925354751352341,0.1464396740646301,0.2787696038873244,10.642297992157182,-0.945498631326233,0.1819511543849329,-0.9494047072951948
2.36,-0.0885132724497774,0.8445159902439103,1.3609840991569135,0.0266050212923638,0.1450718539572794,0.0180475543798464,-0.07226968228671,-0.939762299114404,0.1066425560788411,-0.0833621459013621,0.8459914417260245,1.3608672531899515,0.0004879896972675,-1.2463324848918365,0.146919122577075,0.6211591418097722,0.5317011267073131,0.0615078461206231,0.3151973606768117,10.671634686776088,-0.9451007663478534,0.1804328570273319,-0.9491986451217216
2.38,-0.0897800179192265,0.826646189430257,1.3630785598396062,0.0301570528780619,0.1456458441072913,0.0185294782603792,-0.0616717898279968,-0.9413804693948928,0.1135114857795506,-0.0835279011779744,0.8214647920341482,1.363701103734948,0.0180394967530269,-1.2863324854878828,0.1573723132315913,0.6366238977143343,0.5298946229356598,-0.0809085140244414,0.343446485035475,10.714468027756991,-0.9451072209989112,0.1782909588587131,-0.948750277743676
2.4,-0.0908943572429225,0.8077850607072335,1.3654332792671935,0.033533876493182,0.1455688192114294,0.0189900548423335,-0.0503796784534629,-0.9446157023126508,0.1216460112597485,-0.0928636074106263,0.7795771659605124,1.3687541341285838,-0.0049930774599853,-1.041380470885009,0.1386849691959887,0.7144036256119708,0.5646055687266934,-0.1617616458878978,0.4067262740098977,10.831101407979986,-0.9457008019867564,0.1764699046306373,-0.9476460191047238
2.42,-0.091797795006858,0.7887798962186962,1.3678858035938444,0.0339703614136652,0.1450100970308536,0.0192288759290623,-0.0406420931779833,-0.9549466958650334,0.1228743882746887,-0.0928636074106263,0.7795771659605124,1.3687541341285838,-0.0049930774599853,-1.041380470885009,0.1386849691959887,0.7124936927219839,0.4868792637739774,-0.5165496776191381,0.061418850747006,10.831101407979986,-0.9462977207868044,0.1776991230233167,-0.9454004867544192
2.44,-0.0925138177916502,0.7696141670975072,1.370365464953304,0.0309214380025006,0.1443296625774905,0.0192284080786438,-0.0314571846004376,-0.9607239836376734,0.1250847636648912,-0.0928636074106263,0.7795771659605124,1.3687541341285838,-0.0049930774599853,-1.041380470885009,0.1386849691959887,0.5536816751333322,0.4592454288772859,-0.2888643886319986,0.1105187695101254,10.394767016304286,-0.9455832260690524,0.1799637364073025,-0.9459944451735468
2.46,-0.0930271419736394,0.7513448351200328,1.372771226114331,0.0272403343785299,0.143771914782024,0.0191881703616934,-0.0230307395172976,-0.9620795631313984,0.1280395989986336,-0.0929135381852262,0.7691633612516623,1.3701409838205436,0.0063426650136169,-1.061380471183032,0.1437196658792763,0.4515905898945284,0.4213222541570027,-0.0677789746862445,0.1477417666871205,10.486329357938304,-0.9453947584640098,0.1836610559517584,-0.945314017055504
2.48,-0.0933969633328893,0.73211323183128,1.3753699342958712,0.0241064133247399,0.1433948939864162,0.019215545373035,-0.014380108480323,-0.9612204610001878,0.1316919987835428,-0.0930133997344259,0.7483357518339622,1.3729146832044634,0.0290141499608215,-1.1013804717790787,0.1537890592458515,0.4714644684345854,0.432531551848726,0.0429551065605271,0.1826199892454624,10.527052245693994,-0.9454731391816724,0.1870213139041305,-0.9441602394204364
2.5,-0.0935943328624544,0.7129106424592435,1.378046667090641,0.0222614164352872,0.1432909408844992,0.0193490972803297,-0.0057612512622852,-0.9593253217096792,0.1358118472978804,-0.0931132612836256,0.7275081424162619,1.3756883825883832,0.0516856349080261,-1.141380472375125,0.1638584526124268,0.4869532946198284,0.4309428609018912,0.0947569645254331,0.2059924257168804,10.555860792462228,-0.9454157498659238,0.189383720655281,-0.9432241318398882
2.52,-0.0936180760889975,0.6937555640024273,1.3808125024986162,0.0220394802116027,0.1434489620489239,0.0196080226569339,0.0029963956299751,-0.9565828210383333,0.1405591486237815,-0.092079548585465,0.7046805329687594,1.3789655516406318,0.0743571198552307,-1.1813804729711714,0.173927845979002,0.5166104889100509,0.4378823446130198,0.137125033567298,0.2373650662950505,10.581412724287476,-0.9451413886230724,0.1903737622916516,-0.9427582587321832
2.54,-0.0934761938437216,0.67561328359351,1.3835327341189925,0.0236496736543889,0.1437855683347937,0.0199879859848823,0.0115334719674737,-0.9535556672127932,0.1455392899651117,-0.0910458358873045,0.6818529235212569,1.3822427206928805,0.0970286048024353,-1.221380473567218,0.1839972393455773,0.5168344523524588,0.4268538168749291,0.1513576912770042,0.2490070670665103,10.61652371771197,-0.9446628395780564,0.189869857381886,-0.9426672396106336
2.56,-0.0931460480931171,0.656560823208989,1.3865052541477625,0.0270532035897956,0.144197099730424,0.0205084013154926,0.0210603545003621,-0.952335585679574,0.1514757944122254,-0.0894453360654639,0.6580253140588533,1.3857716245792933,0.1197000897496399,-1.2613804741632644,0.1940666327121525,0.5645621639681461,0.4763441266444229,0.0610040766609476,0.2968252223556872,10.687201917033237,-0.9445532897856076,0.1879761146043545,-0.9423913732819444
2.58,-0.0926192160022831,0.6374979125389513,1.3896056781131116,0.0308600187533877,0.1444728177620525,0.021050862652523,0.0311467762136762,-0.9540832283667052,0.1583080614865254,-0.0872780491199431,0.6331977045815486,1.3895522632998707,0.1423715746968444,-1.3013804747593107,0.2041360260787277,0.6153658085140512,0.5043210856657041,-0.0873821343565561,0.3416133537150007,10.687201917033237,-0.9444761908693244,0.1856091250389522,-0.9422943589960596
2.6,-0.091885773935621,0.6183804083152862,1.3928528045760504,0.0341836724925322,0.1444515805263693,0.0215466584136767,0.0416409525313423,-0.9574538698096576,0.1660637125645867,-0.0910618771915993,0.589793751120616,1.397521081187438,0.0710758942210977,-0.9767888000926698,0.1750803354144524,0.6738677243492308,0.5247088158833025,-0.1685320721476202,0.3877825539030641,10.798114575545696,-0.9446466999989392,0.1837516016667763,-0.9418696434326912
2.62,-0.0909501740367059,0.5998460968876391,1.396000549178056,0.0268097978907346,0.142512520215341,0.0212281831503416,0.0560559979973248,-0.9867583087783236,0.1651603574721719,-0.0910618771915993,0.589793751120616,1.397521081187438,0.0710758942210977,-0.9767888000926698,0.1750803354144524,1.6335235914102972,0.7207522732991279,-1.465221948433293,-0.045167754620741,10.798114575545696,-0.9501969342760608,0.191154529708672,-0.9343570252642076
2.64,-0.089687178906862,0.5800452351729386,1.3993041838315723,0.0101354164791657,0.1368767698519399,0.0202677106744077,0.0688835832687568,-0.9907701674361106,0.1653518211946226,-0.0910618771915993,0.589793751120616,1.397521081187438,0.0710758942210977,-0.9767888000926698,0.1750803354144524,0.6720837227290507,0.6413792635716016,-0.2005929328893541,0.0095731861225342,10.340690238074783,-0.9514215615633228,0.205093539620285,-0.9303387783877468
