t,x,y,z,roll,pitch,yaw,v_x,v_y,v_z,ref_x,ref_y,ref_z,ref_v_x,ref_v_y,ref_v_z,a_com,a_x,a_y,a_z,thrust,wind_x,wind_y,wind_z
0.0,0.8160451762079245,1.4497156058684657,2.391037577014816,0.0235676977281663,0.0995367016235895,0.0416079096628756,0.0009895531107885,-0.0070222853822491,-0.0007994516778594,0.8160768606989379,1.4494574017344537,2.3910115859286045,-0.0989602714519512,-0.1081940319821496,-0.1008486430508151,0.3568291970048587,0.0494776555394259,-0.351114269112455,-0.0399725838929722,10.261145495344865,-0.9401371267370732,0.256571915957773,-0.8804195067150364
0.02,0.8162226301615404,1.44985746217185,2.390931929031752,0.0300997925156193,0.0936460802871024,0.0419037533689847,0.0164128831854917,0.0166717368787294,-0.0103727360538776,0.8160768606989379,1.4494574017344537,2.3910115859286045,-0.0989602714519512,-0.1081940319821496,-0.1008486430508151,1.4924255217942264,0.7711665037351633,1.184701113048928,-0.4786642188009086,10.26031716516627,-0.9530504633763586,0.2560587876094778,-0.8628730264437032
0.04,0.8166639491409757,1.450241808961885,2.3905436320315268,0.0442336387069064,0.077224866470524,0.0422314951795571,0.025516036573973,0.0196360748871438,-0.0282446049391351,0.8160768606989379,1.4494574017344537,2.3910115859286045,-0.0989602714519512,-0.1081940319821496,-0.1008486430508151,1.013728759203102,0.4551576694240651,0.1482169004207194,-0.8935934442628752,9.662989295717123,-0.9564501691881816,0.2454948175364185,-0.8597299520032758
0.06,0.8171727156784758,1.4505947039190716,2.389770241915479,0.0589778888611474,0.0546718308057178,0.0419885527852801,0.0238364135245633,0.0151040591223739,-0.0482379013638105,0.8150872579844184,1.4483754614146322,2.3900030994980965,-0.1189602717499744,-0.1281940322801729,-0.1208486433488383,1.0284602598121753,-0.0839811524704893,-0.2266007882384959,-0.9996648212337712,9.184131600424736,-0.966934485580346,0.230963658773104,-0.8534715842864321
0.08,0.8175414418686999,1.4508139388460102,2.3885880047795465,0.0731859030125753,0.0300250872680757,0.0411769705883625,0.0124118352705373,0.0066919244576399,-0.0690287135595145,0.8131080525553794,1.4462115807749891,2.38798612663708,-0.1589602723460209,-0.1681940328762193,-0.1608486439448848,1.2585138752284533,-0.5712289127012968,-0.4206067332367004,-1.0395406097851994,9.08655569176699,-0.9807300808768922,0.2152133421093572,-0.8460497609694163
0.1,0.8175939352632414,1.4508359080546716,2.3870740161108,0.0860683845931289,0.0074285278628991,0.0400488295253697,-0.0066149701481317,-0.0042405866047097,-0.0893681845659175,0.8111288471263404,1.4440477001353462,2.385969153776064,-0.1989602729420673,-0.2081940334722658,-0.2008486445409312,1.496022395711878,-0.9513402709334532,-0.5466255531174843,-1.016973550320152,9.067222741027308,-0.9962344565621408,0.1970927214759776,-0.8393433058859288
0.12,0.817190878161322,1.4506053233930802,2.385055305385837,0.0989997310444528,-0.0135402849701312,0.0387089878513146,-0.0329708841488973,-0.0185532161350852,-0.1115154219287005,0.807149641667499,1.439883819465901,2.381952180885245,-0.2389602735381138,-0.2481940340683122,-0.2408486451369777,1.8641255923978004,-1.3177957000382825,-0.7156314765187749,-1.107361868139147,9.083073272584896,-1.0117414319977764,0.1784731647916495,-0.833585713380974
0.14,0.8162036780251206,1.4500599385056516,2.382584634084995,0.1113108505469619,-0.0303947184709801,0.0374375498120881,-0.0643158250797908,-0.035551546633141,-0.1345033919178888,0.8031704362086577,1.4357199387964557,2.3779352079944265,-0.2789602741341603,-0.2881940346643588,-0.2808486457330242,2.1212586628616035,-1.5672470465446742,-0.849916524902789,-1.1493984994594175,9.121397834804611,-1.0252958387782145,0.1592921780036292,-0.8310729956514646
0.16,0.8145504968879989,1.449147466733031,2.3796484751424973,0.1230176265997268,-0.0425067953410526,0.0364310758386544,-0.0991695364550862,-0.0551119538205461,-0.1580000569235929,0.7981912307349152,1.430556058112109,2.3729182350887066,-0.3189602747302067,-0.3281940352604052,-0.3208486463290706,2.3181263945047124,-1.7426855687647722,-0.9780203593702536,-1.1748332502852052,9.155631271067705,-1.035175323500949,0.1408290663037469,-0.8327501652109377
0.18,0.8123085548824185,1.447895158094433,2.376420632344877,0.1335885743996044,-0.0491866687156113,0.0358952004378208,-0.1349797552259982,-0.0759500553463157,-0.1806373117788535,0.7922120252462714,1.4243921774128614,2.366901262168086,-0.3589602753262531,-0.3681940358564516,-0.360848646925117,2.3606373879743128,-1.7905109385455962,-1.041905076288482,-1.131862742763029,9.155631271067705,-1.0419437796311877,0.1237656737452017,-0.8361211182188856
0.2,0.8092021678063422,1.446112508812398,2.372552987663308,0.143695607009136,-0.05063921935933,0.0359380498388066,-0.1732061067483987,-0.101207820646329,-0.2048518266847549,0.8055595671211185,1.4440976553271172,2.3673887667559343,-0.2349797567161143,-0.1759500568364319,-0.2806373132689697,2.591115295964661,-1.9113175761200292,-1.262888265000666,-1.2107257452950673,9.202234411827249,-1.046666148645596,0.1075316153152569,-0.8418756622345653
0.22,0.8053022512645349,1.4436001071270836,2.3684064690639737,0.1471158529764353,-0.0456776307593943,0.036424001639779,-0.213937349373336,-0.1454533161400619,-0.2079067607614632,0.8055595671211185,1.4440976553271172,2.3673887667559343,-0.2349797567161143,-0.1759500568364319,-0.2806373132689697,3.0108265557278764,-2.0365621312468623,-2.212274774686644,-0.1527467038354157,9.212183902870038,-1.052208171890568,0.0953154987644521,-0.8480656597425266
0.24,0.8008939532832717,1.4404776748048436,2.36442627377684,0.143751179907298,-0.0358052878092642,0.0371669361784339,-0.2474102673403774,-0.1797657390840874,-0.2106627904907654,0.8055595671211185,1.4440976553271172,2.3673887667559343,-0.2349797567161143,-0.1759500568364319,-0.2806373132689697,2.4007156773485097,-1.6736458983520706,-1.7156211472012726,-0.1378014864651125,10.659797780465851,-1.0514417325425265,0.0967756755974051,-0.8510226239785277
0.26,0.7956271353974019,1.4365708040253369,2.360158760657586,0.1373497020323387,-0.0225269392798852,0.0380978629555274,-0.2769171901421366,-0.2085107230041002,-0.2159897980858059,0.8032097695539574,1.4423381547587528,2.3645823936232446,-0.2549797570141375,-0.1959500571344551,-0.3006373135669929,2.076842316901065,-1.4753461400879615,-1.4372491960006408,-0.2663503797520214,10.405778155548433,-1.045572252119915,0.1000773637636852,-0.8601456464046409
0.28,0.7898281826874454,1.4321414883015906,2.35575023030947,0.1303469240775393,-0.0082203135913128,0.0390279633580404,-0.3010411091894296,-0.232728611740951,-0.2247287350034654,0.7985101744196351,1.4388191536220245,2.358969647357865,-0.2949797576101839,-0.2359500577305015,-0.3406373141630393,1.7641135334224245,-1.206195952364647,-1.2108944368425398,-0.4369468458829767,10.126444504830944,-1.0373766109223723,0.1031720961450925,-0.8721127350043779
0.3,0.7835982816920126,1.4272630384957836,2.351126444631716,0.1237078146518071,0.0056686159844234,0.0398250300429731,-0.3204704168599828,-0.253872039948938,-0.2372104567682882,0.7938105792853128,1.4353001524852955,2.3533569010924857,-0.3349797582062304,-0.275950058326548,-0.3806373147590858,1.5655158344438518,-0.9714653835276617,-1.0571714103993504,-0.6240860882411422,9.871572280242615,-1.027293792828383,0.1060717229723386,-0.8860949110176601
0.32,0.7773571158497935,1.42225932717767,2.3464716400854457,0.1180976368628888,0.017597761075831,0.0403906336972089,-0.3354019701857978,-0.2718536809152393,-0.252181515725886,0.7871109841211882,1.4297811513187646,2.345744154797304,-0.3749797588022768,-0.3159500589225944,-0.4206373153551322,1.3878250095693718,-0.7465776662907514,-0.8990820483150669,-0.7485529478798852,9.650787880346796,-1.017650696739074,0.1087306143684155,-0.8988992483126468
0.34,0.7705110865436063,1.4166402357255583,2.341243421735854,0.113095377700727,0.0282567022569995,0.0407573098303839,-0.3482934212374208,-0.2891862919630606,-0.2699919842988135,0.7804113889570636,1.4242621501522337,2.3381314085021225,-0.4149797593983234,-0.3559500595186409,-0.4606373159511787,1.3998408005365155,-0.6445725525811463,-0.8666305523910622,-0.8905234286463781,9.354231231618542,-1.0081407718930238,0.109978701577251,-0.9119922125501676
0.36,0.7634256759246673,1.4106772277619395,2.335638925248237,0.1087716285099334,0.0368356623348074,0.0408863857610333,-0.3595544435367565,-0.3062009678732053,-0.289661286128593,0.7727117937780379,1.4177431489708017,2.32951866219204,-0.4549797599943698,-0.3959500601146873,-0.5006373165472251,1.4170314516837308,-0.5630511149667866,-0.850733795507233,-0.9834650914889748,9.354231231618542,-0.9992943153862416,0.1102250343513147,-0.9246104597935414
0.38,0.7561271868045045,1.404380619915948,2.329623597799549,0.1047959094980403,0.0435355086681971,0.040799448649589,-0.369752975534992,-0.3225484346470851,-0.3109108001013284,0.764012198584111,1.4102241477744684,2.3199059158670554,-0.4949797605904161,-0.4359500607107338,-0.5406373171432716,1.4342171810081754,-0.5099265999117752,-0.8173733386939913,-1.0624756986367694,9.20554138344778,-0.9920649611178564,0.1102163645316025,-0.9351639729410236
0.4,0.7490106425875501,1.3981029436637429,2.32350292138694,0.1012390181072094,0.0484276271841641,0.0405533725003135,-0.3788716791407829,-0.3373837421429229,-0.3323248873776131,0.737639538027755,1.3882531981835935,2.314078057794483,-0.4697529770251081,-0.4225484361372012,-0.4109108015914445,1.3800364468218431,-0.4559351802895434,-0.7417653747918918,-1.0707043638142344,9.20554138344778,-0.9856869632493762,0.1101719867443387,-0.9447053947549346
0.42,0.741372425691054,1.3911828250349587,2.3168909412747314,0.0980680387119759,0.0515647233455362,0.0401139038262989,-0.3845020926158979,-0.3541110295725015,-0.3263512749545305,0.737639538027755,1.3882531981835935,2.314078057794483,-0.4697529770251081,-0.4225484361372012,-0.4109108015914445,0.931648734815999,-0.2815206737557502,-0.8363643714789287,0.2986806211541293,9.147100265365223,-0.991347164371154,0.1112929251379275,-0.940808712042416
0.44,0.7336266182203225,1.383938245052824,2.3104015563590545,0.0958365543812465,0.0520699644667026,0.0394736688709367,-0.389921682438808,-0.3696663018742951,-0.3233820720910054,0.737639538027755,1.3882531981835935,2.314078057794483,-0.4697529770251081,-0.4225484361372012,-0.4109108015914445,0.8368909963016469,-0.2709794911455038,-0.7777636150896827,0.1484601431762572,10.481907885387956,-0.991234739769688,0.1127928814074663,-0.9406540863632726
0.46,0.725765200548279,1.3763857455434838,2.3038998304413747,0.0943580396524725,0.0500229224822604,0.0386394045070445,-0.3961213008069022,-0.3848846665013359,-0.3269153339683515,0.7329420082575039,1.3840277138222217,2.3099689497785683,-0.4897529773231313,-0.4425484364352244,-0.4309108018894678,0.8404133348024106,-0.309980918404712,-0.7609182313520368,-0.1766630938673047,10.481907885387956,-0.9925850537190896,0.1129443373989142,-0.9397412178638772
0.48,0.7181699799688829,1.3689341709590277,2.297613045388278,0.0934777305339527,0.0459272427584777,0.0376807903421216,-0.4032921129781068,-0.3987812724311718,-0.33466707648366,0.7235469487170016,1.3755767450994778,2.30175073374674,-0.5297529779191777,-0.4825484370312708,-0.4709108024855142,0.8726765087755737,-0.3585406085602316,-0.6948302964917968,-0.3875871257654262,10.139571207621884,-0.9954266051509632,0.111964148351055,-0.9380509474619124
0.5,0.7100008204589765,1.3608111701621617,2.2908004800953856,0.0932032016096624,0.0399728428781555,0.0365628159457464,-0.4135821483751797,-0.4128298997885016,-0.3463449813897976,0.7141518891764995,1.3671257763767335,2.2935325177149104,-0.5697529785152242,-0.5225484376273173,-0.5109108030815607,1.0483585051103934,-0.5145017698536425,-0.7024313678664879,-0.5838952453068813,9.887346061775132,-0.9993640320300504,0.1099004740433986,-0.9358210431383768
0.52,0.7015939567593735,1.3524092316938794,2.283723923173298,0.0937066651554962,0.0333704485926665,0.0354330373555554,-0.4268192862550405,-0.4267177339427511,-0.3608370229882751,0.702756829606195,1.3566748076241877,2.283314301653279,-0.6097529791112707,-0.5625484382233638,-0.5509108036776071,1.202199054273444,-0.6618568939930403,-0.6943917077124745,-0.7246020799238723,9.55593592099558,-1.0044496427292915,0.1070165517529357,-0.9326630801681752
0.54,0.6928951982583247,1.3437279556624864,2.276344651001519,0.0950130825448106,0.0269636527977979,0.0343655995679059,-0.4425070705279451,-0.4408094398943801,-0.3763589920664091,0.6913617700358906,1.346223838871641,2.273096085591648,-0.6497529797073172,-0.6025484388194102,-0.5909108042736536,1.309211858412267,-0.7843892136452313,-0.7045852975814504,-0.776098453906704,9.55593592099558,-1.0097882026580411,0.1035681029459169,-0.92930450705721
0.56,0.6843157523358465,1.335204592492534,2.2690400955501016,0.0966267737193706,0.021767952879747,0.0334471146585464,-0.4598751136647642,-0.4556262422577946,-0.3917599143135757,0.6789667104506849,1.3347728701041934,2.261877869515116,-0.6897529803033635,-0.6425484394154566,-0.6309108048697,1.3769304273838288,-0.8684021568409528,-0.7408401181707269,-0.7700461123583302,9.521206465783507,-1.0141721074735808,0.0992768753987082,-0.927459482766794
0.58,0.6749051074784714,1.32591730805141,2.2610257474442736,0.0981698151662697,0.0181045123878164,0.0326303849204969,-0.4804019162323383,-0.4722931080218394,-0.4089055314754632,0.6655716508505781,1.3223219013218448,2.249659653423682,-0.72975298089941,-0.682548440011503,-0.6709108054657464,1.5756793978367452,-1.0263401283787057,-0.8333432882022401,-0.8572808580943753,9.505714173340492,-1.016739902481168,0.0949988288166571,-0.9277022533139656
0.6,0.6650635490962873,1.3162839425134998,2.252657775493696,0.0990315889788411,0.0171852606385386,0.0320279620516365,-0.5025145739303316,-0.490122929497329,-0.4270072251656791,0.6508850116668545,1.302302652650318,2.2405804708705004,-0.5804019177224544,-0.5722931095119556,-0.5089055329655794,1.6841492501934427,-1.1056328848996655,-0.8914910737744808,-0.9050846845107928,9.443069721494794,-1.017943892744856,0.0913544534439827,-0.9294142199322936
0.62,0.6552971405937034,1.3067247829513506,2.244652237245984,0.0974646272836419,0.0195341805259754,0.0316052257945681,-0.5239177860242161,-0.5144695133659674,-0.4146343591493513,0.6508850116668545,1.302302652650318,2.2405804708705004,-0.5804019177224544,-0.5722931095119556,-0.5089055329655794,1.7348929703777427,-1.0701606046942258,-1.2173291934319153,0.6186433008163905,11.369059756697425,-1.0231913800223542,0.0906750514562925,-0.9260721913565232
0.64,0.6446087794270919,1.2962057334815669,2.2364586414541043,0.0930836141574156,0.0248636850323865,0.0312380092704029,-0.5434148323216655,-0.5353780189278958,-0.4056935826195544,0.6508850116668545,1.302302652650318,2.2405804708705004,-0.5804019177224544,-0.5722931095119556,-0.5089055329655794,1.4976964847006278,-0.9748523148724708,-1.0454252780964235,0.4470388264898456,11.369059756697425,-1.0204040623150632,0.094400047421092,-0.9283312976644248
0.66,0.6335601978642662,1.28531807472639,2.228371203165289,0.0879835338683127,0.0317679195793682,0.0309437406659966,-0.5601569653004119,-0.5521133925316173,-0.4037731224008752,0.64508099248963,1.2965797215551986,2.2354914155408445,-0.6004019180204776,-0.5922931098099787,-0.5289055332636026,1.1874972776660304,-0.8371066489373191,-0.836768680186073,0.0960230109339571,10.89921626875821,-1.0151874062902706,0.0981788082731067,-0.9337786349873936
0.68,0.6222043258852344,1.2741268365937797,2.220249286199562,0.0830654406497914,0.03929364469742,0.0306870580585657,-0.5743441033849652,-0.5661449372925457,-0.4084767521769616,0.6334729541351809,1.2851338593649595,2.225313304881533,-0.6404019186165241,-0.6322931104060252,-0.568905533859649,1.025040570512462,-0.7093569042276648,-0.7015772380464191,-0.2351814888043174,10.451051243103391,-1.0094795911063452,0.1011715362511503,-0.94029896808008
0.7000000000000001,0.6111755499093511,1.263254522843657,2.212396546556833,0.0789236596926212,0.0463621430525809,0.0304471735719292,-0.5857233481657788,-0.5776835496911394,-0.4178938000597456,0.6218649157807318,1.2736879971747204,2.215135194222221,-0.6804019192125705,-0.6722931110020717,-0.6089055344556955,0.9371600432867658,-0.5689622390406768,-0.5769306199296886,-0.4708523941392012,10.084953843213045,-1.003380622034402,0.103897102978928,-0.9471866635721607
0.72,0.5993524955458213,1.251587809577219,2.2038947129339035,0.0752967870205202,0.0532234349759177,0.0301782858174306,-0.5958549874942577,-0.5884553827488062,-0.4320005934785642,0.6082568773964804,1.2602421349546788,2.202957083533108,-0.720401919808617,-0.7122931115981181,-0.648905535051742,1.021866091356698,-0.5065819664239468,-0.5385916528833357,-0.7053396709409299,9.79382015284864,-0.9972475936474732,0.1056952436318493,-0.9544216333447488
0.74,0.5873441221159558,1.2397156564145455,2.195081267132205,0.0724873980065459,0.0591362887357337,0.0298803357312654,-0.6044347553274647,-0.5983985242134815,-0.4486508115232652,0.594648839012229,1.2467962727346376,2.1907789728439937,-0.7604019204046635,-0.7522931121941646,-0.6889055356477884,1.0603162726214823,-0.4289883916603509,-0.4971570732337671,-0.832510902235048,9.55839794350686,-0.9919307584453274,0.1065105737735113,-0.9610442953576456
0.76,0.5751718655458208,1.2276410848979793,2.185916369545971,0.0701387586436121,0.0640965901617183,0.0295372731918173,-0.6123186233074984,-0.6085388891852378,-0.467015634755369,0.5800408006130764,1.232350410499695,2.1776008621399785,-0.8004019210007098,-0.792293112790211,-0.7289055362438348,1.1205457469838556,-0.3941933990016855,-0.507018248587815,-0.9182411616051904,9.44364988563666,-0.9867724597733852,0.1068041171689863,-0.967729434346614
0.78,0.5634672983973268,1.2159843332140845,2.176855357293272,0.0680583165111084,0.068097307743776,0.0291676628423277,-0.6193110374661587,-0.617929503656781,-0.4858620877007198,0.5644327621990227,1.216904548249851,2.163422751421062,-0.8404019215967563,-0.8322931133862574,-0.7689055368398813,1.1093537358984211,-0.3496207079330127,-0.4695307235771606,-0.9423226472675432,9.363748434993797,-0.9821354603846976,0.1068755260568657,-0.9739426927755498
0.8,0.5510078080359982,1.2035265331963436,2.166915650125145,0.0659737739337064,0.0717011318178085,0.028742267514806,-0.6262278253106854,-0.6273111548113994,-0.5071905190991851,0.5325017465240188,1.1850878580312452,2.152562252908236,-0.7193110389562748,-0.7179295051468971,-0.5858620891908359,1.2152770449492003,-0.3458393922263381,-0.469082557730921,-1.066421569923262,9.215371028650225,-0.9778441911727956,0.106761892588078,-0.9798921802810052
0.8200000000000001,0.5384473797910135,1.1908490768735631,2.1568859334005697,0.0635268969396933,0.0745541231472422,0.0282415839218429,-0.6295048748212893,-0.639582265303772,-0.4946910593775327,0.5325017465240188,1.1850878580312452,2.152562252908236,-0.7193110389562748,-0.7179295051468971,-0.5858620891908359,0.8910046289781205,-0.1638524755301906,-0.6135555246186308,0.624972986082617,11.222085733625136,-0.979797228160226,0.1077678438478374,-0.9787324270797644
0.84,0.5264600772165503,1.1786065026722434,2.1475550559425463,0.0612678717747516,0.076307684015423,0.0277112634835359,-0.6322427173461831,-0.6486355054934186,-0.4882384509619649,0.5325017465240188,1.1850878580312452,2.152562252908236,-0.7193110389562748,-0.7179295051468971,-0.5858620891908359,0.5724794646692728,-0.136892126244692,-0.4526620094823297,0.3226304207783942,11.222085733625136,-0.9781373222277876,0.1096830258631112,-0.9798725298620782
0.86,0.5137820809024896,1.1655445970727416,2.1377974833231987,0.0594531107823388,0.0770823201453832,0.027131336122211,-0.635510049053121,-0.6571518378130593,-0.4881632461785988,0.5253086361344561,1.177908562979776,2.1467036320163277,-0.739311039254298,-0.7379295054449203,-0.6058620894888591,0.456094914522074,-0.1633665853468968,-0.4258166159820331,0.0037602391683017,10.339754060623818,-0.9770735655239616,0.1106606100361207,-0.9809735611623762
0.88,0.5010323111164394,1.152320931512966,2.1279800723742865,0.0583096958874467,0.0768747372415163,0.0265463927411364,-0.6393934907240586,-0.6648254765899876,-0.4938039179486058,0.5109224153553306,1.163549972876838,2.134986390232511,-0.7793110398503444,-0.7779295060409668,-0.6458620900849056,0.5142543857550111,-0.1941720835468785,-0.3836819388464141,-0.2820335885003494,10.029238664175864,-0.9766998574694166,0.1106892852463996,-0.9818779821588112
0.9,0.4888422515242752,1.1396249927841409,2.1185024711079765,0.0580673144686609,0.0758602510375603,0.0260077951702751,-0.6436425172967636,-0.6713278659864205,-0.5035363113259753,0.496536194576205,1.1491913827739002,2.123269148448694,-0.8193110404463909,-0.8179295066370132,-0.685862090680952,0.62260496209527,-0.2124513286352491,-0.3251194698216442,-0.4866196688684737,10.029238664175864,-0.9771274895384304,0.109776100754229,-0.982270260832492
0.92,0.4759177861252176,1.1261330738782795,2.108293095507137,0.0589580313410843,0.0739616754733016,0.0254759746234331,-0.6486548405438672,-0.6776328571538163,-0.5170352493433785,0.4801499737672772,1.13283279264116,2.1095519066350747,-0.8593110410424374,-0.8579295072330597,-0.7258620912769985,0.7859669610614819,-0.2506161623551828,-0.3152495583697901,-0.6749469008701603,9.795146126652073,-0.9783834972869666,0.1076233309676012,-0.9821880253612678
0.94,0.462886965915173,1.1125148029872889,2.0977979397978137,0.0612249653767982,0.071212916513339,0.024987521791419,-0.654261119184178,-0.6840590725259809,-0.531794226269824,0.4637637529583494,1.1164742025084198,2.095834664821456,-0.8993110416384839,-0.8979295078291062,-0.765862091873045,0.8522822362891267,-0.2803139320155356,-0.3213107686082295,-0.7379488463222728,9.560383373056538,-0.9805535727336524,0.1043165911278222,-0.9813895610473864
0.96,0.4503918617943209,1.099435121496502,2.0875484636007857,0.0641092883160833,0.0680398430895332,0.0245309981297352,-0.6608238325859419,-0.6925569769356099,-0.5463646310648926,0.4463775321345204,1.0991156123607784,2.081117422992936,-0.9393110422345304,-0.9379295084251524,-0.8058620924690914,0.9049589527169796,-0.3281356700881976,-0.4248952204814527,-0.7285202397534329,9.560383373056538,-0.9832275150476308,0.0998279471615639,-0.9805625155866418
0.98,0.4370895378417652,1.0854741025610006,2.0764536165387355,0.0669237241549797,0.0645988729617175,0.0240166969815969,-0.6691936772625733,-0.7030638255712449,-0.5623794575162738,0.4279913112957903,1.0807570221982357,2.065400181149514,-0.9793110428305768,-0.9779295090211988,-0.8458620930651378,1.045134960699979,-0.4184922338315688,-0.5253424317817501,-0.8007413225690596,9.539709033735562,-0.9859016969561588,0.0953589818491796,-0.9799026535767856
1.0,0.4236022844729785,1.071292254492329,2.065032267966355,0.0691474631704531,0.0616269805865293,0.0234831984106162,-0.6792319474373573,-0.7144871035970171,-0.5789686558118659,0.4036298539786366,1.0503209112824383,2.0483346436629217,-0.7691936787526894,-0.803063827061361,-0.66237945900639,1.1252329192732935,-0.501913508739199,-0.5711639012886072,-0.8294599147796011,9.488505445976443,-0.9884786027883324,0.0914129594927239,-0.9792964703869323
1.02,0.409887195735069,1.0567971527029356,2.0536087687334983,0.0688887901070965,0.0608139980855014,0.0229240405000591,-0.6914780436076975,-0.7335676193938406,-0.562470129071612,0.4036298539786366,1.0503209112824383,2.0483346436629217,-0.7691936787526894,-0.803063827061361,-0.66237945900639,1.4019935262733272,-0.6123048085170113,-0.9540257898411786,0.8249263370126936,11.553856512988204,-0.9931749954577008,0.0900751451981886,-0.975973643898786
1.04,0.396643408046277,1.0427021094643487,2.0430313339182598,0.0658289048747519,0.0625820564048307,0.022376827807087,-0.7017239587138137,-0.7487277756456537,-0.5518112344009155,0.4036298539786366,1.0503209112824383,2.0483346436629217,-0.7691936787526894,-0.803063827061361,-0.66237945900639,1.0587978437149006,-0.5122957553058083,-0.7580078125906553,0.5329447335348236,11.553856512988204,-0.9933801510104828,0.092868649678532,-0.975072473944926
1.06,0.3825100052000607,1.0276005917634603,2.03204562726841,0.0613298594225567,0.065937750083143,0.0218114146566741,-0.7108818836905666,-0.7603193291129845,-0.5476266183591885,0.3959379171911097,1.0422902730118246,2.041710849072858,-0.7891936790507126,-0.8230638273593842,-0.6823794593044131,0.7676957618133997,-0.457896248837647,-0.5795776733665381,0.209230802086352,11.053282592931282,-0.9913053202259756,0.0966648119424829,-0.97661291838722
1.08,0.3682086506720733,1.0122999071102154,2.021072101565102,0.0568987042718071,0.0699810084080552,0.0212895305472746,-0.7186482262387537,-0.7691194269048591,-0.5502066810987539,0.3805540436160559,1.0262289964705975,2.02846325989273,-0.829193679646759,-0.8630638279554307,-0.7223794599004596,0.6008629657884397,-0.3883171274093544,-0.4400048895937314,-0.1290031369782729,10.587307293412778,-0.98807655942438,0.0999418953958515,-0.9796847662004486
1.1,0.3544901950515033,0.9976200129804074,2.01053969565206,0.0532493374638755,0.0739170699055234,0.0208346980389368,-0.7249203041494524,-0.7758093825124474,-0.5583197581532359,0.3651701700410021,1.0101677199293704,2.0152156707126023,-0.8691936802428055,-0.9030638285514772,-0.7623794604965061,0.6122019410319961,-0.3136038955349363,-0.3344977803794113,-0.4056538527240971,10.195690798275791,-0.9838594869018228,0.1025505657091982,-0.9841712126119722
1.12,0.3399317329911358,0.9820421278990198,1.9992419784463045,0.0501775192588587,0.0777699904613951,0.0203929663983752,-0.7305291066580186,-0.781737035064497,-0.5712312739310328,0.347786296436146,0.9921064433583408,1.999968081502672,-0.909193680838852,-0.9430638291475236,-0.8023794610925525,0.7637129206027257,-0.2804401254283106,-0.2963826276024817,-0.6455757888898461,9.884527013598015,-0.979450205915326,0.1041501430117285,-0.9892745114821788
1.14,0.3252706312291413,0.9663527130703268,1.987658652027502,0.0479361852674861,0.0810586769049638,0.0199831747017049,-0.7352661053450125,-0.7870474283487796,-0.5865470202999833,0.3304024228312898,0.9740451667873112,1.9847204922927424,-0.9491936814348984,-0.98306382974357,-0.842379461688599,0.844410327140123,-0.2368499343496921,-0.2655196642141311,-0.765787318447525,9.640949560945046,-0.9755773426702112,0.1048497591932421,-0.9940990963053196
1.16,0.3105173705960876,0.9505525029351516,1.9757497977224665,0.0462091243348953,0.0837780406326505,0.0195872493222564,-0.7397971950610176,-0.7927234094305822,-0.6035725569872014,0.3120185492115326,0.9549838902013804,1.968472903067911,-0.9891936820309448,-1.0230638303396165,-0.8823794622846454,0.9254950496130118,-0.2265544858002566,-0.283799054090128,-0.8512768343609034,9.528830805465986,-0.9723871168498028,0.1049766901241932,-0.9983657876836732
1.18,0.2964192933337558,0.9354373009571444,1.9641079185481172,0.0447426914597609,0.0859967859129419,0.0192127325355836,-0.7439551450050474,-0.7980368914882798,-0.621039856428415,0.2926346755768741,0.9349226136005488,1.9512253138281783,-1.0291936826269912,-1.0630638309356628,-0.9223794628806918,0.9362534233362704,-0.2078974972014924,-0.265674102884883,-0.8733649720606806,9.452038990967594,-0.9693159198285524,0.1049015903341199,-1.0026430895465137
1.2,0.2814956539204912,0.9194212567760892,1.951480450607152,0.0433392288363173,0.0880591492889446,0.0188234443753981,-0.7481603293549127,-0.8032542586748223,-0.6408565340940112,0.2592215360835034,0.8955354563827304,1.9330559257266968,-0.8439551464951636,-0.898036892978396,-0.7210398579185311,1.0459507749862116,-0.2102592174932638,-0.260868359327121,-0.9908338832798124,9.385038635457931,-0.9664263876706992,0.1046831299526595,-1.0067753238557249
1.22,0.266511559765566,0.9032687075366932,1.9387672827537743,0.0414072941230638,0.0901399337829055,0.0184058943491857,-0.7498219798004635,-0.8114344921233678,-0.6277903479719332,0.2592215360835034,0.8955354563827304,1.9330559257266968,-0.8439551464951636,-0.898036892978396,-0.7210398579185311,0.7752459629896283,-0.0830825222775388,-0.4090116724272785,0.6533093061038997,9.309181714751505,-0.9684008231541004,0.1051476240697574,-1.0058517781245382
1.24,0.2522576653936532,0.8878004151752757,1.926931706826857,0.0393671714995397,0.092098921466851,0.0180015132765845,-0.7505057013666822,-0.8165010367874984,-0.6189061808781016,0.2592215360835034,0.8955354563827304,1.9330559257266968,-0.8439551464951636,-0.898036892978396,-0.7210398579185311,0.512507987656934,-0.0341860783109326,-0.2533272332065295,0.4442083546915831,11.398284664709536,-0.9663086596388656,0.1073743028133859,-1.0069388654693503
1.26,0.2372426261526706,0.8714275520696259,1.9145838365985333,0.0377743586144437,0.0936933568260252,0.0176045908299064,-0.7509913791251988,-0.8205920656967273,-0.616671729765209,0.2507819846185518,0.8865550874529464,1.9258455271475112,-0.8639551467931867,-0.9180368932764192,-0.7410398582165543,0.2343350816521649,-0.02428388792583,-0.2045514454614427,0.1117225556446277,10.91502403438335,-0.9642743146969944,0.1087100986068403,-1.008499298792658
1.28,0.2222174025209801,0.8549829958250779,1.9022144825003824,0.0370414360071208,0.0945852078571576,0.0172507372409255,-0.751568763523411,-0.8237296289798485,-0.6206169969162806,0.2339028816886485,0.8685943495933784,1.9114247299891407,-0.9039551473892332,-0.9580368938724656,-0.7810398588126007,0.2536868591010066,-0.0288692199106099,-0.1568781641560601,-0.1972633575535787,10.479950788726455,-0.962642637891564,0.1089451069690823,-1.010151387972292
1.3,0.2071776959003472,0.8384850488838412,1.8897105129139875,0.0375273766134461,0.0946911360090557,0.0169619576398197,-0.7524681514686943,-0.8261008196954055,-0.6295623709318947,0.2170237787587452,0.8506336117338106,1.89700393283077,-0.9439551479852796,-0.998036894468512,-0.8210398594086472,0.4648955806546488,-0.0449693972641662,-0.1185595357778512,-0.4472687007807063,10.1400906159879,-0.9616293430052166,0.1078671233882834,-1.0116448535516167
1.32,0.192869737248828,0.8227713261634602,1.8776326917384716,0.0393773939654665,0.0940759768214876,0.0167633137852605,-0.7536528921754269,-0.8280627562313227,-0.6413353224356768,0.1981446757990396,0.8306728738444403,1.880583135642597,-0.9839551485813262,-1.0380368950645584,-0.8610398600046937,0.59969824208422,-0.0592370353366289,-0.0980968267958626,-0.5886475751891052,9.88596980908642,-0.9613865959733316,0.1052062887519439,-1.0127892124426932
1.34,0.1777829714636673,0.8061807375133582,1.8646637928251395,0.0427602915049258,0.0926098709542815,0.01662210037374,-0.7550109231787231,-0.8314064328171337,-0.6549947016169567,0.179265572839334,0.8107121359550701,1.864162338454424,-1.0239551491773726,-1.078036895660605,-0.9010398606007402,0.7064047369150296,-0.0679015501648117,-0.1671838292905458,-0.6829689590639954,9.702270985389076,-0.9626530418745046,0.101079070845774,-1.0127242496084548
1.36,0.162662155640403,0.7894900638736445,1.851415146833551,0.0464672786377771,0.0903386053024694,0.0164629411965212,-0.7570916347842873,-0.8375243739252772,-0.6691818948351175,0.1593864698647273,0.7897513980507986,1.84674154125135,-1.063955149773419,-1.1180368962566514,-0.9410398611967864,0.7794790176740954,-0.1040355802782111,-0.3058970554071782,-0.7093596609080377,9.63795562964424,-0.964197552900509,0.0966055894702583,-1.012673500533889
1.38,0.1482497142186362,0.7735053447671199,1.838562491206792,0.0495861988870636,0.0876893474845431,0.0162528458704427,-0.7599844192303256,-0.8446769187022263,-0.6830146152314941,0.1385073668752194,0.7677906601316261,1.8283207440333749,-1.1039551503694651,-1.1580368968526975,-0.981039861792833,0.7919457876045487,-0.1446392223019121,-0.3576272388474522,-0.6916360198188309,9.62056149363707,-0.9662378972527552,0.0921571754544552,-1.0123200948225397
1.4,0.1330081176649185,0.7565257120899724,1.8247425689676904,0.0522747020490711,0.0846803618733103,0.0159715934139603,-0.7641317467900692,-0.8528418823577312,-0.6982782113661763,0.1102504932571199,0.7312714988320086,1.804411760445217,-0.8596510370410517,-0.9446769201923424,-0.7830146167216102,0.8900060734992357,-0.2073663779871837,-0.4082481827752449,-0.76317980673411,9.604366157627735,-0.9684672686898772,0.0882004130013325,-1.0118156721752876
1.42,0.1176611892291351,0.7393051193802254,1.810921919654884,0.0525661710025054,0.0829519626256349,0.0155884422360707,-0.770375802295853,-0.8683211646604525,-0.6813629498671193,0.1102504932571199,0.7312714988320086,1.804411760445217,-0.8596510370410517,-0.9446769201923424,-0.7830146167216102,1.188194514113882,-0.3122027752891887,-0.7739641151360666,0.8457630749528489,9.56641469785427,-0.9735426219030556,0.0862310484867347,-1.0087012678579266
1.44,0.1021936935408169,0.7218007619626177,1.7974475109956158,0.0497272429638882,0.083685014058059,0.0151250571582975,-0.775824805840513,-0.8809609159634411,-0.667415948903009,0.1102504932571199,0.7312714988320086,1.804411760445217,-0.8596510370410517,-0.9446769201923424,-0.7830146167216102,0.9797624565730356,-0.2724501772330023,-0.6319875651494278,0.6973500482055139,11.70107024896879,-0.9736624391808554,0.0889422792085504,-1.0077199970180926
1.46,0.0874096442553853,0.7049758173430418,1.7848235720457568,0.0456494744599179,0.0856226858130824,0.0146583193032375,-0.7799808677784417,-0.8891475832030391,-0.662065879955152,0.1016539828867094,0.7218247296300851,1.796581614278001,-0.879584360603197,-0.9646769204903656,-0.8030146170196334,0.5313134881372558,-0.2078030968964306,-0.4093333619799022,0.2675034473928528,11.209659298740007,-0.9716070832219164,0.0928702211445347,-1.0090753379359605
1.48,0.0717729680659489,0.6871310842603566,1.771578701238627,0.0413926100355167,0.0881730098913436,0.0141979728635937,-0.7833814103042683,-0.8948667258164552,-0.6629982816457741,0.0844609621458883,0.7029311912262384,1.780921321943569,-0.9194510077274874,-1.0046769210864122,-0.8430146176156799,0.3359376974054216,-0.1700271262913333,-0.2859571306708053,-0.0466200845311071,10.710537903499244,-0.9689826597812308,0.096624886459556,-1.0111891505822683
1.5,0.0560760511360947,0.6691902956922451,1.7582526132440734,0.0377492347477519,0.0907048672137685,0.013784585129857,-0.7860967648308914,-0.8989915696667333,-0.6697994366096388,0.0672679414050673,0.6840376528223915,1.7652610296091364,-0.959317654851778,-1.0446769216824583,-0.8830146182117263,0.420247533713557,-0.135767726331154,-0.2062421925139057,-0.3400577481932343,10.309453737417243,-0.9660678437315594,0.0995515079785626,-1.013968624027109
1.52,0.0403301953656574,0.6511792271442937,1.744735813676123,0.0349196222697143,0.0928760858607086,0.0134209850331168,-0.7883498866798416,-0.9021040396319364,-0.6815272752015817,0.0480815883080318,0.6631441143887423,1.7476007372449018,-0.9991843019760684,-1.0846769222785049,-0.9230146188077728,0.6170620418344767,-0.1126560924475106,-0.1556234982601489,-0.5863919295971465,9.987496256578195,-0.9633581973020684,0.1014046091869255,-1.0169115303552545
1.54,0.0253343194040135,0.6340167981737784,1.7316555700816427,0.0330005968056164,0.0944265367227029,0.0131193395194694,-0.7900793253672521,-0.9045151432284086,-0.6947561089012323,0.0288952352109962,0.642250575955093,1.7299404448806672,-1.0390509491003588,-1.1246769228745517,-0.9630146194038192,0.6778761313459933,-0.0864719343705244,-0.120555179823617,-0.6614416849825278,9.739477674756015,-0.9610765852594968,0.1024443892348338,-1.019754865799394
1.56,0.0095120894335546,0.6158968048695902,1.7175994425423384,0.0315228684960119,0.0955548168313051,0.0128328008733568,-0.7920695082703523,-0.9073568364343672,-0.7102294074128733,0.0087122159358534,0.6203570375065428,1.7112801525015315,-1.0789175962246491,-1.1646769234705978,-1.0030146199998655,0.7928729644384015,-0.0995091451550078,-0.1420846602979253,-0.7736649255820516,9.630022751885916,-0.959118364442338,0.1028363529728095,-1.0225101784024304
1.58,-0.0063521034529665,0.5977206545284047,1.7032198626082684,0.0303853366594301,0.0963569049430579,0.0125702776569561,-0.7942571842582727,-0.9100977058844076,-0.7270068843617407,-0.0124674695173966,0.5974634990430914,1.6916198601074948,-1.1187842433489397,-1.2046769240666442,-1.043014620595912,0.8570035360779795,-0.1093837993960233,-0.1370434725020297,-0.8388738474433666,9.484216969053705,-0.957535448550744,0.1028729280539416,-1.0249591757518983
1.6,-0.0214653986846341,0.580404446169348,1.6892359013877256,0.0295783543748399,0.0969557596270992,0.0123448218480358,-0.7964984637347252,-0.9125137453613306,-0.7441473951060674,-0.0460649626658801,0.5522157692341844,1.6668695183901814,-0.8301745334179903,-1.010097707374524,-0.8260018695845571,0.872722305521633,-0.1120639738226236,-0.1208019738461407,-0.8570255372163382,9.422744360728757,-0.9560368737404772,0.1026147882030381,-1.0274527049778497
1.62,-0.0374692691586861,0.5620947931709643,1.6744818309980691,0.0282644592979214,0.1000868562558367,0.0121571601055366,-0.8032036394536629,-0.918155812795746,-0.7286487217225323,-0.0460649626658801,0.5522157692341844,1.6668695183901814,-0.8301745334179903,-1.010097707374524,-0.8260018695845571,0.8902263518423598,-0.3352587859468847,-0.2821033717207655,0.7749336691767583,9.422744360728757,-0.954515607541018,0.1020038857970707,-1.0308709559609714
1.64,-0.053569426761423,0.5436952810060044,1.6600377777620223,0.0264410902638795,0.1072558220934353,0.0120506440081448,-0.8059442259022093,-0.92143337757654,-0.7171124161771003,-0.0460649626658801,0.5522157692341844,1.6668695183901814,-0.8301745334179903,-1.010097707374524,-0.8260018695845571,0.6151007856681313,-0.1370293224273178,-0.1638782390396997,0.5768152772715973,11.63327875300456,-0.948917331610968,0.1045747916056502,-1.0344539050736816
1.66,-0.0696883400762383,0.5252496020820916,1.6457287280577495,0.0250488287332228,0.1164046366576362,0.0120244958749553,-0.8053754528931324,-0.9230923790497368,-0.7143495159319367,-0.05436670800006,0.5421147921604391,1.658609499694336,-0.8373580032499338,-1.030097707672547,-0.8458008666291204,0.1636261469680857,0.0284386504538436,-0.0829500736598432,0.1381450122581784,11.060884250111483,-0.9397325014457092,0.1064085399516205,-1.04189407138356
1.68,-0.0849648943849965,0.5077069619827985,1.632120763902707,0.0245598882168002,0.1258714199549582,0.012078214860789,-0.8023977747645833,-0.923564552152417,-0.7182148940093128,-0.0709701986684198,0.5219128380129486,1.6420894623026447,-0.8517249429138208,-1.0700977082685936,-0.885398860718247,0.2451053964991077,0.1488839064274549,-0.0236086551340108,-0.193268903868804,10.183127849841185,-0.9286379179309776,0.106998667800913,-1.0515338356559991
1.7,-0.1009609285803606,0.4892397785524323,1.6176640310026136,0.0253554256041727,0.1360291398060102,0.0122411091017219,-0.7970800621076879,-0.9232628295115518,-0.7275070268433798,-0.0875736893367797,0.5017108838654581,1.6255694249109536,-0.8660918825777079,-1.11009770886464,-0.9249968548073736,0.5355203942411086,0.26588563284477,0.0150861320432571,-0.4646066417033467,10.183127849841185,-0.9165946220444507,0.1059971080831061,-1.0623126498841484
1.72,-0.1168295700951338,0.4707821872249244,1.6029753199564756,0.0278629897222393,0.1460302295399865,0.0125437164595195,-0.789800238831297,-0.9227556932226764,-0.7410893341053044,-0.1048955269883338,0.4795089296881653,1.6070694878148062,-0.8804588222415949,-1.1500977094606863,-0.9645948488965002,0.7709281495514161,0.3639911638195436,0.0253568144437721,-0.6791153630962332,9.89755172027526,-0.9043730971014547,0.1031054890268993,-1.0734091770655538
1.74,-0.132531285545513,0.4523171452208312,1.587992181858558,0.0318016553300042,0.1556729447817162,0.0129745967472938,-0.7804872188061843,-0.9242441854091004,-0.7565775007995212,-0.122217364639888,0.4573069755108725,1.5885695507186588,-0.8948257619054819,-1.190097710056733,-1.0041928429856266,0.9066852520652396,0.4656510012556347,-0.0744246093212053,-0.774408334710841,9.620953229315091,-0.8930866354602928,0.0988245195820639,-1.0837713119661376
1.76,-0.1472566280201198,0.4347200490705844,1.5734620622767967,0.0357425222684303,0.164402312987288,0.0134242073310277,-0.769821535396873,-0.9280301500470683,-0.7721707650337389,-0.1398983757830393,0.4341050213186785,1.569079663770283,-0.9091927015693688,-1.2300977106527793,-1.0437908370747533,0.963379754180218,0.5332841704655644,-0.1892982318983993,-0.7796632117108848,9.620953229315091,-0.8811127480359967,0.0938709992273153,-1.0947630459677078
1.78,-0.1625201671772144,0.416105595685644,1.5578364510637952,0.0395230157260252,0.173094380359494,0.0138917750523311,-0.7568931297240272,-0.9332087977963992,-0.7896447125993402,-0.1579385604177878,0.4099030671115835,1.5485998269696792,-0.923559641233256,-1.2700977112488256,-1.0833888311638795,1.1172521081639335,0.6464202836422905,-0.2589323874665317,-0.8736973782800639,9.595102228782707,-0.869162237892899,0.0891135871661329,-1.1056393535112503
1.8,-0.1775081323565078,0.3973771012653955,1.5418503488831412,0.0427102990676347,0.1812697115522088,0.0143289531366598,-0.7423611374607204,-0.9392708557218954,-0.8081284371956691,-0.2003648236634157,0.3694451557958241,1.518354215433828,-0.7455970940021291,-1.033208799286515,-0.8281617555938394,1.2140587098507778,0.7265996131653407,-0.303102896274815,-0.9241862298164428,9.557313778195748,-0.8580258579566814,0.085024371459847,-1.1156679776480058
1.82,-0.1913938741889787,0.3793895550726228,1.526658187638255,0.0430885516626322,0.1884024260057733,0.0145494111598169,-0.719888407959427,-0.9527918510079912,-0.7901259589985691,-0.2003648236634157,0.3694451557958241,1.518354215433828,-0.7455970940021291,-1.033208799286515,-0.8281617555938394,1.590542443635182,1.123636475064671,-0.6760497643047925,0.9001239098549996,9.527267284541267,-0.8538978901875517,0.0849386718243175,-1.1181240969644963
1.84,-0.2055359526914726,0.3602131952935076,1.5110307952953417,0.0400382048319445,0.1952043824903553,0.0145040410359763,-0.6954071024548614,-0.9636353798853884,-0.7739174612563294,-0.2003648236634157,0.3694451557958241,1.518354215433828,-0.7455970940021291,-1.033208799286515,-0.8281617555938394,1.5649535430668629,1.224065275228281,-0.5421764438698629,0.8104248871119824,11.906813875487387,-0.8426627506339397,0.088063763958133,-1.126508886972887
1.86,-0.2191852260490914,0.3408693637386121,1.49567271343576,0.0354598390053672,0.2014656891506074,0.0143111637191906,-0.6706311474971913,-0.9699010183300556,-0.7629308285020453,-0.207820794603437,0.3591130678029589,1.5100725978778895,-0.7433378868577495,-1.0532087995845385,-0.8358651641927393,1.3908740673235775,1.2387977478835022,-0.3132819222333494,0.5493316377142066,11.56910305620204,-0.8325339407859339,0.0926229806494252,-1.133761177356645
1.88,-0.2323359946611388,0.321434128977549,1.480481878541346,0.0310102289018983,0.207297716766486,0.014092939099331,-0.6455297893316975,-0.9733477537702044,-0.7567156912587857,-0.2227327364834796,0.3384488918172286,1.4935093627660128,-0.7388194725689903,-1.093208800180585,-0.851271981390539,1.3044022557280173,1.255067908274693,-0.172336772007442,0.3107568621629808,11.251280684919948,-0.8227655068389017,0.0975094373271742,-1.1404155643552978
1.9,-0.2443583574563514,0.3029235467919884,1.4661310847401676,0.0274430015563282,0.2124609676997337,0.0139069751549639,-0.6211233077363795,-0.9751120217513524,-0.7542292404612283,-0.2376446783635222,0.3177847158314983,1.476946127654136,-0.7343010582802311,-1.1332088007766314,-0.8666787985883386,1.2298083417148526,1.2203240797658998,-0.0882133990574074,0.1243225398778691,10.991632668155034,-0.8135554221840638,0.1017643523808182,-1.1465164807033943
1.92,-0.2564931038510321,0.2834129390451094,1.451047698506546,0.024566875062077,0.2170768273825709,0.0137429358975463,-0.5935982244033648,-0.9759998124934718,-0.7543737730935846,-0.2523306995291268,0.2951205398159657,1.4596125516823693,-0.7297826439914719,-1.1732088013726778,-0.8820856157861383,1.3769888112953277,1.376254166650731,-0.0443895371059654,-0.0072266316178126,10.794252716188566,-0.8055441019738107,0.1051087116430327,-1.1517007644388275
1.94,-0.2680583368302183,0.2638909753749133,1.435951111795739,0.0226352390789387,0.2201494014293287,0.0136062910647846,-0.5643546979187529,-0.9763100214365812,-0.755289758608605,-0.2670167206947315,0.272456363800433,1.4422789757106025,-0.7252642297027126,-1.2132088019687244,-0.897492432983938,1.4629756494114243,1.4621763242305963,-0.0155104471554645,-0.0457992757510239,10.648195686499092,-0.7990303641503549,0.1073038331925552,-1.156054887808554
1.96,-0.2790231876096237,0.2443594148275436,1.4208362525258589,0.0214171396962723,0.2211447080619357,0.0134771612732578,-0.533794848536656,-0.9768723497614972,-0.7561390548750473,-0.2815897815031171,0.2487921877699992,1.4245602293088906,-0.7207458154139533,-1.2532088025647707,-0.9128992501817376,1.5288409920178443,1.527992469104844,-0.0281164162458047,-0.0424648133221128,10.658140743878905,-0.7950600429824823,0.1086782968601262,-1.1586914730084232
1.98,-0.288863914289902,0.2257948060727325,1.4064641666777944,0.0207355101512131,0.2197405337601693,0.0133442581874982,-0.5037509743613433,-0.97728895671064,-0.7566539178767676,-0.2960498819542837,0.2241280117246643,1.4064563124772338,-0.7162274011251941,-1.293208803160817,-0.9283060673795374,1.5025586683409722,1.5021937087656367,-0.0208303474571458,-0.0257431500860161,10.658140743878905,-0.7938167988366761,0.1097188735504608,-1.1593311896050469
2.0,-0.2986011438640845,0.206246579781952,1.391328986732237,0.0205359147664296,0.2151915910297485,0.0131844369066266,-0.4718680292503293,-0.9775385206846988,-0.7567711855268088,-0.3140514630079691,0.1769303582372005,1.368631470783956,-0.447959208909912,-1.044933843383137,-0.7248596641400332,1.594206873990029,1.5941472555506986,-0.012478198702942,-0.0058633825020582,10.686277793993211,-0.7952518922952088,0.1098827312213335,-1.158630592497386
2.02,-0.3077752506231193,0.1865451754762301,1.3764030139492154,0.0162824930565864,0.210764129811397,0.0127571188327117,-0.4474231512648481,-0.9904321539550178,-0.7346821088982546,-0.3140514630079691,0.1769303582372005,1.368631470783956,-0.447959208909912,-1.044933843383137,-0.7248596641400332,1.7689863940521668,1.2222438992740583,-0.6446816635159447,1.1044538314277097,10.710617868483496,-0.7944417702079971,0.1119097725720273,-1.1618969136410022
2.04,-0.3164643540151792,0.1666995937118427,1.3619587042717562,0.0078479932325859,0.210161564074173,0.0121348596607751,-0.4222644256523232,-0.9927721157170878,-0.7110099687779871,-0.3140514630079691,0.1769303582372005,1.368631470783956,-0.447959208909912,-1.044933843383137,-0.7248596641400332,1.731189701742595,1.2579362806262455,-0.1169980881034982,1.1836070060133763,12.163212601617488,-0.7949627000775215,0.1217276493556575,-1.1597671994502372
2.06,-0.3242267209422094,0.1478646140029543,1.3486515324000847,-0.0003585669663831,0.2114212998355645,0.0115650778571872,-0.3959585732137167,-0.9897019263650554,-0.6909524515052607,-0.3185310550970682,0.1664810198033691,1.3613828741425555,-0.4368008558196258,-1.0584628207176363,-0.7185008133926863,1.661120054605316,1.3152926219303251,0.1535094676016202,1.0028758636363155,12.163212601617488,-0.7921578625440417,0.1322025190338514,-1.1595078275120767
2.08,-0.3318370038799466,0.1281368007238908,1.335034734254848,-0.0079581582580353,0.2132176580765538,0.0110487771434401,-0.3663829594992639,-0.9833169941419984,-0.6718826111077913,-0.3274902392752665,0.1455823429357064,1.346885680859755,-0.4144841496390533,-1.0855207753866352,-0.7057831118979926,1.7882555038811685,1.4787806857226415,0.3192466111528458,0.9534920198734698,11.985209079400192,-0.787865971395645,0.1414122295370773,-1.1605878513409569
2.1,-0.3388382547081708,0.108561632654122,1.3217789596469758,-0.0139820970220521,0.2144441367759995,0.0106597134335906,-0.3353169515356319,-0.9748544610928436,-0.6546420456142699,-0.3364494234534647,0.1246836660680437,1.3323884875769545,-0.3921674434584807,-1.1125787300556338,-0.6930654104032988,1.8261629273841429,1.5533003981816007,0.4231266524577393,0.8620282746760743,11.861047331233747,-0.7838939573636472,0.1485413970007943,-1.1618017523017583
2.12,-0.3449041328026951,0.0901351232179596,1.309495758050079,-0.0181691254362454,0.2144488810420775,0.0104305393990656,-0.3048965728805604,-0.9655715079033108,-0.6391722777618216,-0.3442927723226343,0.102432091466931,1.3185271793688882,-0.3698507372779082,-1.1396366847246324,-0.6803477089086051,1.7683936035606085,1.5210189327535732,0.4641476594766491,0.7734883926224123,11.766668625821694,-0.7807855152546387,0.1542601005906921,-1.1626763056265348
2.14,-0.3506577376686752,0.0709357801994733,1.2968884578504307,-0.0210282262501668,0.2127615582896005,0.0103508208537724,-0.2721164291006093,-0.9551422297699744,-0.6223250828582734,-0.352136121191804,0.0801805168658183,1.3046658711608223,-0.3475340310973357,-1.1666946393936313,-0.6676300074139113,1.9151603358040925,1.639007188997557,0.5214639066668136,0.8423597451774123,11.772709417824444,-0.7786174899996883,0.1581850686352235,-1.1633993752041785
2.16,-0.3557423786036673,0.0519465843828918,1.2846273912652268,-0.0224889995580236,0.2085642491463582,0.0104456456284531,-0.2382067957242526,-0.9445536770106792,-0.6045903929474808,-0.3594215524064593,0.0572524933979806,1.2911225054901236,-0.3252173249167632,-1.19375259406263,-0.6549123059192176,1.9852581138779304,1.6954816688178318,0.5294276379647578,0.8867344955396261,11.772709417824444,-0.7791800581895096,0.1606203852856718,-1.162533852472099
2.18,-0.3599511916546141,0.0341071717197557,1.2733187206073664,-0.0226294371536222,0.2017786943758502,0.0107037973519748,-0.2070948668162747,-0.9340073938001088,-0.5866046723019286,-0.3661490659666002,0.0336480210634181,1.2778970823567923,-0.3029006187361907,-1.2208105487316288,-0.6421946044245238,1.8726067106259128,1.5555964453988975,0.5273141605285248,0.8992860322776131,11.834232652610808,-0.7816884615222316,0.1615489497342159,-1.160866114242901
2.2,-0.3637745114909196,0.015547725554598,1.2617984206506028,-0.0212462074211074,0.1923544914469434,0.0111392913916002,-0.1773644075419386,-0.9226618811114624,-0.5662518207036307,-0.3703059349954278,-0.0125931979702497,1.24398848699227,-0.1216337494890614,-0.943455082968264,-0.4993520926725073,1.8886896482836495,1.4865229637168034,0.5672756344323127,1.0176425799148958,11.898210488469886,-0.7876508816090879,0.1609586011947464,-1.1568859987549631
2.22,-0.3671074577119291,-0.0030147307888872,1.2507161694125415,-0.0254358431208312,0.1837421270884667,0.0111792992672005,-0.1577522882305063,-0.9313177832489132,-0.5429425638815817,-0.3703059349954278,-0.0125931979702497,1.24398848699227,-0.1216337494890614,-0.943455082968264,-0.4993520926725073,1.5834150745265896,0.9806059655716168,-0.4327951068725355,1.1654628411024492,11.96420311885231,-0.7916270314082365,0.1658908700876663,-1.1543178303381867
2.24,-0.3700701898683771,-0.0215860236236902,1.240119439088177,-0.0360164434074821,0.1787363398847608,0.0107648579085544,-0.1394933773810627,-0.924432166276948,-0.5179242043837178,-0.3703059349954278,-0.0125931979702497,1.24398848699227,-0.1216337494890614,-0.943455082968264,-0.4993520926725073,1.5864408738248803,0.9129455424721794,0.3442808485982551,1.2509179748931951,12.230907755900262,-0.7964511963785058,0.1774709163895877,-1.148761700050838
2.26,-0.3725479271638472,-0.0390161389103196,1.2305195326635223,-0.0463887189384724,0.1768323241440188,0.0103178451707877,-0.1219670246514584,-0.9106436544343572,-0.4938667482872966,-0.3715222724903184,-0.0220277487999323,1.2389949660655448,-0.1045415260236187,-0.945344620801895,-0.4819015767466231,1.6401656110489324,0.876317636480211,0.6894255921295445,1.202872804821059,12.230907755900262,-0.8002581024664717,0.1913100854495414,-1.1413263274185714
2.28,-0.374779086863616,-0.057034018010604,1.2209112437908294,-0.0559194302310192,0.1768091732203993,0.0098974898795825,-0.1019018533911362,-0.8919850592075587,-0.468207745034839,-0.3739549474800996,-0.0408968504592976,1.2290079242120948,-0.0703570790927334,-0.9491236964691572,-0.4470005448948546,1.8769248263137777,1.00325856301611,0.932929761339929,1.2829501626228812,12.239790564443863,-0.8018225998470835,0.2037864286945411,-1.1351877219497164
2.3000000000000003,-0.3765911779270918,-0.0746469370974057,1.211819145794673,-0.06339460944813,0.177799147788167,0.0095923696581716,-0.080196687399825,-0.8705280806977523,-0.442254431322853,-0.3763876224698809,-0.0597659521186629,1.2190208823586446,-0.0361726321618481,-0.9529027721364192,-0.4120995130430861,2.0031791296046277,1.08525829956556,1.0728489254903162,1.2976656855992974,12.272178465197612,-0.8024959576729592,0.2139347028500917,-1.1295583134729636
2.32,-0.3779524210582372,-0.091808423855542,1.203253627870032,-0.0685599326779201,0.1789804810427144,0.009458472606823,-0.0569980550975676,-0.847274270937878,-0.4155550196593855,-0.3771110751131178,-0.0788240075613912,1.2107788920977829,-0.0019881852309628,-0.9566818478036812,-0.3771984811913176,2.1164680438286045,1.1599316151128722,1.1626904879937172,1.3349705831733727,12.360481184602577,-0.8039863818206235,0.2227380964611446,-1.122422540527404
2.34,-0.3788039596258081,-0.1076714759805311,1.1956211940963253,-0.0714423511281667,0.17975211676045,0.0095167849398521,-0.0338461807552493,-0.8242411747808591,-0.3891453103556087,-0.3778345277563548,-0.0978820630041196,1.2025369018369212,0.0321962616999225,-0.9604609234709434,-0.3422974493395491,2.1000033033610754,1.157593717115913,1.1516548078509437,1.320485465188845,12.360481184602577,-0.8057554648892042,0.2293033439533624,-1.1154028393906703
2.36,-0.3792147571714399,-0.1238935750189171,1.1881435672709708,-0.0725191684386499,0.1797713894378332,0.009792929004935,-0.0085192686974252,-0.7994220190126787,-0.3599038582329292,-0.3777033692263196,-0.1170345953385296,1.1951674373723538,0.0663807086308078,-0.9642399991382054,-0.3073964174877806,2.298100024842756,1.2663456028912046,1.2409577884090195,1.462072606133971,12.439643134781363,-0.8083267369732586,0.2338612938446699,-1.1080828818272197
2.38,-0.3791109431507209,-0.1396078745928965,1.181264813951488,-0.0712347884398117,0.1785712937524635,0.0103411439802946,0.0175695065622481,-0.7735264553860622,-0.3293351037048906,-0.3767175995230123,-0.136281604564621,1.1886704987040804,0.1005651555616931,-0.9680190748054674,-0.2724953856360121,2.390425256876576,1.3044387629836731,1.2947781813308246,1.5284377264019322,12.543861014436516,-0.8122554979165644,0.2361309156242267,-1.1001889241219729
2.4,-0.3784772515862903,-0.1548026043312065,1.175014183701596,-0.0671274741231072,0.1755914554423738,0.0112195617373968,0.044332230786316,-0.7482476850011646,-0.2971453854359134,-0.3782324678226085,-0.1782841973621996,1.1647980587662436,0.1175695080523643,-0.7283491186038452,-0.2293351022147745,2.4451163583263344,1.3381362112033937,1.2639385192448838,1.6094859134488604,12.7171844812583,-0.8178821948856632,0.2359665468966211,-1.0911014936020282
2.42,-0.3774325108417701,-0.1690084717412504,1.1695134985284783,-0.0678870836335748,0.1714452458806495,0.0118187886754153,0.0641111828116934,-0.7454830469987445,-0.2836579559396251,-0.3782324678226085,-0.1782841973621996,1.1647980587662436,0.1175695080523643,-0.7283491186038452,-0.2293351022147745,1.2049490870198136,0.9889476012688696,0.1382319001210052,0.6743714748144142,12.7171844812583,-0.8167602831646336,0.2413524154834269,-1.0863379770228176
2.44,-0.3759443803146708,-0.1837658612769036,1.1640115802173474,-0.0747722591343782,0.1665989491421766,0.0121048432011227,0.0835013364567878,-0.7294012962746703,-0.267011025110383,-0.3782324678226085,-0.1782841973621996,1.1647980587662436,0.1175695080523643,-0.7283491186038452,-0.2293351022147745,1.509735962648102,0.9695076822547194,0.804087536203707,0.8323465414621034,11.62097395769797,-0.8218877855915633,0.2500533084079601,-1.078928452225519
2.46,-0.3740832809729235,-0.1981126543420385,1.1588828017970092,-0.0823724145850602,0.1617047865636509,0.0124165771711613,0.1014621048214596,-0.7060713707495737,-0.2466947403635606,-0.3770567727420849,-0.185567688548238,1.162504707744096,0.1375695083503875,-0.7193136512474018,-0.2093351019167512,1.788593058223363,0.8980384182335918,1.1664962762548303,1.0158142373411214,11.62097395769797,-0.8274298549856431,0.259689559147455,-1.0698562708948425
2.48,-0.3719982730749491,-0.2112690110519048,1.1544144399131162,-0.0885007917209241,0.1575003062607937,0.0128156026606606,0.1169884148460798,-0.6802959576919965,-0.224636380620378,-0.3747053825810376,-0.2001346709203149,1.1579180056998004,0.1775695089464339,-0.701242716534515,-0.1693351013207048,1.8654821466775016,0.776315501231007,1.2887706528788625,1.102917987159127,11.856180411809872,-0.8329727258577487,0.2690563237279961,-1.0599532028525864
2.5,-0.3695010121121025,-0.2245685437696077,1.1501909012741167,-0.0932936556932355,0.1541176549091178,0.0133110141006356,0.1317985819450409,-0.6512824964376922,-0.1987143791655692,-0.3723539924199903,-0.2147016532923918,1.1533313036555048,0.2175695095424804,-0.6831717818216282,-0.1293351007246583,2.0815091537615658,0.7405083549480579,1.4506730627152131,1.29610007274044,12.054569842534876,-0.837827289938934,0.2769249549262027,-1.0503591726278594
2.52,-0.3667199670025944,-0.2372727708101016,1.1465111446196614,-0.0962783641761655,0.1523448051244112,0.0138193906593673,0.1456464987614026,-0.6209462058698029,-0.1704212359552089,-0.3680026022291407,-0.2283650889288244,1.1507446016410117,0.2575695101385268,-0.6651008471087414,-0.0893351001286119,2.1866397041432344,0.6923958408180816,1.5168145283944667,1.4146571605180194,12.247162269530236,-0.8421485531554834,0.2829765224901144,-1.0410695778942125
2.54,-0.3636570427882945,-0.2493567758753344,1.1434129251379683,-0.0972877144668738,0.1520932500224342,0.0143435999720392,0.1601096028081254,-0.589413321742152,-0.1407677203004413,-0.3636512120382911,-0.242028524565257,1.1481578996265185,0.2975695107345734,-0.6470299123958545,-0.0493350995325654,2.2819044407915765,0.7231552023361398,1.5766442063825437,1.4826757827383754,12.397882942564138,-0.8461468705961445,0.2880916169672802,-1.0309352297406154
2.56,-0.3604659468703841,-0.2602393744483807,1.1410300374714475,-0.0959648360533858,0.1526241608166595,0.0149424309304242,0.1751316789460277,-0.5581326430650582,-0.1114865054709175,-0.3582998218325404,-0.2552401868338674,1.1465711976269264,0.3375695113306198,-0.6289589776829677,-0.009335098936519,2.270205481826069,0.7511038068951176,1.5640339338546916,1.4640607414761913,12.545708685546742,-0.8494475237708135,0.291624481517789,-1.020770157341638
2.58,-0.3567857259583796,-0.2710566318513173,1.1391399042644836,-0.0918123750019111,0.1533547103711194,0.0157625440035255,0.192162129533137,-0.5261022144365145,-0.0788940190032514,-0.3519484316118884,-0.2680000757346556,1.1459844956422356,0.3775695119266662,-0.6108880429700809,0.0306649016595273,2.438367681192278,0.8515225293554668,1.601521431427183,1.6296243233833072,12.545708685546742,-0.8519417976046031,0.2922207445447256,-1.012668545927614
2.6,-0.3527527766418267,-0.281269361341687,1.137921425793713,-0.0859643574570356,0.1537719099014213,0.0167391397174191,0.2102730677785773,-0.4972630431373663,-0.04446021492195,-0.3471776194817228,-0.2973617425731431,1.135195203314321,0.2921621310232531,-0.4347678416776491,0.0211059824868647,2.4214617222151222,0.9055469122720136,1.4419585649574074,1.7216902040650697,12.649846278744915,-0.855420586728834,0.2916084489696838,-1.0036524442143162
2.62,-0.3483629118888708,-0.2911135388207999,1.1371465373375726,-0.0845453242323407,0.1527297968939822,0.0175380806198866,0.2275648031479741,-0.4860798693310784,-0.0349701874180527,-0.3471776194817228,-0.2973617425731431,1.135195203314321,0.2921621310232531,-0.4347678416776491,0.0211059824868647,1.1337196638627445,0.8645867684698411,0.5591586903143986,0.4745013751948648,12.738733371906164,-0.8540682766476871,0.2973502773763757,-0.9950563777412584
2.64,-0.3438812074127246,-0.3001806413705744,1.1365997206119185,-0.0883287263540371,0.1498158638061111,0.0181238779645424,0.2431514102083861,-0.467925975971885,-0.0230395343292835,-0.3471776194817228,-0.2973617425731431,1.135195203314321,0.2921621310232531,-0.4347678416776491,0.0211059824868647,1.3368308109828309,0.7793303530205964,0.9076946679596688,0.5965326544384579,10.93234837865839,-0.8564868537653083,0.3035311520153191,-0.9886887220180244
