t,x,y,z,roll,pitch,yaw,v_x,v_y,v_z,ref_x,ref_y,ref_z,ref_v_x,ref_v_y,ref_v_z,a_com,a_x,a_y,a_z,thrust,wind_x,wind_y,wind_z
0.0,-0.150354641238185,-1.2107926503287958,2.289658426813041,0.0293182115473798,0.0995867135809659,0.0421421177950039,0.0006866833392948,0.0079303675809473,-0.0004164319943755,-0.1503341336896768,-1.210527327362088,2.2896469641976407,0.1006829893958061,0.108618223720711,-0.1003904075322454,0.3985463573517702,0.0343341669647418,0.3965183790473692,-0.0208215997187784,10.25425044676922,-0.9406298289846674,0.2545918774584005,-0.8780841746853565
0.02,-0.1504324230989594,-1.210966032872821,2.289523500939266,0.021021354828805,0.1027103978638949,0.0416462104884794,-0.0077669476214298,-0.0184831527030511,-0.0128131662842722,-0.1503341336896768,-1.210527327362088,2.2896469641976407,0.1006829893958061,0.108618223720711,-0.1003904075322454,1.5188951175670653,-0.4226815480362364,-1.3206760141999283,-0.6198367144948337,9.642451112565595,-0.9275942803316648,0.25577858397201,-0.895299300570839
0.04,-0.1506377662213532,-1.21135184655635,2.289084714803576,0.0053306740618697,0.1096432491954659,0.0406614706698567,-0.0129548452463453,-0.0200573774776506,-0.032749494328438,-0.1503341336896768,-1.210527327362088,2.2896469641976407,0.1006829893958061,0.108618223720711,-0.1003904075322454,1.0330169907752709,-0.2593948812457728,-0.0787112387299707,-0.9968164022082908,9.106928461775624,-0.9187612163668016,0.2664567913779775,-0.9042060364538524
0.06,-0.1509201056174788,-1.211693859675026,2.2881965307374585,-0.0119764457618154,0.1189515877757322,0.0394592614541634,-0.0145986531748253,-0.0136218833960662,-0.0550943154877576,-0.1493273037957187,-1.209441145124881,2.288643060122318,0.1206829896938293,0.1286182240187342,-0.1203904078302686,1.1655564349505123,-0.0821903964239982,0.3217747040792181,-1.1172410579659815,9.106928461775624,-0.9050850940833512,0.2760882470743763,-0.920187516651222
0.08,-0.1511988712915027,-1.2118612940524058,2.286861412040726,-0.0287223739116213,0.1290673695606665,0.0381373820031312,-0.012862136316031,-0.0030724772596017,-0.0773360612108685,-0.1473136440078026,-1.2072687806504667,2.2866352519716733,0.1606829902898758,0.1686182246147807,-0.160390408426315,1.2338969906808157,0.0868258429397119,0.5274703068232219,-1.1120872861555418,9.064170398558872,-0.8897009886892695,0.2863784506125215,-0.936496860332317
0.1,-0.1514117482145606,-1.2117827591013302,2.2850870191742785,-0.0447010762491898,0.1392887275876969,0.0367157848518,-0.0082326371258865,0.0107471053922506,-0.0990783109424858,-0.1452999842198865,-1.2050964161760525,2.2846274438210283,0.2006829908859222,0.2086182252108271,-0.2003904090223615,1.30875757000193,0.2314749595072247,0.6909791325926242,-1.0871124865808643,9.104629109004236,-0.8741397269286968,0.296551093570201,-0.951674115490438
0.12,-0.1515043822265894,-1.2114126392487263,2.283002624025823,-0.0588227510091726,0.1487591502108941,0.0353209946079813,-0.0015245241966132,0.0275685853477323,-0.1193170030514449,-0.141286324402168,-1.2009240516718358,2.280619635640581,0.2406829914819687,0.2486182258068736,-0.2403904096184079,1.357907972991725,0.3354056464636678,0.8410739977740812,-1.0119346054479554,9.226889976708662,-0.8573749056826945,0.3075263681611683,-0.966497165394542
0.14,-0.1514424655821169,-1.2106382369885371,2.2803901006991576,-0.071996202081437,0.1583040904708789,0.0338804497569714,0.0076117178334789,0.048904922875982,-0.1409250101207726,-0.1372726645844496,-1.1967516871676194,2.276611827460134,0.2806829920780152,0.2886182264029201,-0.2803904102144544,1.5855725992996472,0.4568121015046088,1.066816876412485,-1.0804003534663855,9.226889976708662,-0.8403315994507177,0.3181085432766579,-0.9802959389976992
0.16,-0.1511769660804942,-1.2093987932043266,2.2773429683186075,-0.0827963428074339,0.1673429677964346,0.0325506767017395,0.0187222036534793,0.0736297197059029,-0.1627316852936355,-0.13225900475183,-1.1915793226485016,2.2716040192647857,0.3206829926740616,0.3286182269989665,-0.3203904108105008,1.7394608040511097,0.5555242910000203,1.2362398414960478,-1.090333758643143,9.254062796753717,-0.8231955602446391,0.3273276447614498,-0.99359488658324
0.18,-0.1506690609736587,-1.2076413582638608,2.273859804985912,-0.0908933154793798,0.1758553175437785,0.0313924975708624,0.0317468965325952,0.1002509722645817,-0.1845175980610513,-0.1262453449043092,-1.1854069581144826,2.265596211054536,0.360682993270108,0.3686182275950129,-0.3603904114065472,1.839130030406838,0.651234643955793,1.3310626279339377,-1.0892956383707908,9.29173870156592,-0.8069063150050517,0.3343266271060153,-1.006041851116155
0.2,-0.1499278532373365,-1.2054694040249163,2.270148840012843,-0.0963172666442717,0.183457406352356,0.0304631165758307,0.0458147821368075,0.1265010447830711,-0.2050276686982759,-0.1202316850567884,-1.1792345935804638,2.2595884028442863,0.4006829938661545,0.4086182281910594,-0.4003904120025937,1.808061607179841,0.7033942802106163,1.312503625924468,-1.0255035318612329,9.376704128268102,-0.7915879133661002,0.3400422369329851,-1.0171445953775329
0.22,-0.148841526974973,-1.2026445401451291,2.265822073437308,-0.1000564568734773,0.1909647755082484,0.0296573767318942,0.062278580116398,0.1542680256602783,-0.2265710928436524,-0.1490817161470289,-1.2026288096506317,2.264633925082859,0.1305924678121209,0.2002509737546978,-0.2845175995511674,1.940477386402345,0.8231898989795233,1.3883490438603638,-1.077171207268822,9.376704128268102,-0.7767273322098486,0.3442490746959029,-1.0276873105351625
0.24,-0.1473683679203925,-1.1990750485473047,2.261285591861104,-0.0968408983273984,0.1979085268638591,0.0294096338792273,0.0845246205160665,0.1981343818183082,-0.225698300070757,-0.1490817161470289,-1.2026288096506317,2.264633925082859,0.1305924678121209,0.2002509737546978,-0.2845175995511674,2.4596266399960123,1.1123020199834286,2.193317807901493,0.0436396386447657,9.405568840194974,-0.7683830262396512,0.3425279290186171,-1.033583886759025
0.26,-0.1455399628312332,-1.194997268411815,2.256995563382364,-0.0878368833214493,0.2039717297521409,0.0296989526505213,0.1069968873569543,0.2278543628538189,-0.2259024069092313,-0.1490817161470289,-1.2026288096506317,2.264633925082859,0.1305924678121209,0.2002509737546978,-0.2845175995511674,1.8630094667772723,1.123613342044389,1.485999051775537,-0.0102053419237149,10.8587673302427,-0.759667942472321,0.3398792694143758,-1.033502376829352
0.28,-0.143145900266492,-1.1901812919841903,2.2524434347999573,-0.0771602945015775,0.2098855674630935,0.0301988603812216,0.1313422992576356,0.2518544256054841,-0.2294698213376078,-0.1477757914689077,-1.2006262999130848,2.2617887490873474,0.1503615820680261,0.220250974052721,-0.3045175998491906,1.718595748279311,1.2172705950340643,1.2000031375832596,-0.1783707214188246,10.62107564789858,-0.7528832229069561,0.3352466138859724,-1.0334500521030294
0.3,-0.1402544742565574,-1.1849325136770876,2.2477835432948896,-0.0670619943493743,0.2152450647816214,0.030766153376571,0.1566629960289845,0.2717563795907478,-0.2364981382817091,-0.1451639421126653,-1.1966212804379908,2.256098397096324,0.1898998105798364,0.2602509746487675,-0.344517600445237,1.6481980285184863,1.2660348385674438,0.9950976992631838,-0.351415847205061,10.379512473174143,-0.7466170151135548,0.3300962616008145,-1.034574314711486
0.32,-0.1368435837217262,-1.1793163385931116,2.2429485986470867,-0.0582113211983491,0.2196920777796034,0.0313588370018366,0.183144997329173,0.2890208421516385,-0.2466485329615405,-0.1425520927564229,-1.1926162609628967,2.250408045105301,0.2294380390916467,0.300250975244814,-0.3845176010412835,1.660111873139829,1.3241000650094246,0.8632231280445352,-0.5075197339915738,10.177699146479426,-0.741590239623487,0.3255361906876063,-1.0358182499433026
0.34,-0.133105581459427,-1.1736787710193337,2.238144660138255,-0.0510779728029884,0.222808340019991,0.0319308387503641,0.2089377858921955,0.3037348262351271,-0.2585256719716897,-0.13796333197459,-1.1866112414580003,2.242717693084475,0.268976267603457,0.3402509758408604,-0.4245176016373299,1.5990901323349054,1.2896394281511263,0.7356992041744281,-0.5938569505074556,10.017693774168947,-0.7369631992305102,0.3215474627874148,-1.0370287724556184
0.36,-0.128638827779219,-1.1674552243102203,2.2328329308528683,-0.0448884906859027,0.2248958547235106,0.0325232917985997,0.2363187964236779,0.3179825313809561,-0.272062301089023,-0.133374571192757,-1.1806062219531042,2.2350273410636494,0.3085144961152674,0.3802509764369069,-0.4645176022333764,1.685198183825772,1.3690505265741213,0.7123852572914535,-0.6768314558666666,9.89332259562252,-0.733389038043226,0.3187344113250276,-1.037341077579132
0.38,-0.1236177369681708,-1.1609475792246366,2.227241968005006,-0.0396909737003746,0.2256561695722537,0.0331177222363383,0.2643352040376583,0.3320705620112297,-0.2863648534187626,-0.1277973546981288,-1.173601202433307,2.2263369890279225,0.3480527246270776,0.4202509770329533,-0.5045176028294228,1.7233359406810105,1.4008203806990165,0.7044015315136792,-0.7151276164869796,9.839359874021284,-0.7322480571823546,0.3167557982595955,-1.0357624840849158
0.4,-0.118030840510203,-1.1541632183618793,2.221356934494871,-0.0350842361744904,0.2247324930263382,0.0337404707944087,0.292829895851615,0.3456402360501672,-0.3013937031421833,-0.1104009767662879,-1.1443440511240752,2.212923725334068,0.2758604652535239,0.4320705635013459,-0.3863648549088787,1.7478199557624254,1.4247345906978348,0.678483701946872,-0.7514424861710362,9.802740439716215,-0.7327409914843505,0.3149762096703847,-1.033631590405398
0.42,-0.1119729536452059,-1.147486028214848,2.215690609497168,-0.031939829751534,0.2165183644513211,0.0344871336919082,0.3414460632506677,0.3570881465182826,-0.2939581510751459,-0.1104009767662879,-1.1443440511240752,2.212923725334068,0.2758604652535239,0.4320705635013459,-0.3863648549088787,2.524813766003505,2.4308083699526333,0.5723955234057693,0.3717776033518694,9.763403499743616,-0.7430826953705097,0.3097208962062883,-1.0301035876578004
0.44,-0.1046967921240039,-1.140224145734073,2.209873435165901,-0.0302900538851359,0.1970931387426006,0.0354741224323846,0.3819466461882959,0.368684102873711,-0.2881528195345291,-0.1104009767662879,-1.1443440511240752,2.212923725334068,0.2758604652535239,0.4320705635013459,-0.3863648549088787,2.12630271620787,2.025029146881413,0.5797978177714214,0.2902665770308399,11.392482118788394,-0.7680856302235737,0.320899297240134,-0.9945670597222176
0.46,-0.0967504051275534,-1.1327291285397008,2.204129164288553,-0.030128554911515,0.1711408847710876,0.0365432568587688,0.4093116995514309,0.3803068295319549,-0.2865827074732658,-0.1076423721137526,-1.1400233454890618,2.2090600767849797,0.278165517496697,0.4520705637993691,-0.4063648552069019,1.488622830357308,1.3682526681567468,0.5811363329121966,0.0785056030631642,10.917128419715482,-0.7992354838555886,0.3302987597956751,-0.9564566000924484
0.48,-0.0883941882198523,-1.1250045132527575,2.19836306485392,-0.0312858821846128,0.1425700854179954,0.0376255495524251,0.4239812236070484,0.391690008658486,-0.2899292424099369,-0.1021251628086822,-1.1313819342190348,2.2013327796868016,0.2827756219830433,0.4920705643954155,-0.4463648558029484,0.9433596863437016,0.7334762027808778,0.5691589563265542,-0.1673267468335515,10.482009044297229,-0.828904645293402,0.3380742960053825,-0.9209123875479772
0.5,-0.0802932327464931,-1.117454792857557,2.192779605411604,-0.0335292162954297,0.1158424502068817,0.0386243945663981,0.4275015516637518,0.4026613893929484,-0.2975836897409887,-0.0966079535036117,-1.122740522949008,2.193605482588624,0.2873857264693895,0.532070564991462,-0.4863648563989948,0.6916546623698717,0.1760164028351718,0.5485690367231205,-0.3827223665525903,10.106258009564954,-0.85711330961627,0.3447066290046538,-0.8873756100035383
0.52,-0.0717864878143992,-1.1092681115561902,2.1867021083761724,-0.0365642989779797,0.0902509904550772,0.0396385567101313,0.4224909828572294,0.4155884539867518,-0.3099732412645201,-0.0908602389742239,-1.1120991116491787,2.183878185460644,0.2919958309557358,0.5720705655875085,-0.5263648569950413,0.9296716970677064,-0.2505284403261226,0.6463532296901692,-0.6194775761765692,9.5320308198161,-0.8806091701126725,0.3495127350329863,-0.8598821224696783
0.54,-0.0634557760978652,-1.1008113414886067,2.180341912378816,-0.0396335584552823,0.0686762613105324,0.0406002351074997,0.4106100191468818,0.4294732768203914,-0.3255635425676513,-0.0851125244448361,-1.1014577003493495,2.1741508883326643,0.296605935442082,0.6120705661835549,-0.5663648575910878,1.2010444397799924,-0.5940481855173818,0.694241141681981,-0.7795150651565635,9.5320308198161,-0.8983860430002469,0.3521669546482943,-0.8403592742823601
0.56,-0.0554173844651513,-1.0920623976099555,2.173641203844716,-0.0421895611516987,0.0519472961766492,0.0414817234123938,0.3940041532486252,0.4445218048069809,-0.3437312034486772,-0.0792495573032897,-1.089816289034619,2.1634235911897832,0.3012160399284282,0.6520705667796013,-0.6063648581871341,1.442460466253761,-0.8302932949128289,0.7524263993294755,-0.9083830440512948,9.380130877207192,-0.9110463979677942,0.3528560791758424,-0.8283444753165249
0.58,-0.0477417797969662,-1.0830079183474468,2.1665566128616347,-0.0439451625981631,0.0401525671092268,0.0422579642315084,0.3746338952054028,0.459950070153361,-0.3638184548812876,-0.0732713375495845,-1.0771748777049874,2.151696294032001,0.3058261444147745,0.6920705673756478,-0.6463648587831806,1.5943148515712309,-0.9685129021611172,0.7714132673190016,-1.0043625716305182,9.187410246448508,-0.9193706360047628,0.352536141387196,-0.8216690437421816
0.6,-0.0408293828090368,-1.0741175069627271,2.1594391660512864,-0.044753050204028,0.0335370591881669,0.042875498219533,0.3540540345934742,0.4749566002544306,-0.3843898038399673,-0.029010085036696,-1.0600104148397786,2.1483656901175703,0.3090471792687421,0.5599500716434771,-0.4638184563714037,1.6369995467779543,-1.0289930305964312,0.7503265050534808,-1.028567447933984,9.128909049373306,-0.9233385297090992,0.3510264060807853,-0.8211168679909044
0.62,-0.0338802824508697,-1.0643871107690792,2.1518370687927657,-0.0430515008368284,0.0285205033716797,0.0436190694963901,0.3423316612287715,0.4969151219680864,-0.3729938343990017,-0.029010085036696,-1.0600104148397786,2.1483656901175703,0.3090471792687421,0.5599500716434771,-0.4638184563714037,1.3688122886740222,-0.5861186682351333,1.0979260856827904,0.5697984720482802,9.128909049373306,-0.9269144066470122,0.342818131051346,-0.8297394716126413
0.64,-0.0271572667872489,-1.05425609251208,2.144472643460644,-0.0384926895368316,0.0216340281951793,0.0446141754773683,0.3300675547858971,0.5143376084631717,-0.3645211422831734,-0.029010085036696,-1.0600104148397786,2.1483656901175703,0.3090471792687421,0.5599500716434771,-0.4638184563714037,1.1464487060082549,-0.61320532214372,0.8711243247542633,0.4236346057914147,10.664712127228997,-0.9353907490124844,0.3445134066448485,-0.8132715326261976
0.66,-0.0207204457775279,-1.0438263358349331,2.137191117956229,-0.033467947017561,0.0137882907300663,0.0456312311547142,0.3139640674090809,0.5276755579156129,-0.3640070515828033,-0.0259196132440086,-1.054410914123344,2.1437275055538563,0.2959298360814099,0.5799500719415003,-0.4838184566694269,1.0458100813954756,-0.8051743688408108,0.6668974726220633,0.0257045350185031,10.664712127228997,-0.9438928107929946,0.3443836548734461,-0.7995276348245773
0.68,-0.0146418524989163,-1.0331566287297629,2.1298523683999537,-0.0289413463337335,0.0061797701920598,0.0465566076551393,0.2945710571520938,0.5387216388012608,-0.3698787047168217,-0.0197386696586338,-1.0432119126904744,2.1344511364264283,0.2696951497067456,0.6199500725375467,-0.5238184572654734,1.153885891548761,-0.9696505128493572,0.5523040442823923,-0.293582656700922,10.22425205772015,-0.951835402608486,0.342833991419093,-0.7889432744688722
0.7000000000000001,-0.0092521003879448,-1.0228303877895697,2.1227218970162784,-0.0254111475860205,-5.942789883337252e-05,0.0473161842637145,0.2736938402365161,0.5478632615328757,-0.3803986197308366,-0.0135577260732589,-1.0320129112576049,2.125174767299,0.2434604633320813,0.6599500731335932,-0.5638184578615199,1.25508571839671,-1.0438608457788825,0.4570811365807448,-0.5259957507007418,9.604770009431377,-0.9578510268674096,0.3401930131192706,-0.7831481742744497
0.72,-0.0040285379815087,-1.0117826580553442,2.1149590149277357,-0.022591788161218,-0.004955851013711,0.0479836732983301,0.2496245504827633,0.5565636859346497,-0.3955283487988458,-0.0086885168066173,-1.018813909794933,2.1138983981417696,0.217225776957417,0.6999500737296397,-0.6038184584575663,1.4865537290091966,-1.2034644876876417,0.4350212200886993,-0.7564864534004623,9.604770009431377,-0.9618160595770456,0.3369895367867495,-0.7815566780087679
0.74,0.0006918929654798,-1.000567340856948,2.1068699328220144,-0.0206798817645453,-0.0073817291828498,0.0485158223049896,0.2235628410344075,0.5646665318408489,-0.4126958382447958,-0.0038193075399757,-1.0056149083322612,2.1026220289845394,0.1909910905827526,0.7399500743256862,-0.6438184590536128,1.6121348462728942,-1.3030854724177892,0.4051422953099626,-0.858374472297499,9.395217854419116,-0.9632057485991006,0.3331151355680329,-0.7850247164949296
0.76,0.0048840959161602,-0.9891862913615695,2.0984236796054896,-0.0193913762178569,-0.0068211915917555,0.0489347630431678,0.19738190358833,0.5730565919321194,-0.4310391675230114,0.0003940345672992,-0.9914159068546882,2.090345659812408,0.1647564042080884,0.7799500749217325,-0.6838184596496591,1.6525074303158176,-1.3090468723038733,0.4195030045635262,-0.9171664639107818,9.31937696013756,-0.962498324489372,0.328775499948338,-0.792392674792556
0.78,0.0083951001470117,-0.9782190674293392,2.0900521088820057,-0.0185081542631848,-0.0040265905081174,0.0492611151322261,0.1738148224448338,0.5809611422700498,-0.4492477469528269,0.0039515095152076,-0.976216905362214,2.077069290625375,0.1385217178334241,0.819950075517779,-0.7238184602457056,1.5406505075137182,-1.178354057174813,0.395227516896518,-0.9104289714907732,9.220803136050565,-0.9600717500368902,0.3238918000167491,-0.8029598742716026
0.8,0.0116262569744799,-0.9665145603511014,2.0808567117044805,-0.0179121411621439,0.0006354648114758,0.0495461833424827,0.1508196929313465,0.5890689906411577,-0.4693748463651047,0.0170858412692533,-0.9491710103158366,2.067589721534364,0.1436582193618193,0.6809611437601659,-0.4949115284169268,1.58083310101244,-1.1497564756743628,0.4053924185553947,-1.00635497061389,9.220803136050565,-0.9562737168811192,0.3193422464902575,-0.8147969132848903
0.8200000000000001,0.0143576458158323,-0.9546049691683132,2.071604185842344,-0.0163090757892354,0.0083789704670867,0.0498449139734402,0.1240689030625976,0.6011470510229977,-0.4529268605986818,0.0170858412692533,-0.9491710103158366,2.067589721534364,0.1436582193618193,0.6809611437601659,-0.4949115284169268,1.6822756440026303,-1.3375394934374478,0.6039030190920003,0.8223992883211462,9.164720098391626,-0.9458929233244602,0.3052856169540244,-0.8486287098312653
0.84,0.0166010778518244,-0.9424861490326656,2.0627164429961464,-0.0134904270550921,0.0199619931774192,0.0501795521820642,0.1023305390686319,0.6099810233925244,-0.4368233719966686,0.0170858412692533,-0.9491710103158366,2.067589721534364,0.1436582193618193,0.6809611437601659,-0.4949115284169268,1.4229528120381152,-1.0869181996982822,0.4416986184763327,0.8051744301006608,11.577863279488156,-0.9398334727954089,0.3052306945135368,-0.8529832265161182
0.86,0.0183817040275828,-0.9308304168014764,2.054523217165907,-0.0110726692278166,0.0328114035723546,0.0504770790184083,0.0866814863519432,0.6166673253501813,-0.4264041431963318,0.0185224234628715,-0.942361398878235,2.062640606250195,0.1376268987452164,0.7009611440581891,-0.5040442847097468,0.9976971153516948,-0.7824526358344353,0.3343150978828479,0.52096144001684,11.218665538184723,-0.9310238363545464,0.3050063592960895,-0.8607296483639701
0.88,0.0199870051823781,-0.9184320726842802,2.046071005249684,-0.0092681730052178,0.0468605609270604,0.0507534264872368,0.0751161215762512,0.6229733068172129,-0.4195593851651268,0.0213955878501079,-0.9287421760030315,2.052742375681856,0.1255642575120106,0.7409611446542356,-0.5223097972953867,0.7422495826255285,-0.5782682387846017,0.315299073351577,0.3422379015602494,10.87083427046946,-0.921273441121525,0.3052458767062842,-0.8693562424474585
0.9,0.0214086315676639,-0.9059121558416272,2.037715786353346,-0.008462703256156,0.0603306671686677,0.0509751762282174,0.0679446508112959,0.628812876190016,-0.4164736863679205,0.0242687522373443,-0.9151229531278284,2.0428441451135178,0.1135016162788048,0.780961145250282,-0.5405753098810266,0.4874733337821399,-0.3585735382477646,0.2919784686401583,0.1542849398603135,10.604763632964932,-0.9111027801159064,0.3058951729712211,-0.8785664864159928
0.92,0.0227275074886078,-0.8932801735717555,2.029386667721788,-0.0089757916083835,0.0723799015049375,0.0511115431005266,0.0644387219668614,0.6343004171783644,-0.4166123309504678,0.0265387845629204,-0.8995037302228227,2.032032638915897,0.101438975045599,0.8209611458463285,-0.5588408224666666,0.325668026836036,-0.175296442221725,0.274377049417418,-0.0069322291273626,10.3929334704726,-0.9019920751369618,0.3071623263252968,-0.8867313443355285
0.94,0.0239451047960089,-0.8811773157049182,2.021461990950645,-0.0108831197993374,0.0820286986553273,0.0511396407959298,0.0639228944469706,0.6396094905064539,-0.4175803700820468,0.0288088168884965,-0.883884507317817,2.0212211327182765,0.0893763338123932,0.860961146442375,-0.5771063350523066,0.2710601289085882,-0.0257913759945382,0.2654536664044749,-0.04840195657895,10.231925889741431,-0.893394186109022,0.3090626724741492,-0.8947049146682394
0.96,0.0252360693062415,-0.8683067458108401,2.0130948249589555,-0.0139930960143056,0.0900674446937915,0.0510874203766698,0.0652234365319663,0.647509850960399,-0.4191235267371455,0.0307772831832425,-0.8672652843979102,2.009952988706015,0.0773136925791874,0.9009611470384212,-0.5953718476379465,0.4077022120349634,0.0650271042497832,0.3950180226972577,-0.0771578327549371,10.20174570774725,-0.8870252372304261,0.312558616033686,-0.8990525310820812
0.98,0.0265680439754499,-0.8552498188384495,2.0046914311814623,-0.0170314761357622,0.0958833345269535,0.0510456425721975,0.0678109325131341,0.6577108840452015,-0.421150895175422,0.0324441834471583,-0.8496460614631023,1.9982282068791128,0.0652510513459816,0.9409611476344678,-0.6136373602235865,0.5358787974773627,0.129374799058389,0.5100516542401234,-0.101368421913825,10.18435944691646,-0.8828762401832564,0.3163969912420186,-0.9004332909246099
1.0,0.0279584723260687,-0.8419752986333637,1.996241603428449,-0.0194504487741696,0.0996217945119479,0.0510661276377737,0.0709764932132145,0.6690496028831011,-0.4237313617587782,0.0299585906011067,-0.8223642746361894,1.9836338864226912,0.076612257737474,0.7577108855353176,-0.4518725204885848,0.6025905061039604,0.1582780350040211,0.5669359418949804,-0.1290233291678072,10.168576744260465,-0.8805492709372984,0.3203430908010811,-0.8994400933493654
1.02,0.029302207570585,-0.8290790940074634,1.988347743327627,-0.0188345810208206,0.103162418956102,0.0512800255557519,0.070767325577381,0.686817668404602,-0.4070285857847647,0.0299585906011067,-0.8223642746361894,1.9836338864226912,0.076612257737474,0.7577108855353176,-0.4518725204885848,1.2193549818595806,-0.0104583817916746,0.8884032760750449,0.8351387987006742,10.143185768019066,-0.8759263641491476,0.3177168468175606,-0.907615096894733
1.04,0.0307351386842788,-0.8151859851852046,1.9803710657098932,-0.0145791939772061,0.1081467699560271,0.0517357452262582,0.0728229320774524,0.700791587892999,-0.3917325794342321,0.0299585906011067,-0.8223642746361894,1.9836338864226912,0.076612257737474,0.7577108855353176,-0.4518725204885848,1.040989618376271,0.1027803250035687,0.6986959744198495,0.7648003175266288,11.446511768956952,-0.875220185626299,0.319925532500528,-0.901352133478674
1.06,0.0322337959084513,-0.8010677075446547,1.972653215732561,-0.0093609383775391,0.1134763563116068,0.0522670240998635,0.0770994882605865,0.710215202287844,-0.3807992236717071,0.0307247131784814,-0.8147871657808363,1.9791151612178053,0.078372522782342,0.7777108858333408,-0.4580168455512174,0.752714602754874,0.2138278091567073,0.4711807197422479,0.546667788126251,11.175150456951997,-0.873551454394488,0.3204506263825193,-0.8980133855417697
1.08,0.0337544984950325,-0.7875061665779592,1.965489391581878,-0.0048222543995624,0.1182162038659448,0.0527588402382178,0.0828113228645411,0.716968585901416,-0.3738311628609344,0.0322569583332309,-0.79963294807013,1.9700777108080336,0.081893052872078,0.8177108864293873,-0.4703054956764825,0.5629989259262008,0.2855917301977269,0.3376691806786014,0.3484030405386362,10.693349973951626,-0.8712283342742779,0.3204099929435781,-0.8963971502284763
1.1,0.035485618856624,-0.7731055328068356,1.958063608221929,-0.0009372123790066,0.1224420747276643,0.0532266595019204,0.0900291958050707,0.7228796128710399,-0.3692364006539235,0.0337892034879804,-0.7844787303594236,1.961040260398262,0.085413582961814,0.8577108870254337,-0.4825941458017476,0.5199754065343539,0.3608936470264834,0.2955513484811933,0.2297381103505441,10.52986110719121,-0.8689864939687807,0.3204698729642592,-0.8954180984257013
1.12,0.0373706819243361,-0.7585934604446635,1.95070444977394,0.0019418664098817,0.1256350636929437,0.0536276726456358,0.098091328103819,0.7281961786409696,-0.3669980376633335,0.0354974751472166,-0.767324512618915,1.951388377482227,0.08893411305155,0.8977108876214802,-0.4948827959270128,0.4956665150737752,0.4031066149374144,0.2658282884964891,0.1119181495294996,10.52986110719121,-0.8675950681771675,0.3210181658623601,-0.893846944049976
1.14,0.039423849051103,-0.7439795292005352,1.9433766949861797,0.0038423271722835,0.1276491154458796,0.0539552346959724,0.1067144313945656,0.7331548302549671,-0.3658723728264209,0.0372057468064529,-0.7501702948784063,1.941736494566192,0.092454643141286,0.9377108882175268,-0.5071714460522779,0.5005328598527407,0.4311551645373286,0.2479325806998722,0.056283241845631,10.398918262787449,-0.8667651785561062,0.3217371017965033,-0.892371926798077
1.16,0.0415361961067987,-0.7299984695494159,1.9364302861813545,0.0050511619510595,0.1284558632967463,0.0542150462967633,0.115090804798595,0.738296103866846,-0.3653732134633362,0.0390020317179326,-0.7320160771229964,1.9317773953970252,0.0959751732310219,0.977710888813573,-0.519460096177543,0.4920505203373138,0.4188186702014707,0.2570636805939441,0.0249579681542322,10.346692264888588,-0.866935221023267,0.3229970354929551,-0.8896599465830244
1.18,0.0439297579688051,-0.7151761062297602,1.9291230198241345,0.0059101823746574,0.128200617365954,0.0544471049857299,0.1237407533236414,0.7436617982022129,-0.3653944763325642,0.0408863298816557,-0.7128618593526854,1.9215110799747277,0.0994957033207579,1.0177108894096194,-0.5317487463028081,0.5089517101261909,0.432497426252322,0.2682847167683466,-0.0010631434613994,10.274843418741511,-0.8681776850474308,0.3246736779498827,-0.8856966291664542
1.2,0.0464947198386452,-0.7002460058536109,1.921808540572836,0.0064173333849762,0.1268081160226796,0.0546406505869105,0.1322166147340167,0.7490625033183758,-0.3660326075445916,0.0501167956349872,-0.6779930163196496,1.910853296007506,0.0863029120274455,0.843661799692329,-0.3714473219559084,0.5035252075204387,0.4237930705187645,0.2700352558081431,-0.0319065606013718,10.274843418741511,-0.8703473347715857,0.3264459700150478,-0.8809829977113
1.22,0.0491937751873493,-0.685926269763486,1.9150082214255504,0.007682766667389,0.1215248663835146,0.0548429348432444,0.1506554042701941,0.7575255369572391,-0.3496631358743488,0.0501167956349872,-0.6779930163196496,1.910853296007506,0.0863029120274455,0.843661799692329,-0.3714473219559084,1.303429611347367,0.921939476808868,0.423151681943168,0.8184735835121415,10.235357009340078,-0.8749961635319825,0.3220211379247154,-0.8815666860540039
1.24,0.0523634009908494,-0.670710763046809,1.9081833058419733,0.0099072619613933,0.1100381646212856,0.0550441638744844,0.1643815100376634,0.7634027285758149,-0.3337876555784311,0.0501167956349872,-0.6779930163196496,1.910853296007506,0.0863029120274455,0.843661799692329,-0.3714473219559084,1.089699769990894,0.6863052883734663,0.2938595809287903,0.7937740147958838,11.382602456730638,-0.8883530543608945,0.3289933530238065,-0.8571015257580487
1.26,0.0557312185484822,-0.6554011218660336,1.9016466248566863,0.0118240499959634,0.0950568846110653,0.0551499156306888,0.1709450602648822,0.767347710316701,-0.3207416372580036,0.0509798247552616,-0.6695563983227263,1.9071388227879469,0.0788153437682063,0.8636617999903522,-0.3726578910805772,0.7563756780497349,0.3281775113609386,0.1972490870443044,0.6523009160213755,10.926325373454349,-0.9045776755895756,0.3334983855365537,-0.8327284774440821
1.28,0.0591555605161436,-0.6400278922892666,1.8953399322951483,0.0128792542798754,0.0787367040947776,0.0551472829336302,0.170590570305088,0.769930502905907,-0.3105103776461019,0.0527058829958105,-0.6526831623288798,1.8997098763488287,0.0638402072497279,0.9036618005863988,-0.3750790293299149,0.5279089740111053,-0.0177244979897114,0.1291396294603009,0.5115629805950844,10.926325373454349,-0.9202691043392708,0.337187931954558,-0.8099046374477291
1.3,0.0623417316667472,-0.625386253163018,1.8895166675532016,0.0126640488517368,0.0635527577174379,0.0550530244886388,0.1644938311802739,0.7713563171049901,-0.3029429260590807,0.0544319412363595,-0.6358099263350332,1.8922809299097103,0.0488650707312495,0.9436618011824452,-0.3775001675792526,0.4910944349314498,-0.304836956240706,0.0712907099541526,0.3783725793510606,10.59759019276953,-0.9357915430981923,0.340686234974508,-0.787606475776423
1.32,0.0655185949305947,-0.6099507441738291,1.883525380328996,0.0107571167015425,0.0490580814441619,0.0548719934433211,0.1532052301081267,0.7722984422752417,-0.2966461265457115,0.0554092426509844,-0.6169366903113843,1.8847309265581256,0.0338899342127711,0.9836618017784916,-0.3799213058285902,0.6480158140702861,-0.5644300536073565,0.0471062585125803,0.3148399756684628,10.495018044678543,-0.949144039575896,0.3439901334107297,-0.7685175743817715
1.34,0.0684249368737265,-0.5944866807972314,1.8776517339575551,0.0071389363758289,0.0368707669658171,0.0546411562373624,0.1378115321746043,0.7746325864652697,-0.291035652262832,0.0563865440656094,-0.5980634542877353,1.8771809232065404,0.0189147976942927,1.023661802374538,-0.3823424440779279,0.8274835147107549,-0.7696848966761218,0.1167072095013987,0.2805237141439709,10.495018044678543,-0.9608306278534976,0.3473881483593494,-0.7519939685073472
1.36,0.070985108908359,-0.5789409975289403,1.8718877615028449,0.0031253887461026,0.0275873702051289,0.0544564778447864,0.1190239869702826,0.7798706618523322,-0.2856244505894966,0.0569894670672725,-0.5781902182491854,1.869570391398722,0.0039396611758143,1.0636618029705844,-0.3847635823272656,1.0120405032834532,-0.9393772602160844,0.2619037693531278,0.2705600836667737,10.459526105591976,-0.969939110303314,0.35072047008349,-0.7385220743732656
1.38,0.0730421002180473,-0.5640595896390375,1.8665107215613093,-0.0002791499566464,0.0219315937620946,0.054356025384107,0.0984401766044339,0.7862342931105102,-0.2806454440519258,0.0572180116559735,-0.5573169821957341,1.86189933113467,-0.011035475342664,1.1036618035666308,-0.3871847205766033,1.1056441087308038,-1.029190518292436,0.318181562908898,0.2489503268785386,10.459526105591976,-0.9767673228913958,0.3538385582288399,-0.7278892100776141
1.4,0.0747650882042575,-0.5482572761454763,1.860950648778593,-0.0032332975201924,0.0199737658188987,0.0543129393996654,0.0752725769694248,0.7936084752682967,-0.2756021084971733,0.077964109048269,-0.5247478749835119,1.8524784493587128,0.0527897056025704,0.8416465148104633,-0.2727649975508496,1.2415227231731625,-1.1583799817504556,0.3687091078893256,0.2521667777376252,10.46744341813519,-0.9806656548256222,0.3555810782375965,-0.7227329826671818
1.42,0.076014419868231,-0.5320856585366793,1.8555789730096093,0.0013747770933653,0.0221019370846928,0.0547912439084271,0.0514389039815334,0.8200706648550316,-0.261270582275647,0.077964109048269,-0.5247478749835119,1.8524784493587128,0.0527897056025704,0.8416465148104633,-0.2727649975508496,1.919429661160014,-1.191683649394569,1.3231094793367426,0.7165763110763168,10.452997729143137,-0.984845621801564,0.352410220766614,-0.7204106077383277
1.44,0.0768259999314159,-0.515558127404315,1.8505024514278348,0.013703644260256,0.0274852234146375,0.055837199056086,0.0314140213704342,0.8301492781594574,-0.2471947365453298,0.077964109048269,-0.5247478749835119,1.8524784493587128,0.0527897056025704,0.8416465148104633,-0.2727649975508496,1.3235405195460952,-1.00124413055496,0.5039306652212916,0.7037922865158558,11.073201150422392,-0.984669007352472,0.3471091611630744,-0.7220501968013291
1.46,0.0772612872337099,-0.4997686925425904,1.845909165787457,0.0263158109482133,0.0344108319474713,0.0569782506538664,0.0157605275345834,0.8312913803911027,-0.2370035004673367,0.0784920061042947,-0.5163314098354073,1.8497507993832047,0.0436596114021977,0.8527289591504539,-0.2711889082506343,0.9356783095353032,-0.7826746917925407,0.0571051115822673,0.5095618038996552,10.912080259365212,-0.9815862817252804,0.3396061452004314,-0.7294715697134395
1.48,0.0774346348350111,-0.4831780111678695,1.8412554935106853,0.0382545898151324,0.0425393411533314,0.0581873318559618,0.0026984374659851,0.8278351746857945,-0.2290303314273909,0.0795478002163461,-0.499498479539198,1.844295499432188,0.0253994230014523,0.8748938478304351,-0.2680367296502038,0.7844344768320811,-0.6531045034299121,-0.1728102852654123,0.3986584519972899,10.692498411959605,-0.976891450215877,0.3319472243369615,-0.73959573412243
1.5,0.0773805504378353,-0.4666901039572441,1.8367322834005264,0.0479732330084058,0.0506357554545601,0.0593126831380911,-0.0072848847483332,0.8215976026924514,-0.2236869250993526,0.0806035943283975,-0.4826655492429887,1.8388401994811707,0.0071392346007069,0.8970587365104163,-0.2648845510497734,0.6463861423204442,-0.4991661107159231,-0.3118785996671536,0.2671703164019157,10.527024692123632,-0.9718429344243836,0.3254947879912134,-0.7496414163094183
1.52,0.0771551607415405,-0.4503437977525656,1.83229715315893,0.0554143038003996,0.0580425397451093,0.0602975176120604,-0.0146780306521532,0.8138469527924256,-0.2200962191821531,0.0807463790204117,-0.4647243745127804,1.8335425084601755,-0.0111209538000384,0.9192236251903976,-0.2617323724493429,0.5648547362193042,-0.3696572951909981,-0.3875324950012915,0.1795352958599755,10.39516909964641,-0.9662310742306665,0.3195606559363398,-0.7602497146674102
1.54,0.0768248404840994,-0.4349670135210129,1.8281425523007944,0.060523276451724,0.064026358706722,0.0610650991660196,-0.019729360855288,0.805607632321195,-0.2174088136401281,0.0808891637124258,-0.4467831997825721,1.82824481743918,-0.0293811422007838,0.9413885138703788,-0.2585801938489124,0.50155878816956,-0.2525665101567396,-0.4119660235615274,0.1343702771012478,10.310934740063203,-0.9609776209750394,0.3146586692852547,-0.769913845872035
1.56,0.0763867708387256,-0.4189472096113186,1.823821483622432,0.0642801696052383,0.0690338952303417,0.0616922448137953,-0.0237931331019114,0.7970347632702605,-0.214851078079237,0.0805754436944213,-0.4282879028353642,1.823025930883195,-0.0476413306015292,0.96355340255036,-0.2554280152484819,0.49130016241689,-0.2031886123311673,-0.4286434525467286,0.1278867780445558,10.280142988572152,-0.956469743228454,0.3108746644348354,-0.7779474925062184
1.58,0.0758780076131287,-0.4031009478759531,1.8195493484874063,0.066738273080767,0.072699080106461,0.0621412507795475,-0.0269494410035222,0.7883160854220106,-0.2124910171483353,0.0798052189663982,-0.4092384836711568,1.8178858487922207,-0.0659015190022746,0.9857182912303412,-0.2522758366480514,0.478402316541482,-0.1578153950805424,-0.4359338924124933,0.1180030465450843,10.280142988572152,-0.9530733733535134,0.308136518737868,-0.783994247317553
1.6,0.0753108721077087,-0.3874300115095108,1.8153233761304248,0.0681585567838799,0.0751433121235447,0.0624281361792631,-0.0296444181161948,0.7793150203785353,-0.2102301218873308,0.0745305355629526,-0.3636851436048526,1.8089247976299896,-0.0453140232143014,0.7849075833331509,-0.2401756405238704,0.483202134038993,-0.1347488556336283,-0.4500532521737654,0.1130447630502254,10.279026271164184,-0.9502955908810606,0.3057625793177597,-0.7892475539275369
1.62,0.0746681150250346,-0.3725293308673806,1.8113389818374488,0.0743970048376184,0.0778136648460389,0.0630583196957874,-0.0372791139220177,0.7857885475224567,-0.2095495367639056,0.0745305355629526,-0.3636851436048526,1.8089247976299896,-0.0453140232143014,0.7849075833331509,-0.2401756405238704,0.5016431247429949,-0.3817347902911477,0.3236763571960732,0.0340292561712626,10.282834275394634,-0.9481015500132838,0.3028817052252939,-0.7916023965723004
1.64,0.0738614577230549,-0.3568653876088865,1.807129204646227,0.0857568432970833,0.0819714265733408,0.0641643738837107,-0.0426954646777818,0.7795065391773017,-0.2116091730503105,0.0745305355629526,-0.3636851436048526,1.8089247976299896,-0.0453140232143014,0.7849075833331509,-0.2401756405238704,0.4273247769271602,-0.2708175377882031,-0.314100417257751,-0.1029818143202437,10.143581397355774,-0.9437429861023912,0.2933532803710638,-0.8012143068389149
1.66,0.0729726560345703,-0.3414090818513792,1.8028492901625008,0.0973781705589244,0.0867079585344874,0.0653611940597499,-0.0457324162726915,0.7663592697839079,-0.216408503305233,0.0740773953308096,-0.3558360677715211,1.8065230412247508,-0.0489869396564572,0.784225882915379,-0.2457125651989773,0.7160784495921348,-0.1518475797454867,-0.6573634696696917,-0.2399665127461286,9.908741099417057,-0.937863681344783,0.2822108089440052,-0.8139473238745395
1.68,0.0720925258858487,-0.3270095897494814,1.798672449895934,0.1069623639956579,0.0911477025694117,0.066410777199274,-0.0466960464765451,0.7503581976899277,-0.2230188533140699,0.0731711148665235,-0.340137916104858,1.8017195284142733,-0.0563327725407689,0.7828624820798351,-0.2567864145491914,0.8669769584104579,-0.0481815101926807,-0.8000536046990081,-0.3305175004418445,9.833000115473624,-0.9304996942928192,0.2700983090402801,-0.8291475190540394
1.7,0.0711633362802308,-0.3121997103555147,1.7941270261532944,0.1151219077473065,0.0953149858218789,0.0673368333456375,-0.0461116316350663,0.7317138003457235,-0.231223044546199,0.0722648344022375,-0.324439764438195,1.796916015603796,-0.0636786054250806,0.7814990812442912,-0.2678602638994054,1.018901181185955,0.0292207420739435,-0.93221986721021,-0.410209561606456,9.833000115473624,-0.9227535859650036,0.2584773733820574,-0.8446460223840948
1.72,0.0702610860442801,-0.2977793351008144,1.7894089443597234,0.1212261458600926,0.0986383800223628,0.068018745219979,-0.0441899163559373,0.7117104078254477,-0.2401595352676906,0.0709912622937359,-0.3088097828133092,1.791558810325808,-0.0710244383093923,0.7801356804087474,-0.2789341132496194,1.0996471801782268,0.0960857639564459,-1.0001696260137916,-0.4468245360745804,9.79523217894348,-0.9160201810258268,0.2484351153596155,-0.8583310328920227
1.74,0.069448605066837,-0.2844580256601594,1.784758479418347,0.1252945326223167,0.1008623965018757,0.0684184037633715,-0.0415108093274007,0.691938220728734,-0.2488946734137873,0.0697176901852343,-0.2931798011884234,1.7862016050478198,-0.0783702711937039,0.7787722795732035,-0.2900079625998334,1.0890588086614046,0.1339553514268308,-0.9886093548356844,-0.4367569073048347,9.797176594984194,-0.909636938104947,0.2390923157596475,-0.8714163288629174
1.76,0.068652419501429,-0.2708427773470091,1.7796841095506064,0.1280365191163977,0.1022087015249876,0.0685842883288509,-0.0383089041652984,0.6708895694178539,-0.2580612328643221,0.0682604722546249,-0.2775839045844261,1.7805675535360763,-0.0857161040780156,0.7774088787376596,-0.3010818119500474,1.1590122204212294,0.1600952581051171,-1.0524325655440037,-0.4583279725267383,9.797176594984194,-0.9040130172165872,0.2308840094048844,-0.8832474815196482
1.78,0.0679225487462936,-0.2576545651783934,1.7744284068606433,0.129322760108935,0.1026128200870137,0.0685012466623712,-0.0349130669454081,0.6491512896931161,-0.2670310950586594,0.0666196085019077,-0.2620220930013175,1.7746566557905776,-0.0930619369623273,0.7760454779021158,-0.3121556613002614,1.1880056224618027,0.1697918609945153,-1.0869139862368926,-0.4484931097168632,9.817119997242116,-0.8991646491785154,0.2235070529829944,-0.8942108300502968
1.8,0.0672611377132345,-0.2449105009968168,1.7689962389307077,0.1288756803286319,0.1021737127707665,0.0681618149015088,-0.0314625691739442,0.6265138667102225,-0.2757101606704531,0.0661768953990232,-0.2251970006937376,1.7610768521077105,-0.0429735213363511,0.6178010458564748,-0.2775982116097606,1.224423368438321,0.1725248885731944,-1.131871149144681,-0.4339532805896856,9.847700361282476,-0.8952742567609224,0.2174524998459391,-0.9039324006426768
1.82,0.0666736694532386,-0.2331446717508673,1.763758194584414,0.1295017831192986,0.1017657969095219,0.0678919067909629,-0.0303824753719521,0.6121656866529066,-0.2753699033587699,0.0661768953990232,-0.2251970006937376,1.7610768521077105,-0.0429735213363511,0.6178010458564748,-0.2775982116097606,0.7196399249215057,0.0540046900996037,-0.7174090028657931,0.0170128655841594,9.883198123964576,-0.8960194683220772,0.2130474040195621,-0.9074716036889552
1.84,0.0660862129059856,-0.2210944455019875,1.7582508789246831,0.1325597052405293,0.1019083849983185,0.0678222538672628,-0.0283332664042793,0.5931191780692119,-0.2754974046300847,0.0661768953990232,-0.2251970006937376,1.7610768521077105,-0.0429735213363511,0.6178010458564748,-0.2775982116097606,0.9578426321637266,0.1024604483836425,-0.952325429184736,-0.0063750635657416,10.361783975878096,-0.8934355992621084,0.20638876547243,-0.9143539159587796
1.86,0.0655494081839752,-0.2094679513594202,1.7527300035216395,0.1358690161956448,0.1022199370334676,0.0677622509813236,-0.0254336511377059,0.5705331698968339,-0.2766106384217329,0.0657471601856597,-0.2190189902351728,1.7583008699916127,-0.0445856122145397,0.6115309970891465,-0.2797116349199808,1.1399285321147743,0.144980763328666,-1.1293004086188996,-0.0556616895824063,10.337124308617604,-0.8904693004178825,0.1990019029370015,-0.9220670505301122
1.88,0.065077767202796,-0.1983141317322973,1.7471805531918394,0.1382928874719448,0.1023869971081388,0.0675904097624865,-0.0219280745661194,0.5462944774041313,-0.2782506374699752,0.0648876897589326,-0.2066629693180433,1.7527489057594174,-0.047809793970917,0.59899089955449,-0.2839384815404213,1.227286516805764,0.1752788285793283,-1.2119346246351304,-0.0819999524121151,10.315020867012208,-0.8876969591318382,0.1923192870741382,-0.9294749020492696
1.9,0.0646984705901682,-0.18817703782331,1.7418764925990329,0.1394220894495994,0.1022293185435152,0.0672740876878593,-0.018244203938298,0.5222347758813592,-0.2799677249724632,0.0640282193322056,-0.1943069484009138,1.7471969415272222,-0.0510339757272942,0.5864508020198335,-0.2881653281608618,1.2200292308574054,0.18419353139107,-1.2029850761386018,-0.0858543751244028,10.308985559728171,-0.8849699691309739,0.186000885654731,-0.9371277468804212
1.92,0.0643760228536251,-0.1780069845148675,1.736258270546481,0.1390311577607026,0.1016353745241301,0.0667446306084861,-0.0142594550167527,0.4961926927126676,-0.2817447954449308,0.0630075398176597,-0.1825779323605172,1.741433634964005,-0.0542581574836714,0.5739107044851769,-0.2923921747813023,1.3202521531860174,0.1992374460772638,-1.3021041584345832,-0.0888535236233806,10.318174479079062,-0.8824629057637546,0.1807353513975891,-0.9446054568116184
1.94,0.0641341579861248,-0.1683653856618373,1.7306095318274084,0.1365798433152762,0.100546367234151,0.0659804664685638,-0.0101818865001186,0.4695202019949962,-0.2829809049646932,0.0619868603031139,-0.1708489163201205,1.7356703284007875,-0.0574823392400486,0.5613706069505204,-0.2966190214017428,1.3505334990633864,0.2038784258317046,-1.333624535883568,-0.0618054759881192,10.382106865962667,-0.8807841165541007,0.1772312918225899,-0.9510829223808156
1.96,0.0639734477980111,-0.1592434651385838,1.724947435600772,0.1321558232226117,0.0988481331827403,0.0649826628332389,-0.0062117447379509,0.444687797256067,-0.283081174844229,0.0608855762446585,-0.1594334027180902,1.729801350672059,-0.0607065209964258,0.5488305094158639,-0.3008458680221832,1.2573985096007172,0.1985070881083849,-1.2416202369464584,-0.0050134939767909,10.382106865962667,-0.8806675302434022,0.1764818727294701,-0.9547167039849872
1.98,0.0638910025105679,-0.1510144687127642,1.7195768689661826,0.1271428451196424,0.0965823926413947,0.0638893898084046,-0.0027672307277835,0.4230922481665032,-0.2821982831725279,0.0597036876422938,-0.1483313915544264,1.7238267017778202,-0.0639307027528031,0.5362904118812074,-0.3050727146426237,1.0943170415263128,0.1722257005083706,-1.0797774544781924,0.0441445835850595,10.432958092395891,-0.8813771600865821,0.1769853845960462,-0.9571344652120056
2.0,0.0638683918632382,-0.1427769449167589,1.713949191085377,0.1215731982687197,0.0934791878064401,0.0626322792752226,0.0002096176088973,0.4020173833631747,-0.2805679342892598,0.0637526409741788,-0.1298598563044391,1.705466954807556,-0.0185841036672509,0.4026884066560881,-0.2552041293152967,1.06732093343491,0.1488424168340446,-1.0537432401664242,0.0815174441634036,10.477489160167352,-0.8830656117317137,0.178330779423724,-0.9580599428607396
2.02,0.0639028867089173,-0.1349602878241484,1.7084049960520025,0.1156974830940767,0.0896211439878876,0.0612752102582043,0.0029198864971415,0.3810997167157504,-0.2738760441299125,0.0637526409741788,-0.1298598563044391,1.705466954807556,-0.0185841036672509,0.4026884066560881,-0.2552041293152967,1.1064308940509109,0.135513444412212,-1.045883332371214,0.3345945079673618,10.507458073059752,-0.8876579416159522,0.1801968532305073,-0.9560220155696206
2.04,0.0639758662605825,-0.1279050163885612,1.7032792314071232,0.1099931722478979,0.0852862171304844,0.0599197561451626,0.0044672274760684,0.3627999438126123,-0.265991975926272,0.0637526409741788,-0.1298598563044391,1.705466954807556,-0.0185841036672509,0.4026884066560881,-0.2552041293152967,0.9992928547867618,0.0773670489463432,-0.9149886451569056,0.3942034101820285,10.809451316437844,-0.893236429316579,0.1841717198328823,-0.950945317581277
2.06,0.0640694843038513,-0.1208397794629649,1.6980568015874078,0.1041036040863872,0.0801822465781992,0.0584683853971749,0.004619905964173,0.3448530296656993,-0.2565971306630293,0.0635667999375063,-0.1258329722378782,1.702914913514403,-0.0217474782551444,0.3986076383540051,-0.2498052985438505,1.0128896233520055,0.0076339244052283,-0.8973457073456481,0.4697422631621317,10.875756355372689,-0.899739483292961,0.1885509603816575,-0.944346845070414
2.08,0.0641466781275737,-0.1141208554764225,1.693031616768877,0.0984143138487897,0.0748409938298162,0.0570371119314114,0.0028837708041905,0.3280866545323442,-0.2463390618456463,0.0631951178641613,-0.1177792041047564,1.6978108309280973,-0.0280742274309314,0.390446101749839,-0.239007637000958,0.9866020933845154,-0.086806757999124,-0.838318756667758,0.5129034408691502,10.965716095102836,-0.9067831121405364,0.1931189824890541,-0.9367093189158182
2.1,0.0641662318476601,-0.1077253644840416,1.6882186533766776,0.0929611797615547,0.0697606156241332,0.0556791430395036,-0.0010189262273129,0.3124432801403033,-0.2354473576051744,0.0628234357908162,-0.1097254359716347,1.6927067483417912,-0.0344009766067184,0.382284565145673,-0.2282099754580656,0.9728507436282062,-0.1951348515751754,-0.7821687196020444,0.5445852120235974,10.965716095102836,-0.9134458204660691,0.1972656224814501,-0.929383748629315
2.12,0.064091456864645,-0.1019286695408992,1.6838521322301327,0.0880361312107746,0.0657273022212993,0.0545065377710162,-0.0067797912296407,0.298618654447088,-0.2247146646337346,0.0621354162586819,-0.1020797446687212,1.6881425488326298,-0.0407277257825053,0.374123028541507,-0.2174123139151731,0.921274307076542,-0.2880432501163868,-0.6912312846607621,0.5366346485719903,10.992395055467568,-0.9199621653040172,0.2014643973516586,-0.922002113842712
2.14,0.0638750546733156,-0.0960994873529583,1.6794809229473142,0.0831653632526099,0.0629256520944969,0.0534417154693767,-0.0146819803840336,0.2851219491166975,-0.2129413640941226,0.0614473967265475,-0.0944340533658077,1.6835783493234686,-0.0470544749582923,0.3659614919373409,-0.2066146523722806,0.9787955018838534,-0.395109457719645,-0.6748352665195273,0.5886650269806004,11.01167789165902,-0.9254887229202076,0.2053098404575503,-0.9156713566440418
2.16,0.0634874756363283,-0.0905308135686628,1.675348697180214,0.0786023539445173,0.0621054954916265,0.0525751784993276,-0.0234775390922368,0.2725342074155358,-0.2008391567457426,0.0606012084650184,-0.0869924004779984,1.6792840913528797,-0.0533812241340793,0.3577999553331749,-0.1958169908293882,0.977594646092896,-0.4397779354101606,-0.6293870850580863,0.6051103674189997,11.046765858282924,-0.9298523884612596,0.2083507061243051,-0.9110642808180524
2.18,0.0629313133838472,-0.0852034050603836,1.671461474349078,0.074312205589853,0.0629910206727975,0.0518651530583815,-0.0315048322691384,0.2609396854289224,-0.1884689189905763,0.0595968514740947,-0.0797547860052933,1.6752597749208629,-0.0597079733098662,0.3496384187290089,-0.1850193292864957,0.9379407736703504,-0.4013646588450818,-0.5797260993306685,0.6185118877583148,11.046765858282924,-0.9329088400456292,0.2114569704421158,-0.9076237652806252
2.2,0.0622643471264032,-0.0803474234554983,1.6679994924503592,0.0704923042334678,0.0648944208373073,0.0512850999039687,-0.0381586025787587,0.250866098651553,-0.1765565071859788,0.0613560717703903,-0.0721564207889374,1.6620380283995493,-0.0383092039874557,0.2438561765350749,-0.1623864796424746,0.8480202899941257,-0.3326885154810159,-0.5036793388684679,0.5956205902298728,11.046796685506706,-0.934731884886916,0.2145919034153588,-0.9051327344244126
2.22,0.0614132387357386,-0.0754029123580613,1.6645466695292714,0.0676170858541482,0.0681631125855335,0.050837178131565,-0.046375801407755,0.2437365597338338,-0.169679722338302,0.0613560717703903,-0.0721564207889374,1.6620380283995493,-0.0383092039874557,0.2438561765350749,-0.1623864796424746,0.6435115609213434,-0.4108599414498155,-0.356476945885964,0.3438392423838407,11.043801703890496,-0.9323548835581424,0.2178637692996438,-0.9054774091976782
2.24,0.0604187556257799,-0.0706120923489339,1.6612262580245325,0.0659194830353779,0.0727023615035812,0.0505502763301676,-0.0524088970077942,0.2355996817830397,-0.1626828615455033,0.0613560717703903,-0.0721564207889374,1.6620380283995493,-0.0383092039874557,0.2438561765350749,-0.1623864796424746,0.615554803123032,-0.3016547800019597,-0.406843897539702,0.3498430396399341,10.708534318373497,-0.930626199129964,0.2175837631505473,-0.9088468473057992
2.26,0.059327738955342,-0.065988091187859,1.658054455153189,0.0647218889501692,0.0776888350949643,0.0503212363827902,-0.0562289710817717,0.2272206918741934,-0.1548556638803612,0.0609729797305157,-0.0697178590235867,1.6604141636031244,-0.0396700783311191,0.2404394747563054,-0.1571699917728543,0.6042877235068369,-0.1910037036988731,-0.4189494954423181,0.3913598832571058,10.708534318373497,-0.9284709771065668,0.2174585528964722,-0.9119733025775848
2.28,0.0582395445149226,-0.0617499749069125,1.655192738609324,0.0638682988943663,0.0822896216401078,0.0501098197270012,-0.0580481289749727,0.2193432841147087,-0.1467743593339127,0.0602067956507666,-0.0648407354928852,1.657166434010275,-0.042391827018446,0.2336060711987664,-0.1467370160336137,0.5715557094939085,-0.0909578946600483,-0.3938703879742322,0.4040652273224268,10.756097630695876,-0.9265010084412906,0.2178301460854976,-0.9140746178391684
2.3000000000000003,0.0570727420366142,-0.0574489232913223,1.6523518971019415,0.0632092244663185,0.0865908225794596,0.0498657654479157,-0.0584614270940458,0.2112018303749352,-0.1377123175881941,0.0594406115710175,-0.0599636119621837,1.6539187044174255,-0.0451135757057729,0.2267726676412275,-0.136304040294373,0.6094560790845552,-0.0206649059536555,-0.407072686988677,0.4531020872859281,10.795440615959706,-0.9249988596715196,0.2185179695477253,-0.9150854552811516
2.32,0.055911349613025,-0.0533102501418108,1.6496969875694198,0.0627380043390302,0.0900621969343199,0.049580081663994,-0.0576733791228741,0.2031076067742009,-0.1282340056140735,0.058538340056902,-0.0554281586093591,1.651192623611538,-0.0478353243930999,0.2199392640836885,-0.1258710645551324,0.6244515056878099,0.0394023985585828,-0.4047111800367126,0.4739155987060303,10.829904577389245,-0.9242565212128409,0.219418720986323,-0.9148939083881228
2.34,0.0548300887199895,-0.0495283471391882,1.647351106851488,0.0623950669158778,0.0924843333700915,0.0492600045156889,-0.0562289002313939,0.1954264772701049,-0.1191718591907723,0.0576360685427865,-0.0508927052565346,1.6484665428056504,-0.0505570730804268,0.2131058605261495,-0.1154380888158917,0.5983493284110409,0.0722239445740121,-0.3840564752048012,0.453107321165061,10.852648815937757,-0.9242267564457798,0.2206083941363059,-0.9135296027606122
2.36,0.0537247707257105,-0.0457060341284028,1.6450687114894955,0.0620423453586997,0.0941321119360176,0.0488671866876256,-0.0544167249861432,0.1872445855711519,-0.1095330397083059,0.0566657533114879,-0.0465280869926485,1.646001286393244,-0.0532788217677537,0.2062724569686105,-0.1050051130766511,0.6386199415702357,0.090608762262534,-0.4090945849476515,0.4819409741233169,10.85507165360832,-0.9250343941041592,0.2219279030013204,-0.9111521746595788
2.38,0.052656559285046,-0.0420487776762369,1.6429797544876488,0.0615583533065989,0.0949550293404571,0.0484147228152941,-0.0525506708240097,0.1789383555833065,-0.0998330815978997,0.0556273943630061,-0.0423343038177009,1.6437968543743189,-0.0560005704550806,0.1994390534110715,-0.0945721373374104,0.6452999343147215,0.0933027081066763,-0.4153114993922679,0.4849979055203131,10.86061515347592,-0.9266455477748452,0.2234475431835932,-0.907827921447121
2.4,0.0516243377272413,-0.0385586109248105,1.641085652908989,0.0607988844353047,0.0950812655397686,0.0479021103876772,-0.0508492168910898,0.1705781625456726,-0.0900456035516354,0.0500290257438455,-0.0331018598970716,1.637988100407754,-0.0378451441815083,0.1678510041046702,-0.1056808709450714,0.6491966181721345,0.0850726966459922,-0.4180096518816942,0.4893739023132108,10.863144887949602,-0.9288536350484584,0.2251491486584774,-0.903875969061937
2.42,0.0506333515603793,-0.035402359783831,1.639402843202775,0.0594899423852587,0.0957637641948148,0.0474111233100929,-0.0537459767429514,0.1621638750914533,-0.0883886972737968,0.0500290257438455,-0.0331018598970716,1.637988100407754,-0.0378451441815083,0.1678510041046702,-0.1056808709450714,0.4525947122291959,-0.14483799259308,-0.4207143727109674,0.082845313891932,10.863144887949602,-0.9261621466351834,0.2284053280204051,-0.9029099116463646
2.44,0.0495307980028116,-0.0322437094442176,1.6376374531967528,0.0572723253553133,0.0983633237360862,0.0469498834919997,-0.056078452164523,0.154384133102411,-0.0881568955947266,0.0500290257438455,-0.0331018598970716,1.637988100407754,-0.0378451441815083,0.1678510041046702,-0.1056808709450714,0.4062590276742235,-0.1166237710785788,-0.3889870994521122,0.0115900839535082,10.324824886674833,-0.9245222256793052,0.2279748415826109,-0.9066125783797632
2.46,0.0484010518115762,-0.0292236410940387,1.635879738437955,0.0548128847433987,0.1021150576406936,0.0465367731185924,-0.0565741110910945,0.148091999601321,-0.087634944798598,0.0496505743020304,-0.0314233498560249,1.6369312916983032,-0.034904038853008,0.165633533808943,-0.1068504288145058,0.3166585479685043,-0.0247829463285765,-0.3146066750545004,0.0260975398064342,10.317634937588082,-0.921669636245924,0.2280546325541974,-0.910996249114595
2.48,0.0473363510211396,-0.0264610154221799,1.634221815584019,0.0526287405622671,0.1061129848976787,0.0461760922991072,-0.0553478702090181,0.1430159484895713,-0.0869247323065051,0.0488936714184002,-0.0280663297739315,1.6348176742794016,-0.0290218281960075,0.1611985932174885,-0.1091895445533745,0.2635069419099625,0.0613120441038218,-0.2538025555874873,0.0355106246046413,10.331095404309051,-0.9179351656036648,0.2284347859128776,-0.9158037718329648
2.5,0.0462573353313698,-0.0236506132416429,1.6324925207141965,0.0506269767629133,0.1102781384259176,0.0458124114795984,-0.0525005478838142,0.138277543264946,-0.0860493573729029,0.0481367685347701,-0.0247093096918381,1.6327040568605002,-0.023139617539007,0.156763652626034,-0.1115286602922432,0.2798482167655314,0.1423661162601931,-0.2369202612312618,0.0437687466801103,10.35651276376484,-0.9139595394036096,0.2289813842550486,-0.92033554806491
2.52,0.0452501493450439,-0.0209301582130946,1.630781729118526,0.0489642183841831,0.1140327974685506,0.0454506037454724,-0.0482886286803293,0.133986488526733,-0.0850810370894761,0.0476739761839899,-0.0215740366393174,1.6304734836546553,-0.0172574068820064,0.1523287120345795,-0.1138677760311119,0.3045121439053018,0.2105959601742459,-0.2145527369106517,0.0484160141713395,10.35651276376484,-0.910190292935376,0.229610583437791,-0.9242298275083098
2.54,0.044338708267591,-0.0182902834383596,1.6290878738793906,0.047687144570198,0.1171180602790993,0.0450839538050697,-0.043066239653931,0.130189740919462,-0.0843665821580499,0.0472111838332098,-0.0184387635867967,1.6282429104488103,-0.0113751962250059,0.147893771443125,-0.1162068917699807,0.3248041155273524,0.261119451319913,-0.18983738036355,0.0357227465713108,10.3669734379464,-0.9070165528703962,0.2302763162289026,-0.9271023071114196
2.56,0.0435769053987583,-0.0158494271285982,1.6274896404883294,0.0468925425999349,0.1193058245380346,0.0447320830574635,-0.0374179667244118,0.1269118956036182,-0.0839117345655969,0.0468954467488546,-0.0154143640490624,1.625953859349494,-0.0054929855680053,0.1434588308516705,-0.1185460075088494,0.3273153805326721,0.2824136464759614,-0.1638922657921898,0.0227423796226526,10.355824059733097,-0.9042316034221828,0.2307535152369057,-0.9294570819778132
2.58,0.0428946621315391,-0.0133451381412782,1.6258148416625726,0.0465487054432894,0.1207950495082573,0.0443619897954489,-0.0311319865118725,0.1236749167899024,-0.0836025787429726,0.0467267649309245,-0.0125008380261144,1.6236063303567057,0.0003892250889951,0.139023890260216,-0.1208851232477181,0.3538614008179727,0.3142990106269661,-0.1618489406857888,0.0154577911312119,10.3403809806332,-0.9020961568342992,0.2309398848313707,-0.9310888514877383
2.6,0.0423399007004595,-0.0109051684041691,1.6241448774340457,0.0467338522083199,0.1214945070918907,0.043996613299369,-0.0247061117518616,0.1204586181778505,-0.083414985398558,0.0413380628059454,-0.0071613923017831,1.621634712725424,-0.0226980754937989,0.1160883174622786,-0.0830637810431263,0.3594149219777237,0.3212937380005458,-0.1608149306025971,0.0093796672207303,10.3403809806332,-0.9006452365965237,0.2307190684988098,-0.9321031195636358
2.62,0.0419480487208847,-0.0085483032790387,1.6225120850712718,0.0468845832521848,0.1205239470076509,0.0435550480345956,-0.0149833938369217,0.1155728244520644,-0.0798493988445609,0.0413380628059454,-0.0071613923017831,1.621634712725424,-0.0226980754937989,0.1160883174622786,-0.0830637810431263,0.5725286705887938,0.486135895746995,-0.2442896862893027,0.1782793276998553,10.336178961284531,-0.9032684975613348,0.2295345801856749,-0.9306969457084774
2.64,0.0417515367845205,-0.0063961470444343,1.6210280909129569,0.0467182858833147,0.117274199948361,0.0430097939729455,-0.0063607956031004,0.111251153857439,-0.0765250795589394,0.0413380628059454,-0.0071613923017831,1.621634712725424,-0.0226980754937989,0.1160883174622786,-0.0830637810431263,0.5100910108576281,0.4311299116910653,-0.2160835297312688,0.1662159642810731,10.521664305698325,-0.9064906103097572,0.2310158621239261,-0.9254080670870104
