t,x,y,z,roll,pitch,yaw,v_x,v_y,v_z,ref_x,ref_y,ref_z,ref_v_x,ref_v_y,ref_v_z,a_com,a_x,a_y,a_z,thrust,wind_x,wind_y,wind_z
0.0,-0.8314069854768174,1.7071139583619332,2.5770442073832998,0.0210132241202151,0.0994058407975895,0.0414518951775122,0.001562312427705,-0.0024354303336803,-0.0010779989991819,-0.831352458353085,1.706950119991408,2.577008606484403,-0.0314220070331798,-0.1045818117169887,-0.1011311464440818,0.1543876846951307,0.0781156213852502,-0.1217715166840173,-0.0538999499590996,10.258612629822892,-0.9404444725280058,0.2595147878121448,-0.8784256204476766
0.02,-0.8313501328112964,1.7073288156733877,2.576933480176763,0.0283268722500905,0.0978538723534814,0.0419282284460225,0.0043437793407012,0.0199536425933063,-0.0105634142561943,-0.831352458353085,1.706950119991408,2.577008606484403,-0.0314220070331798,-0.1045818117169887,-0.1011311464440818,1.2237036480659689,0.1390733456498138,1.1194536463493343,-0.4742707628506187,10.258612629822892,-0.9437689304366288,0.2586965034742516,-0.8701045957627259
0.04,-0.8312309541580467,1.70777338252554,2.576550226917462,0.042740001596612,0.0928548772705703,0.0427299116141635,0.0069956659157789,0.0225436964746695,-0.0275719426573135,-0.831352458353085,1.706950119991408,2.577008606484403,-0.0314220070331798,-0.1045818117169887,-0.1011311464440818,0.8703891656711967,0.1325943287538837,0.1295026940681589,-0.8504264200559609,9.6339982978825,-0.9403932364481904,0.245629188867379,-0.8785426439414431
0.06,-0.8310959991889728,1.7081856536928806,2.5757973594975976,0.0576665991807583,0.085427203095775,0.0433336064669971,0.0059973866216182,0.0181727356644376,-0.0468717031795296,-0.8316666784234168,1.705904301874238,2.575997295019962,-0.0380485288291679,-0.1245818120150119,-0.121131146742105,0.9906848845225988,-0.0499139647080368,-0.2185480405115909,-0.964988026110803,9.194748155397974,-0.939095308712699,0.2290270647978054,-0.8877510421501551
0.08,-0.8310214830726038,1.7084601001917108,2.5747146879415985,0.0713251943042255,0.0776096852380815,0.0436813688234828,0.0017164050962489,0.0106416604402909,-0.0661683802729596,-0.8322951185640804,1.7038126656398984,2.5739746720910803,-0.0513015724211441,-0.1645818126110584,-0.1611311473381514,1.0575982740393617,-0.2140490762684641,-0.3765537612073369,-0.9648338546714982,9.194748155397974,-0.939387975067808,0.2110998340040429,-0.8969551242477197
0.1,-0.8310608104508275,1.708564181799898,2.573168908872402,0.0850171594481232,0.0696884808358217,0.0438681785033458,-0.0055787829254474,-0.0001575537076508,-0.0874752091279774,-0.832923558704744,1.7017210294055587,2.5719520491621988,-0.0645546160131202,-0.2045818132071049,-0.2011311479341979,1.2488231963953391,-0.3647594010848192,-0.5399607073970903,-1.065341442750891,9.165777821697702,-0.9402699418807328,0.1924555136731288,-0.906556246143757
0.12,-0.8312706596120721,1.7084233867015153,2.5711896237707315,0.0980201915088237,0.0628333620232977,0.0439552169876913,-0.0151171549375571,-0.0136806522283451,-0.109447339394859,-0.8342146510250064,1.6976293931414166,2.567929426203515,-0.0778076596050964,-0.2445818138031513,-0.2411311485302444,1.3753447228846087,-0.4769186006054859,-0.6761549260347127,-1.098606513344081,9.138778506369816,-0.9415055045629296,0.1739900181499321,-0.9157522122856576
0.14,-0.8316932922523524,1.707985159052303,2.568761481437419,0.1103718751618765,0.0576637035783393,0.0440438968212369,-0.0267062420480644,-0.0297499002481786,-0.1323339263019119,-0.8355057433452687,1.6935377568772745,2.563906803244831,-0.0910607031970726,-0.2845818143991978,-0.2811311491262909,1.5135418165943877,-0.5794543555253643,-0.8034624009916769,-1.1443293453526453,9.135601837580907,-0.9411720897901038,0.1561416674492214,-0.926385128397716
0.16,-0.8323282552303936,1.7072480801574004,2.566022531746504,0.1215392961652776,0.0549872956800949,0.0442539921874682,-0.0395459434058325,-0.047268790707934,-0.1548943559410864,-0.8371281617553306,1.6884461205982313,2.558884180271246,-0.1043137467890488,-0.3245818149952442,-0.3211311497223373,1.5658403809150858,-0.6419850678884027,-0.8759445229877711,-1.128021481958721,9.121230409210511,-0.9386234401839466,0.1366332687483164,-0.9405655240217756
0.18,-0.8332641903277132,1.706089456060322,2.5626683584382515,0.1327341836119683,0.0549828867824165,0.0447273046567728,-0.0530109616824523,-0.0679166806851458,-0.1793899632848819,-0.8390819062551919,1.6823544843042868,2.5528615572827595,-0.1175667903810249,-0.3645818155912906,-0.3611311503183837,1.737582269161777,-0.6732509138309896,-1.032394498860588,-1.224780367189776,9.115282714948536,-0.9360019348279416,0.1181953950107573,-0.9537173223297144
0.2,-0.8344513260804634,1.7044954622973378,2.5588210506741254,0.1433824572748486,0.0572108874136997,0.0454366714669882,-0.0647659360076015,-0.0906835738951577,-0.2041573026410902,-0.8359147384118357,1.702693622026065,2.5536988602740074,-0.0970594647237197,-0.1679166821752619,-0.279389964774998,1.7818052268742737,-0.5877487162574614,-1.138344660500597,-1.2383669678104183,9.111151807117947,-0.9316894555811808,0.1019793565856842,-0.966429041251368
0.22,-0.8358107951803414,1.7022195800059343,2.5547007877396704,0.1480425874877763,0.0602765672559492,0.0458348769263722,-0.0706910293738293,-0.1325049322001317,-0.2061749859845589,-0.8359147384118357,1.702693622026065,2.5536988602740074,-0.0970594647237197,-0.1679166821752619,-0.279389964774998,2.1143579332424096,-0.2962546683113909,-2.0910679152487,-0.1008841671734345,9.111151807117947,-0.9340100951260054,0.0867956498211428,-0.9763515733702308
0.24,-0.8372016386242828,1.6993626676116529,2.5507486982173195,0.146485324712905,0.0628878444325013,0.0457313065276257,-0.0754542352436895,-0.1654917177757539,-0.2097083678958979,-0.8359147384118357,1.702693622026065,2.5536988602740074,-0.0970594647237197,-0.1679166821752619,-0.279389964774998,1.6757841004303962,-0.2381602934930102,-1.6493392787811103,-0.1766690955669461,10.32925363598497,-0.9322463764403608,0.0857995390235049,-0.9801918700258276
0.26,-0.8387611722496243,1.695736924433956,2.5464814107105345,0.1415922568054888,0.0650387292099947,0.0452841876849506,-0.0802897943572789,-0.1945501443674492,-0.2169183508122072,-0.8368853330590729,1.701014455204312,2.5509049606262573,-0.1058691653319731,-0.1879166824732851,-0.2993899650730212,1.5163761419742088,-0.2417779556794702,-1.4529213295847652,-0.3604991458154655,10.32925363598497,-0.9302277554731216,0.0880999637903912,-0.98367888211387
0.28,-0.8404181938133632,1.691581901518891,2.542034024891583,0.1357411378604252,0.0665082119227463,0.0446537395386155,-0.0852114003268008,-0.2192451812949427,-0.2275960552974136,-0.8388265223535473,1.6976561215608068,2.545317161330757,-0.1234885665484801,-0.2279166830693316,-0.3393899656690676,1.3675529489227238,-0.246080298476093,-1.2347518463746725,-0.5338852242603206,10.07413729781274,-0.927931894295692,0.0905148126032823,-0.9881115871924692
0.3,-0.8421760914224754,1.6869645147265913,2.537336312438895,0.1300094435787741,0.0673413890223462,0.0439310773922285,-0.0903817081829584,-0.2412133716660914,-0.2416342572150527,-0.8407677116480217,1.6942977879173016,2.5397293620352577,-0.141107967764987,-0.2679166836653781,-0.3793899662651141,1.3289136395858117,-0.2585153928078821,-1.0984095185574374,-0.7019100958819537,9.85861821376966,-0.9258686192777406,0.0923361385664837,-0.992634968353538
0.32,-0.8439453222157166,1.682189797802195,2.5325878008507976,0.1250842494474528,0.0676564455966017,0.0432099257858873,-0.0956310220680095,-0.2603464032530193,-0.2575208904274957,-0.8435898710033214,1.688939454243994,2.5321415627099557,-0.158727368981494,-0.3079166842614245,-0.4193899668611605,1.2708395933366892,-0.2624656942525533,-0.9566515793463904,-0.7943316606221509,9.677557085154149,-0.9243219475253058,0.0938940823551513,-0.9967584848857616
0.34,-0.845918584161283,1.676784709927323,2.5272487675986444,0.1206350528439921,0.0676109949572751,0.0424482298980524,-0.1014531716299225,-0.2792199970167857,-0.2756270530218455,-0.8464120303586211,1.6835811205706863,2.524553763384653,-0.176346770198001,-0.347916684857471,-0.459389967457207,1.3397230039955987,-0.2911074780956486,-0.9436796881883204,-0.9053081297174886,9.456212064998,-0.922908539390436,0.0943344850668753,-1.0013312519223183
0.36,-0.8480135267482956,1.6710017120007412,2.521534594723992,0.1166874675416657,0.0673686573788181,0.0416918943347063,-0.1077623630442888,-0.2980605989064982,-0.2948822383158536,-0.8496746747443336,1.6772227868824776,2.5159659640444496,-0.1939661714145079,-0.3879166854535174,-0.4993899680532535,1.3834163659003222,-0.3154595707183169,-0.9420300944856268,-0.962759264700408,9.40845069631996,-0.9214551604963412,0.0940197375468264,-1.0061941498435631
0.38,-0.8501246037021728,1.6651626975873417,2.5157404867725117,0.1130909513686209,0.0671589773914453,0.0409816232415075,-0.1141319079134921,-0.3155226154221072,-0.3140573785457436,-0.8533778041604586,1.6698644531793678,2.506378164689345,-0.2115855726310149,-0.4279166860495638,-0.5393899686492999,1.3352706892875148,-0.3184772434601669,-0.8731008257804512,-0.9587570114944988,9.40845069631996,-0.9198761107913088,0.0934738348708268,-1.0114995717233404
0.4,-0.8524802286423432,1.6586661606292503,2.509237440973155,0.1094148155730929,0.0670873160569208,0.040253526082849,-0.1210861393384893,-0.3331152758653881,-0.3352870415964583,-0.8558311990978474,1.6493865668162364,2.500037617845224,-0.1461993707154254,-0.4155226169122233,-0.4140573800358597,1.4217609059119938,-0.3477115712498563,-0.8796330221640447,-1.061483152535733,9.364031487730244,-0.9180587290702416,0.0928931340821317,-1.0170109710255095
0.42,-0.8549859080572498,1.6518056183522576,2.502572925039423,0.1062022950954909,0.0681178198063671,0.0396707635031113,-0.1288869079478001,-0.3522791671691804,-0.3286884954407992,-0.8558311990978474,1.6493865668162364,2.500037617845224,-0.1461993707154254,-0.4155226169122233,-0.4140573800358597,1.085872382197762,-0.3900384304655419,-0.9581945651896128,0.329927307782954,9.308099856137233,-0.9235875824835638,0.0917841675553678,-1.0161364850611383
0.44,-0.857636629009377,1.6445734796652811,2.496041524395008,0.1038255548990997,0.0708207660614671,0.0393128491620087,-0.1355505743431576,-0.3701760059625493,-0.3249517462105676,-0.8558311990978474,1.6493865668162364,2.500037617845224,-0.1461993707154254,-0.4155226169122233,-0.4140573800358597,0.9729652915624596,-0.3331833197678754,-0.8948419396684476,0.1868374615115769,11.06403407770722,-0.9224761172901412,0.0940340981371226,-1.01639240305297
0.46,-0.8602652264607449,1.6373733799074366,2.489848703041568,0.1020876279731347,0.0742269540008753,0.0390838195606908,-0.1406598755300017,-0.3868566272117347,-0.3270985022870871,-0.8572931928050017,1.6452313406471142,2.4958970440448653,-0.1526128632758121,-0.4355226172102466,-0.4340573803338829,0.8788581306569531,-0.2554650593422053,-0.8340310624592673,-0.1073378038259742,10.673355183115746,-0.9201079133749436,0.0955147144911211,-1.0182115064192323
0.48,-0.8631241605885241,1.629459729959405,2.4832385171924747,0.1005821797787759,0.0781165318952854,0.0388833661440878,-0.1448467904965931,-0.4036070918839446,-0.3340191666859096,-0.8602171802193102,1.6369208883088695,2.487615896444148,-0.1654398483965854,-0.475522617806293,-0.4740573809299294,0.93005902956956,-0.2093457483295688,-0.837523233610496,-0.3460332199411248,10.324393131932991,-0.9167705109453524,0.0960724059619566,-1.0216195387468094
0.5,-0.8660557010601553,1.621218690051103,2.476446748357893,0.0994098909579287,0.0818943456003915,0.0386825409606517,-0.1480178172108459,-0.4196334940918678,-0.3449773159951671,-0.8631411676336187,1.6286104359706253,2.479334748843431,-0.1782668335173587,-0.5155226184023395,-0.5140573815259759,0.983592921940538,-0.1585513357126408,-0.8013201103961587,-0.547907465462874,10.050232114858773,-0.912344840876845,0.0955898757197733,-1.0268353490485085
0.52,-0.8690417348138625,1.6126650727372316,2.4693977346711558,0.0986419103707475,0.0852734137372992,0.0384592812316718,-0.1503871145604331,-0.4349515954825403,-0.3593787604290142,-0.8667065043039659,1.6182999836025784,2.469053601212912,-0.191093818638132,-0.555522618998386,-0.5540573821220224,1.057898154274395,-0.1184648674793592,-0.7659050695336261,-0.7200722216923527,9.66466085279808,-0.907305507222391,0.0941220476461129,-1.0332788771421952
0.54,-0.8720672669688357,1.6038096858424695,2.4620446427210627,0.098383504163789,0.0880933331564821,0.0382067358506368,-0.1520372038634364,-0.4498661442569023,-0.3752269506313163,-0.8702718409743131,1.6079895312345316,2.458772453582392,-0.2039208037589054,-0.5955226195944324,-0.5940573827180688,1.091251222839011,-0.0825044651501641,-0.7457274387181023,-0.7924095101151052,9.59804702526344,-0.9026411083645332,0.0918417421147546,-1.0397866870924228
0.56,-0.8749679300068316,1.5951125491846752,2.454754538258588,0.0983648246133663,0.090227916699307,0.0379208399694379,-0.1532170820063128,-0.4647943002937342,-0.3913631352214334,-0.8741578522726796,1.5966790788515837,2.447491305936971,-0.2167477888796787,-0.6355226201904788,-0.6340573833141152,1.1007025122829166,-0.0589939071438228,-0.7464078018415921,-0.806809229505856,9.59804702526344,-0.8983193882451399,0.0891750276467674,-1.0461218259574692
0.58,-0.8780431681008749,1.585647459217052,2.446737654624,0.0981946912197527,0.0919649193421492,0.037550689350879,-0.1542446752269737,-0.4808660393561541,-0.4095310278199553,-0.8783645381990655,1.5843686264537349,2.4352101582766497,-0.229574774000452,-0.6755226207865253,-0.6740573839101617,1.2139080131841646,-0.0513796610330449,-0.8035869531209966,-0.908394629926096,9.550375811657432,-0.8944738293132874,0.0866410729811067,-1.0520119022870666
0.6,-0.8811375131551438,1.5758557948538174,2.4383460942222053,0.097537483580452,0.0932565132271385,0.037094289415375,-0.1551446302982476,-0.4973995011420613,-0.4287543328523912,-0.8857554018622236,1.5616041572492445,2.4262611032330024,-0.1886504692216389,-0.5808660408462702,-0.5095310293100714,1.268562901600111,-0.0449977535636927,-0.8266730892953572,-0.9611652516217928,9.49331341384459,-0.8910049451183579,0.0844814490002167,-1.05763798571073
0.62,-0.8842100046395187,1.5656700247258644,2.429884808328512,0.095093667791085,0.0939235796660576,0.0364453240209253,-0.1521810104235411,-0.5195665131243224,-0.4163261911913972,-0.8857554018622236,1.5616041572492445,2.4262611032330024,-0.1886504692216389,-0.5808660408462702,-0.5095310293100714,1.2792753496894238,0.1481809937353265,-1.1083505991130589,0.6214070830496965,9.44783673962229,-0.8998749269258878,0.0850709983656012,-1.051108019638662
0.64,-0.8870775066169632,1.555626179634157,2.4220491380268463,0.0915456372728207,0.0938081192075886,0.0356700140847997,-0.1499217735149935,-0.5363939031773974,-0.4091721037274874,-0.8857554018622236,1.5616041572492445,2.4262611032330024,-0.1886504692216389,-0.5808660408462702,-0.5095310293100714,0.9212032550536032,0.1129618454273798,-0.8413695026537493,0.3577043731954887,11.36767492144827,-0.8988084131880286,0.0883255166337564,-1.051623375827023
0.66,-0.8900595013398799,1.5447350225676313,2.413885183551124,0.0878136589733215,0.0929702410907111,0.0347914287257787,-0.1484878870024203,-0.5517556602646498,-0.4078776381051088,-0.88764190655444,1.5557954968407817,2.421165792939901,-0.1955316280205719,-0.6008660411442934,-0.5295310296080946,0.7741370237015677,0.0716943256286559,-0.7680878543626202,0.0647232811189307,10.919558969108948,-0.8985977145376547,0.0912110355634014,-1.0518452176486703
0.68,-0.8930228669779557,1.5335543813884842,2.405682222463545,0.0844349629921076,0.0914649748604447,0.0338852367342262,-0.1479911842332557,-0.5655694187160799,-0.4124538714245893,-0.8914149159388727,1.5441781760238562,2.4109751723537003,-0.209293945618438,-0.6408660417403399,-0.5695310302041411,0.7280256650518492,0.0248351384582345,-0.6906879225715035,-0.2288116659740241,10.528522623390929,-0.8988101510106034,0.093229703183277,-1.0522150216505186
0.7000000000000001,-0.8958378219886651,1.522687734989835,2.39776243028673,0.0816511019990224,0.089487726035064,0.0330155312484874,-0.1484073621758324,-0.5776598020914939,-0.4209729108712935,-0.8951879253233055,1.5325608552069307,2.4007845517674986,-0.223056263216304,-0.6808660423363864,-0.6095310308001876,0.7398050542860561,-0.0208088971288364,-0.6045191687707008,-0.4259519723352117,10.212348062316778,-0.8993801500425005,0.0945428100517122,-1.052818072161243
0.72,-0.8988196452956771,1.5110104362338976,2.3892155957607075,0.0792423690472254,0.0869394187417401,0.032107027975463,-0.1498461315936076,-0.5894964357644242,-0.4334248856835899,-0.8996490505876316,1.518943534360203,2.3885939311514948,-0.2368185808141701,-0.7208660429324328,-0.649531031396234,0.8620145458035129,-0.0719384708887591,-0.5918316836465154,-0.6225987406148159,9.968631542308684,-0.9001319587146883,0.0950243492026115,-1.0537168127305794
0.74,-0.9018412740253589,1.4991018801600904,2.380398013979127,0.0773952961247804,0.0840877753771833,0.0312218456863188,-0.1523252736726357,-0.6008869621577206,-0.4477034809954889,-0.9041101758519576,1.5053262135134753,2.376403310535491,-0.2505808984120362,-0.7608660435284793,-0.6895310319922805,0.9216405495709488,-0.1239571039514081,-0.5695263196648204,-0.7139297655949534,9.76967803828029,-0.9013571133054078,0.0946775642433223,-1.0546149998178145
0.76,-0.9049258601804074,1.4869590375144528,2.371281835896846,0.0757527219244988,0.0812477558076064,0.0303589678310638,-0.1560902147554363,-0.6127424262640926,-0.4631925825393103,-0.9089153590562304,1.4907088926518464,2.363212689904586,-0.2643432160099022,-0.8008660441245257,-0.7295310325883269,0.9932762420007358,-0.188247054140031,-0.5927732053185975,-0.7744550771910663,9.629436832811734,-0.9023885359514182,0.0939934365084605,-1.055835124459216
0.78,-0.9079388307624966,1.4752040785042584,2.362323375866332,0.0741129933626641,0.0789649101512297,0.029571864473133,-0.1609307062804824,-0.6239155272388123,-0.4790205145959946,-0.9140646002004498,1.4750915717753164,2.34902206925878,-0.2781055336077683,-0.8408660447205721,-0.7695310331843733,0.9984888291642764,-0.2420245762523004,-0.5586550487359843,-0.7913966028342156,9.571146718973978,-0.9031885118115622,0.0933126003652446,-1.0574303382893735
0.8,-0.9112220673942686,1.4626058956844288,2.352555444090405,0.0722821584022177,0.0774395588149746,0.0288079107245842,-0.167201262824166,-0.6352247475942583,-0.4969972521275529,-0.9159853660765208,1.4440083021423178,2.3383723501365314,-0.186565853747738,-0.7239155287289284,-0.5790205160861107,1.107227886089972,-0.3135278271841804,-0.5654610177723007,-0.8988368765779187,9.571146718973978,-0.903534210352898,0.0927792169585841,-1.059359794015768
0.8200000000000001,-0.9146395609270233,1.4497467189202498,2.342730401389418,0.0698483870026369,0.0779703302762568,0.028155260945798,-0.1738713219817444,-0.6498449220591981,-0.4829335313635943,-0.9159853660765208,1.4440083021423178,2.3383723501365314,-0.186565853747738,-0.7239155287289284,-0.5790205160861107,1.0677399405724624,-0.3335029578789214,-0.7310087232469897,0.703186038197931,9.500240629518885,-0.912150824680252,0.0930921772451296,-1.052936424393209
0.84,-0.9181769905688504,1.4366250429205656,2.3331860161741904,0.0671946269722393,0.0809440695584369,0.0276590012025349,-0.1792073181799267,-0.6616166421485292,-0.4723798505212033,-0.9159853660765208,1.4440083021423178,2.3383723501365314,-0.186565853747738,-0.7239155287289284,-0.5790205160861107,0.8343057422366653,-0.2667998099091156,-0.588586004466557,0.52768404211955,11.584477390383654,-0.9104353933421538,0.0962767204683,-1.0528460204747028
0.86,-0.9216199239210596,1.4239546828126897,2.324245069140189,0.065011638311049,0.0851064580189934,0.0272981942346042,-0.182719277315525,-0.6715647937365924,-0.4692859408634424,-0.917851024613998,1.4367691468550283,2.3325821449756705,-0.1916928832411891,-0.7439155290269516,-0.5990205163841339,0.5497086818479003,-0.1755979567799159,-0.4974075794031585,0.1546954828880453,11.092469631792484,-0.9059414963390776,0.0984384034383155,-1.0560983762010283
0.88,-0.9252988587025952,1.4104241721201738,2.3148387331509053,0.0631684100524013,0.0901020897328803,0.0269860776908436,-0.1848134144762473,-0.6810138753674477,-0.4717751007553106,-0.9215823416889528,1.4222908362804498,2.321001734653948,-0.2019469422280913,-0.783915529622998,-0.6390205169801804,0.4996660661926389,-0.1047068580361118,-0.4724540815427669,-0.1244579945934076,10.64866846437144,-0.900156653469867,0.0996379257807995,-1.0611392295522326
0.9,-0.9290043038547664,1.3967141062684088,2.3053246153785403,0.0618883406847756,0.0951253615322559,0.0267123778401396,-0.1854997999627022,-0.6895942252167203,-0.4795050780051523,-0.9253136587639076,1.4078125257058711,2.309421324332226,-0.2122010012149935,-0.8239155302190445,-0.6790205175762268,0.5784593262602806,-0.0343192743227444,-0.4290174924636292,-0.3864988624920878,10.304661481326548,-0.8938248643721091,0.099837004623668,-1.0672233687665325
0.92,-0.9327105329363878,1.3828411934084626,2.295614245873455,0.061347652627389,0.0997684787130174,0.0264667092027142,-0.1850131303875203,-0.6973657893682913,-0.4911602234947024,-0.9295576787882076,1.3913342151014905,2.295840913980701,-0.2224550602018958,-0.863915530815091,-0.7190205181722733,0.7008503282084753,0.0243334787590907,-0.3885782075785493,-0.582757274477505,10.034572350953567,-0.886868417801657,0.098970133353734,-1.074377997345768
0.94,-0.9362116889345674,1.3695232020056465,2.286155817905161,0.0617372831403352,0.1035833148254769,0.0262623813107488,-0.1835280514777018,-0.7042616497006724,-0.5038973619765178,-0.9338016988125072,1.3748559044971096,2.282260503629177,-0.232709119188798,-0.9039155314111376,-0.7590205187683198,0.7279990484146193,0.0742539454909291,-0.3447930166190549,-0.6368569240907673,9.828051533405414,-0.8804095576039241,0.0968448030496521,-1.081503338345881
0.96,-0.9398591861232822,1.3553547915958533,2.275924124165406,0.0629874978497284,0.1068631714478233,0.0260651249571323,-0.1812752937472023,-0.7122557829622858,-0.5186702543595396,-0.9383020703114796,1.3573775938778274,2.267680093262751,-0.2429631781757003,-0.943915532007184,-0.7990205193643661,0.8473774739705768,0.1126378865249744,-0.3997066630806678,-0.7386446191510909,9.74601880352202,-0.8753174386671461,0.0941197301308429,-1.0872609657659198
0.98,-0.9432771778561864,1.3417378028921667,2.26591842746494,0.0645994093605663,0.1092630238173344,0.0258666338485249,-0.1786445827815169,-0.7206949846695853,-0.533826505608286,-0.9430587932851248,1.3388992832436442,2.2520996828814246,-0.2532172371626025,-0.9839155326032304,-0.8390205199604126,0.8772866087496599,0.1315355482842686,-0.4219600853649752,-0.7578125624373211,9.680856543143818,-0.8710366058895759,0.0908989974710796,-1.0922677332441302
1.0,-0.9468185032493756,1.3272233598701937,2.25506329359344,0.0664224624152635,0.1110839948690894,0.0256242397117106,-0.1756406181248008,-0.7303160720645853,-0.5509474720319056,-0.952209406995262,1.3057030536586876,2.239227102184526,-0.1960758959534997,-0.8206949861597014,-0.6338265070984022,0.9933738188614306,0.1501982328358034,-0.4810543697500002,-0.85604832118098,9.6306742063407,-0.8673456999478216,0.0874291166207294,-1.09691402133172
1.02,-0.950271355531774,1.312444386632779,2.244174108527711,0.0667196612304597,0.1125603707059177,0.0252547145810236,-0.1695939782893833,-0.7468473870835246,-0.535431250092028,-0.952209406995262,1.3057030536586876,2.239227102184526,-0.1960758959534997,-0.8206949861597014,-0.6338265070984022,1.1732426995747811,0.3023319917708739,-0.826565750946967,0.7758110969938836,9.573425553107882,-0.8717196102284441,0.0843859083698752,-1.0956666116641374
1.04,-0.9535972364575817,1.2973511218120966,2.2335965692117328,0.0646641335388036,0.1139137899465556,0.0247153621796381,-0.1633105775416672,-0.761442897662616,-0.5232713050287203,-0.952209406995262,1.3057030536586876,2.239227102184526,-0.1960758959534997,-0.8206949861597014,-0.6338265070984022,1.000467788041458,0.3141700373858053,-0.7297755289545682,0.6079972531653821,11.722194362451772,-0.8691581492612513,0.0866125828736845,-1.0968672786367046
1.06,-0.9566422798268434,1.282763525528621,2.2237037291538275,0.0613277911943145,0.1148512672994257,0.0240881784676663,-0.1575729034756766,-0.7729284484270592,-0.5186462724162362,-0.9541701659547972,1.2974961037970905,2.2328888371135416,-0.1995621585878962,-0.8406949864577246,-0.6538265073964253,0.6823300277664152,0.2868837032995341,-0.5742775382221621,0.2312516306242074,11.249019060208411,-0.8664861513262787,0.0900285249630913,-1.0985274134955516
1.08,-0.9597344626646752,1.2672073893882647,2.213325922723932,0.057596623603716,0.1153347685487884,0.0233892063899241,-0.1520095829430447,-0.7820200033266562,-0.5196418057180524,-0.9580916838738672,1.2810822040738965,2.2202123069715736,-0.2065346838566893,-0.880694987053771,-0.6938265079924718,0.535252259211053,0.2781660266315919,-0.4545777449798505,-0.0497766650908115,10.800480041375522,-0.8639210689327631,0.0932986830510624,-1.1006232924679369
1.1,-0.9627214999838208,1.2514879904935392,2.2028724214666053,0.0542999676855113,0.1152865717749464,0.0226999936555907,-0.1470426387958097,-0.7895010752029428,-0.5258668660921862,-0.9620132017929371,1.2646683043507023,2.2075357768296056,-0.2135072091254824,-0.9206949876498176,-0.7338265085885183,0.5463248741397592,0.2483472073617529,-0.3740535938143274,-0.311253018706692,10.439843249992007,-0.8620056483882826,0.0959140813800951,-1.1025095480699334
1.12,-0.9656163806783762,1.2356312696367715,2.1922452958369387,0.051667406581965,0.1147560992542603,0.0220424664731996,-0.142759029278858,-0.7959526443669931,-0.5365207602578334,-0.9662833459754469,1.2462544045977062,2.1928592466578354,-0.2204797343942755,-0.960694988245864,-0.7738265091845647,0.6585543183083928,0.2141804758475807,-0.3225784582025159,-0.5326947082823552,9.921607114792096,-0.860581053769903,0.0975562391752603,-1.1043306656412737
1.14,-0.9682918231498344,1.2204537174429553,2.181933187166201,0.0498210176799735,0.1138877969420795,0.0214555331297012,-0.1391256600428861,-0.8015264628355289,-0.5484320359983298,-0.9705534901579564,1.22784050484471,2.1781827164860648,-0.2274522596630686,-1.0006949888419103,-0.8138265097806112,0.682179071232834,0.1816684617985967,-0.2786909234267887,-0.595563787024822,9.921607114792096,-0.8598878633033968,0.0983797533643336,-1.105905953337346
1.16,-0.9710386331031902,1.2043585701755315,2.17081930547056,0.0483191683317436,0.11267071121815,0.0208644347911508,-0.1358009171917916,-0.807676552370295,-0.5623882545398685,-0.974997947472186,1.2084266050768124,2.1625061862993933,-0.2344247849318617,-1.040694989437957,-0.8538265103766576,0.7804702945832301,0.1662371425547273,-0.3075044767383073,-0.6978109270769361,9.825407006072057,-0.8600701668228746,0.0988684337741551,-1.1066196327409292
1.18,-0.9737246775603494,1.1881405764856112,2.159411632671462,0.0470218562475571,0.1112305875130827,0.0202880535598178,-0.1330194322484112,-0.8137708868531576,-0.5776713533067783,-0.9796167179181352,1.1880127052940137,2.145829656097821,-0.2413973102006548,-1.0806949900340033,-0.893826510972704,0.8343420749284722,0.1390742471690173,-0.3047167241431281,-0.7641549383454904,9.747566894075137,-0.8607023567774316,0.0991807927261429,-1.106888139265881
1.2,-0.976230506138026,1.1726221057425663,2.14827968529755,0.0458870905009906,0.1097424491847613,0.019752176576421,-0.1309335721508376,-0.8194018966775048,-0.5933424844823725,-0.98037564917277,1.147452032142953,2.130528065006123,-0.13687873614007,-0.9137708883432736,-0.6776713547968944,0.8391117868186939,0.1042930048786819,-0.2815504912173638,-0.7835565587797078,9.680201008536642,-0.8615226404283738,0.0993620675830468,-1.107122928216747
1.22,-0.9788358282454884,1.1561345778674827,2.136557103457325,0.0440133428940797,0.1094501785330819,0.0192095119836447,-0.129403733189124,-0.8287584647637135,-0.576384277311836,-0.98037564917277,1.147452032142953,2.130528065006123,-0.13687873614007,-0.9137708883432736,-0.6776713547968944,0.9714249379641638,0.0764919480856773,-0.467828404310433,0.8479103585268266,9.614383420933336,-0.8654954430468006,0.0976545866691284,-1.1074665045504224
1.24,-0.9814012742355854,1.1394904428175758,2.125178337457689,0.0416932810821028,0.1114187411497004,0.0187445390389152,-0.127003640136311,-0.8351505284813128,-0.5628973155328377,-0.98037564917277,1.147452032142953,2.130528065006123,-0.13687873614007,-0.9137708883432736,-0.6776713547968944,0.7558390424888244,0.1200046526406525,-0.319603185879963,0.6743480889499109,11.824366981972162,-0.8631404166687842,0.10069032469416,-1.107819149849545
1.26,-0.983906466760207,1.1227356102270425,2.1139798030484576,0.0398062810904704,0.1146788459797603,0.0183696537851883,-0.1234306990661651,-0.8401426580441496,-0.5576053021490806,-0.9817444365341708,1.1383143232595203,2.123751351458154,-0.1376505969184017,-0.9337708886412968,-0.6976713550949176,0.4052550774412004,0.1786470535072942,-0.2496064781418394,0.2646006691878588,11.298386148417194,-0.8586150873651849,0.1030676546276193,-1.1103999502928803
1.28,-0.986208676626167,1.1067360219329951,2.1033790204965035,0.0386224771859872,0.118225340299807,0.0180788355608595,-0.1189717115636763,-0.8438810320737445,-0.5585285902002304,-0.984482011256972,1.1200389054926552,2.1101979243622164,-0.1391943184750653,-0.9737708892373432,-0.7376713556909641,0.2945779640345566,0.2229493751244413,-0.1869187014797491,-0.0461644025574914,10.823036712111389,-0.8533544870400268,0.1043599461398599,-1.114139809329577
1.3,-0.9885305484112802,1.089827362237393,2.092152417655301,0.0383414875495943,0.1219035637982318,0.0178445729275625,-0.1133726092779386,-0.8468720263996756,-0.5643056679071603,-0.9872195859797734,1.1017634877257896,2.0966444972662783,-0.1407380400317288,-1.0137708898333897,-0.7776713562870106,0.4291579554657325,0.2799551142868818,-0.1495497162965542,-0.2888538853464961,10.462977029378637,-0.8475446504725159,0.1042851560265501,-1.1188751074112375
1.32,-0.9907322904834456,1.0728652903130085,2.080767569635374,0.0393897892125524,0.1251748133536183,0.0176966070524143,-0.1070429414273729,-0.8493139297292855,-0.5740524948966084,-0.990034346780408,1.0814880699291218,2.081091070140538,-0.1422817615883923,-1.053770890429436,-0.817671356883057,0.593776522211595,0.316483392528287,-0.1220951664804959,-0.4873413494724032,10.186101260863325,-0.843012223011807,0.1030465162654337,-1.1223253951726304
1.34,-0.9927993159083204,1.055855751442237,2.06916669761441,0.0420225412619192,0.1277942388674957,0.017644162721192,-0.0999826668646703,-0.8518863603601882,-0.5855539122455885,-0.9928491075810426,1.061212652132454,2.065537643014798,-0.1438254831450558,-1.0937708910254826,-0.8576713574791035,0.6869269926399965,0.3530137281351271,-0.1286215315451311,-0.5750708674490068,9.97652864565407,-0.8388601785679337,0.0998460037250784,-1.1262514946882378
1.36,-0.9946264202871546,1.0396211619008136,2.0579233512137582,0.0452644605526265,0.1295689253458407,0.017625091891794,-0.0927366495710757,-0.8570053341651436,-0.5973923323193233,-0.9957024614205938,1.0399372343208848,2.0489842158741567,-0.1453692047017193,-1.133770891621529,-0.8976713580751499,0.7396905590804512,0.3623008646797341,-0.2559486902477703,-0.5919210036867406,9.90241362452798,-0.8349984534747299,0.0953308808517552,-1.130427546313649
1.38,-0.9963987766274616,1.0224091321386934,2.0458352119929395,0.0484710791944118,0.1306677815975131,0.0175622025719716,-0.0849213852503976,-0.8639189256661952,-0.610844953872187,-0.9985944082990617,1.017661816494415,2.031430788718614,-0.1469129262583828,-1.1737708922175754,-0.9376713586711964,0.8512478054157433,0.3907632160339007,-0.345679575052582,-0.6726310776431821,9.862946928682504,-0.831961156466862,0.0909344399591302,-1.134040374438895
1.4,-0.9980139478538372,1.0050472985843348,2.03346760687371,0.0510998154630471,0.130996974267086,0.0174252176756152,-0.0770722350046126,-0.8717834478889271,-0.6252375755362242,-1.0006448458899817,0.9792131858553836,2.0152929642993302,-0.0714213513726077,-0.9639189271563112,-0.7108449553623031,0.9091306668142716,0.3924575122892515,-0.3932261111365964,-0.7196310832018604,9.814940613251563,-0.8298541438193626,0.0872297958697743,-1.1369397167141508
1.42,-0.9993938159003226,0.9883326149377368,2.0217724281236773,0.0512938826017492,0.1317311781115369,0.0171592211474761,-0.0683287914297116,-0.8863870178359884,-0.6050734128830095,-1.0006448458899817,0.9792131858553836,2.0152929642993302,-0.0714213513726077,-0.9639189271563112,-0.7108449553623031,1.3193800781536424,0.4371721787450523,-0.7301784973530623,1.0082081326607315,9.773305464505938,-0.8302729170114287,0.0821094701114908,-1.1418889213814676
1.44,-1.0006598202866763,0.9704726956836536,2.00984530519445,0.0485986834132848,0.1336898427957195,0.0167427684263297,-0.0586239314844544,-0.8985406913644833,-0.5891646404732518,-1.0006448458899817,0.9792131858553836,2.0152929642993302,-0.0714213513726077,-0.9639189271563112,-0.7108449553623031,1.1124130599509388,0.4852429972628569,-0.6076836764247473,0.7954386204878872,12.062157037015822,-0.8265117710160805,0.0855609001837247,-1.143630070007848
1.46,-1.00172514621631,0.9524096056223385,1.9981525889458092,0.0444807963595801,0.1361510189924364,0.0162554232161516,-0.048328972162626,-0.9068090653952978,-0.5812202402868665,-1.0013590594037076,0.9695739965838204,2.008184514745708,-0.0687213445970497,-0.9839189274543344,-0.7308449556603263,0.7704960916075247,0.5147479660914216,-0.4134187015407242,0.3972200093192657,11.01932378114452,-0.8214299668296049,0.090223025279097,-1.14671143935742
1.48,-1.0025807797944437,0.9342153223578692,1.98653982713263,0.0404145155624337,0.1384921356208872,0.0157699409916134,-0.0377214489522102,-0.9122352783227894,-0.5804248894275508,-1.0027874864311597,0.9502956180406944,1.9939676156384607,-0.0633213310459337,-1.023918928050381,-0.7708449562563727,0.5970676644723797,0.5303761605207902,-0.2713106463745784,0.0397675429657851,11.01932378114452,-0.8182955342934916,0.0952369196440893,-1.1474022272776347
1.5,-1.0031958044724194,0.916847181259753,1.9754707672689655,0.0371328921213654,0.1402868846607124,0.0153373069827373,-0.0275616681916585,-0.9158598612015966,-0.5847777991430131,-1.004215913458612,0.931017239497568,1.9797507165312151,-0.0579213174948177,-1.0639189286464277,-0.8108449568524192,0.581606759629702,0.5079890380275848,-0.181229143940359,-0.2176454857731158,10.62039793405529,-0.8158296753696489,0.0997143036289155,-1.1477066168170218
1.52,-1.0036360080544202,0.8985009222706491,1.9636873611910897,0.0344834020638775,0.1415867157999274,0.0149245780768249,-0.0170308831754462,-0.9187105890566792,-0.5935266900831425,-1.0053743398085082,0.9097388609246396,1.9635338173941668,-0.0525213039437017,-1.1039189292424738,-0.8508449574484657,0.6992266711226461,0.5265392508106126,-0.1425363927541278,-0.4374445470064714,10.31399777801198,-0.8131594289538315,0.1027562339309604,-1.1490434168539387
1.54,-1.003865894262645,0.8801039490729162,1.9517042015728452,0.0327175035905484,0.142243135695579,0.014561788713776,-0.0065271947129998,-0.9209742956512004,-0.6044260354751907,-1.0065327661584045,0.8884604823517109,1.9473169182571184,-0.0471212903925857,-1.1439189298385204,-0.8908449580445121,0.7652574221093356,0.525184423122321,-0.1131853297260565,-0.5449672696024088,10.073347109064343,-0.8104377708150324,0.1041870017587415,-1.151451826824106
1.56,-1.0038855938473246,0.8616579855490235,1.939486333995114,0.0316260934955036,0.1422154467625319,0.0142348708162875,0.003945430260935,-0.923533652941506,-0.6168114085743315,-1.007556192169523,0.8661821037638813,1.930100019105169,-0.0417212768414697,-1.1839189304345668,-0.9308449586405584,0.8210110388859697,0.5236312486967466,-0.1279678645152937,-0.6192686549570392,9.970841264612318,-0.8083453226706329,0.104721947392661,-1.153683983797226
1.58,-1.0037119653832751,0.8440868171521695,1.9276378602097728,0.0309990390239267,0.1415462552544515,0.0139429454504917,0.0137447441269546,-0.9259367347724288,-0.6297764539573927,-1.0084446178418636,0.8429037251611504,1.9118831199383184,-0.0363212632903537,-1.223918931030613,-0.970844959236605,0.8214221757350347,0.4899656933009792,-0.1201540915461374,-0.6482522691530601,9.83274958358561,-0.8068292221319809,0.1047109062804951,-1.155757332843701
1.6,-1.0033310612303734,0.8255429205779264,1.9148862606111725,0.0307405695919451,0.1401265406105637,0.0136518951077073,0.0237731100482148,-0.9283329871323798,-0.644762367540375,-1.0030247281769276,0.797789980413548,1.8961490375119032,0.0481240028788238,-1.025936736262545,-0.7297764554475088,0.9095160173684076,0.501418296063009,-0.1198126179975445,-0.7492956791491145,9.83274958358561,-0.8060580243888261,0.1042026756838864,-1.1574492373159857
1.62,-1.0027566043434333,0.8069075613535726,1.9021662555623764,0.0298731939606309,0.1395922500624475,0.0133552902815527,0.033460962178239,-0.9348851276874582,-0.6247174570074912,-1.0030247281769276,0.797789980413548,1.8961490375119032,0.0481240028788238,-1.025936736262545,-0.7297764554475088,1.1603700519856102,0.4843926065012098,-0.3276070277539233,1.002245526644191,9.756591925493922,-0.8020593920640989,0.0980661165539377,-1.16953597966239
1.64,-1.0019829885020035,0.7881636488897031,1.889843895709657,0.0281244896114202,0.1413820265760299,0.013076445115324,0.0437012861411766,-0.939152495361064,-0.608726754485364,-1.0030247281769276,0.797789980413548,1.8961490375119032,0.0481240028788238,-1.025936736262545,-0.7297764554475088,0.9731100000498611,0.5120161981468832,-0.2133683836802902,0.7995351261063599,12.137853050910053,-0.8007501491495946,0.1019530619692263,-1.1674534504221177
1.66,-1.0010470210097346,0.7702945739303467,1.8783594702753672,0.0264654708222376,0.1442570065187609,0.0128519851448017,0.0544665502048956,-0.9416472161863032,-0.6009536543795494,-1.0025434881481394,0.7875306130509225,1.888851272957428,0.0549998546291976,-1.045936736560568,-0.749776455745532,0.6755287329427486,0.5382632031859471,-0.1247360412619524,0.3886550052907278,11.574143605947938,-0.7985024874119162,0.1060695883989722,-1.1656448784888922
1.68,-0.9998305834503136,0.7514485046541969,1.8663683817148733,0.0252603841758312,0.1476720369882884,0.0126706709582755,0.0667047999044184,-0.9428777003012008,-0.5988413020294784,-1.001581008090563,0.7670118783256716,1.874255743848478,0.0687515581299453,-1.0859367371566149,-0.7897764563415784,0.6240009601669999,0.6119124849761389,-0.0615242057448783,0.1056176175035505,11.081259794526886,-0.7947230531833769,0.1089004546400225,-1.1660042327084386
1.7,-0.9983609684832424,0.7325893230966456,1.854363738761272,0.025107617594489,0.1509111659070493,0.0125668766327876,0.0796913316268247,-0.943080043478213,-0.601940557563925,-1.0006185280329865,0.7464931436004207,1.859660214739528,0.082503261630693,-1.125936737752661,-0.8297764569376249,0.6676382512374232,0.6493265861203141,-0.0101171588506143,-0.1549627767223282,10.706261995337629,-0.7904250248971495,0.1100687865963193,-1.1676637479710854
1.72,-0.9966256728310252,0.7137344441549034,1.84225002153346,0.0264532471963668,0.1535753241987843,0.0125636942873298,0.0931859261260987,-0.942638338531522,-0.6092708523096259,-0.9989684628003724,0.7239744088453675,1.8430646856007755,0.0962549651314407,-1.1659367383487074,-0.8697764575336714,0.7681673076527964,0.6747297249637012,0.0220852473345523,-0.3665147372850452,10.415660693190148,-0.7856880040121117,0.1091483274705708,-1.1705495542988449
1.74,-0.9947216841765602,0.6958293077712897,1.8305908155334685,0.0293343118393252,0.1553858343966038,0.0126634044401351,0.1065225288852013,-0.9426235589686646,-0.6176592631585417,-0.9973183975677588,0.7014556740903143,1.8264691564620228,0.1100066686321884,-1.205936738944754,-0.909776458129718,0.7877668248914018,0.6668301379551336,0.0007389781428668,-0.4194205424457919,10.128220247266654,-0.781015355235749,0.1054088432654532,-1.1748254351736651
1.76,-0.9924391828921592,0.6769489293441859,1.8181353237808453,0.0331295089356472,0.156416062989851,0.0128034804624495,0.1209747388833429,-0.9455767092492208,-0.6274964384602654,-0.995324539747626,0.6779369393203599,1.8088736273083688,0.1237583721329361,-1.2459367395408003,-0.9497764587257642,0.8865064696982953,0.7226104999070782,-0.1476575140278047,-0.4918587650861838,10.128220247266654,-0.7771700046022394,0.1005157504306305,-1.1789248129890857
1.78,-0.98986424903377,0.6579885651780606,1.805473463216277,0.036704211606387,0.1564220235080723,0.0128973535006877,0.1356798869680674,-0.9502735341162118,-0.638195549866898,-0.9929868893399748,0.6534182045355044,1.7902780981398143,0.1375100756336837,-1.285936740136847,-0.9897764593218108,0.9391119860224332,0.7352574042362253,-0.2348412433495594,-0.53495557033163,10.04477378699994,-0.7745348773789335,0.0957395003991787,-1.182300211929415
1.8,-0.98699461819559,0.638923091026958,1.7925880549378317,0.0397166402957634,0.1552930989819095,0.0129091265329228,0.1504544830690364,-0.955934173595586,-0.6498051335086232,-0.9830802546853668,0.61047488847225,1.773563685722932,0.19660149264448,-1.050273535606328,-0.7381955513570141,0.9812160332929104,0.7387298050484478,-0.2830319739687004,-0.5804791820862631,10.04477378699994,-0.7734647741711492,0.0917379933606622,-1.184499051542361
1.82,-0.983999175676561,0.6206279073909164,1.7804656286305949,0.0401517828246591,0.1548789209647596,0.0127771488675653,0.1643890435730064,-0.968618663996936,-0.6256218451446323,-0.9830802546853668,0.61047488847225,1.773563685722932,0.19660149264448,-1.050273535606328,-0.7381955513570141,1.5328891914263445,0.6967280251984994,-0.6342245200675056,1.209164418199549,9.998845338240244,-0.7670727184351162,0.0841984565113833,-1.1982419284942023
1.84,-0.980556183956437,0.6011466616459792,1.7681684840926608,0.0376024302755593,0.1566049787496723,0.0125200859795556,0.179358330888145,-0.9785564117968332,-0.6058612717718521,-0.9830802546853668,0.61047488847225,1.773563685722932,0.19660149264448,-1.050273535606328,-0.7381955513570141,1.3354013011811832,0.7484643657569303,-0.49688738999486,0.9880286686390072,12.464199947936322,-0.7677977341006353,0.090206160463905,-1.1930800222881852
1.86,-0.9768052035966374,0.581507687356658,1.7561716675895362,0.0336041016290064,0.1595251730166971,0.0122102981808875,0.1951603308305172,-0.9845071237928013,-0.5947679942284786,-0.981114239758922,0.5999721531161867,1.766181730209362,0.2087858137797625,-1.0702735359043511,-0.7581955516550373,1.0101670432309764,0.7900999971186109,-0.2975355997984041,0.5546638771686763,11.854872817259093,-0.766094458329087,0.0972033745857576,-1.1903216218893289
1.88,-0.9727297208355716,0.5617843542188802,1.744323649389423,0.0297184780518436,0.1627239324441321,0.0119188212877934,0.2116855910434226,-0.9875938382080578,-0.5905886341090064,-0.9771822099060324,0.5789666824040601,1.7514178191822216,0.2331544560503275,-1.1102735365003975,-0.7981955522510837,0.8661395412891336,0.8262630106452686,-0.1543357207628271,0.2089680059736087,11.314985805741344,-0.7629833000371242,0.1028269259077038,-1.1899934233416802
1.9,-0.968546754832972,0.5430063746039663,1.7330917496219045,0.0266858510000022,0.165494809646559,0.0116821562765976,0.2278231108872457,-0.9890571872855294,-0.591928603014739,-0.9732501800531428,0.5579612116919336,1.7366539081550814,0.2575230983208926,-1.150273537096444,-0.8381955528471302,0.8129521109829456,0.8068759921911541,-0.0731674538735793,-0.0669984452866312,10.895531800578285,-0.7588111208397665,0.1073542550456469,-1.1912855227594603
1.92,-0.9638105113533636,0.5232191987964273,1.7211975410307816,0.0243691902241976,0.1678484029713714,0.0114844433002897,0.2449430936472919,-0.9897472711118244,-0.5976209446457144,-0.9680997180867248,0.5349557409500046,1.7198899970981387,0.2818917405914576,-1.1902735376924904,-0.8781955534431767,0.902735812177804,0.8559991380023099,-0.0345041913147492,-0.2846170815487658,10.573262650138531,-0.754267225895998,0.1103776054024261,-1.1937142508234448
1.94,-0.9587283399833448,0.5034261546245337,1.7091624002472754,0.0230797174628553,0.169465204877183,0.011348510189217,0.2623740709768471,-0.9897282654670758,-0.6056030515122847,-0.962949256120307,0.5119502702080758,1.703126086041196,0.3062603828620227,-1.230273538288537,-0.9181955540392231,0.9585840624422952,0.8715488664777615,0.0009502822374274,-0.3991053433285152,10.324590832077774,-0.7499527804410919,0.1116388945588751,-1.1969440151274646
1.96,-0.9532923436398056,0.4836293613410313,1.6969522931806034,0.022685178704501,0.1701675071530109,0.0112631288261683,0.2802460093659308,-0.9900095834906212,-0.6150091853100178,-0.9571895780971252,0.4879447994512457,1.6853621749693524,0.3306290251325877,-1.2702735388845834,-0.9581955546352696,1.009901820270704,0.8935969194541843,-0.0140659011772736,-0.470306689886657,10.221114114287955,-0.7460914249417152,0.1117661190935976,-1.200341453319805
1.98,-0.9477953688494944,0.4648159772335695,1.6851660425258714,0.0229792833739443,0.1698191375978315,0.0112136729834265,0.2973980040334705,-0.9903752524006983,-0.6251761541395147,-0.950820684017179,0.4629393286795145,1.6665982638826076,0.3549976674031527,-1.3102735394806295,-0.998195555231316,0.9971106884482156,0.8575997333769875,-0.0182834455038582,-0.5083484414748429,10.150055874129976,-0.7435949629479711,0.111063048546855,-1.202963240460652
2.0,-0.9416580171005784,0.4450035127584323,1.6725373084003363,0.0239494397199753,0.1682095352683401,0.0111853240444801,0.3153670344261449,-0.990902874662072,-0.6372203916319786,-0.9329254686478208,0.4152972146135346,1.6539072348188957,0.3756208972119335,-1.0903752538908145,-0.7251761556296308,1.081928943228745,0.8984515196337195,-0.0263811130686797,-0.6022118746231986,10.082016238726284,-0.7425094912797976,0.1095060529255691,-1.2049154265380098
2.02,-0.9351389576323632,0.4251270535306547,1.6600170736079105,0.0242589090888059,0.1663168365042487,0.0111085789393162,0.3356682026242673,-0.9964909245195426,-0.6123034638242972,-0.9329254686478208,0.4152972146135346,1.6539072348188957,0.3756208972119335,-1.0903752538908145,-0.7251761556296308,1.6311169660628562,1.0150584099061193,-0.2794024928735261,1.24584639038407,12.58914952907071,-0.7393645304254362,0.1044049278815956,-1.2139206333373065
2.04,-0.9282267024364008,0.4051580253145649,1.6479934432037158,0.0233506893005621,0.1656255074830689,0.0109843429765351,0.3546659096308449,-1.0000827270385153,-0.5915105997962178,-0.9329254686478208,0.4152972146135346,1.6539072348188957,0.3756208972119335,-1.0903752538908145,-0.7251761556296308,1.419645300183522,0.9498853503288772,-0.1795901259486365,1.0396432014039725,12.58914952907071,-0.7428536850477521,0.1087455469914429,-1.2068742116569997
2.06,-0.921311379796956,0.3861364575715729,1.6368783325174672,0.0221997041919021,0.1656124573023394,0.0108709062771625,0.3723434270710168,-1.0020615561235866,-0.57952064153539,-0.9291692596757016,0.4043934620746264,1.646655473262599,0.3912654758476261,-1.1103752541888376,-0.745176155927654,1.0725780699929264,0.8838758720085965,-0.0989414542535649,0.5994979130413913,11.974131894120546,-0.7442709438801698,0.1127834703342753,-1.2022377683311758
2.08,-0.913673846323556,0.3660867621389647,1.6253597756174707,0.021235180952202,0.165771257208566,0.0107827364959743,0.3904500116712584,-1.0028501758127917,-0.5732432508639356,-0.9216568417314628,0.3825859569968101,1.6321519501500068,0.4225546331190113,-1.1503752547848842,-0.7851761565237004,0.9590046409454582,0.9053292300120808,-0.0394309844602425,0.3138695335727193,11.436960938513948,-0.7443411957070746,0.116087935683244,-1.1992807655419184
2.1,-0.9056798715686144,0.346033586431359,1.613902383139987,0.0210541625079841,0.1658012654477427,0.0107562691294512,0.4080155026243153,-1.0026000724359565,-0.5727817201305244,-0.9141444237872242,0.3607784519189938,1.617648427037414,0.4538437903903965,-1.1903752553809306,-0.8251761571197469,0.8786666528594791,0.8782745476528464,0.0125051688417587,0.0230765366705576,11.026234810831738,-0.7437005748212832,0.1179419702282201,-1.1977647810727508
2.12,-0.8977653260775681,0.3269945875411466,1.6029851241352977,0.0219796674550204,0.1655559252738732,0.0108093512653695,0.424174984263394,-1.0017153789040367,-0.5764175153657827,-0.9050675479794162,0.3369709468113752,1.6011449038950192,0.4851329476617816,-1.230375255976977,-0.8651761577157934,0.8293529653921013,0.8079740819539355,0.0442346765959777,-0.1817897617629127,10.699549531479532,-0.7425009014448022,0.1179629224295289,-1.197619443290464
2.14,-0.8891070481812717,0.3069735718072634,1.5913991581482558,0.0244426324035858,0.1649895528345534,0.0109667135035029,0.4407536816559698,-1.000718020939773,-0.5820620184529836,-0.8959906721716083,0.3131634417037565,1.5846413807526245,0.5164221049331669,-1.2703752565730235,-0.9051761583118398,0.8770808760383755,0.8289348696287863,0.049867898213185,-0.282225154360044,10.45171754335388,-0.7408696727826926,0.1156094487451225,-1.198896229346721
2.16,-0.8801155573206131,0.2869451307099852,1.5796863342110146,0.0278365623056057,0.1639816384817633,0.0111776413543955,0.4575249389227712,-1.002377662237391,-0.5889853110730365,-0.8861315674320158,0.2883559365812368,1.5671378575953283,0.547711262204552,-1.31037525716907,-0.9451761589078862,0.9109904777889802,0.8385628633400699,-0.0829820648808987,-0.3461646310026489,10.284370240499811,-0.7398225285797885,0.1118708191727538,-1.2002872893846297
2.18,-0.8707864068529725,0.2668630862307086,1.5678216672667256,0.0311089454179835,0.1621676198480132,0.0113530024447624,0.4744661555435985,-1.0057252797297076,-0.5971251422448439,-0.8754902337606386,0.2625484314438159,1.548634334423131,0.5790004194759372,-1.3503752577651162,-0.9851761595039328,0.9545525325698252,0.8470608310413658,-0.16738087461583,-0.4069915585903694,10.22179456538015,-0.7398872243581806,0.1082567086070111,-1.2011094127645685
2.2,-0.8616104150567058,0.2477134775701106,1.5563875550356785,0.0337789091355591,0.1593747609028979,0.0114487661828288,0.490481268870969,-1.009775629252853,-0.6060450102434396,-0.8470630990757926,0.2165768222442232,1.5379654101544833,0.5744661570337146,-1.0765679332426623,-0.6482226060612483,0.9386868903693812,0.8007556663685245,-0.2025174761572712,-0.4459933999297838,10.22179456538015,-0.7412223594355445,0.1048449337046649,-1.2012948045688538
2.22,-0.8515909551747964,0.2272917438803407,1.544575212986818,0.0308863396016916,0.1561009844154243,0.0111415016019342,0.5106325317022335,-1.030296193390967,-0.5724071575402414,-0.8470630990757926,0.2165768222442232,1.5379654101544833,0.5744661570337146,-1.0765679332426623,-0.6482226060612483,2.212844369088802,1.007563141563228,-1.0260282069056936,1.6818926351599095,10.151304330389394,-0.7410421271968859,0.1022729434246876,-1.2092515887924025
2.24,-0.8411863881745401,0.2065748493745526,1.5334581608989275,0.0214145879135298,0.1538725435766535,0.0104448876592552,0.5287025900361778,-1.0389413419381277,-0.5411418488515213,-0.8470630990757926,0.2165768222442232,1.5379654101544833,0.5744661570337146,-1.0765679332426623,-0.6482226060612483,1.8565998013812663,0.903502916697213,-0.4322574273580404,1.5632654344360064,13.308867916505733,-0.7492022141664262,0.1171216594899718,-1.19615121709828
2.26,-0.8304395347633816,0.1857843376699879,1.5228742122467176,0.0108045292570231,0.1526989161020782,0.0097382608713775,0.5451635469040305,-1.0393997937474508,-0.518786329979688,-0.8413184375054554,0.2058111429117966,1.5314831840938707,0.5944661573317378,-1.0907364639452533,-0.6584420988245291,1.3882925692155736,0.8230478433926325,-0.0229225904661567,1.1177759435916643,12.671194970947909,-0.7548660559245046,0.133513425951592,-1.18473590089811
2.28,-0.8199339686519289,0.1660740502212976,1.513159228829262,0.0015484637827302,0.1522112962089387,0.0091679389741067,0.5599017914702868,-1.0354724060239238,-0.5049426314250923,-0.8298291143647811,0.1842797842469433,1.518518731972646,0.6344661579277843,-1.1190735253504351,-0.6788810843510908,1.0299128808984417,0.7369122283128193,0.1963693861763538,0.6921849277297831,12.018577941726107,-0.7580536204606413,0.147913232865082,-1.1763628413746303
2.3000000000000003,-0.808580456337218,0.1454363883245929,1.5031580048327422,-0.0066362252367079,0.1521153511317158,0.0087083026577412,0.574669223072751,-1.0286552379517917,-0.4961621415398846,-0.8183397912241068,0.1627484255820901,1.505554279851421,0.6744661585238307,-1.147410586755617,-0.6993200698776526,0.9241858840100692,0.7383715801232094,0.3408584036066031,0.4390244942603843,11.505073567245743,-0.75955231357962,0.1598045382405734,-1.1702885662566058
2.32,-0.7969372470082574,0.1249551602267214,1.493279325167832,-0.0130169852528863,0.1522905593002609,0.008399833979638,0.5889151970367712,-1.0200545327857469,-0.4923341354450786,-0.8048504680536303,0.1398002138469778,1.491567878453868,0.7144661591198772,-1.175747648160799,-0.7197590554042144,0.8537762209716355,0.7122986982010082,0.4300352583022415,0.1914003047403023,11.130175881835385,-0.7599168713519762,0.169352940381468,-1.1657365990420656
2.34,-0.7850104849956275,0.10466051174757,1.4834514696847132,-0.017544171032321,0.1525967531423814,0.0082425705211756,0.6030763377788557,-1.0102896558404926,-0.4906167773926262,-0.7913611448831537,0.1168520021118654,1.477581477056315,0.7544661597159237,-1.2040847095659808,-0.7401980409307761,0.8643495351323559,0.7080570371042261,0.4882438472627148,0.0858679026226161,10.837982382008704,-0.7593961107063042,0.175836340840597,-1.1632894995373688
2.36,-0.7734124002379057,0.0855608102402739,1.4741362087768577,-0.0204871374740189,0.1527640858572767,0.0082100560964261,0.6170305739637496,-1.0009603317252904,-0.4900128174413242,-0.7768718216977759,0.0931953638416235,1.463084101020598,0.79446616031197,-1.232421770971163,-0.7606370264573378,0.8398240345052514,0.6977118092446943,0.4664662057601076,0.0301979975651012,10.737860883217763,-0.7588027258663844,0.1809031320760563,-1.1612595454494763
2.38,-0.7609157341588744,0.0656472605709335,1.4643337160618302,-0.0225297183239701,0.1525406568919738,0.0082777346327192,0.6318518645573195,-0.991054673350804,-0.4903020182514828,-0.761382498497497,0.0688302990362521,1.4480757503467168,0.8344661609080165,-1.2607588323763446,-0.7810760119838995,0.8914543732009949,0.7410645296784923,0.4952829187243213,-0.0144600405079298,10.676295070761626,-0.7583972305148605,0.1846715238496423,-1.15950088723071
2.4,-0.7481222446119941,0.0459359010129338,1.4545149066906946,-0.0235872595725362,0.1517447026646452,0.0084466304710097,0.6466938026364581,-0.9806625256470032,-0.4915978043350537,-0.7293231409310084,0.0160945269033933,1.439818615149256,0.7318518660474356,-1.0156709576467209,-0.5036215226987641,0.9082385719305436,0.7420969039569347,0.5196073851900351,-0.0647893041785419,10.619286038049722,-0.7585936098290823,0.1873100229759026,-1.1576124153912075
2.42,-0.734960451828098,0.0262953203686186,1.4449473704253717,-0.0282673824085728,0.1493446427339319,0.0084262596548987,0.6689232356078642,-0.9816056286515076,-0.463631660404832,-0.7293231409310084,0.0160945269033933,1.439818615149256,0.7318518660474356,-1.0156709576467209,-0.5036215226987641,1.7868564154914717,1.1114716485703002,-0.0471551502252087,1.3983071965110838,10.559437588972289,-0.7601391189756627,0.1891982305886412,-1.1602870569713322
2.44,-0.7220475604317751,0.0077238010066841,1.436388962523535,-0.0362761353400894,0.1445022147881583,0.008287045701232,0.6888901864494454,-0.972712102934248,-0.438778253085386,-0.7293231409310084,0.0160945269033933,1.439818615149256,0.7318518660474356,-1.0156709576467209,-0.5036215226987641,1.6548910696628698,0.9983475420790644,0.444676285862966,1.2426703659722982,12.629133740831094,-0.7698346311684202,0.2032370649461761,-1.1446350786418422
2.46,-0.7080866254676801,-0.0115768184959535,1.4278346998105145,-0.0446066659975897,0.1373402505381156,0.0083115406251245,0.7056670178043406,-0.9578071971397362,-0.4181692611266425,-0.722004622270534,0.0059378173269261,1.4347823999222684,0.7518518663454588,-1.020594214505904,-0.5062854235882204,1.5234408723424635,0.838841567744758,0.745245289725599,1.0304495979371775,12.241925821283075,-0.7804226831579975,0.2169864421319608,-1.1285647167924464
2.48,-0.6938402780134647,-0.0305430495663513,1.4196287175099305,-0.0514089161655907,0.1293315484209741,0.0085767250688069,0.7178465088253132,-0.9399482761352408,-0.4033732901566111,-0.7073675849495853,-0.0143756018260082,1.424709969468293,0.7918518669415052,-1.030440728224271,-0.5116132253671329,1.3097727073053265,0.60897455104863,0.8929460502247688,0.739798548501569,11.834321430720593,-0.7908120543095515,0.227979505413845,-1.1137696232274672
2.5,-0.6801191553689085,-0.0482147689202557,1.4120648565562146,-0.0561062447500182,0.1218819908927945,0.0090195075335904,0.7257364125755742,-0.9215832522685944,-0.3935002975714212,-0.6927305476286366,-0.0346890209789426,1.4146375390143178,0.8318518675375517,-1.0402872419426372,-0.5169410271460455,1.1146755866597349,0.3944951875130498,0.91825119333232,0.493649629259496,11.468691596085591,-0.8007528880167641,0.2367287476952057,-1.1003911672500857
2.52,-0.6655467502168626,-0.0664357634960891,1.4042744668846798,-0.0592647025055796,0.1149435015464691,0.0096180383782504,0.7309243930680457,-0.9018339967697336,-0.3861561273506567,-0.6760935102778856,-0.0554947658177954,1.4042987184713969,0.8718518681335982,-1.0501337556610038,-0.5222688289249581,1.0849943209311113,0.2593990246235744,0.987462774943032,0.3672085110382223,11.187509171039892,-0.809101886048715,0.2428224291353684,-1.0895451072235656
2.54,-0.6509012385894255,-0.0842543390155754,1.3966128659172543,-0.0605852432296399,0.1096359443241383,0.0102869077555465,0.7332876607423985,-0.8814446249477063,-0.380318254310397,-0.6594564729271345,-0.0763005106566481,1.393959897928476,0.9118518687296446,-1.0599802693793705,-0.5275966307038706,1.0669961094489993,0.1181633837176399,1.0194685911013746,0.2918936520129839,10.98798095453185,-0.8143479707383042,0.2459388092099597,-1.083197428061006
2.56,-0.6369620842032291,-0.1008013555965147,1.3894363490890984,-0.0600326771544622,0.1066676142215534,0.0109425972473628,0.7338436375122009,-0.8616712290953326,-0.3753681390980161,-0.6418194355614824,-0.09735241833846,1.383487882341082,0.951851869325691,-1.069826783097737,-0.5329244324827831,1.019558647551815,0.0277988384901228,0.9886697926186848,0.2475057606190461,10.882645052772205,-0.8174453439959122,0.2470351293510762,-1.0791359696044838
2.58,-0.6222835401871882,-0.1178138862531153,1.3819823735527037,-0.0573116671580626,0.1059514256066144,0.0116485646427079,0.7342623793765745,-0.8409495057049474,-0.3702681036803493,-0.623182398180929,-0.1186504888632311,1.3728826717092155,0.9918518699217376,-1.0796732968161038,-0.5382522342616957,1.0672107644205868,0.0209370932186758,1.036086169519257,0.2550017708833396,10.882645052772205,-0.8185931170181276,0.245919369944438,-1.0767831040881568
2.6,-0.6075811237816767,-0.1344355052044021,1.374633816352968,-0.0528332479415388,0.1070348420526769,0.0123837137576189,0.7361486805052917,-0.8227501855528797,-0.364801041068857,-0.5855704212183596,-0.1598613615383627,1.363468968368686,0.8342623808666906,-0.7998788544419488,-0.3382427254829178,0.9548064719403024,0.0943150564358619,0.9099660076033856,0.2733531305746162,10.862425466381865,-0.8177621067845539,0.2430070766750028,-1.0763829771420466
2.62,-0.5927758937035563,-0.1509473403248064,1.3675757967146986,-0.0553358445346287,0.1082640939066791,0.01263752549181,0.7443274796301158,-0.8262215938559841,-0.3405249793025987,-0.5855704212183596,-0.1598613615383627,1.363468968368686,0.8342623808666906,-0.7998788544419488,-0.3382427254829178,1.2925465229637545,0.4089399562412055,-0.1735704151552219,1.2138030883129174,10.867093131620097,-0.8190849933912016,0.2449803077628021,-1.0748688147659344
2.64,-0.5785612097290536,-0.1665439513413674,1.3613312277317875,-0.0652614125528571,0.108623995643672,0.0124183163211128,0.7514478990627083,-0.8141461214540753,-0.3181548170149421,-0.5855704212183596,-0.1598613615383627,1.363468968368686,0.8342623808666906,-0.7998788544419488,-0.3382427254829178,1.3199825447722746,0.3560209716296225,0.6037736200954436,1.1185081143828297,12.11738273922947,-0.8219318311649082,0.2582556373146637,-1.06539967611201
