t,x,y,z,roll,pitch,yaw,v_x,v_y,v_z,ref_x,ref_y,ref_z,ref_v_x,ref_v_y,ref_v_z,a_com,a_x,a_y,a_z,thrust,wind_x,wind_y,wind_z
0.0,2.492419941863826,-1.9437624936846412,2.5102592002513826,0.03197538863322,0.0997286302120833,0.0423032216919638,-0.0006523683638485,0.0050934675734747,0.0001218536802932,2.492396613480173,-1.943543564204092,2.510265125289773,-0.1007450136476326,0.1067124896737116,-0.0329328450299909,0.2568260341339545,-0.0326184181924284,0.2546733786737367,0.0060926840146629,10.254320425876358,-0.940620392560777,0.2519322105839351,-0.8793579950259464
0.02,2.492574281515413,-1.9439409706493995,2.5102090393380743,0.0246394405433283,0.0946526349139799,0.041647563113474,0.0163742932828318,-0.0197495044366764,-0.0054159846948221,2.492396613480173,-1.943543564204092,2.510265125289773,-0.1007450136476326,0.1067124896737116,-0.0329328450299909,1.5311336641493745,0.8513330823340203,-1.2421486005075613,-0.2768919187557704,10.255084103904665,-0.9488324178677852,0.2503010871915235,-0.8793626909447129
0.04,2.493029283230709,-1.944381587552236,2.5100022660024384,0.0080766869059118,0.079080523663496,0.0402902635608777,0.0266906845240528,-0.0219088921762148,-0.0150665204446575,2.492396613480173,-1.943543564204092,2.510265125289773,-0.1007450136476326,0.1067124896737116,-0.0329328450299909,0.7145343307190741,0.5158195620610527,-0.1079693869769195,-0.4825267874917694,9.653978211078538,-0.956546831317192,0.2675487958919659,-0.8606926069293385
0.06,2.4935691578024963,-1.9447632576761165,2.509595758355044,-0.0092678991719769,0.0573459311966846,0.039216468424709,0.0256730165008999,-0.0157581375608848,-0.0250365150209059,2.4913891633436966,-1.9424764393073544,2.509935796839473,-0.1207450139456558,0.1267124899717348,-0.0395549471415689,0.5879375442888806,-0.0508834011576465,0.3075377307665033,-0.4984997288124228,9.653978211078538,-0.969647145088031,0.2819290231371268,-0.839108349164719
0.08,2.493960017595201,-1.9449730522614943,2.5090281071159595,-0.0251487180212017,0.0347685967120808,0.038684734825174,0.014901426113753,-0.00632357182618,-0.0342241648184842,2.489374263070744,-1.9403421895138804,2.5092771399388734,-0.1607450145417023,0.1667124905677813,-0.0527991513647248,0.8506631220316894,-0.5385795193573475,0.4717282867352377,-0.45938248987891,9.606805434994383,-0.9871090593502918,0.295193955164187,-0.8131111103786953
0.1,2.494059137738008,-1.9449690111552052,2.508241634436592,-0.0410692208512135,0.0118620967027193,0.0386046378316985,-0.0049819255523157,0.0065742582716427,-0.0439708614210185,2.4873593627977915,-1.9382079397204064,2.5086184830382736,-0.2007450151377487,0.2067124911638277,-0.0660433555878808,1.2813077200371488,-0.9941675833034376,0.644891504891142,-0.4873348301267181,9.621943336229378,-1.0055106630528785,0.306575257953873,-0.7865514313429997
0.12,2.4936786622836085,-1.9446773008832587,2.507260851759729,-0.0561997375171046,-0.008034881697458,0.0388603565428306,-0.0321729678176836,0.0222863695360518,-0.0536544954948318,2.4833444624950367,-1.9340736898971296,2.507297615926516,-0.2407450157337952,0.2467124917598742,-0.0792875598110368,1.6431646210420543,-1.3595521132683952,0.7856055632204515,-0.484181703690666,9.696547732870386,-1.0218174544861878,0.3157685167701483,-0.7632795650686433
0.14,2.49276179806246,-1.944083403938217,2.506149738350856,-0.0698825043888657,-0.0230150979086347,0.0392354276131878,-0.0628709396314599,0.0397269129756003,-0.0628370348952501,2.479329562192281,-1.929939440073853,2.505976748814758,-0.2807450163298417,0.2867124923559207,-0.0925317640341928,1.8240456811620789,-1.5348985906888126,0.8720271719774252,-0.4591269700209108,9.696547732870386,-1.0364848013344032,0.323953270972249,-0.7426846538750054
0.16,2.4911277119728243,-1.943044794774488,2.5047881399946648,-0.0826707547441211,-0.0340413822811468,0.0396413190810837,-0.0989326212287147,0.0630170247386305,-0.0728355097421659,2.474314661874625,-1.9248051902356755,2.504324776597422,-0.3207450169258881,0.3267124929519671,-0.1057759682573487,2.203885026958437,-1.8030840798627408,1.1645055881515125,-0.4999237423457925,9.7432779187111,-1.047492706728851,0.3307646196886387,-0.7271726629166597
0.18,2.4887315024568317,-1.941502500006257,2.503224213481539,-0.0927618636892626,-0.0392944204932498,0.0398898098692821,-0.1385793871950581,0.0893908544967062,-0.0829963728621897,2.468299761542068,-1.9186709403825968,2.5023416992745062,-0.3607450175219345,0.3667124935480135,-0.1190201724805047,2.434485616635382,-1.982338298317169,1.3186914879037857,-0.5080431560011873,9.78330434959571,-1.0542168696849896,0.3352348978646362,-0.7192768277533633
0.2,2.485541742236397,-1.9394157212820435,2.501461265837594,-0.1000940824865616,-0.0385489169518074,0.0398175277463161,-0.1776488861321625,0.1173213873766603,-0.0926397703419321,2.4818025330970785,-1.9370329572814216,2.4990743948384293,-0.2385793886851742,0.1893908559868224,-0.1147089868620332,2.4492527070041703,-1.9534749468552213,1.3965266439977038,-0.4821698739871212,9.835825576534262,-1.0577341203029262,0.3369878476779517,-0.718327734446695
0.22,2.481772964043549,-1.936773951829956,2.4996815292276966,-0.1006897386789671,-0.0324238953145209,0.0396519345811478,-0.216474445129197,0.1577901241803618,-0.0934546957123722,2.4818025330970785,-1.9370329572814216,2.4990743948384293,-0.2385793886851742,0.1893908559868224,-0.1147089868620332,2.8043746153460223,-1.941277949851726,2.0234368401850755,-0.0407462685220079,10.544080791960369,-1.0593248173620051,0.3364575544829351,-0.718573892608475
0.24,2.4770681770262084,-1.933267698800119,2.49782908541514,-0.0941251563786678,-0.0209726226118774,0.0395142844713722,-0.2511238926167435,0.1893378773567803,-0.0915832516968283,2.4818025330970785,-1.9370329572814216,2.4990743948384293,-0.2385793886851742,0.1893908559868224,-0.1147089868620332,2.3448599341835865,-1.7324723743773252,1.577387658820925,0.0935722007771942,10.544080791960369,-1.0559971088595226,0.3305868352807991,-0.729388366735441
0.26,2.4717392495943558,-1.9292181006370508,2.496010297424908,-0.0858128715394618,-0.0069415290625445,0.0393509527074656,-0.2794226146020874,0.2137352612241426,-0.0903062617474498,2.479416739210227,-1.9351390487215532,2.4979273049698087,-0.2585793889831974,0.2093908562848456,-0.121051509662002,1.869278409511292,-1.4149360992671915,1.2198691933681145,0.0638494974689291,10.45086984183854,-1.0502973670416187,0.3249107810024248,-0.7415756650556299
0.28,2.4662099127457733,-1.9249604209603457,2.4942931418238503,-0.0782614378788824,0.0070205941609526,0.0392239393420144,-0.3008439250702072,0.2332948102806142,-0.0905105033493996,2.474645151436523,-1.9313512316018169,2.495633125232568,-0.2985793895792439,0.249390856880892,-0.1337365552619394,1.450422538517711,-1.0710655234059925,0.9779774528235764,-0.0102120800974908,10.315558158687054,-1.042650656026944,0.3193734845786882,-0.7557843450312316
0.3,2.4600020235669886,-1.9201014081598011,2.4924643740015067,-0.0714164476917577,0.0209942464138367,0.0391705792242203,-0.3184973919268376,0.2516898741185066,-0.0924720200788869,2.46987356366282,-1.9275634144820804,2.4933389454953274,-0.3385793901752904,0.2893908574769385,-0.1464216008618769,1.2785448892572586,-0.8826733428315192,0.9197531918946192,-0.0980758364743678,10.05859720474291,-1.0344738200026926,0.314974262874366,-0.769208262072286
0.32,2.453484794469537,-1.91488895775883,2.4905759963812,-0.0658794239920471,0.0332481411020733,0.0392262719839228,-0.33216732483908,0.2687855074566426,-0.0963874021656838,2.463101975859314,-1.9217755973325417,2.4904105134780896,-0.3785793907713368,0.3293908580729849,-0.1591066464618143,1.1118205362633944,-0.6834966456121222,0.8547816669068037,-0.1957691043398449,10.05859720474291,-1.0266191393427768,0.311675526867958,-0.7810355153236511
0.34,2.446728013421743,-1.9093440894646296,2.488593329743884,-0.0615938999934935,0.0431621841826479,0.039398509353364,-0.3428641060390665,0.2850899598150488,-0.1017285555824314,2.4563303880558083,-1.915987780183003,2.4874820814608523,-0.4185793913673833,0.3693908586690314,-0.1717916920617517,1.010920638043803,-0.534839059999323,0.8152226179203109,-0.2670576708373777,9.94822988237138,-1.0199512439638725,0.309312363086168,-0.7906505154482822
0.36,2.440125250007612,-1.9037707416900056,2.486600347660387,-0.0582402836598527,0.0503688687898132,0.0396746185613956,-0.351679954929222,0.3007753180491535,-0.1078154020820532,2.448558800237401,-1.909199963018563,2.484236523303616,-0.4585793919634297,0.4093908592650778,-0.1844767376616892,0.9497359565903132,-0.4407924445077732,0.7842679117052304,-0.3043423249810911,9.882584889023748,-1.0139321423916312,0.3075582935483663,-0.7986720951679124
0.38,2.4330021173863026,-1.897584935965096,2.484369378263603,-0.0551056069560079,0.0559053151758978,0.0400717789595539,-0.3601920768851209,0.3169458987842564,-0.1150068121224271,2.439787212404093,-1.901412145839222,2.4806738390063816,-0.4985793925594761,0.4493908598611242,-0.1971617832616266,0.9819117575823324,-0.4256060977949477,0.8085290367551484,-0.3595705020186926,9.836058394009342,-1.0092625776173505,0.3060422851874544,-0.8048010426197272
0.4,2.425712681765801,-1.891079441542057,2.481987730339628,-0.0522125403761434,0.0596891682096036,0.0405554420279173,-0.3683673867070383,0.332731791752042,-0.1228283857750305,2.4149925135420465,-1.8817376410258828,2.4786190376574817,-0.460192078375237,0.4169459002743725,-0.1608911493986474,0.9710910383144046,-0.4087654910958666,0.7892946483892771,-0.3910786826301721,9.799777514524976,-1.0060021856912251,0.3047040085954603,-0.8091001128241043
0.42,2.4186492961456785,-1.884611196789324,2.479650743020337,-0.0497275153952424,0.0617398870960136,0.0410774513712177,-0.3747916261070585,0.3473746143278781,-0.1223589506212135,2.4149925135420465,-1.8817376410258828,2.4786190376574817,-0.460192078375237,0.4169459002743725,-0.1608911493986474,0.7998491642488397,-0.3212119700010118,0.732141128791805,0.0234717576908488,10.28457618325865,-1.007673426222146,0.3028914198873327,-0.8085934934714434
0.44,2.4110876432544712,-1.8775215786015484,2.4771952030832995,-0.047933387398695,0.0620924356243391,0.0416546290147543,-0.3811476089836437,0.3610054061080853,-0.1234093358701799,2.4149925135420465,-1.8817376410258828,2.4786190376574817,-0.460192078375237,0.4169459002743725,-0.1608911493986474,0.7538241042412611,-0.3177991438292588,0.6815395890103632,-0.0525192624483167,10.28457618325865,-1.008102788177253,0.3033897498487412,-0.8063198997129714
0.46,2.4033940625176604,-1.8701619187918188,2.4746900560681517,-0.0472595332626638,0.0606115777849182,0.0422348162265331,-0.3880386202574232,0.3744178324092735,-0.1270399181902525,2.410390592758294,-1.8775681820231391,2.477010126163495,-0.4801920786732603,0.4369459005723957,-0.1700680168538915,0.7755003927190884,-0.3445505636889751,0.6706213150594081,-0.1815291160036314,10.119931345079747,-1.0093926629592114,0.3043602442093431,-0.8031415745957802
0.48,2.395949042898298,-1.8629233579504,2.4722263619615767,-0.0476178190117383,0.0576986334381212,0.0427832691796869,-0.3954362205987482,0.3869728720184218,-0.1321064669729507,2.4011867511907896,-1.8692292640176515,2.4737923031755225,-0.5201920792693068,0.4769459011684422,-0.1884217517643796,0.7714003937073081,-0.3698800170662514,0.6277519804574166,-0.253327439134908,9.984481802755909,-1.011982002647353,0.3057869015520172,-0.7985119332956212
0.5,2.387947734612348,-1.8550465285904711,2.469516804392976,-0.0491170955391649,0.0532787931789956,0.043348369538908,-0.40447776043188,0.4001488992171368,-0.1386313334999735,2.3919829096232847,-1.860890346012164,2.4705744801875493,-0.5601920798653532,0.5169459017644886,-0.2067754866748677,0.8630339195113499,-0.4520769916565886,0.6588013599357512,-0.3262433263511402,9.88971182745263,-1.0156754695202774,0.3077798208151807,-0.7925444386201896
0.52,2.3797444907590903,-1.8468997334053177,2.466667542241466,-0.0517004087896675,0.0479101876603483,0.0438953388044228,-0.4156754613226921,0.4141552325984928,-0.1460077588201804,2.3807790680259777,-1.8505514279768744,2.466438970454052,-0.6001920804613997,0.5569459023605351,-0.2251292215853559,0.9695070016951548,-0.5598850445406062,0.7003166690677992,-0.3688212660103468,9.819317893845437,-1.0200011805744402,0.3106352065490546,-0.7852118294151813
0.54,2.371290048735562,-1.838451957056193,2.463667668828934,-0.0546363732946106,0.0423998901786147,0.0444428017167627,-0.4293428095115368,0.4299938863071255,-0.1536014674630325,2.3695752264286707,-1.8402125099415847,2.4623034607205545,-0.6401920810574462,0.5969459029565816,-0.243482956495844,1.1127935216939675,-0.6833674094422343,0.7919326854316316,-0.3796854321426055,9.77705388020695,-1.0249549420721775,0.3133467211433608,-0.7774339122412902
0.56,2.3629781371504337,-1.8301139216827529,2.4606764000933534,-0.0569566941619071,0.0378363662823352,0.0449739101987114,-0.4450048836237998,0.4466748050029672,-0.1608737715479671,2.3573713848164624,-1.8288735918913936,2.457709107614295,-0.6801920816534925,0.6369459035526279,-0.2618366914063321,1.2004582674327544,-0.7831037056131529,0.8340459347920881,-0.3636152042467297,9.77544566033157,-1.0295681256140552,0.3160109515275336,-0.769786493193113
0.58,2.35388137568644,-1.8209891378590968,2.4573761604404,-0.0585370667273795,0.0347706506203751,0.0455017663552752,-0.463977532014353,0.4647800838014271,-0.1687682260213738,2.3441675431893527,-1.8165346738263013,2.452655911135273,-0.720192082249539,0.6769459041486744,-0.2801904263168203,1.3693839114308055,-0.9486324195276592,0.9052639399229956,-0.3947227236703335,9.785840400290908,-1.0331161121309598,0.3178596663209881,-0.7641004014288133
0.6,2.3443847178490937,-1.8114933687554933,2.4539140447049923,-0.0589073218324717,0.0344463461468556,0.0459527675815917,-0.4843409398617389,0.4836798337083611,-0.1770029354902227,2.3306824990857224,-1.7977501336690251,2.448937749139332,-0.5639775335044692,0.5647800852915432,-0.1861613698689585,1.448861074896394,-1.0181703923692913,0.9449874953466968,-0.4117354734424441,9.769929226565182,-1.0356749654005315,0.3182567579188373,-0.7612594026847052
0.62,2.3349808601279234,-1.80206899540567,2.45062957456377,-0.0565372266412563,0.0370433564558792,0.0463959494139656,-0.5042083181770256,0.5069199284170675,-0.1682346734458918,2.3306824990857224,-1.7977501336690251,2.448937749139332,-0.5639775335044692,0.5647800852915432,-0.1861613698689585,1.59035934812735,-0.9933689157643366,1.162004735435318,0.4384131022165421,9.769929226565182,-1.0419448998745344,0.3168519750618468,-0.7550463840576392
0.64,2.32470597687649,-1.79172550075502,2.4473546971432483,-0.0512599528939705,0.0424730746030471,0.0469100960276091,-0.5218124428605598,0.5256435416860641,-0.1598218195350852,2.3306824990857224,-1.7977501336690251,2.448937749139332,-0.5639775335044692,0.5647800852915432,-0.1861613698689585,1.3520863606339464,-0.8802062341767114,0.9361806634498316,0.4206426955403311,10.836659317751582,-1.0428436833462715,0.3153668015074864,-0.7533901823816288
0.66,2.3141141086232344,-1.781052215616517,2.4442175845993703,-0.0457564274970602,0.0492282856287919,0.0473918143579534,-0.5362043486527348,0.5406966811851824,-0.1544412582815488,2.325042723750678,-1.7921023328161096,2.447076135440642,-0.5839775338024924,0.5847800855895664,-0.1896399986384754,1.0754933757511178,-0.7195952896087487,0.7526569749559175,0.269028062676821,10.43857914475302,-1.040943752853975,0.3135002192506615,-0.7557881362541906
0.68,2.3032656305658903,-1.7701011785124614,2.441153967489371,-0.04093396082915,0.0562458920105041,0.0478365617888433,-0.5477503965129212,0.5538043340356743,-0.1521823359203199,2.3137631730805883,-1.7808067311102789,2.4433529080432623,-0.6239775343985389,0.6247800861856129,-0.1965972561775093,0.8806595747971842,-0.5773023930093213,0.6553826425245934,0.1129461180614424,10.43857914475302,-1.0378419287384444,0.3117961298980963,-0.7600195984547322
0.7000000000000001,2.2927690096741338,-1.759465886356008,2.438261424596372,-0.0372108017914406,0.0624494016990048,0.0482341886610733,-0.55651542401435,0.5652294105620871,-0.1524203992064663,2.302483622410499,-1.769511129404448,2.4396296806458837,-0.6639775349945853,0.6647800867816593,-0.2035545137165432,0.7200950542522161,-0.4382513750714356,0.571253826320639,-0.0119031643073197,10.25850526578779,-1.0340640215425565,0.3102673173554021,-0.7652174199735415
0.72,2.281558880205552,-1.748042720821676,2.43519225534042,-0.0342135177771789,0.0680010864764744,0.0486336411624174,-0.5639820366389012,0.576628844511561,-0.1545845888302587,2.2892040717106075,-1.7562155276688147,2.4355585903715524,-0.7039775355906318,0.7047800873777058,-0.2105117712555771,0.6898933163563385,-0.3733306312275641,0.5699716974736979,-0.1082094811896208,10.115156075490631,-1.0303311858668789,0.3090814005354177,-0.7703293264350044
0.74,2.2702136873820704,-1.736394294086742,2.432068650399448,-0.0320692404713672,0.0722622023523962,0.0490191195640115,-0.5701699213838832,0.5877744803462699,-0.1577104567978093,2.275924521010716,-1.7429199259331816,2.4314875000972216,-0.7439775361866783,0.7447800879737523,-0.217469028794611,0.6562891251721406,-0.3093942372490998,0.5572817917354422,-0.1562933983775272,10.007026249470073,-1.0273152941246098,0.3082847950911437,-0.7744284547283656
0.76,2.258748948660927,-1.7245158759382877,2.428875891125099,-0.0303577830753806,0.0752643288702087,0.0494106881516045,-0.576041267632987,0.5994764550420095,-0.1614131092705382,2.2616449702959227,-1.728624324182647,2.427242478384415,-0.7839775367827246,0.7847800885697986,-0.2244262863336449,0.6802913969219397,-0.2935673124551896,0.5850987347869818,-0.185132623636447,9.963897472417557,-1.0249913930844,0.3078507052825191,-0.7772933546071121
0.78,2.247749241579196,-1.713013658803309,2.4257708271516982,-0.028779280171032,0.0772110658275779,0.0498004727966592,-0.5815597256718932,0.6106137185289714,-0.16525149035914,2.246365419566229,-1.7133287224172118,2.4228235252331323,-0.8239775373787711,0.8247800891658451,-0.2313835438726788,0.6504329067753981,-0.275922901945308,0.5568631743480934,-0.1919190544300869,9.941155044265544,-1.023305376551819,0.3073904198234447,-0.7793326299108966
0.8,2.23605687374224,-1.70068088754099,2.4224203513295857,-0.0270860317675542,0.0785540680348986,0.0502248794188436,-0.5874062167652035,0.6220038624131453,-0.1696080905398795,2.218671255295601,-1.6824829728768604,2.4175082526337413,-0.6815597271620093,0.7106137200190875,-0.1979269093619113,0.6761967186794862,-0.2923245546655184,0.569507194208696,-0.2178300090369761,9.926384316424446,-1.0221913378026228,0.3068408090226823,-0.7807118721091522
0.8200000000000001,2.224234704914464,-1.6881081597403724,2.419033985317639,-0.0248750662964656,0.0798712577510453,0.0506766164459048,-0.5944291928822074,0.6343741299071559,-0.1685127692100201,2.218671255295601,-1.6824829728768604,2.4175082526337413,-0.6815597271620093,0.7106137200190875,-0.1979269093619113,0.7133467603995742,-0.3511488058501932,0.61851337470053,0.0547660664929713,9.909878243323874,-1.022997226289009,0.3060971877196436,-0.7799709496333896
0.84,2.212285122691502,-1.6753191961397491,2.4156636022059077,-0.0226669681741133,0.0814098768024312,0.0511128857405837,-0.6001340370377776,0.6440285846434407,-0.1687165179083929,2.218671255295601,-1.6824829728768604,2.4175082526337413,-0.6815597271620093,0.7106137200190875,-0.1979269093619113,0.5607924228856953,-0.2852422077785077,0.4827227368142395,-0.0101874349186431,10.254808186538868,-1.0229044970778238,0.3057238088576838,-0.7796826197862092
0.86,2.200834056169595,-1.6629982682845157,2.412435413611614,-0.0212345952091782,0.0825831383005954,0.0514786328031366,-0.604987165030431,0.6525555064490653,-0.171077010422987,2.211855658023981,-1.6753768356766696,2.4155289835401224,-0.7015597274600325,0.7306137203171107,-0.2044619931624656,0.5045621163537954,-0.2426563996326736,0.4263460902812321,-0.118024625729704,10.12430580738237,-1.0220599063624702,0.3055062271632618,-0.7803503555775475
0.88,2.1886843508268736,-1.6498598229198416,2.4089725664995227,-0.0205936988048732,0.0833288822254005,0.051804024243537,-0.6097628247929404,0.6609108086337497,-0.1751570945718417,2.198224463480741,-1.6611645612762878,2.411570445352884,-0.741559728056079,0.7706137209131572,-0.2175321607635742,0.5226497092374057,-0.2387829881254688,0.4177651092342194,-0.2040042074427331,10.00228636492102,-1.0212735604191323,0.3054971052933447,-0.7812137075516209
0.9,2.176440115684588,-1.6365578322648069,2.405414783173518,-0.0210654511067871,0.0834876837250239,0.0520549291170696,-0.6144796013774146,0.6689615928891683,-0.1804665727558662,2.1845932689375007,-1.646952286875906,2.407611907165646,-0.7815597286521254,0.8106137215092036,-0.2306023283646827,0.5367813033763671,-0.2358388292237112,0.4025392127709304,-0.2654739092012248,9.911663395772848,-1.0207117915815442,0.3060248589022104,-0.7817648064510758
0.92,2.164719939418958,-1.6237721361874202,2.40192798731647,-0.0226709797724682,0.0830921547958581,0.0522179480637807,-0.6190711772008841,0.6766364222241488,-0.1862978661574708,2.168962074364458,-1.630740012445722,2.402999860598352,-0.8215597292481719,0.8506137221052501,-0.2436724959657913,0.5338294591893155,-0.2295787911734736,0.3837414667490213,-0.2915646700802299,9.847800567413287,-1.0205305811174692,0.3071826301588832,-0.7817162740584626
0.94,2.152286459409184,-1.6101484757044406,2.3981353059037707,-0.0255075707623405,0.0821304804548187,0.0523194802473462,-0.6241037701803512,0.6857054844290211,-0.1926786952258289,2.153330879791416,-1.614527738015538,2.3983878140310586,-0.8615597298442184,0.8906137227012966,-0.2567426635668998,0.6088716222908381,-0.251629648973356,0.4534531102436179,-0.3190414534179092,9.807713317462913,-1.0209778540148178,0.3091985348307516,-0.7805796483348506
0.96,2.1397433305672457,-1.5963115790540432,2.394215307426994,-0.0284563170181819,0.0807560202804888,0.0524244685484191,-0.6300298648523356,0.697478482428343,-0.1989910425719497,2.1366996852034723,-1.5973154635704527,2.393449013273737,-0.9015597304402648,0.9306137232973428,-0.2698128311680084,0.7306979693612059,-0.2963047335992175,0.5886498999660927,-0.3156173673060397,9.806280944580068,-1.021679685673883,0.3115663638654427,-0.7786260079928442
0.98,2.127071043290087,-1.5822236675360342,2.390170817195876,-0.0306645316785868,0.0793628018520052,0.0525819146451468,-0.6369373249731473,0.7104657569366309,-0.2051334674271597,2.119068490600627,-1.5791031891104663,2.388183458326388,-0.9415597310363112,0.9706137238933892,-0.2828829987691169,0.7970440508154663,-0.3453730060405835,0.649363725414398,-0.3071212427604983,9.806280944580068,-1.0225530694067586,0.3134409553563831,-0.7765624735701793
1.0,2.114896351012889,-1.5685928284083046,2.386214876259695,-0.0318430392146296,0.0783596881848323,0.0527833790578697,-0.6442175143665722,0.7235142777036594,-0.2109644024303235,2.095224177041429,-1.5467003796892027,2.379914143824518,-0.7369373264632634,0.8104657584267471,-0.233029657489325,0.8019739004837221,-0.3640094696712448,0.6524260383514224,-0.2915467501581906,9.820150022310372,-1.0235554270619829,0.314756670629738,-0.7746140278816932
1.02,2.101904933067652,-1.553930330055603,2.382028941006662,-0.0305906256916676,0.0787030689705195,0.0531178789104082,-0.6543205526139808,0.7416304985427358,-0.2067557533910656,2.095224177041429,-1.5467003796892027,2.379914143824518,-0.7369373264632634,0.8104657584267471,-0.233029657489325,1.0582787511502278,-0.5051519123704329,0.905811041953819,0.2104324519628969,9.820150022310372,-1.0269340401184597,0.3148470454253468,-0.7703821303509362
1.04,2.088730233051951,-1.538938213808896,2.3779303821083224,-0.0264894230483718,0.0808401653434432,0.0535872958066851,-0.6624038162010532,0.7560160955087674,-0.2033335005705958,2.095224177041429,-1.5467003796892027,2.379914143824518,-0.7369373264632634,0.8104657584267471,-0.233029657489325,0.8426095843485293,-0.4041631793536171,0.7192798483015794,0.1711126410234908,10.486063454013674,-1.028111549158672,0.3140806961302225,-0.7680940469936738
1.06,2.076082258431371,-1.5244705262156593,2.3740737049910057,-0.0220555502076217,0.0835707116585835,0.0540481546498284,-0.6684516723488529,0.7661416515631915,-0.2027975632508592,2.0878548037767968,-1.5385957221049351,2.3775838472496247,-0.7569373267612866,0.8304657587247702,-0.238608895501758,0.5903191471705176,-0.3023928073899895,0.5062778027212056,0.0267968659868264,10.33700147693162,-1.0271474212127285,0.3122779925399897,-0.7692295584121652
1.08,2.0626599395916525,-1.5090562212689216,2.3699999662330518,-0.0179009261363648,0.0865159961300322,0.0544935664729199,-0.6733921369554499,0.7748365029438803,-0.2047242775339497,2.073116057247532,-1.5223864069364004,2.372923254099838,-0.796937327357333,0.8704657593208167,-0.2497673715266241,0.5092171908674332,-0.2470232303298458,0.4347425690344408,-0.0963357141545245,10.010656405130248,-1.0252253712563864,0.3101356313930431,-0.7722446978932446
1.1,2.0491504789758284,-1.4934790425905482,2.3658638785795287,-0.0146113088163612,0.0890563363994067,0.0548816581855905,-0.6772916625477902,0.7825752734311644,-0.2088841663580726,2.0583773107182664,-1.5061770917678654,2.368262660950052,-0.8369373279533795,0.9104657599168632,-0.2609258475514903,0.4806234064453138,-0.1949762796170151,0.3869385243642054,-0.207994441206144,10.010656405130248,-1.022881760483334,0.308155002245854,-0.7759428863427318
1.12,2.035571299782804,-1.4777534248002713,2.361625007208665,-0.0122262412231184,0.0908886209157482,0.0552097402794887,-0.6804936282905503,0.7898098748771767,-0.2147979332457774,2.0416385641591988,-1.487967776569528,2.363044143999022,-0.876937328549426,0.9504657605129097,-0.2720843235763563,0.4938741780619979,-0.1600982871380052,0.3617300723006145,-0.2956883443852379,9.891643525455947,-1.0207188960642235,0.3065335790092883,-0.7794272206127282
1.14,2.022615932635125,-1.4626833870304177,2.357481590925123,-0.0107347424938833,0.0918537722148245,0.0554679699806845,-0.6831503306257436,0.7962893855030829,-0.2210610445849979,2.024899817600131,-1.469758461371191,2.357825627047992,-0.9169373291454724,0.990465761108956,-0.2832427996012225,0.4697570885482365,-0.1328351167596664,0.3239755312953118,-0.3131555669610264,9.806602689675856,-1.0190279956714563,0.3051657868151873,-0.7823808396368093
1.16,2.008920721343188,-1.4466820459537706,2.3529878421102994,-0.0097572209606552,0.0921635362595385,0.0556955515505866,-0.6862824467236793,0.8034940806999071,-0.2280006216238634,2.0071610710261627,-1.4505491461579525,2.3523281481963405,-0.9569373297415188,1.0304657617050024,-0.2944012756260886,0.5241076072917631,-0.1566058048967866,0.3602347598412103,-0.3469788519432734,9.77548915776788,-1.0176794151058624,0.3042144245076082,-0.7846401734455601
1.18,1.9951585568422536,-1.4305341896019188,2.3483535875063435,-0.0090883875079732,0.0920187494479936,0.0558950419437132,-0.6898145623705891,0.8108958966609362,-0.2350831269881768,1.9884223244372927,-1.4303398309298128,2.346551707444067,-0.9969373303375652,1.0704657623010487,-0.3055597516509547,0.5418131659059667,-0.1766057823454903,0.3700907980514534,-0.3541252682156728,9.760708759786212,-1.0168622945484993,0.3034755193365124,-0.786185122640371
1.2,1.981321591356758,-1.41423649895672,2.343576604831456,-0.0085140303342332,0.0916514557285217,0.0560789556852618,-0.6937235491996216,0.8184336114895585,-0.242262442392125,1.9606678287237245,-1.389989394768872,2.3365994311569347,-0.7898145638607053,0.9108958981510524,-0.285885048624043,0.5559673833431,-0.1954493414516256,0.3768857414311155,-0.3589657701974072,9.75698175411526,-1.0162933858365126,0.3027381711731061,-0.7874716006321036
1.22,1.9680750899815544,-1.3985921284670706,2.338959953442581,-0.0072080324515173,0.0922061827949533,0.0562887927965967,-0.7003023808536271,0.8277594179300853,-0.2430058970520539,1.9606678287237245,-1.389989394768872,2.3365994311569347,-0.7898145638607053,0.9108958981510524,-0.285885048624043,0.5718487923596702,-0.3289415827002706,0.4662903220263414,-0.037172732996446,10.163815101533146,-1.016457458853622,0.3017501334406752,-0.7880391022259621
1.24,1.954014697636136,-1.3819625464517231,2.334076931176727,-0.0051190664065844,0.0943134862023162,0.0565383105653148,-0.7051973794044739,0.834659273109959,-0.2454209861458181,1.9606678287237245,-1.389989394768872,2.3365994311569347,-0.7898145638607053,0.9108958981510524,-0.285885048624043,0.4398910877900382,-0.2447499275423426,0.3449927589936841,-0.12075445468821,10.163815101533146,-1.0159193950664698,0.3008152704521431,-0.7890149493290785
1.26,1.939873487541649,-1.3652083983177086,2.3291146662225697,-0.0034139860214196,0.0969138923936574,0.0567501538122669,-0.7085910749493155,0.8404875884597371,-0.2508160102739337,1.9527696830851171,-1.3808804357873614,2.3337405806706943,-0.8098145641587284,0.9308958984490756,-0.2960454329512162,0.4318353697026395,-0.1696847772420795,0.2914157674889062,-0.2697512064057786,10.002197293913014,-1.0135983314818084,0.2996420440379425,-0.7924454965671076
1.28,1.925677722240296,-1.3483460474924984,2.324015623846713,-0.0024312069483804,0.0993678436086261,0.056903709597287,-0.7108057366734506,0.845573852996303,-0.2588180210604102,1.9369733918079035,-1.3626625178243403,2.328022879698213,-0.8498145647547749,0.970895899045122,-0.3163662016055627,0.4868444056245388,-0.1107330862067546,0.2543132268282955,-0.4001005393238277,9.835850263501923,-1.010826662193827,0.2985607125358938,-0.7966289577505317
1.3,1.9121592360202428,-1.3322377959071994,2.31900557691698,-0.002430345123785,0.1011895262756287,0.0569772049626848,-0.7121223914159711,0.849903143157598,-0.2681622118170572,1.9211771005306888,-1.3444445998613193,2.3223051787257325,-0.8898145653508214,1.0108958996411683,-0.3366869702599092,0.5191103782152064,-0.0658327371260258,0.2164645080647453,-0.4672095378323498,9.707038149939764,-1.007828368419041,0.297819928154969,-0.8011024071359525
1.32,1.8979074511642096,-1.315195443351094,2.313526577124464,-0.0036575425216274,0.1023469014225139,0.0569617642661254,-0.7130347303936492,0.8542212891190328,-0.2793102657381754,1.9033808092236728,-1.324226681868496,2.3155714393205344,-0.9298145659468678,1.050895900237215,-0.3570077389142556,0.5994953152081449,-0.0456169488839031,0.2159072980717435,-0.5574026960559086,9.614436030153229,-1.0050867067239333,0.2977488529938963,-0.8051195510782628
1.34,1.883639778064777,-1.2980631647112992,2.307818524610876,-0.0062508098007824,0.1026241215133818,0.0568472376179179,-0.7137728569070615,0.8590702623480782,-0.2909565171997412,1.8855845179166564,-1.3040087638756723,2.308837699915336,-0.9698145665429144,1.0908959008332613,-0.3773285075686021,0.6318475789931951,-0.0369063256706159,0.2424486614522658,-0.5823125730782919,9.529678575952856,-1.0028874897707492,0.2984014502431936,-0.8083062646093602
1.36,1.869351622295407,-1.2808032525125943,2.3018776184776035,-0.009305111902789,0.1021512174747183,0.0567017996384164,-0.7150828457010975,0.8666751905542406,-0.3025531427061235,1.8667882265947389,-1.282790845867948,2.301595941293779,-1.009814567138961,1.1308959014293076,-0.3976492762229486,0.6964781525587527,-0.0654994397017993,0.3802464103081215,-0.5798312753191148,9.529678575952856,-1.0017528271477611,0.2998657410451113,-0.8096487407825633
1.38,1.8557479431572488,-1.2642494834497444,2.2960208632180006,-0.0117201632322044,0.1012622746118653,0.0566001141957257,-0.7168591575532284,0.8752622975377392,-0.3133665555456457,1.84699193525792,-1.2605729278453224,2.293846163455864,-1.049814567735007,1.170895902025354,-0.417970044877295,0.6961026996428312,-0.0888155926065448,0.4293553491749313,-0.5406706419761098,9.539514654236882,-1.0014621616637662,0.301237955500211,-0.8098255383138596
1.4,1.8413863052572976,-1.246643346170829,2.2896334599784125,-0.0135221453589666,0.1000737333027507,0.0565456021176123,-0.719257584131119,0.8847712340533184,-0.3248061744198857,1.8199049852795877,-1.2204863685728575,2.280352535440718,-0.8168591590433445,0.9752622990278552,-0.3466984750071344,0.7533876885354489,-0.1199213288945288,0.4754468257789579,-0.5719809437119999,9.554357446575525,-1.0015378972190423,0.3021814427708492,-0.8096148873766127
1.42,1.8269538045499711,-1.2287978755558766,2.283172289293328,-0.0130746540937186,0.0997654495989568,0.0566302423379845,-0.7236744480381457,0.8988951400230041,-0.3198902195051997,1.8199049852795877,-1.2204863685728575,2.280352535440718,-0.8168591590433445,0.9752622990278552,-0.3466984750071344,0.7796794523022674,-0.220843195351339,0.7061952984842856,0.2457977457343024,10.580331734037827,-1.0046390483581318,0.3012639490664958,-0.8076846102784665
1.44,1.812448756823006,-1.2106939171092157,2.276820477401793,-0.0097777568014476,0.1008717357742966,0.0568844244073435,-0.7264566078650092,0.9103652933371578,-0.3156100910583415,1.8199049852795877,-1.2204863685728575,2.280352535440718,-0.8168591590433445,0.9752622990278552,-0.3466984750071344,0.6277426420795561,-0.1391079913431736,0.5735076657076843,0.2140064223429105,10.4091648597514,-1.0060795741722934,0.3011512513151443,-0.8042276219359958
1.46,1.7986308691880937,-1.1933196480874793,2.270833625785753,-0.0057030965615266,0.1023529305306564,0.057178366505727,-0.727871777225523,0.9177947439526328,-0.3147917222192587,1.811736393689154,-1.210733745582579,2.276885550690647,-0.8368591593413677,0.9952622993258784,-0.3533648588994322,0.3803589368067399,-0.0707584680256889,0.3714725307737532,0.040918441954138,10.4091648597514,-1.0056583711319198,0.2995665195353335,-0.8039912823056963
1.48,1.7840670166583008,-1.1749040645542204,2.264518816840733,-0.0017604904808053,0.1037727334437828,0.057455679235093,-0.7284347196929686,0.923436288691698,-0.3168675999625851,1.7953992105082872,-1.191228499602022,2.269951581190504,-0.8768591599374141,1.035262299921925,-0.3666976266840277,0.3018824260774625,-0.0281471233722796,0.2820772369532598,-0.1037938871663202,10.029653933708689,-1.0044556363983372,0.2976480476693353,-0.8052006571055014
1.5,1.7694985528878988,-1.1563884321703093,2.2581330666194077,0.0013493841593774,0.104636178777054,0.0576658182567021,-0.7284632855164173,0.9280440347117532,-0.3215956946958656,1.7790620273274202,-1.1717232536214648,2.263017611690361,-0.9168591605334606,1.0752623005179711,-0.3800303944686232,0.330102329583109,-0.0014282911724339,0.2303873010027601,-0.2364047366640226,10.029653933708689,-1.0031406651162194,0.2958517914343967,-0.8069166792120956
1.52,1.7556601490213934,-1.1387184489551183,2.251961756705301,0.0034931091054741,0.1047588809585915,0.0577972780254343,-0.7283129675900286,0.9319193100767884,-0.327777126515635,1.7607248441167511,-1.1502180076111053,2.255417003800989,-0.9568591611295072,1.1152623011140177,-0.3933631622532186,0.3648645432770288,0.0075158963194321,0.1937637682517645,-0.3090715909884745,9.801523186675697,-1.0022501473948344,0.2941896740227382,-0.8083731614954797
1.54,1.7410973375836685,-1.1200433420469669,2.245332341288308,0.004881874029056,0.1040506550858349,0.0578603313147392,-0.7280319265231205,0.9354794438838612,-0.3348590717410618,1.7423876609060818,-1.128712761600746,2.2478163959116166,-0.9968591617255536,1.1552623017100645,-0.4066959300378142,0.3965711946848088,0.0140520533454036,0.178006690353627,-0.3540972612713383,9.801523186675697,-1.0020666630006878,0.2927692790018916,-0.8092750112977373
1.56,1.7265355416088428,-1.1012921910841256,2.2385601047501,0.0055362221496584,0.1024788674277435,0.057856683447918,-0.7282405113578535,0.9394599653589508,-0.3420059508353975,1.7230504776805111,-1.1062075155754854,2.2398824688276293,-1.0368591623216,1.1952623023061106,-0.4200286978224096,0.4091635969755375,-0.010429241736648,0.199026073754488,-0.357343954716785,9.773427470311615,-1.0025588364311449,0.2919580746804313,-0.8090615492591751
1.58,1.7119626494409474,-1.0824588477274608,2.2316464009329318,0.0057674129202777,0.1002258507390307,0.0578098000746735,-0.7291265523147613,0.9436466528807134,-0.3490014509942952,1.7027132944400398,-1.0827022695353234,2.231615222549027,-1.0768591629176465,1.235262302902157,-0.4333614656070051,0.410031838566648,-0.0443020478453903,0.2093343760881272,-0.3497750079448858,9.772720369204762,-1.0038882227405628,0.2915302104068552,-0.8076204279752758
1.6,1.6980937563214846,-1.064487657276102,2.224950491403412,0.0057628676847176,0.0976531461841893,0.0577391562714356,-0.7307923144438608,0.947809131272698,-0.3554757866587287,1.6755063218252093,-1.035276515083425,2.2141963283832164,-0.8291265538048774,1.0436466543708294,-0.3785515246626559,0.3937575781183052,-0.0832881064549762,0.2081239195992346,-0.3237167832216753,9.788147528977788,-1.0058290199965938,0.2913860206623695,-0.8052617203251976
1.62,1.683413655906498,-1.0454584370943965,2.2178714107905733,0.0065677918838189,0.0961860206287421,0.0577197244383365,-0.7371570372662927,0.954636516462924,-0.3515461499545592,1.6755063218252093,-1.035276515083425,2.2141963283832164,-0.8291265538048774,1.0436466543708294,-0.3785515246626559,0.5063717255358403,-0.3182361411215917,0.3413692595112982,0.1964818352084757,9.788147528977788,-1.0082740068634604,0.2897717432576914,-0.8041838555255706
1.64,1.6686175801833243,-1.0263176211380434,2.210876477686448,0.0082877527964755,0.0971925905176691,0.0577696575289552,-0.7418673360720673,0.95909608448912,-0.3482973099603043,1.6755063218252093,-1.035276515083425,2.2141963283832164,-0.8291265538048774,1.0436466543708294,-0.3785515246626559,0.362731385215771,-0.2355149402887335,0.2229784013097924,0.1624419997127452,10.337783040269642,-1.0092721273409977,0.2894307970437171,-0.8026313575601961
1.66,1.6544925599580065,-1.0080632772707323,2.204264079203361,0.0098396669850857,0.0992275773476743,0.0578128468978068,-0.7446343213267113,0.9622732100104928,-0.3479001532997887,1.6672150562871606,-1.0248400485397169,2.21041081313659,-0.8491265541029006,1.0636466546688526,-0.3844615393963281,0.2115896228018291,-0.1383492627321958,0.1588562760686473,0.0198578330257825,10.337783040269642,-1.0083459477381125,0.2888507262265694,-0.8035142280666826
1.68,1.6395837723365294,-0.9887928397335226,2.1972889682430576,0.0109125443444535,0.1016334110237765,0.0578153879440614,-0.7460289057736383,0.9646701099384768,-0.3497356804251578,1.650632525211063,-1.0039671154523002,2.202839782643337,-0.8891265546989471,1.1036466552648991,-0.3962815688636724,0.166276538275447,-0.0697292223463541,0.1198449963991987,-0.0917763562684581,10.044836024998403,-1.0064956834445886,0.288242780207316,-0.8057850435986567
1.7,1.6246603738932053,-0.9694824655898064,2.190255105136995,0.0109460204954321,0.1036643963420664,0.0577346125269574,-0.7462771539335459,0.9664145671183622,-0.3535538403422197,1.6340499941349655,-0.9830941823648836,2.1952687521500835,-0.9291265552949936,1.1436466558609455,-0.4081015983310166,0.2102564098524043,-0.0124124079953769,0.087222858994268,-0.1909079958530929,10.044836024998403,-1.004485700524364,0.2880800202675595,-0.8082454642741896
1.72,1.609739489669192,-0.9501390962221176,2.1831327517517525,0.0096839369603829,0.1049661275544478,0.0575488468074674,-0.7458425969677103,0.96796232777397,-0.3585411001880527,1.6154674630290655,-0.9602212492476648,2.187106720183463,-0.96912655589104,1.183646656456992,-0.4199216277983609,0.2619979178040435,0.0217278482917804,0.0773880327803899,-0.249362992291649,9.94596774229558,-1.0029921704874,0.2886488348050143,-0.8099065848847488
1.74,1.595577564675517,-0.9317324866749852,2.1762706658853337,0.0071120092223717,0.1053084793409178,0.0572639416961855,-0.7450410196446738,0.9698411844613728,-0.3635267919434537,1.596884931923166,-0.9373483161304458,2.1789446882168426,-1.0091265564870866,1.2236466570530384,-0.4317416572657052,0.2693963202072315,0.0400788661518214,0.0939428343701476,-0.2492845877700517,9.88327785969068,-1.0019788713703095,0.2900419373217603,-0.8108788941235858
1.76,1.5806816070506806,-0.9122880732008012,2.168947348215347,0.0038187491323629,0.1047891428762505,0.0569169336974399,-0.7446706982574834,0.9745959212228572,-0.3685275065672788,1.5773024008023648,-0.9134753829983258,2.170487155513539,-1.049126557083133,1.2636466576490848,-0.4435616867330495,0.3455134091093979,0.0185160693595198,0.237736838074215,-0.250035731191256,9.875925843072764,-1.0019997677676775,0.2922683293101694,-0.8099722331032488
1.78,1.5657880732529708,-0.892729128805055,2.16152890395709,0.000921999274381,0.1035435650008015,0.0565978459560883,-0.7447622577821887,0.9809721782125862,-0.3730412395758308,1.5567198696666626,-0.8886024498513045,2.1617341220735518,-1.089126557679179,1.3036466582451312,-0.4553817162003938,0.3906367302818696,-0.0045779762352649,0.3188128494864495,-0.2256866504276006,9.89103917198554,-1.0030097263893216,0.2944740923687527,-0.8076767253461626
1.8,1.550887174126158,-0.8730328714388569,2.154024690671785,-0.0012107459670147,0.1017101740975145,0.0563351761801489,-0.7453931300291058,0.9881177074134252,-0.3771481200976076,1.5285499603638613,-0.8436805198944256,2.1428768419782998,-0.8447622592723049,1.0809721797027023,-0.4099667603237308,0.4132888063210784,-0.0315436123458523,0.3572764600419442,-0.2053440260888384,9.918003735378988,-1.0046376158455288,0.2962423870611545,-0.8046326631862301
1.82,1.5366743561915583,-0.8541368080053553,2.1469018499023944,-0.0008525324485154,0.1009797594965008,0.0562500017528355,-0.7503467274344786,0.9997865313431796,-0.3724012855383227,1.5285499603638613,-0.8436805198944256,2.1428768419782998,-0.8447622592723049,1.0809721797027023,-0.4099667603237308,0.6768161077636743,-0.2476798702686411,0.5834411964877217,0.2373417279642464,9.936648503907236,-1.0064227006445805,0.295464416824896,-0.8035052980908959
1.84,1.5216313442858034,-0.8340448560499081,2.139490973168914,0.0023400070033959,0.1021129170614955,0.0563482868986914,-0.7534839809331719,1.0084595784048067,-0.3690666676173142,1.5285499603638613,-0.8436805198944256,2.1428768419782998,-0.8447622592723049,1.0809721797027023,-0.4099667603237308,0.4903666524330902,-0.1568626749346657,0.4336523530813596,0.166730896050421,10.497558519909944,-1.0076781800760517,0.2949273269435409,-0.8007859571155658
1.86,1.5065438139211216,-0.8138183889617487,2.1321107283708978,0.0064484274327106,0.1039942352117774,0.0565071138691202,-0.7550220278957976,1.0136177959476087,-0.3691161677120403,1.5201023377711382,-0.8328707980973986,2.138777174375062,-0.864762259570328,1.1009721800007255,-0.4173518644733108,0.2691433026172595,-0.0769023481312858,0.2579108771400995,-0.0024750047363047,10.336672805032322,-1.006961818276437,0.2932400797970693,-0.8012078091010642
1.88,1.492194428476054,-0.7945301393864396,2.1250706511675928,0.0099873769665769,0.1058020424913517,0.0566296719867365,-0.7553617565403923,1.016599742943143,-0.3719410719483689,1.503207092585692,-0.8112513545033445,2.1305778391685872,-0.9047622601663744,1.140972180596772,-0.4321220727724709,0.2060795197281939,-0.0169864322297319,0.1490973497767167,-0.1412452118164264,10.143473334278497,-1.0053994206910584,0.2910880395153929,-0.8032006659428266
1.9,1.4770914881724506,-0.7741762933179098,2.117579343267293,0.0129021538764351,0.1072526127384849,0.0566935217789006,-0.754937394269301,1.0187746015226304,-0.3771413468393934,1.486311847400246,-0.7896319109092905,2.122378503962113,-0.944762260762421,1.1809721811928184,-0.4468922810716308,0.2826347117752701,0.0212181135545663,0.1087429289743702,-0.2600137445512268,9.85793013057264,-1.0036937052149149,0.2890795793668346,-0.8055903666903566
1.92,1.4620020178955098,-0.7537838610381152,2.109965408121109,0.0149049490691297,0.1079485554865132,0.0566781613552914,-0.7540980574972029,1.0205138407712655,-0.384056852845857,1.4674166021849977,-0.7660124672854342,2.11344065834068,-0.9847622613584672,1.2209721817888648,-0.4616624893707908,0.3590043965831834,0.041966838604901,0.086961962431753,-0.3457753003231784,9.85793013057264,-1.00228410588166,0.2873882586511802,-0.8077152868513255
1.94,1.446932463649704,-0.7333625537484746,2.102203616735557,0.0159282178649878,0.1077179701583258,0.0565739868730509,-0.7530164989363947,1.0216859539778158,-0.391769501482427,1.448521356969749,-0.7423930236615778,2.104502812719248,-1.0247622619545138,1.2609721823849114,-0.4764326976699509,0.393791084461712,0.0540779280404135,0.0586056603275153,-0.3856324318285004,9.77099800987071,-1.0016001915726709,0.2861354952867154,-0.8090745262128628
1.96,1.4326321571565654,-0.7139357212660682,2.094685486538338,0.0161206183815581,0.1066863412513637,0.0564023187407123,-0.7524062533016571,1.0232028591241005,-0.3992244282917652,1.4286261117395995,-0.7177735800228202,2.095195711890336,-1.0647622625505602,1.3009721829809575,-0.4912029059691108,0.3816062587606812,0.0305122817368774,0.075845257314222,-0.372746340466909,9.737311305699222,-1.0015335193739368,0.2852864016703784,-0.8096419373282843
1.98,1.4175865653386397,-0.6934529909047098,2.086618383305868,0.0157281325602622,0.1049005148067338,0.0561650085551653,-0.7522601027032358,1.025003642651104,-0.4070916818858832,1.407730866494549,-0.6921541363691616,2.085519355853945,-1.1047622631466063,1.340972183577004,-0.505973114268271,0.4036020949608335,0.0073075299210634,0.0900391763501873,-0.3933626797058998,9.732195158284412,-1.0021928135530462,0.2848657730799656,-0.8092214988821295
2.0,1.4025371400632234,-0.6729299517453381,2.078395910458453,0.0148994798730405,0.1025338778752474,0.0558866184956547,-0.7527782107624206,1.0272003999937176,-0.4147575217260809,1.3799735602034775,-0.6422028087721546,2.066263799211574,-0.852260104193352,1.12500364414122,-0.4526177207411974,0.3995600056276968,-0.0259054029592364,0.1098378671306798,-0.3832919920098876,9.741088744129229,-1.0034760824088955,0.2847796295910107,-0.8079396594211019
2.02,1.3874292099520564,-0.6523259493049073,2.0701249885226014,0.0150009777530813,0.1013065647368909,0.0556881388634503,-0.7579717147689642,1.03279076390289,-0.4113996312009756,1.3799735602034775,-0.6422028087721546,2.066263799211574,-0.852260104193352,1.12500364414122,-0.4526177207411974,0.4168335437604358,-0.2596752003271807,0.2795181954586168,0.1678945262552661,9.741088744129229,-1.0047169135802776,0.2825993026771915,-0.8092357557871266
2.04,1.3729917719252056,-0.6326725221089411,2.0623289708801398,0.0162340362357741,0.1023551912380278,0.0556071336755672,-0.7612807141881935,1.0357591155393115,-0.4094631831483271,1.3799735602034775,-0.6422028087721546,2.066263799211574,-0.852260104193352,1.12500364414122,-0.4526177207411974,0.2424377221809405,-0.1654499709614676,0.1484175818210809,0.0968224026324238,10.442586621693408,-1.0053804646744269,0.2823936068329606,-0.8079865351290639
2.06,1.3577458014734365,-0.6119350820935995,2.054131149549129,0.0176912861395537,0.1044955086941872,0.0555460539304106,-0.7630169758141072,1.0378574673325662,-0.4105689171640583,1.3714509591615442,-0.6309527723307424,2.061737622004162,-0.8722601044913751,1.1450036444392433,-0.4617229285122602,0.1469722116202625,-0.0868130812956835,0.1049175896627341,-0.0552867007865581,10.274018268260988,-1.0041259994222258,0.2818463979844895,-0.8091293693267432
2.08,1.3424809003943583,-0.5911657153316768,2.045877494237147,0.0187994539781988,0.1068098945264891,0.0554609933513965,-0.7633565913569664,1.0390862428565155,-0.4147331442841008,1.354405757077677,-0.608452699447918,2.052685267589338,-0.9122601050874216,1.18500364503529,-0.479933344054386,0.2177499455367691,-0.0169807771429608,0.0614387761974755,-0.2082113560021248,10.082416842541534,-1.0021335097696946,0.2811845200558105,-0.81141342650785
2.1,1.3279832973825478,-0.5714189206602962,2.0379376903149207,0.0191596390058922,0.1086312174335563,0.0553221733679761,-0.7627266317360304,1.039592070154754,-0.4208270573156756,1.33736055499381,-0.5859526265650936,2.0436329131745143,-0.952260105683468,1.2250036456313362,-0.4981437595965117,0.3073617022989797,0.0314979810468019,0.0252913649119057,-0.304695651578743,9.924953877495682,-0.999849566372275,0.2805532524265512,-0.814308688013174
2.12,1.31274217373047,-0.5506272887225139,2.0294382490740444,0.0184550813898625,0.1098076556239005,0.0550834831349676,-0.7614696331554346,1.0396621038742888,-0.4288679534958232,1.3183153528801408,-0.5614525536524669,2.033670037982584,-0.9922601062795146,1.2650036462273826,-0.5163541751386374,0.4069427525260886,0.0628499290297901,0.0035016859767478,-0.4020448090073791,9.807039561602323,-0.9978070279763632,0.2803091642605024,-0.8170721863598162
2.14,1.2975299890297511,-0.5298350138281679,2.020770695497544,0.0163688629843822,0.1100334405292,0.0547298747278506,-0.7598959858477824,1.0397105877824186,-0.4374967464406541,1.2992701507664717,-0.5369524807398401,2.0237071627906538,-1.032260106875561,1.3050036468234292,-0.5345645906807631,0.4385623793230349,0.0786823653826096,0.0024241954064918,-0.4314396472415466,9.720613935091023,-0.9964077861280572,0.2807653398696377,-0.8190920652985699
2.16,1.2823456430559623,-0.5090195327451821,2.0119315387071954,0.0133702397960299,0.1093366927668608,0.0543007440129383,-0.7587140342548356,1.0420452950079933,-0.4459829783363072,1.2792249486379008,-0.5114524078123124,2.0132890272101704,-1.0722601074716074,1.3450036474194755,-0.5527750062228888,0.4440270239073802,0.059097579647338,0.1167353612787303,-0.4243115947826503,9.70828544469623,-0.9957829915103086,0.2819061274055498,-0.8198544615842439
2.18,1.2679380660727504,-0.4891817478559276,2.003380644348442,0.0106874501216202,0.1079601600645187,0.0539012377266926,-0.7579974163310587,1.0459335361847757,-0.453685871222347,1.258179746494429,-0.4849523348698833,2.0024156312411336,-1.1122601080676535,1.385003648015522,-0.5709854217650145,0.4329160412577302,0.0358308961888487,0.1944120588391107,-0.3851446443019907,9.728574343599576,-0.9962164245805368,0.2833836842052687,-0.8189859035536787
2.2,1.2527815875704,-0.4682123248960528,1.9942230058158457,0.0083912696772828,0.1058583513797466,0.0535182596513741,-0.7577615469116992,1.0507185139100716,-0.4616651585082414,1.2300381952561974,-0.4368850710466888,1.9806963507873248,-0.8579974178211748,1.1459335376748916,-0.5099001255718172,0.4653511357174462,0.0117934709679745,0.239248886264809,-0.3989643642947238,9.728574343599576,-0.9974195568956208,0.2847012920644389,-0.8170537074676382
2.22,1.2375850707274365,-0.447093587989513,1.98502807926825,0.0083909928952814,0.1047249816706935,0.0533071612286893,-0.7618574759326775,1.060406306241806,-0.4567792855965556,1.2300381952561974,-0.4368850710466888,1.9806963507873248,-0.8579974178211748,1.1459335376748916,-0.5099001255718172,0.5798743590573016,-0.2047964510489164,0.4843896165867112,0.2442936455842925,9.733709882971198,-0.9989852700294736,0.2827247293134732,-0.817839101288889
2.24,1.2223191688439534,-0.4258118503460902,1.975926766986232,0.0112188306666454,0.1057530907473335,0.0533079025395805,-0.7642976927815849,1.067056871394916,-0.4536638977726337,1.2300381952561974,-0.4368850710466888,1.9806963507873248,-0.8579974178211748,1.1459335376748916,-0.5099001255718172,0.3869441704525832,-0.1220108424453692,0.3325282576555066,0.155769391196095,10.555014289599969,-0.999998908930932,0.2823986162680604,-0.8153136215161413
2.26,1.207787442284703,-0.4055021907257961,1.967298262356643,0.014880481741469,0.1075820200306922,0.0533842562327579,-0.765142526553178,1.0703131133840147,-0.4547537212015453,1.2214582210779856,-0.4254257356699399,1.9755973495316064,-0.877997418119198,1.1659335379729148,-0.5211429764417113,0.1768090148960047,-0.0422416885796583,0.1628120994549342,-0.0544911714455781,10.341137325131967,-0.9990724154634112,0.2808238806821926,-0.8156411511134286
2.28,1.1924867665944707,-0.38408148843817,1.9581562768208125,0.0184094763834236,0.1096267172314646,0.0534438130061685,-0.7648408932407279,1.0716683657008443,-0.4595538229141342,1.204298272721562,-0.4025070649164421,1.9653993470201705,-0.9179974187152444,1.2059335385689611,-0.5436286781814993,0.2498432906276001,0.0150816656225072,0.0677626158414823,-0.2400050856294466,10.091750371027048,-0.9969896395682696,0.2785857559796818,-0.818197781304082
2.3000000000000003,1.177201158638241,-0.3626443043396616,1.9488848347195693,0.0211331375115354,0.1112589723919939,0.0534390138694277,-0.7637531351997551,1.072128253818909,-0.4674729462606561,1.1871383243651386,-0.3795883941629442,1.955201344508734,-0.9579974193112908,1.2459335391650077,-0.5661143799212873,0.4003349510543209,0.0543879020486415,0.0229944059032316,-0.3959561673260947,9.883275069738374,-0.9947309817671331,0.2763893641506415,-0.8214065795526543
2.32,1.1619429750996415,-0.3412041462811592,1.9394280083845703,0.02292159975067,0.1121386018278742,0.053350766725534,-0.7622184978230733,1.0720829739560402,-0.4778040367744204,1.1679783759789129,-0.3546697233796441,1.943879056910308,-0.9979974199073371,1.285933539761054,-0.5886000816610754,0.5222274249488482,0.0767318688340901,-0.0022639931434365,-0.5165545256882176,9.607085081727746,-0.9924732234317384,0.2741411975624308,-0.8250483575433254
2.34,1.1474786512101758,-0.3208417356111027,1.9302427115877905,0.0236757476110786,0.1121325032480525,0.0531787831402178,-0.7605216848394445,1.0714779705379782,-0.4885500166681951,1.148818427592687,-0.3297510525963439,1.9325567693118824,-1.0379974205033835,1.3259335403571006,-0.6110857834008635,0.5447964925425972,0.084840649181439,-0.0302501709031011,-0.5372989946887313,9.607085081727746,-0.9908333667681036,0.2722191327543903,-0.8282050183663776
2.36,1.1322836841934047,-0.2994153932825721,1.920348754902688,0.0235278618345807,0.1112771671636662,0.052909810786958,-0.7591296958795039,1.0712254346335022,-0.5002981106624096,1.12865847919156,-0.3038323817981426,1.920672339169962,-1.07799742109943,1.365933540953147,-0.6335714851406515,0.5916483756095022,0.0695994479970318,-0.0126267952238023,-0.5874046997107252,9.562611602665129,-0.9899158078856328,0.2709865923681533,-0.8303030076792234
2.38,1.1171124136680772,-0.2779900549694974,1.9102188481067135,0.0226460112247535,0.1096781665291289,0.0525723018480534,-0.7581461058315871,1.071345805988499,-0.5121031898860275,1.1074985307755318,-0.2769137109850401,1.908225766484547,-1.1179974216954764,1.4059335415491934,-0.6560571868804396,0.592329794374217,0.0491795023958352,0.0060185677498436,-0.5902539611808977,9.54169145124979,-0.9897437356342172,0.2702434011534849,-0.8314612374837067
2.4,1.102712902392616,-0.2576291055577022,1.9003777001753173,0.0213107248438362,0.1075694911438573,0.0522065084133508,-0.7577147498217525,1.0719155932866071,-0.5232152761805409,1.079205108376498,-0.2244227646700725,1.8846136886124123,-0.8581461073217033,1.1713458074786152,-0.5662887181941807,0.5567521607255264,0.0215678004917341,0.0284893649054152,-0.5556043147256662,9.54169145124979,-0.9902146538377156,0.2699567731838321,-0.8316794809493466
2.42,1.0875286044669317,-0.2361466132699116,1.8899566479737848,0.020797020651683,0.1062748992440596,0.0519059179957759,-0.7607232375788655,1.076006620361492,-0.5174320153049798,1.079205108376498,-0.2244227646700725,1.8846136886124123,-0.8581461073217033,1.1713458074786152,-0.5662887181941807,0.3848168638032024,-0.1504243878556521,0.2045513537442311,0.2891630437780512,9.547605030275918,-0.9914394034168376,0.2666969756657062,-0.8347917016270621
2.44,1.0722954075323357,-0.2146047490222351,1.879659088511036,0.0215799849153829,0.1070644360300206,0.0517372975039892,-0.762238629288138,1.077962114391474,-0.5128681271312762,1.079205108376498,-0.2244227646700725,1.8846136886124123,-0.8581461073217033,1.1713458074786152,-0.5662887181941807,0.2595642704413458,-0.0757695854636253,0.0977747014990981,0.2281944086851839,10.646975541115353,-0.9922841015478646,0.2672522481998552,-0.8325980113265541
2.46,1.057810698225513,-0.1941138100312141,1.869919023504744,0.022579899033694,0.1086031677003745,0.0516103755144637,-0.7623278735413124,1.0789504080799617,-0.5126162829165298,1.0706236473032809,-0.2127093065952863,1.8789508014304703,-0.8781461076197264,1.1913458077766383,-0.5771258238558113,0.05118873069169,-0.0044622126587179,0.049414684424387,0.0125922107373166,10.190051720952397,-0.9913834841608028,0.2672836063624809,-0.8326535017616556
2.48,1.0425736427274126,-0.1725326918558297,1.859637161713484,0.0234306391202612,0.1102690916323548,0.051462798572943,-0.7613484988201956,1.079168298205127,-0.5157342172005435,1.0534607251568469,-0.189282390445714,1.8676250270665868,-0.9181461082157728,1.231345808372685,-0.5988000351790725,0.1637693893134083,0.0489687360558377,0.0108945062582632,-0.1558967142006817,9.99559570915062,-0.9896938563782748,0.2667527681903635,-0.8343473012945575
2.5,1.0273646327544634,-0.1509549728988337,1.8492596841019504,0.0236116724024112,0.1114338750381085,0.0512560205565737,-0.7596698067638715,1.078739791750795,-0.5218449510842749,1.0362978030104129,-0.1658554742961417,1.8562992527027036,-0.9581461088118194,1.2713458089687313,-0.6204742465023338,0.317579491620416,0.0839346028162046,-0.021425322716595,-0.30553669418657,9.99559570915062,-0.9879403669153478,0.2663549142190068,-0.8363086158108284
2.52,1.0121925229065127,-0.1293893383882138,1.8387404426780452,0.0228241912807096,0.1118305777900621,0.0509635418734742,-0.7576982944968856,1.0779551050352751,-0.5298547183441741,1.0171348808341765,-0.1404285581167671,1.843889767772657,-0.9981461094078656,1.3113458095647776,-0.6421484578255952,0.4143035282801204,0.0985756133492943,-0.039234335775995,-0.4004883629949607,9.84583142512929,-0.9866437902265504,0.2664105482958077,-0.8377787939281063
2.54,0.9978185899211948,-0.1089186895047814,1.828590799491055,0.0208919767069583,0.1113038264955353,0.0505850795819969,-0.7555412614879994,1.0770771705085234,-0.5381160655763834,0.99797195865794,-0.1150016419373924,1.83148028284261,-1.0381461100039122,1.3513458101608242,-0.6638226691488563,0.4291661057382669,0.1078516504443127,-0.0438967263375889,-0.4130673616104641,9.74259057620111,-0.985979206916353,0.2669420389348791,-0.8388087927677423
2.56,0.982728390193,-0.0873687541108422,1.8177368358541484,0.0179961337695425,0.109735444759469,0.0501133172773504,-0.753677592226425,1.0782010328773866,-0.5468397925273701,0.9778090364668024,-0.0885747257431167,1.8185289426294815,-1.0781461105999586,1.3913458107568706,-0.6854968804721177,0.4495546175273279,0.0931834630787165,0.0561931184431596,-0.4361863475493388,9.715908320816196,-0.9861067152293372,0.2681863742144502,-0.8386437264506246
2.58,0.9676699589073258,-0.0657753587753804,1.8067117751867547,0.015211148102419,0.1071855692047121,0.0496439504758428,-0.7523620840433541,1.0810180359621004,-0.5552247139227476,0.9566461142607638,-0.0611478095339397,1.805035747133272,-1.118146111196005,1.431345811352917,-0.7071710917953788,0.4471380518522032,0.0657754091535456,0.1408501542356943,-0.4192460697688749,9.713386657689624,-0.9873749252942502,0.2695892057789287,-0.8368722823027832
2.6,0.9533813711206276,-0.0452007676006133,1.7960853421493992,0.0130313641406999,0.1039473889019167,0.0492309531498598,-0.7518662521315709,1.0844628497790223,-0.5629221250230503,0.930051854705158,-0.0117244569772753,1.778950539490617,-0.8523620855334703,1.152716515316482,-0.5823008670073834,0.4223823184185765,0.0247915955891631,0.1722406908460927,-0.3848705550151321,9.730107863860212,-0.9896508998614068,0.2709096097651708,-0.8337811223413496
2.62,0.9383145996324864,-0.0233261579436207,1.7849339423830262,0.0160393373926652,0.1010688881242092,0.0491756645753812,-0.7549608865434743,1.1010706192670523,-0.5507848609752846,0.930051854705158,-0.0117244569772753,1.778950539490617,-0.8523620855334703,1.152716515316482,-0.5823008670073834,1.0400816651543168,-0.1547317205951692,0.8303884744015111,0.6068632023882858,9.74206989970844,-0.993070526789076,0.2656327222942862,-0.8345712249276104
2.64,0.9231823753587256,-0.0012320383318198,1.7740416580574694,0.0249775048606803,0.1002980317936424,0.0495443646602828,-0.7578237757979343,1.1064748006569185,-0.5393103668544241,0.930051854705158,-0.0117244569772753,1.778950539490617,-0.8523620855334703,1.152716515316482,-0.5823008670073834,0.650125616145708,-0.1431444627229994,0.2702090694932879,0.5737247060430217,11.05320379596924,-0.996791938406896,0.2622939386079108,-0.8285973214761136
