t,x,y,z,roll,pitch,yaw,v_x,v_y,v_z,ref_x,ref_y,ref_z,ref_v_x,ref_v_y,ref_v_z,a_com,a_x,a_y,a_z,thrust,wind_x,wind_y,wind_z
0.0,0.0467264898202803,1.7911031507424084,1.880559077740888,0.0243095117021541,0.099555978606544,0.0416966729499502,0.001946252325758,-0.0075775051595419,-0.0003259915293067,0.0467860722032094,1.7908374024659932,1.8805473912382733,-0.0980235453607972,-0.1085215131585551,-0.1003727304052277,0.3915123019637523,0.0973126162879001,-0.3788752579770958,-0.0162995764653375,10.260925925330412,-0.940102936214366,0.2562236113389244,-0.8804102908856224
0.02,0.0469428591438471,1.7912519296644414,1.880444054857929,0.0313800722825832,0.0929516184265734,0.0420020904754505,0.0181977527263253,0.0166565581540711,-0.011233895131067,0.0467860722032094,1.7908374024659932,1.8805473912382733,-0.0980235453607972,-0.1085215131585551,-0.1003727304052277,1.5575489165216796,0.8125750200283667,1.2117031656806538,-0.5453951800880156,9.617660613489988,-0.952989338603572,0.2557547033195168,-0.8628282755364073
0.04,0.0473876321096663,1.7916091058938066,1.8800541592219773,0.0448371730219261,0.0769778312864131,0.0422847630570736,0.026479887835676,0.0190748642841493,-0.0291954042621268,0.0467860722032094,1.7908374024659932,1.8805473912382733,-0.0980235453607972,-0.1085215131585551,-0.1003727304052277,0.9963154329496486,0.4141067554675331,0.1209153065039094,-0.8980754565529915,9.617660613489988,-0.95610764923194,0.2450600401962645,-0.860127229056545
0.06,0.0479135799261767,1.791949932661161,1.8792548053537763,0.0595479852309495,0.054354466076591,0.0420209799819668,0.0246111883759509,0.0144632864974871,-0.0498531431019085,0.0458058367496014,1.7897521873344076,1.879543663934221,-0.1180235456588204,-0.1285215134565783,-0.1203727307032509,1.0624274814379513,-0.0934349729862513,-0.2305788893331123,-1.032886941989081,9.149793504792342,-0.9665384907608912,0.230313096596381,-0.8542134842072089
0.08,0.0483005743147668,1.792155602492449,1.8780351527188468,0.0737261279137321,0.0295519029942866,0.0411811722681664,0.0133885420854604,0.0059792353077342,-0.0711361306680505,0.0438453658423855,1.7875817570712365,1.8775362093261163,-0.1580235462548669,-0.1685215140526248,-0.1603727312992974,1.2756297210518832,-0.5611323145245277,-0.4242025594876417,-1.0641493783070992,9.05290069617513,-0.9805103458130292,0.2143581692187909,-0.8468815684167311
0.1,0.0483653029758188,1.792157607983483,1.8763843589511784,0.0872428977684035,0.0055516674249117,0.0399489329214856,-0.0067231337305947,-0.0056780495928992,-0.0929584709416633,0.0418848949351695,1.7854113268080654,1.875528754718012,-0.1980235468509134,-0.2085215146486712,-0.2003727318953438,1.5941975492406684,-1.0055837908027565,-0.5828642450316773,-1.0911170136806423,9.041279052106802,-0.996160788378023,0.1961682063936822,-0.8400964673967805
0.12,0.0479857036517476,1.7919158349413786,1.874407448620992,0.0994890352751036,-0.0145061709912703,0.0386396449805141,-0.0322977735798858,-0.0194497616121822,-0.1141144030434263,0.0379244239981513,1.781240896515092,1.871521300080105,-0.2380235474469598,-0.2485215152447177,-0.2403727324913903,1.7967301678726115,-1.2787319924645546,-0.6885856009641499,-1.0577966050881495,9.062964530851332,-1.0118322483749869,0.1774991108518006,-0.8342107025040488
0.14,0.047013535045284,1.7913517276559197,1.871882399938501,0.1117777011595884,-0.0316550399957269,0.0373240884776243,-0.0636581426704373,-0.0365253717143647,-0.1373591129127353,0.033963953061133,1.7770704662221186,1.8675138454421985,-0.2780235480430063,-0.2885215158407642,-0.2803727330874368,2.13035545553185,-1.568018454527578,-0.8537805051091215,-1.1622354934654486,9.102620175184256,-1.0256920909065803,0.1583061305963734,-0.8313550527696226
0.16,0.0453741184189228,1.7904191022976566,1.8688859324171627,0.1234642740087823,-0.0441627572055772,0.036260072770093,-0.0986345121372388,-0.0561557232231599,-0.1611610500211862,0.0290034821092136,1.771900035914244,1.8625063907893904,-0.3180235486390527,-0.3285215164368106,-0.3203727336834832,2.331967694647438,-1.7488184733400718,-0.9815175754397624,-1.1900968554225482,9.107796340982532,-1.036460316935803,0.1388671719732998,-0.8326947447046169
0.18,0.0430020123689793,1.7890679606159523,1.865410429033447,0.1345576895217483,-0.0514136706384748,0.0356556186201271,-0.1366974743856842,-0.0782257824517259,-0.1852425166731554,0.023043011142393,1.7657296055914682,1.8564989361216808,-0.3580235492350991,-0.368521517032857,-0.3603727342795296,2.5078843900730825,-1.903148112422271,-1.103502961428298,-1.2040733325984585,9.142148379347418,-1.0430602890118554,0.1228243527145047,-0.8354830456431971
0.2,0.0400278720471468,1.7873359586426814,1.8616593136966144,0.1439798851970301,-0.0528518852897956,0.0356697756524533,-0.1738139497139543,-0.1027755729758398,-0.2082942719308211,0.0361671386496951,1.7851566714933662,1.8561483031997887,-0.2249779957189018,-0.178225783941842,-0.2852425181632715,2.5058473497158955,-1.8558237664135044,-1.227489526205694,-1.1525877628832837,9.193567186164728,-1.04792049976106,0.1065700390718027,-0.8412000373995187
0.22,0.0360957600697692,1.784815307804285,1.857412511862395,0.147801012697096,-0.0474797611048046,0.0362444174102899,-0.2167909760926681,-0.1460593240639515,-0.2136243272063019,0.0361671386496951,1.7851566714933662,1.8561483031997887,-0.2249779957189018,-0.178225783941842,-0.2852425181632715,3.0614201744672167,-2.148851318935689,-2.164187554405585,-0.2665027637740416,9.223767515512918,-1.0524698299943516,0.0936751388260039,-0.8490222956651168
0.24,0.0313592039733943,1.781496490315948,1.8530987780150383,0.1444105752367891,-0.0352790400994206,0.0373077216142012,-0.2537605963667796,-0.1822444349743931,-0.2172127411919555,0.0361671386496951,1.7851566714933662,1.8561483031997887,-0.2249779957189018,-0.178225783941842,-0.2852425181632715,2.592774474257931,-1.848481013705576,-1.809255545522083,-0.1794206992826813,10.628744509675016,-1.0507746325288656,0.0949472647443313,-0.8531528681945189
0.26,0.0262420792675976,1.7777470071328865,1.848914460171569,0.1383321441467165,-0.0201992197559875,0.0385487326273463,-0.2824070884486921,-0.2099823661497864,-0.2228844944868246,0.0339173586925061,1.7833744136539478,1.8532958780181563,-0.2426340999855453,-0.1982257842398652,-0.3052425184612948,2.0138167244859884,-1.432324604095625,-1.386896558769665,-0.2835876647434551,10.112429173892451,-1.043089322098493,0.098251034601771,-0.8644792901407357
0.28,0.020336320160985,1.7732864128792396,1.8443657094306172,0.1313164063262438,-0.0029570793129819,0.039881678724806,-0.3060766045010528,-0.2343628873062894,-0.231828495982169,0.0294177987781281,1.779809897975111,1.847591027654891,-0.2779463085188324,-0.2382257848359117,-0.3452425190573412,1.756880022059256,-1.1834758026180363,-1.2190260578251482,-0.4472000747672178,10.112429173892451,-1.0320261492011218,0.1016461418424616,-0.8797822464078476
0.3,0.0140206391725149,1.7683740417346865,1.8395974649077265,0.1246836371680959,0.0138912822045212,0.0410616257663328,-0.3239670923272917,-0.2556193383864374,-0.2445518395687945,0.02491823886375,1.776245382296274,1.8418861772916253,-0.3132585170521195,-0.2782257854319581,-0.3852425196533877,1.5278986707295534,-0.894524391311946,-1.062822554007402,-0.6361671793312762,9.631770378678992,-1.019330955065046,0.1048543418991785,-0.8962602597841165
0.32,0.0077351029064496,1.763336355056295,1.834800304747863,0.1190844633762221,0.0284252433804278,0.0419444581628639,-0.3366198448527214,-0.2736737620992716,-0.2598248242427776,0.0186530685227076,1.7706808665876348,1.8341813268985576,-0.3485707255854065,-0.3182257860280045,-0.4252425202494341,1.3410056141978273,-0.6326376262714817,-0.9027211856417084,-0.763649233699154,9.631770378678992,-1.0073393381571485,0.1073786576865608,-0.9113450135045728
0.34,0.0008959987387977,1.7576804902520582,1.8294146378276708,0.1140938740586302,0.0414659379165728,0.0425837350359242,-0.3464710064184159,-0.2910374295163671,-0.2780934426119893,0.0123878981816652,1.7651163508789955,1.8264764765054904,-0.3838829341186936,-0.3582257866240511,-0.4652425208454806,1.3530380145110643,-0.4925580782847272,-0.868183370854772,-0.9134309184605838,9.443917799752851,-0.9949162756954744,0.1085737346875258,-0.9273492455429404
0.36,-0.0061155193971609,1.751680469116907,1.8236423770102543,0.1097802200661425,0.0519593832207832,0.0429173751690277,-0.3541304545407173,-0.3080491844861214,-0.298326245587428,0.0052399226272907,1.7585518351554552,1.8177716260975207,-0.4191951426519806,-0.3982257872200975,-0.505242521441527,1.3760752785840862,-0.3829724061150674,-0.8505877484877189,-1.011640148771933,9.249233954737065,-0.9834659764592806,0.1087597721554104,-0.9424323079997547
0.38,-0.0132637782477447,1.7453470613565223,1.8174473223422716,0.1058092990578726,0.0600373247576286,0.0429646315318672,-0.3603634987092578,-0.3243808031114176,-0.3202014755336142,-0.002790858140416,1.7509873194170138,1.8080667756746511,-0.4545073511852676,-0.4382257878161439,-0.5452425220375735,1.4000877577205846,-0.3116522084270268,-0.8165809312648098,-1.0937614973093115,9.183144994412942,-0.9741015221110167,0.1086846664867402,-0.954931742913148
0.4,-0.0201623422130342,1.7390348442527723,1.811144154841208,0.1022528420975808,0.0657482575238423,0.0427862338788834,-0.3655493796820112,-0.3391908502410639,-0.3422203621832368,-0.0312819531832076,1.7291280212009517,1.8014372485655907,-0.3771095223790967,-0.4243808046015337,-0.4050659354654646,1.3519081207083172,-0.2592940486376677,-0.7405023564823143,-1.1009443324811297,9.183144994412942,-0.9658563052834463,0.1085006425976249,-0.9662007114614304
0.42,-0.0275929743075733,1.7320782870287412,1.8043312778229497,0.0992442222436642,0.072776740701959,0.0427251867092867,-0.3767409537631711,-0.356014836534315,-0.3364270350469702,-0.0312819531832076,1.7291280212009517,1.8014372485655907,-0.3771095223790967,-0.4243808046015337,-0.4050659354654646,1.051023887118406,-0.5595787040579975,-0.8411993146625524,0.2896663568133312,9.12767617355803,-0.9610552217025056,0.1071282465154224,-0.9750988698156352
0.44,-0.0352096165766969,1.7247894370580452,1.797647651815473,0.0972664844040086,0.082859586463125,0.0430126301206594,-0.3837993942533925,-0.3721286658889251,-0.3326746826460783,-0.0312819531832076,1.7291280212009517,1.8014372485655907,-0.3771095223790967,-0.4243808046015337,-0.4050659354654646,0.8993848274848367,-0.3529220245110709,-0.8056914677305071,0.1876176200445944,10.592288002596431,-0.9541295544074052,0.10926574736127,-0.9809959041926116
0.46,-0.0429260854290746,1.717183627541738,1.790972405085143,0.0960264128343154,0.0943016832331107,0.0434597625122807,-0.3870497371670536,-0.3876866349428768,-0.3350337304773753,-0.0350530484069986,1.7248842131549362,1.7973865892109362,-0.3804587271130645,-0.444380804899557,-0.4220388274518347,0.8033993975764052,-0.1625171456830554,-0.7778984526975841,-0.1179523915648517,10.592288002596431,-0.9439236083557286,0.1097169650943339,-0.9909810170986708
0.48,-0.0502866084213019,1.7096771100835757,1.7845417625439497,0.0953986633481915,0.1055651739639051,0.043943191956955,-0.3872508031298834,-0.4017245888049264,-0.3417781049866824,-0.0425952388545805,1.7163965970629056,1.789285270501627,-0.3871571365810001,-0.4843808054956035,-0.4559846114245749,0.7787669158294942,-0.0100532981414908,-0.7018976931024795,-0.3372187254653547,10.257600833640026,-0.9312474949191218,0.1089801087339716,-1.0038117486147384
0.5,-0.0580056878887606,1.7014958707436778,1.7775960113719056,0.0954252120242599,0.1171634186171012,0.0444632876926278,-0.3843550890657261,-0.4156854701415506,-0.3526434860843055,-0.0501374293021625,1.707908980970875,1.7811839517923176,-0.3938555460489356,-0.5243808060916499,-0.4899303953973151,0.8963089227956615,0.1447857032078697,-0.6980440668312132,-0.5432690548811542,10.003510844788252,-0.9179017094419832,0.1071901404067831,-1.0174038227169608
0.52,-0.0656322399460189,1.6930400692740233,1.7703980515920077,0.0962675885048262,0.1277490850180305,0.0449387420674419,-0.3782549456651218,-0.4292462123671841,-0.366774872054581,-0.0580145402231412,1.697421364849042,1.7713853438843714,-0.4005539555168712,-0.5643808066876964,-0.5238761793700553,1.025672399768699,0.3050071700302137,-0.6780371112816735,-0.7065692985137734,9.803196239263343,-0.9046351302003828,0.104256458482772,-1.0310147246396446
0.54,-0.0731060891799233,1.6843136768796283,1.762900041007908,0.0979569892006571,0.1366333956278779,0.0453103337276216,-0.3694128437308371,-0.4428227244101494,-0.382364580063321,-0.0658916511441199,1.686933748727209,1.761586735976425,-0.4072523649848067,-0.6043808072837429,-0.5578219633427954,1.1242146610710475,0.4421050967142348,-0.6788256021482642,-0.7794854004370022,9.609851755493764,-0.8925975954574042,0.1002904928292505,-1.0436090118809151
0.56,-0.0800232332139573,1.6757580253212645,1.7554797452403756,0.0999774621560843,0.1432178702307766,0.0455126484873431,-0.3592003243035965,-0.4570829702122052,-0.3979726592736807,-0.073936222301797,1.6754461325904748,1.7509394834691605,-0.4139507744527423,-0.6443808078797892,-0.5917677473155356,1.1739487851091286,0.5106259713620276,-0.7130122901027908,-0.7804039605179863,9.595716348026144,-0.8811291380823411,0.0953128563146808,-1.0559177056674989
0.58,-0.0870832413332368,1.6664458303465794,1.7473402642726148,0.1018960368113039,0.1481779867858227,0.0455114884521982,-0.3473733670503625,-0.4733370528862974,-0.4151982192760599,-0.0821482536961725,1.6629585164388394,1.739443586362577,-0.4206491839206779,-0.6843808084758357,-0.6257135312882758,1.323623850307945,0.5913478626617008,-0.8127041337046087,-0.8612780001189563,9.595716348026144,-0.8711057241525985,0.0902481240278791,-1.067017761542855
0.6,-0.0938990224139571,1.6567968600920238,1.7388505296147718,0.1030919851525277,0.1512290772886757,0.0452563989495104,-0.3348763808093838,-0.4906688478023449,-0.4329329501684191,-0.1044519096857549,1.6427789777022646,1.7265803533088118,-0.3443332649727145,-0.5733370543764136,-0.4470538210934293,1.3884221799794387,0.6248493120489362,-0.8665897458023764,-0.8867365446179609,9.574299509168668,-0.8629208119474358,0.0857377528202111,-1.0765382115555584
0.62,-0.1004236628499739,1.6467112482323447,1.7302776172207233,0.1014005706904535,0.1527536055017171,0.0446291779650176,-0.3180860007767599,-0.516613412685484,-0.4219394209445705,-0.1044519096857549,1.6427789777022646,1.7265803533088118,-0.3443332649727145,-0.5733370543764136,-0.4470538210934293,1.6400419151739396,0.8395190016311949,-1.2972282441569531,0.5496764611924304,9.574299509168668,-0.8657885745818531,0.0847450135620506,-1.0764007312543016
0.64,-0.1063048217311852,1.636678805692649,1.7223726281633012,0.0964212439901998,0.1530504301186898,0.0436724264528727,-0.3020069421694157,-0.537206001609396,-0.4107829994460136,-0.1044519096857549,1.6427789777022646,1.7265803533088118,-0.3443332649727145,-0.5733370543764136,-0.4470538210934293,1.4204370673679074,0.8039529303672105,-1.0296294461956013,0.5578210749278445,11.482045754968569,-0.8634566021614208,0.0891347593920474,-1.077977639330204
0.66,-0.1121716303631608,1.6257535121810986,1.7142514449086217,0.0902862974690452,0.1520918149822738,0.0424829393824808,-0.2856094009523627,-0.5540176001585916,-0.4020588119148489,-0.107895242335482,1.6370456071585004,1.7221098150978775,-0.3437252445571849,-0.5933370546744368,-0.4534249414569032,1.2526179104411632,0.8198770608526473,-0.840579927459778,0.4362093765582359,11.279845634238882,-0.8626196458358206,0.0945589938667731,-1.0781908521945494
0.68,-0.1177154429457347,1.6145232772968097,1.7062722354072033,0.0844181865284083,0.1495815425005996,0.0411863289169813,-0.2697001461574649,-0.5681065103223255,-0.3964167909064889,-0.1147819076349363,1.625578866070972,1.7131687386760088,-0.3425092037261256,-0.6333370552704832,-0.466167182183851,1.099356833322919,0.7954627397448899,-0.7044455081866963,0.282101050417996,11.05486803743588,-0.8632837212344581,0.099370953751612,-1.0773334539592594
0.7000000000000001,-0.1229486117038456,1.6030321312203653,1.6983765822685095,0.079261337498232,0.1452212029399524,0.0398077976681048,-0.2545868432480369,-0.5803994523038949,-0.3934055918845077,-0.1216685729343906,1.6141121249834438,1.7042276622541404,-0.3412931628950664,-0.6733370558665297,-0.4789094229107988,0.9856415004254068,0.7556651454714042,-0.6146470990784692,0.1505599510990607,10.7022421199581,-0.8656930579184609,0.1035535607280297,-1.075317469359333
0.72,-0.127658283086128,1.5918998295342155,1.690913840643561,0.0751397563634789,0.1394248204604539,0.0384501874280222,-0.2422808056891278,-0.5909503791744164,-0.3922782218624455,-0.1284944361922919,1.6006453838661132,1.6946494737959243,-0.3400771220640072,-0.7133370564625762,-0.4916516636377466,0.8124524315229448,0.6153018779454539,-0.5275463435260752,0.05636850110311,10.7022421199581,-0.8685916908556677,0.1063848408204117,-1.073570566736381
0.74,-0.1323930042704008,1.5799727344241614,1.6830788174369276,0.071661310903613,0.1323511722536552,0.0370398012156715,-0.2321280776078482,-0.6013238554162752,-0.391280606106124,-0.1353202994501933,1.5871786427487826,1.6850712853377083,-0.338861081232948,-0.7533370570586226,-0.5043939043646944,0.7274650060828919,0.5076364040639783,-0.5186738120929402,0.0498807878160784,10.58526088479357,-0.8737269617311852,0.1084213675945434,-1.0699926167125648
0.76,-0.1369528927229023,1.567834206630715,1.6752629679270237,0.0687604124007578,0.1250215032217944,0.0356805062752246,-0.2246022022700727,-0.6119865509315966,-0.3903403033648895,-0.1421157616873181,1.5727119016165507,1.6751745408613186,-0.3376450404018888,-0.793337057654669,-0.5171361450916422,0.6542477445459131,0.3762937668887758,-0.5331347757660698,0.0470151370617205,10.566574493910592,-0.8798561947414234,0.1099719808801304,-1.0655172170147746
0.78,-0.1413883614321879,1.555483599658846,1.6674641948445097,0.0660832067096174,0.118020404886951,0.0343862881996392,-0.2194689114158131,-0.622470451311553,-0.3895621730378068,-0.1488808229036665,1.557245160469418,1.6649592403667552,-0.3364289995708295,-0.8333370582507155,-0.52987838581859,0.584953692562926,0.2566645427129796,-0.5241950189978195,0.0389065163541368,10.556915988177934,-0.8858457090594439,0.1113249078218992,-1.0609968965982404
0.8,-0.1455272518602454,1.54355977321675,1.6600666465883958,0.0636376888795313,0.1120514593800326,0.0332319766061079,-0.2165514751130129,-0.6320696675525418,-0.3891493266716707,-0.1523618070029786,1.5243600770932682,1.6479860861926192,-0.2305033693601466,-0.7224704528016691,-0.400636992639879,0.5020628176438467,0.1458718151400084,-0.4799608120494403,0.0206423183068071,10.540023619474596,-0.8917165495245012,0.1126973847633261,-1.056500528464946
0.8200000000000001,-0.1498218399240822,1.530793513248366,1.652417758557568,0.0606573149100844,0.106611681505826,0.0320662489879581,-0.2131592311628836,-0.6437488463303607,-0.3750359637838629,-0.1523618070029786,1.5243600770932682,1.6479860861926192,-0.2305033693601466,-0.7224704528016691,-0.400636992639879,0.9315277075111535,0.1696121975064662,-0.5839589388909439,0.7056681443903895,10.513327889993889,-0.9020839183618986,0.1148959543203237,-1.0473610333863528
0.84,-0.1540675289780203,1.517821423580074,1.6450616381079608,0.0576265952278623,0.1022104438311193,0.0309860162391902,-0.2117539686527601,-0.6528966618147886,-0.3614599768943625,-0.1523618070029786,1.5243600770932682,1.6479860861926192,-0.2305033693601466,-0.7224704528016691,-0.400636992639879,0.8215301438221607,0.0702631255061744,-0.4573907742213945,0.6787993444750201,11.262592561121892,-0.9076526693528372,0.1181634863058126,-1.0409506438275562
0.86,-0.1580941146248796,1.505341040611583,1.638299721164929,0.055317439514771,0.0994174614076453,0.030099074780203,-0.2122240463485188,-0.6605129473696164,-0.3509843481782378,-0.15466684069658,1.5171353725652514,1.6439797162662204,-0.2327102609490134,-0.7424704530996923,-0.4028519565602935,0.6480115270788497,-0.023503884787937,-0.3808142777413925,0.5237814358062337,11.262592561121892,-0.9125260873781488,0.1211721568679456,-1.0348652634453852
0.88,-0.1623535093777314,1.4920550742457142,1.6313781322983698,0.0536099869318203,0.0982429493884993,0.0293275880640231,-0.2135393754964356,-0.6677712479062388,-0.3418039844064245,-0.159276908083783,1.502685963509218,1.6359669764134228,-0.2371240441267468,-0.7824704536957388,-0.4072818844011224,0.5888380431623665,-0.0657664573958383,-0.3629150268311176,0.4590181885906652,11.10806091951963,-0.9164485760647282,0.1234298281383839,-1.0296767704167609
0.9,-0.1666333163246455,1.4786309844042416,1.6246222604633591,0.0527887458496611,0.0985196391532493,0.0287054897340355,-0.214253130316588,-0.6743375559921005,-0.3343084297369808,-0.1638869754709859,1.4882365544531846,1.6279542365606252,-0.2415378273044802,-0.8224704542917852,-0.4117118122419513,0.4995227412850299,-0.0356877410076172,-0.3283154042930891,0.3747777334721869,10.870082242978242,-0.918516068592802,0.1246465939011604,-1.026481481376201
0.92,-0.1709193965427469,1.4650826850941605,1.6180003785904034,0.0531056793818965,0.0996884630720522,0.0282174540644674,-0.2142041448941405,-0.6803227116090456,-0.3282507524193865,-0.1687177320170755,1.471787145367349,1.619720000315786,-0.2459516104822136,-0.8624704548878317,-0.4161417400827802,0.4257932063066419,0.0024492711223747,-0.2992577808472507,0.3028838658797106,10.870082242978242,-0.919100340473046,0.1246015286284185,-1.0250693754433902
0.94,-0.1749816496164432,1.452102282279916,1.6118171066790818,0.0546305418702458,0.1012045144213211,0.0278673383192591,-0.2133360652964066,-0.6858994487874907,-0.3229266925232522,-0.1735484885631651,1.4553377362815132,1.6114857640709472,-0.2503653936599471,-0.9024704554838782,-0.4205716679236091,0.3879406318081412,0.0434039798866928,-0.2788368589222545,0.266202994806719,10.783923423098711,-0.9189905392677435,0.1231497161528774,-1.0246308183197776
0.96,-0.1792318156000653,1.4383096542379683,1.605415071103196,0.0572737367853724,0.1029106392942992,0.027584409950293,-0.211664551395808,-0.6933238537777232,-0.3175783001101044,-0.1784895896886981,1.4378883271807763,1.6031407796300874,-0.2547791768376805,-0.9424704560799244,-0.4250015957644379,0.4650834591336821,0.0835756950299304,-0.3712202495116279,0.2674196206573859,10.756301435251771,-0.9185469811049852,0.120562191577021,-1.024765416308739
0.98,-0.1834408514608865,1.424342426306384,1.599117177811655,0.0599727297676811,0.1045088927990268,0.0273064944961764,-0.20930324600008,-0.7029637289697277,-0.3124770967127507,-0.1835410353936743,1.4194389180651383,1.594685046993207,-0.2591929600154139,-0.9824704566759708,-0.4294315236052669,0.5579543731132746,0.118065269786402,-0.4819937596002244,0.2550601698676852,10.743832742561608,-0.9180424069833348,0.1179389140067151,-1.0251119405415203
1.0,-0.1873905704094929,1.4108829028972107,1.5932266704198186,0.0619938926897677,0.1057905685532666,0.0269966423905898,-0.2065803548781986,-0.7131716008690426,-0.3078233582199265,-0.1939060137608905,1.3891942398578976,1.5834933229760175,-0.1943518660303639,-0.8029637304598438,-0.3278256624774759,0.5772176078699395,0.1361445560940699,-0.5103935949657468,0.2326869246412122,10.729419656053324,-0.91759622060665,0.1156441873889728,-1.0254212885002922
1.02,-0.1915239157632817,1.396440488222448,1.5871849802436588,0.0616325814400646,0.1082224153323898,0.0265706724870243,-0.2066624101258455,-0.7300142316161745,-0.2961917081605796,-0.1939060137608905,1.3891942398578976,1.5834933229760175,-0.1943518660303639,-0.8029637304598438,-0.3278256624774759,1.0234454390086014,-0.0041027623823491,-0.8421315373565941,0.5815825029673455,10.729419656053324,-0.9156419706433264,0.1146771067579754,-1.0281199735350757
1.04,-0.1956418805552025,1.3816932536187956,1.581375725773027,0.0580622877653333,0.1126504183797384,0.026045627639208,-0.2048382544730144,-0.7432950383020945,-0.2854149684925802,-0.1939060137608905,1.3891942398578976,1.5834933229760175,-0.1943518660303639,-0.8029637304598438,-0.3278256624774759,0.860007976629237,0.0912077826415544,-0.6640403342960011,0.5388369833999707,11.230975838998347,-0.9143790847487356,0.1186659521911329,-1.0273699430988887
1.06,-0.1996999606362279,1.366730595247406,1.575756482544991,0.0534984559274448,0.1180130147505447,0.0254985465802876,-0.200842622265931,-0.7521535446791852,-0.2770413541393536,-0.1958495324211941,1.381164602553299,1.5802150663512429,-0.1913615900364207,-0.822963730757867,-0.330895375630421,0.6413961905558039,0.1997816103541702,-0.4429253188545312,0.4186807176613266,11.085859851435089,-0.911089860660256,0.1237216807341759,-1.028364109901079
1.08,-0.2034617171057748,1.3523799408440962,1.570552419781282,0.0495633129374091,0.1232258843731225,0.025004468274713,-0.1952085651564213,-0.7581354427781937,-0.2711903237093468,-0.1997365697418014,1.3651053279441023,1.5736585531016931,-0.1853810380485342,-0.8629637313539135,-0.3370348019363111,0.504381456521262,0.2817028554754852,-0.2990949049504254,0.2925515215003393,10.925889307507532,-0.9066758314204244,0.1281590834919933,-1.0306765230370916
1.1,-0.2072888612402277,1.3371661763614209,1.5651770067365525,0.0463192819846134,0.1283031926176953,0.0245216195814575,-0.1876967475873126,-0.7630812783652784,-0.2667560400496926,-0.2036236070624087,1.3490460533349051,1.5671020398521438,-0.1794004860606478,-0.90296373194996,-0.3431742282422012,0.5013770148808196,0.3755908784554368,-0.2472917793542361,0.2217141829827101,10.790398416404969,-0.9018321637842018,0.1314676095700685,-1.0337581635048874
1.12,-0.2109507641739434,1.3218624757378374,1.559873172277579,0.0441363449699323,0.1325800005864894,0.0240767126960087,-0.178850939701274,-0.7673255627276322,-0.2638703293007097,-0.2072116167836216,1.3309867786959062,1.5602385552872997,-0.1734199340727614,-0.9429637325460064,-0.3493136545480912,0.5113452684635373,0.4422903943019279,-0.21221421811769,0.1442855374491486,10.689725471230304,-0.8971429243425891,0.133564015607615,-1.0370524034926798
1.14,-0.2144248141735719,1.30647948231484,1.5546190939279545,0.0430040921477634,0.1358459405876877,0.023666944090471,-0.169026582384783,-0.7709485057660335,-0.2616994834720543,-0.2107996265048346,1.3129275040569068,1.5533750707224556,-0.167439382084875,-0.9829637331420528,-0.3554530808539813,0.5346874894585187,0.4912178658245517,-0.1811471519200636,0.1085422914327671,10.612454269270527,-0.8932231610924702,0.1344842032791374,-1.039989916701762
1.16,-0.2175362098061757,1.2917948875760017,1.5496640890902815,0.0428225541653311,0.137922561535509,0.0233049939029394,-0.1590467836208099,-0.7746735148863657,-0.2599964405385123,-0.2142381224263504,1.2938682294030066,1.5463581004999645,-0.1614588300969885,-1.0229637337380992,-0.3615925071598714,0.5393802729740997,0.4989899381986573,-0.1862504560166122,0.0851521466771004,10.580182214892377,-0.8899679828240703,0.134457294280396,-1.0425445807393638
1.18,-0.2206039722638143,1.2762586835197351,1.544481203503706,0.0434026795496251,0.1390462800599791,0.0229426915083872,-0.1483149284206189,-0.7787962974113658,-0.2583920018761521,-0.2175271045481691,1.273808954734205,1.5391876446198258,-0.1554782781091021,-1.0629637343341456,-0.3677319334657615,0.5803970089679725,0.5365927600095466,-0.2061391262500045,0.0802219331180104,10.566316997331342,-0.8876435404336489,0.1335987008178219,-1.0444754127058185
1.2,-0.2234561758723379,1.2606347207776072,1.53932913922116,0.0446300302678485,0.1391500275478246,0.0225908261246549,-0.1375609290578745,-0.7834298709754745,-0.2568949035807752,-0.2280197186848453,1.237318868649167,1.5315616034098984,-0.1359869481704988,-0.8787962989014819,-0.2524951942279106,0.5902537792634917,0.5376999681372202,-0.2316786782054325,0.0748549147688432,10.560452775209342,-0.8864438230765279,0.132139772339403,-1.045595115069118
1.22,-0.2260550667424438,1.2448490486941974,1.5343142965764427,0.0444347472520544,0.1375705234612284,0.0220737411455724,-0.12303894493643,-0.7941553823046341,-0.2446130535085555,-0.2280197186848453,1.237318868649167,1.5315616034098984,-0.1359869481704988,-0.8787962989014819,-0.2524951942279106,1.0917514109126476,0.726099206072224,-0.5362755664579832,0.6140925036109884,10.5582936982928,-0.8918442031131619,0.1317515316832161,-1.0409751717594915
1.24,-0.2282587937122495,1.2296824687716528,1.529780797283706,0.0423870896690465,0.1337758365247116,0.0213679160661603,-0.1098437756528182,-0.8017131187246126,-0.233210450859586,-0.2280197186848453,1.237318868649167,1.5315616034098984,-0.1359869481704988,-0.8787962989014819,-0.2524951942279106,0.9503304943377956,0.6597584641805897,-0.3778868209989239,0.570130132448475,11.25200363366639,-0.8968146832714389,0.1346769979963276,-1.0348506233819226
1.26,-0.2303293018651505,1.2135875517822938,1.525232731708947,0.0395372988418732,0.1276224535812553,0.0205158972876229,-0.09837111134794,-0.8071944047896935,-0.2222137657661542,-0.2293795881665503,1.228530905660152,1.5290366514676192,-0.1335213521204747,-0.8987962991995051,-0.2513158326982623,0.8405260350277389,0.5736332152439106,-0.2740643032540457,0.549834254671587,11.176104995392052,-0.902461086545192,0.1380181037585709,-1.0283370530323732
1.28,-0.2322086163580698,1.197406144824511,1.5208929424126765,0.0370891800702663,0.1202931219088691,0.0196829313903739,-0.0904549193681671,-0.8107947676944254,-0.2123485592226832,-0.2320993271299603,1.2109549796821226,1.523986747583061,-0.1285901600204267,-0.9387962997955516,-0.2489571096389657,0.6575541967239922,0.3958095989886487,-0.1800181452365934,0.4932603271735489,11.001272951755707,-0.9095282479496876,0.1408813862435184,-1.0205452914960909
1.3,-0.2339654413017526,1.181164864377061,1.5167385840819791,0.0355523026750843,0.1128022502941533,0.0189408802002033,-0.0858202624542453,-0.8133756882051532,-0.2035543113127064,-0.2348190660933702,1.193379053704093,1.518936843698503,-0.1236589679203786,-0.978796300391598,-0.2465983865796691,0.5135172628417431,0.2317328456960858,-0.129046025536389,0.4397123954988438,10.929057469604231,-0.9176539040861328,0.1430230043463271,-1.0117631731170311
1.32,-0.2355758468424462,1.1656951531350617,1.5129474990033118,0.0352186221831312,0.1062236163164089,0.0183552145222444,-0.0840136413339188,-0.8150771532855321,-0.1959308481316777,-0.2372922454517778,1.173803127696261,1.5140048759669096,-0.1187277758203305,-1.0187963009876444,-0.2442396635203725,0.4008617410175793,0.0903310560163253,-0.0850732540189469,0.3811731590514317,10.87399329713844,-0.925620430920888,0.143970958151916,-1.0032363474532484
1.34,-0.2372574461204049,1.1493805847021092,1.509112459644233,0.0363968595472481,0.1003954808442101,0.0178943770347835,-0.0844192799355403,-0.8164575296680774,-0.1879687357179733,-0.2397654248101854,1.154227201688429,1.5090729082353165,-0.1137965837202825,-1.058796301583691,-0.2418809404610759,0.4045528881403543,-0.0202819300810737,-0.0690188191272644,0.3981056206852226,10.87399329713844,-0.9324833238901116,0.143320411140021,-0.9960243556165904
1.36,-0.2389714649191201,1.1330258921977563,1.5054366367893015,0.0390498141677078,0.0963419726062507,0.0176009081798687,-0.087097621333017,-0.8191936536073839,-0.1800098571918667,-0.2421153243660918,1.1336512756656958,1.5041999085802051,-0.1088653916202344,-1.0987963021797371,-0.2395222174017792,0.4415983306297807,-0.1339170698738331,-0.1368061969653278,0.3979439263053275,10.867988755666374,-0.9377691750202528,0.1412924092352134,-0.9904597544781826
1.38,-0.2407581856326281,1.1165882803206368,1.5019204955711294,0.0421962430411933,0.0947806825332521,0.0174382017104847,-0.0912403696904349,-0.8244940774696673,-0.1719914785922265,-0.2443419441194969,1.1120753496280615,1.4993858770015769,-0.1039341995201863,-1.1387963027757837,-0.2371634943424826,0.5233336709020384,-0.2071374178708986,-0.2650211931141677,0.4009189299820137,10.871174064966,-0.941590822175278,0.1389691879034023,-0.986321577728851
1.4,-0.2425249919937602,1.1008578221297207,1.4987293902524874,0.0448299124777287,0.0954612285535998,0.017355665352679,-0.0942964671259203,-0.8309562437439688,-0.1643017283462281,-0.2453202041171498,1.0753635764471534,1.493320921641518,-0.0546106220910716,-0.9244940789597834,-0.1672699250616824,0.5249561489727775,-0.1528048717742654,-0.3231083137150758,0.3844875122999178,10.874953088134134,-0.9439565355132364,0.1369223234638932,-0.9834476609797138
1.42,-0.2444724454073366,1.0840951439477502,1.4955480391706606,0.0449623947134467,0.0991116998147566,0.017228650194867,-0.0998792156038852,-0.8443136426086156,-0.1540726308083952,-0.2453202041171498,1.0753635764471534,1.493320921641518,-0.0546106220910716,-0.9244940789597834,-0.1672699250616824,0.8863148727117046,-0.2791374238982465,-0.667869943232341,0.5114548768916427,10.870291458505562,-0.941995473051476,0.1366817914361436,-0.9851867345152524
1.44,-0.2465009079847865,1.0671030514461384,1.4925701608269866,0.0417803833550154,0.1060505399890549,0.0170221800738569,-0.10219751762659,-0.853772365237662,-0.1442634671974093,-0.2453202041171498,1.0753635764471534,1.493320921641518,-0.0546106220910716,-0.9244940789597834,-0.1672699250616824,0.6911252578020882,-0.1159151011352388,-0.4729361314523173,0.4904581805492969,11.061164532797193,-0.939228230074033,0.1400796849681332,-0.9863764313363425
1.46,-0.2484347197975998,1.0508303778606332,1.4899101775314991,0.0378359951773384,0.1142458839351611,0.0168171473137602,-0.1009069622082002,-0.8585861474299976,-0.1362318063809025,-0.2458663103380605,1.0661186356575556,1.4916482223909011,-0.047284672571199,-0.9444940792578066,-0.1663256143555736,0.4726140279197007,0.0645277709194862,-0.2406891096167818,0.4015830408253401,10.972816231873368,-0.933678401143368,0.1446579901626779,-0.9898956813999736
1.48,-0.2504072576968216,1.03363178278743,1.487262598971941,0.0342319970587721,0.1233402371509572,0.0166400703781488,-0.0961121463565382,-0.8611511810382255,-0.1290335871276474,-0.246958522779882,1.0476287540783598,1.4883028238896676,-0.0326327735314536,-0.9844940798538532,-0.164436992943356,0.4510654522367568,0.2397407925831013,-0.1282516804113953,0.3599109626627531,10.87208555547113,-0.9262677896802496,0.1486282596849122,-0.9953072587652214
1.5,-0.2522498679896738,1.0163955612328193,1.48474598925976,0.0316952167707083,0.131977932496689,0.0165111295403627,-0.0881839827890545,-0.8625585401511932,-0.1230651578269139,-0.2480507352217034,1.029138872499164,1.484957425388434,-0.0179808744917083,-1.0244940804498994,-0.1625483715311384,0.5011451524844951,0.396408178374185,-0.0703679556483816,0.2984214650366752,10.794075599777898,-0.9183646246131292,0.1515465229240285,-1.0013194814440551
1.52,-0.2539048811486355,0.9991407351015074,1.4823390041555586,0.0304204580629122,0.139448827947471,0.0164335054485297,-0.0776604224730041,-0.8631245967062995,-0.1179640400966201,-0.2484103527115376,1.008648990890166,1.4817064579578112,-0.003328975451963,-1.0644940810459458,-0.1606597501189207,0.5854210959801671,0.5261780158025211,-0.0283028277553165,0.2550558865146907,10.73353169645543,-0.9111851439899644,0.1531386596873964,-1.0069263032604727
1.54,-0.2552629563408112,0.9827446925895572,1.480143722899547,0.030605671756834,0.1451019891133761,0.0164228404870814,-0.0658469545072299,-0.8629791471567233,-0.1133969258159023,-0.2487699702013718,0.988159109281168,1.4784554905271885,0.0113229235877823,-1.1044940816419924,-0.1587711287067031,0.6333200490332327,0.5906733982887109,0.0072724774788091,0.2283557140358924,10.701733544535273,-0.9045947051671578,0.1534015895715866,-1.012153882135982
1.56,-0.2564359859622629,0.9654813983360266,1.4779268287761596,0.0322714932031518,0.1493557469451397,0.0164788060820003,-0.052099590626147,-0.8634776303823717,-0.1085365733249875,-0.2487632902152123,0.9666692276572688,1.475251738631871,0.0259748226275276,-1.1444940822380387,-0.1568825072944855,0.7294887345619119,0.6873681940541428,-0.0249241612824191,0.2430176245457389,10.700402904669318,-0.8995790631645502,0.152254219138882,-1.0161186614802835
1.58,-0.2573243331540517,0.9481958522661617,1.475809865199405,0.035094816301192,0.1518134428251635,0.0165747905397056,-0.0375029122147727,-0.8653639155884688,-0.1033970719478465,-0.2483903127530592,0.9441793460184686,1.4720952022718592,0.0406267216672729,-1.184494082834085,-0.1549938858822679,0.7794799018086623,0.7298339205687177,-0.0943142603048563,0.2569750688570481,10.718030452940184,-0.8965841105987261,0.1501917647163745,-1.018380947967186
1.6,-0.2579158300330684,0.93084637057123,1.4738003159171738,0.0381273075462423,0.1525090699466102,0.0166359408626649,-0.0225499944164054,-0.8695046326215055,-0.0978144113550698,-0.2591994787647903,0.904927656486738,1.4706400116020126,-0.0002652084145712,-0.9653639170785848,-0.0961797257229127,0.8244716300858249,0.7476458899183636,-0.2070358516518322,0.2791330296388373,10.74476580989267,-0.8948950759107591,0.1477031912344085,-1.019598857404408
1.62,-0.2581712389788452,0.9142121712672718,1.4720112066966604,0.0386013926748817,0.1507789925763027,0.0164427534643572,-0.0052619530074026,-0.8802047417429203,-0.0907400485049341,-0.2591994787647903,0.904927656486738,1.4706400116020126,-0.0002652084145712,-0.9653639170785848,-0.0961797257229127,1.0763541711548277,0.8644020704501374,-0.5350054560707418,0.3537181425067828,10.920714299019892,-0.899279143178492,0.1478385790123463,-1.0148114546435647
1.64,-0.2580951571637355,0.8965282991281156,1.470278545516733,0.0362035075434856,0.1455931928004415,0.0159280807028895,0.0114703831555529,-0.8874628005521155,-0.082853266097448,-0.2591994787647903,0.904927656486738,1.4706400116020126,-0.0002652084145712,-0.9653639170785848,-0.0961797257229127,0.9935439445375844,0.8366168081477807,-0.3629029404597583,0.3943391203743082,10.920714299019892,-0.9026010945317878,0.1505254812564602,-1.010743461080292
1.66,-0.257725596052923,0.8787341238115326,1.468701034451398,0.0327246030571483,0.1381114274006848,0.0152952554002138,0.0242230903253781,-0.8913580447455731,-0.0752821764272101,-0.259202130848936,0.8952740173159522,1.4696782143447835,0.0071823323454689,-0.9853639173766082,-0.0947362564779259,0.7666907236310464,0.6376353584912596,-0.1947622096728829,0.3785544835118934,10.912906047630711,-0.9084052959978676,0.1543703582148273,-1.0040793809178992
1.68,-0.2571448503666451,0.860892741586764,1.4672675845050605,0.0297251958576117,0.1298104189277825,0.0147172382786639,0.0329445522556554,-0.8928230541683992,-0.0684127702076357,-0.2592074350172275,0.8759667389743806,1.4677546198303253,0.0220774138655495,-1.0253639179726546,-0.0918493179879523,0.5599082349362564,0.4360730965138675,-0.0732504711413062,0.343470310978719,10.86036613882152,-0.9152173836750312,0.1577198779860035,-0.9964209291210724
1.7,-0.2564660558468754,0.8439275982457309,1.4660268445398406,0.027836512510562,0.1222098793121513,0.0142817247121688,0.0379533100479382,-0.8931944039803109,-0.0625197686590487,-0.2592127391855189,0.8566594606328088,1.465831025315867,0.0369724953856301,-1.0653639185687012,-0.0889623794979788,0.3871466858834301,0.2504378896141367,-0.0185674905955834,0.2946500774293529,10.800987100290511,-0.9229258187305562,0.1603145248551576,-0.9879167582694034
1.72,-0.2556776522651324,0.8260688423538685,1.464837584953143,0.0271062180391109,0.1152782849880926,0.0139681506181376,0.0404735560458001,-0.8927997395916412,-0.0567274401397028,-0.2584732892778063,0.8353521822614348,1.4640517777259074,0.0518675769057106,-1.1053639191647475,-0.0860754410080053,0.3164588027905457,0.126012299893095,0.0197332194334876,0.2896164259672921,10.749616642882756,-0.9299565937562674,0.1616259984859705,-0.9802606994199766
1.74,-0.2548678978851595,0.8082259316703896,1.463760922257724,0.0281063646757136,0.1101785400251707,0.0138384471975802,0.0403018238388706,-0.8917942553333323,-0.0512187757341955,-0.2577338393700937,0.8140449038900608,1.4622725301359478,0.0667626584257912,-1.145363919760794,-0.0831885025180317,0.2801154854569238,-0.008586610346474,0.0502742129154409,0.275433220275367,10.71746304140288,-0.9347868852592204,0.1612705063515926,-0.9751105647853971
1.76,-0.2541216225710807,0.7912830331163583,1.4628399671679493,0.0305733829100895,0.1077256525354429,0.0138911334902558,0.0382878916944904,-0.8919107879353063,-0.0459944749109796,-0.2566220124243791,0.7917376255037857,1.4605654560082375,0.0816577399458718,-1.1853639203568405,-0.0803015640280582,0.280012596238742,-0.1006966072190088,-0.0058266300986986,0.2612150411607922,10.70384452820872,-0.9383172567657888,0.1595143879799337,-0.9713396496354012
1.78,-0.253375474990538,0.7734203951913695,1.46197998454809,0.0339527688350777,0.1078063920704824,0.0140860172700507,0.0367202537734439,-0.8945403384367816,-0.0402652697419045,-0.2551378084406625,0.7684303471026094,1.4589305553427767,0.0965528214659524,-1.2253639209528868,-0.0774146255380846,0.3247915345289532,-0.0783818960523263,-0.1314775250737643,0.2864602584537551,10.708749003253615,-0.9407877280229694,0.1572255593164039,-0.9685084135012888
1.8,-0.2526434941946904,0.7554827484402723,1.4612379581329311,0.0371018376908045,0.1098048183384504,0.0143398844730575,0.036794756382617,-0.8990073201953749,-0.0342210612723243,-0.2515394623018658,0.7286933782695304,1.4599667210609948,0.0920579510409762,-0.9914422395030849,-0.0205725842868207,0.3758055770412548,0.0037251304586559,-0.223349087929664,0.3022104234790119,10.708749003253615,-0.9411083100274392,0.1551532898908784,-0.9678920997609116
1.82,-0.251945846319713,0.7382704695354708,1.4606680038668838,0.0370278822943627,0.113369163533665,0.014441570360086,0.0369797700886441,-0.9113024130844456,-0.0260270712038966,-0.2515394623018658,0.7286933782695304,1.4599667210609948,0.0920579510409762,-0.9914422395030849,-0.0205725842868207,0.7388251018742295,0.009250685301354,-0.6147546444535357,0.4096995034213829,10.721487859636907,-0.9393721750804624,0.1552205814465244,-0.969479632328054
1.84,-0.2511840650032389,0.7199568668960517,1.4602416489137795,0.0332558361675557,0.1186799267146012,0.0143521587204828,0.0394775542577059,-0.9187392342861392,-0.0170265209525239,-0.2515394623018658,0.7286933782695304,1.4599667210609948,0.0920579510409762,-0.9914422395030849,-0.0205725842868207,0.5969822865225127,0.1248892084530894,-0.3718410600846766,0.4500275125686341,10.914205168839544,-0.9368993104941598,0.1593769399965354,-0.9704705460681196
1.86,-0.2503463762286828,0.7015540693235022,1.459989002679138,0.0286935105761088,0.1247053296880645,0.0142238174977082,0.0443902046861984,-0.9211637036844104,-0.0087053350053126,-0.2506188827914561,0.7187789558744996,1.4597609952181263,0.1031254904944827,-1.0108226197163457,-0.0166340471958039,0.4981323159156345,0.2456325214246251,-0.1212234699135617,0.416059297360569,10.899737890355029,-0.9327169906840954,0.1642580443267717,-0.9726869262676038
1.88,-0.2493863224090496,0.6831333641847998,1.4598940716869422,0.0249293439259538,0.1307103934600003,0.0141422254703597,0.0515167473938369,-0.9210805078434618,-0.0012297754661092,-0.2487777237706365,0.6989501110844378,1.4593495435323902,0.1252605694014956,-1.049583380142867,-0.0087569730137704,0.5164264781552204,0.3563271353819286,0.0041597920474256,0.3737779769601671,10.846404328392056,-0.9277440684957656,0.1687773322951183,-0.9755608129460588
1.9,-0.2483234869747932,0.6656472142365556,1.4599365258596515,0.0225299550190908,0.1359088787533424,0.0141321497888787,0.0600697280175888,-0.9199271384733904,0.0053022040616121,-0.246936564749817,0.6791212662943762,1.4589380918466537,0.1473956483085086,-1.088344140569388,-0.0008798988317368,0.541180411241635,0.4276490311875949,0.0576684685035688,0.326598976386071,10.771852820556887,-0.9227766541802116,0.1721325375068173,-0.9786190807325912
1.92,-0.2470141139674878,0.6472703709816747,1.460113194498624,0.0213612447394468,0.1405413146238661,0.0142023978968139,0.0704826220372458,-0.9179912382285944,0.0120021351029126,-0.2439886517836468,0.6573543834829885,1.4589204938700189,0.1695307272155215,-1.127104900995909,0.0069971753502966,0.6266281743996809,0.5206447009828453,0.0967950122398086,0.3349965520650262,10.771852820556887,-0.9181102030307812,0.1741456152723103,-0.9816717794002474
1.94,-0.2454827819656558,0.6289412141490498,1.4604251257658742,0.0219585377111181,0.1441136116832714,0.0143843007585717,0.0821030827934764,-0.9153242433252484,0.0188399632502281,-0.2410407388174767,0.6355875006716006,1.458902895893384,0.1916658061225345,-1.1658656614224308,0.0148742495323302,0.6872115099694358,0.5810230378115316,0.1333497451672882,0.3418914073657755,10.771688493444344,-0.9140093152922892,0.1744398735728776,-0.9845900201778603
1.96,-0.2437076899152628,0.6106560224643478,1.460877958828514,0.0242693686358692,0.1464766753971173,0.0146729145722477,0.0947379963627804,-0.913504427707592,0.0260941131502458,-0.2375394488786311,0.6128515988495499,1.4590822247713002,0.2138008850295474,-1.204626421848952,0.0227513237143637,0.7341244113874261,0.6317456784651988,0.0909907808828269,0.3627074950008807,10.82063751642454,-0.9113209451630536,0.1733123247391779,-0.9864356858495412
1.98,-0.2417815395331842,0.5932987312488632,1.461448396350274,0.0274669469490099,0.1475300745450002,0.014998759818542,0.1072701757829457,-0.913951038932564,0.0335833913547451,-0.2334847819671103,0.5891466780168361,1.4594584805037671,0.2359359639365603,-1.2433871822754732,0.0306283978963972,0.7303154637378888,0.6266089710082655,-0.0223305612486013,0.3744639102249676,10.82063751642454,-0.9098757307190848,0.1712065616383349,-0.9871935288554968
2.0,-0.2394962919404195,0.5749948788691681,1.4622092664533213,0.0308156763213213,0.1474595363174141,0.0153144026790681,0.1205062688753807,-0.9164337040450088,0.0421460288918812,-0.2364180307440369,0.5476011793022351,1.4631275659180112,0.1545158123653203,-0.9261969128531836,0.0488007244554813,0.7979294267109833,0.661804654621749,-0.1241332556222329,0.4281318768568062,10.863317042409108,-0.9096305226592568,0.1690063480249208,-0.9869605262210772
2.02,-0.2369044766952798,0.556293256955068,1.4630960639916286,0.0227851167852741,0.1448102109605357,0.0147796467218507,0.1377590399815177,-0.9463575794958176,0.0463885771221545,-0.2364180307440369,0.5476011793022351,1.4631275659180112,0.1545158123653203,-0.9261969128531836,0.0488007244554813,1.7400399767839252,0.8626385553068529,-1.4961937725404495,0.2121274115136618,10.909459558803064,-0.9156786343687175,0.1776372883108053,-0.9786677669420882
2.04,-0.2339904518132433,0.5373126357187588,1.464070890324005,0.0060710828232454,0.1384342749621883,0.0136679160137538,0.1521211020074699,-0.9493423086845753,0.0509480988058007,-0.2364180307440369,0.5476011793022351,1.4631275659180112,0.1545158123653203,-0.9261969128531836,0.0488007244554813,0.7680603360920913,0.7181031012976082,-0.1492364594378736,0.2279760841823134,10.63091395034462,-0.9169276381687314,0.1916587642816263,-0.9751401254622558
2.06,-0.23100557090093,0.519317970330817,1.4650636074481342,-0.0104295315704402,0.1305377562989526,0.0127283498734911,0.1610404239139895,-0.9442985488567192,0.0533396150844097,-0.2348728726203837,0.5383392101737032,1.463615573162566,0.1639649396817952,-0.9286460876373074,0.0518441910756285,0.5261016217995934,0.4459660953259808,0.2521879913927938,0.1195758139304465,10.63091395034462,-0.9217741043496318,0.2079901087125504,-0.9665710622829068
2.08,-0.2277265856164754,0.5005367117449935,1.4661414388813316,-0.0268254822664467,0.1219054895518508,0.0120110793517776,0.1661099455621075,-0.9338625751126196,0.0542480369724833,-0.2317825563730773,0.5198152719166396,1.4645915876516755,0.182863194314745,-0.9335444372055552,0.0579311243159229,0.5818823507699031,0.2534760824058998,0.5217986872049774,0.0454210944036831,10.48413404663188,-0.9278859504861472,0.2234306863601266,-0.9565957319691468
2.1,-0.2243878945830653,0.4820321870902379,1.4672171996315837,-0.0408002510214292,0.1142070757877775,0.0116217768614934,0.1674734649561667,-0.9176831235284212,0.0533010118839568,-0.2286922401257709,0.5012913336595759,1.4655676021407853,0.2017614489476948,-0.938442786773803,0.0640180575562174,0.8132199813422295,0.0681759697029604,0.8089725792099323,-0.0473512544263293,10.38679039240742,-0.9331186908819292,0.2360789089941656,-0.947808527469738
2.12,-0.2212197229344993,0.4647840747561674,1.468210506666215,-0.0511443486486791,0.1085810716179658,0.0115141385123041,0.1659019972362362,-0.899397768905423,0.051330208722402,-0.224657011146817,0.4825224779240998,1.4668479632919096,0.2206597035806447,-0.9433411363420507,0.0701049907965119,0.922913551727862,-0.0785733859965248,0.9142677311499036,-0.0985401580777377,10.299942336752792,-0.9366400154777352,0.2465456668679838,-0.9411864933096636
2.14,-0.2179431809284056,0.4470149545826697,1.4692112932703014,-0.0591189369488596,0.1053699267237123,0.0115476185605946,0.1617392454511962,-0.8789336560270065,0.048860754335543,-0.2206217821678631,0.4637536221886237,1.468128324443034,0.2395579582135945,-0.9482394859102986,0.0761919240368063,1.0514354750687325,-0.2081375892519985,1.023205643920827,-0.1234727193429503,10.259006052692712,-0.9379725238547229,0.254305132145366,-0.937405073799655
2.16,-0.2147551816891145,0.4296627932335035,1.4701633326195311,-0.0645117515212442,0.1054307277147159,0.01161235670882,0.1576494088608051,-0.857733480065068,0.0465068867363595,-0.2161140968230854,0.4448623077139415,1.4695608589251656,0.2584562128465443,-0.9531378354785464,0.0822788572771008,1.0859499491548186,-0.2044918295195555,1.060008798096923,-0.1176933799591741,10.257457855786017,-0.938879261719978,0.2599885669217528,-0.934125445231927
2.18,-0.211628839471307,0.4127399939670827,1.471074797425382,-0.0676927378391536,0.107924723307074,0.0116960746035888,0.1555101578909712,-0.8361764557644605,0.0447912303313379,-0.2111339551124841,0.425848534500053,1.4711455667383049,0.2773544674794941,-0.9580361850467942,0.0883657905173952,1.0865371235132837,-0.1069625484916986,1.0778512150303732,-0.0857828202510818,10.262577163887729,-0.9371449787663714,0.2636139742047099,-0.9341081099822536
2.2,-0.208676248450113,0.3970645190704091,1.4719173615706127,-0.0690057476994375,0.1116254666158173,0.0118184088612395,0.1556056211416191,-0.8153080901182321,0.044000852630831,-0.2038533315767585,0.3709311711788597,1.4733143589419488,0.1889979546744184,-0.7994105376288175,0.055947840544558,1.0441773016188014,0.0047731625323954,1.0434182823114202,-0.0395188850253441,10.294050847899598,-0.9335898650764652,0.2659379849124314,-0.9362123651825144
2.22,-0.2055112277234579,0.3808686871571278,1.472743868499667,-0.0725089319116752,0.1149020160103883,0.0118565396942415,0.1608319636134988,-0.8038302292779292,0.0382837487443289,-0.2038533315767585,0.3709311711788597,1.4733143589419488,0.1889979546744184,-0.7994105376288175,0.055947840544558,0.6923532731774116,0.2613171235939876,0.5738930420151445,-0.2858551943251054,9.986656807212968,-0.9314429885391216,0.2708490178343537,-0.9350801592696194
2.24,-0.2022402745092066,0.3649835083578606,1.4734499931340042,-0.0786092730198157,0.1162619415080726,0.0118676881986104,0.1658692727313697,-0.7849101788511306,0.0326766119638561,-0.2038533315767585,0.3709311711788597,1.4733143589419488,0.1889979546744184,-0.7994105376288175,0.055947840544558,1.0183108245723904,0.2518654558935448,0.9460025213399336,-0.2803568390236391,9.986656807212968,-0.9269594066534504,0.2762440556023406,-0.9384119003064584
2.26,-0.1990448849786073,0.3502880680045377,1.4740254891094613,-0.0841413100823572,0.1163456076419614,0.0120139628351903,0.1701432363449426,-0.763096015686741,0.0281811068087011,-0.2019633520300143,0.3629370658025715,1.4738738373473943,0.1956955140311079,-0.792057354001689,0.058179162587202,1.133946698629151,0.2136981806786453,1.0907081582194778,-0.22477525775775,10.06926272774308,-0.9239830853512212,0.2822622102641713,-0.9393802804224036
2.28,-0.1956006899924059,0.3352873402962198,1.47454733320169,-0.088827367770293,0.11563764657925,0.0123433562377418,0.1739824294219321,-0.7383092650152214,0.024300096497004,-0.1981833929365259,0.3469488550499952,1.4749927941582857,0.2090906327444868,-0.7773509867474317,0.0626418066724901,1.2690396500641536,0.191959653849473,1.2393375335759793,-0.1940505155848567,10.136008691808456,-0.9223369644550862,0.2878078210843772,-0.938437013541076
2.3000000000000003,-0.1920867870916635,0.3207974027621995,1.4750029558151594,-0.0920542548236031,0.114521229117199,0.0128404717609826,0.1771601987122263,-0.7123261846464385,0.0214893454171043,-0.1944034338430375,0.3309606442974188,1.4761117509691768,0.2224857514578657,-0.7626446194931745,0.0671044507577781,1.3163576686696206,0.1588884645147087,1.299154018439147,-0.1405375539949833,10.198677200454767,-0.9214876989095088,0.2921616193910071,-0.936729908536277
2.32,-0.1885164072640041,0.3068333989256129,1.4754141202275552,-0.0938555115672192,0.1133568851565501,0.013467376242962,0.1796977828899139,-0.6857343789958815,0.0198030792839617,-0.1899537188138802,0.3157077519075553,1.4774538399843324,0.2358808701712446,-0.7479382522389173,0.0715670948430662,1.3382889772837063,0.1268792088843839,1.3295902825278485,-0.0843133066571275,10.263444044921016,-0.9210253252910237,0.2956391216779315,-0.9346828210349908
2.34,-0.1850815519511211,0.2940643993920391,1.4757812716626937,-0.0942335596725959,0.1124266590632786,0.0141588759362561,0.1817389454733757,-0.6598218912945352,0.0189804065858034,-0.1855040037847229,0.3004548595176918,1.478795928999488,0.2492759888846235,-0.7332318849846601,0.0760297389283542,1.300288577521203,0.1020581291730882,1.2956243850673177,-0.0411336349079147,10.330389013079184,-0.920473282363512,0.2978360212896739,-0.933183106736637
2.36,-0.1814249955588188,0.2811633733061308,1.4761600383150195,-0.0928032118416781,0.1117014974855556,0.0150052863352357,0.1838207363983447,-0.6318517710465272,0.0190014654261846,-0.1807194107877311,0.2855696263091848,1.4802495841167758,0.2626711075980025,-0.718525517730403,0.0804923830136423,1.4023747035101433,0.1040895462484495,1.3985060124003967,0.0010529420190598,10.381985568888012,-0.9198366403508692,0.2984714803997242,-0.932183600874338
2.38,-0.1777260535542616,0.2688223582345929,1.476551164577597,-0.0891837228135489,0.1111956074328159,0.0159929712679286,0.1859954514178358,-0.6044051025901493,0.020181588945445,-0.1755999398229049,0.2710520522820341,1.4818148053361957,0.2760662263113814,-0.7038191504761457,0.0849550270989303,1.3778984780191903,0.1087357509745548,1.3723334228188944,0.0590061759630186,10.43447856362127,-0.9188568323218356,0.2972253116167173,-0.9321455637729223
2.4,-0.1739813357935449,0.2569984014723472,1.476980432162942,-0.0843483800048517,0.1108347964416774,0.0170559874629199,0.1883787799737343,-0.5797554662451354,0.0227225957658037,-0.1684262809833698,0.2386021031050854,1.4775602440248694,0.1943427084582768,-0.5634861525986847,0.0479928870922889,1.24473043528298,0.1191664277949255,1.2324818172506968,0.1270503410179349,10.49141290647367,-0.9181383242273626,0.2950405282554847,-0.9321983660606392
2.42,-0.170321560424647,0.2461783728819816,1.4773882567662069,-0.0801038699032464,0.1085412956001584,0.0182012412851227,0.1965508724110173,-0.5601535047033986,0.0200564955236536,-0.1684262809833698,0.2386021031050854,1.4775602440248694,0.1943427084582768,-0.5634861525986847,0.0479928870922889,1.0701963389822662,0.4086046218641503,0.9800980770868384,-0.1333050121075044,10.551849656640115,-0.923746013915098,0.2938642043407655,-0.9240201895272476
2.44,-0.1663148425295739,0.2351915250575257,1.477779406319505,-0.0763885142820115,0.1021285174991993,0.0196592304304812,0.2030102783386125,-0.5395478171926711,0.0193496426374558,-0.1684262809833698,0.2386021031050854,1.4775602440248694,0.1943427084582768,-0.5634861525986847,0.0479928870922889,1.080298481589616,0.3229702963797612,1.0302843755363778,-0.0353426443098889,10.19985806765817,-0.92438925205865,0.2920434883061071,-0.9237014862887906
2.46,-0.1622273805621629,0.224614954051937,1.4781822993318197,-0.073141830894515,0.0934293873177119,0.0212337099419154,0.2049938213417027,-0.519166172348377,0.0209888664784581,-0.166482853898787,0.2329672415790986,1.4780401728957924,0.196012159866365,-0.5553023626003918,0.0535551467216577,1.0271720208963988,0.0991771501545085,1.0190822422147028,0.0819611920501148,10.33890769395748,-0.9292710809221062,0.2908311185277284,-0.918451070679418
2.48,-0.1581461252449064,0.2144419582707102,1.4786352241664744,-0.0701878892106512,0.084160898608006,0.0228008741232527,0.2027777559694364,-0.4992043522125255,0.0242428116466569,-0.1625959997296215,0.2216975185271249,1.479000030637638,0.1993510626825415,-0.538934782603806,0.0646796659803953,1.0173167746919944,-0.1108032686133173,0.9980910067925758,0.1626972584099372,10.454528948619554,-0.9358073244781274,0.2899786598556205,-0.9111388628373168
2.5,-0.1543453378563669,0.2051426371539227,1.4791372155157363,-0.0675825467979618,0.0759885860656626,0.0242060995751733,0.1973271445835042,-0.4807179201728611,0.0284539706311367,-0.1587091455604559,0.2104277954751512,1.4799598883794838,0.2026899654987179,-0.5225672026072201,0.0758041852391328,0.9863964644479296,-0.2725305692966071,0.9243216019832218,0.2105579492239922,10.539545385203382,-0.9434647076779727,0.2892342462583191,-0.902361418192644
2.52,-0.1504851292286816,0.1957273574017485,1.4797616141478966,-0.0650380588389509,0.0688682641760743,0.0255489222256373,0.1888380102179148,-0.4618278371366232,0.0338195062734614,-0.1546553462504816,0.1999764514230068,1.4814759720842663,0.2060288683148943,-0.5061996226106342,0.0869287044978704,1.06968407967265,-0.4244567182794687,0.9445041518118952,0.2682767821162323,10.603507489083311,-0.9508782239761572,0.2888563023162478,-0.8932118036602721
2.54,-0.1468234829485196,0.1866849904523312,1.4804992212987562,-0.0626689516050023,0.0640411077948111,0.0267132521338362,0.1776029093922081,-0.4434097989612002,0.0397000810460671,-0.1506015469405072,0.1895251073708624,1.482992055789049,0.2093677711310707,-0.4898320426140484,0.098053223756608,1.1180706378079828,-0.5617550412853389,0.9209019087711462,0.2940287386302847,10.658417321324125,-0.9568845001451308,0.2888702180907042,-0.8849439449810045
2.56,-0.1434107882602888,0.1780088142820172,1.481359077474619,-0.0603445015237587,0.0624324353086151,0.0276625911763982,0.1645444606076936,-0.4252387074557047,0.0460263010173297,-0.1464642750601284,0.1794829528186326,1.4847862524753002,0.2127066739472471,-0.4734644626174625,0.1091777430153455,1.1626830074053716,-0.6529224392257227,0.9085545752747752,0.3163109985631303,10.692140544566428,-0.961217029984822,0.2888072087285427,-0.8786057796139026
2.58,-0.1404010163381709,0.170099777022099,1.482299119832892,-0.0580935169717041,0.0637067423159624,0.0283949398781686,0.1532530543703816,-0.4083031369001624,0.0526405558357619,-0.1422435306093453,0.1698499877663175,1.4868585621430197,0.2160455767634235,-0.4570968826208767,0.1203022622740831,1.0701142131344157,-0.5645703118656004,0.8467785277771173,0.3307127409216126,10.7278830665864,-0.9637437674500992,0.2887610888844927,-0.8740717987195592
2.6,-0.1374436044090622,0.1621169946440074,1.4834317342146337,-0.055693480672751,0.0670782760634721,0.0290521650954505,0.1433581634212033,-0.3909488044148334,0.0603205371905194,-0.1327383636196519,0.1496846201770909,1.48493114762468,0.1669506478432796,-0.3773334184289929,0.0852551184962176,1.070121297466902,-0.4947445474589168,0.8677166242664486,0.3839990677378741,10.7278830665864,-0.9642252568441132,0.2888346755505979,-0.8716427112832174
2.62,-0.1346697887790793,0.1544984883420849,1.4846277409384423,-0.0524277366647066,0.0717236214529681,0.0297057868441977,0.134794267083075,-0.3724680000791298,0.0589330312989453,-0.1327383636196519,0.1496846201770909,1.48493114762468,0.1669506478432796,-0.3773334184289929,0.0852551184962176,1.0207908967853332,-0.4281948169064117,0.9240402167851824,-0.0693752945787076,10.75190930537974,-0.9607111190465912,0.2898352843437231,-0.8715381554337314
2.64,-0.1321716602964386,0.1475761999502257,1.4857529844699278,-0.0487531364563184,0.0766876212595803,0.0303491172049164,0.1287670588515975,-0.3572405153040682,0.0596127807738981,-0.1327383636196519,0.1496846201770909,1.48493114762468,0.1669506478432796,-0.3773334184289929,0.0852551184962176,0.8195510828938938,-0.3013604115738769,0.7613742387530792,0.0339874737476441,10.192844994735424,-0.9573252984825046,0.2874720229549845,-0.8759273590915206
