t,x,y,z,roll,pitch,yaw,v_x,v_y,v_z,ref_x,ref_y,ref_z,ref_v_x,ref_v_y,ref_v_z,a_com,a_x,a_y,a_z,thrust,wind_x,wind_y,wind_z
0.0,1.872382525488191,-0.7004757455687357,2.7658853549619176,0.0323080652280934,0.0997768654125032,0.0422672921684701,1.7724521663069345e-05,-0.0043524511362254,-0.0004779217444157,1.8723753370488188,-0.7004988393202224,2.7658741485645466,-0.1001711922114948,0.0982780704670275,-0.1004012926538519,0.2189323768066498,0.0008862260831534,-0.2176225568112712,-0.0238960872207865,10.258471341206132,-0.9397756336022446,0.2497789988667538,-0.8825246612993926
0.02,1.8725466681971297,-0.7008208842533706,2.765762397871341,0.0225929833636103,0.0945149269263455,0.0414474805094322,0.0157367253174819,-0.0259690097622668,-0.0121611294967832,1.8723753370488188,-0.7004988393202224,2.7658741485645466,-0.1001711922114948,0.0982780704670275,-0.1004012926538519,1.4584751765431427,0.7859500397909438,-1.0808279313020697,-0.5841603876183782,10.259673425155595,-0.9458188838716528,0.2520320910335408,-0.8815502931703074
0.04,1.8729745943171647,-0.7013604759597831,2.7653335643495405,0.0056629367994902,0.07941866646421,0.0401096710531908,0.0248577128414658,-0.0261207680723775,-0.0303308055432204,1.8723753370488188,-0.7004988393202224,2.7658741485645466,-0.1001711922114948,0.0982780704670275,-0.1004012926538519,1.0165537020121358,0.4560493761991959,-0.0075879155055358,-0.9084838023218594,9.624258829347582,-0.951239880439494,0.2675252216768763,-0.8681518071777633
0.06,1.873469360825624,-0.7018189400979342,2.7645186997182094,-0.0116365634839423,0.0583534663540039,0.0390905864965102,0.0231139003934331,-0.019360075864653,-0.0502726838792978,1.871373625126704,-0.6995160586155521,2.764870135638008,-0.120171192509518,0.1182780707650507,-0.1204012929518751,1.0564401929977068,-0.0871906224016378,0.3380346103862232,-0.9970939168038692,9.193582902686558,-0.9611909411747992,0.2801050238152089,-0.853111764766697
0.08,1.8738089608874708,-0.7020949654499732,2.763367426402794,-0.0274171097667039,0.0365278767190289,0.0386030744364468,0.0121625428353568,-0.0097482268299965,-0.0699325568642453,1.869370201282474,-0.6975504972062115,2.762862109784931,-0.1601711931055645,0.1582780713610971,-0.1604012935479216,1.223550652827796,-0.5475678779038128,0.4805924517328247,-0.982993649247376,9.091987500583857,-0.9753034063310076,0.2913263995247235,-0.8351509312487643
0.1,1.873857059824553,-0.7021599151710026,2.7617428547654903,-0.0432274360250742,0.0144243069663242,0.0385502148902357,-0.0072759628823443,0.0030609577514089,-0.0915704892790199,1.867366777438244,-0.695584935796871,2.760854083931854,-0.2001711937016109,0.1982780719571436,-0.200401294143968,1.589127774412722,-0.971925285885062,0.6404592290702739,-1.0818966207387295,9.06562195559536,-0.9905015917675898,0.3008046273614674,-0.817228786956825
0.12,1.873441953287392,-0.7019416312529427,2.759679008942346,-0.0582511917609767,-0.0047958079685467,0.0388156656321118,-0.0333373736883439,0.0184327807153002,-0.1137796766540834,1.863363353564212,-0.6916193743577281,2.756846058048975,-0.2401711942976574,0.23827807255319,-0.2404012947400144,1.8766579858174528,-1.3030705402999778,0.7685911481945664,-1.110459368753175,9.046602873509528,-1.0041236236818336,0.308385870102574,-0.8021957088790681
0.14,1.8725189725945184,-0.7014262479399553,2.757300389113248,-0.0718365904591688,-0.0193691527943324,0.0391939151745857,-0.0624079941429737,0.0353066536876589,-0.1355238667989713,1.85935992969018,-0.6876538129185853,2.752838032166096,-0.2801711948937039,0.2782780731492366,-0.2804012953360609,2.001648300627183,-1.4535310227314882,0.8436936486179368,-1.0872095072443937,9.076157725751727,-1.0161596906163348,0.3150610300067465,-0.790326909689159
0.16,1.870917732749074,-0.7005006351241635,2.7543411556926563,-0.0850362164419892,-0.0303335817266545,0.0395801855998579,-0.0961649747493088,0.056419878215776,-0.159298640130946,1.8543565058012463,-0.6826882514645413,2.747830006268315,-0.3201711954897503,0.318278073745283,-0.3204012959321073,2.31869674419594,-1.6878490303167548,1.0556612264058525,-1.1887386665987334,9.076157725751727,-1.024743988943709,0.3207615430518099,-0.7833623768784009
0.18,1.8686063217159887,-0.699108388720008,2.7508979036784216,-0.0961609720961695,-0.0361258095760898,0.0398123440612614,-0.1331397091681167,0.0812386494345748,-0.1838236779612124,1.848353081897412,-0.676722689995596,2.7418219803556334,-0.3601711960857967,0.3582780743413294,-0.3604012965281538,2.541938173288471,-1.8487367209403949,1.2409385609399397,-1.2262518915133218,9.078283883658514,-1.0286640832644525,0.3251313584627687,-0.7823938625853769
0.2,1.8657167492525053,-0.697306108524618,2.7471705131074717,-0.1044108100255437,-0.0363870544018338,0.0397425734486904,-0.1685018645692262,0.1067137600847051,-0.2071924499185111,1.8619493362575836,-0.6950464562482793,2.741706719780361,-0.2331397106582328,0.1812386509246909,-0.2838236794513286,2.472631594092028,-1.768107770055474,1.273755532506518,-1.1684385978649348,9.11910118818014,-1.030471317075116,0.327127590611608,-0.7868238203182685
0.22,1.8619239969900576,-0.6947243018497199,2.742969876749182,-0.1065755568259725,-0.0309760892690728,0.0395320839636347,-0.2082065391925093,0.1483410939694908,-0.2101786296867951,1.8619493362575836,-0.6950464562482793,2.741706719780361,-0.2331397106582328,0.1812386509246909,-0.2838236794513286,2.880196774052391,-1.9852337311641584,2.081366694239283,-0.1493089884141984,9.11910118818014,-1.033594774309629,0.3256194394749628,-0.7877045111048996
0.24,1.8573909515388165,-0.6913955414480154,2.738744029450897,-0.1017522888016251,-0.0203980333926027,0.0392800647012795,-0.2423125308652236,0.1810953262123237,-0.2123018944014438,1.8619493362575836,-0.6950464562482793,2.741706719780361,-0.2331397106582328,0.1812386509246909,-0.2838236794513286,2.3667312114207006,-1.7052995836357137,1.6377116121416428,-0.1061632357324371,10.300706877354967,-1.031282616136203,0.3219545759224565,-0.7921890122948392
0.26,1.852239912696563,-0.6874943838598212,2.734441830550111,-0.0947782045086332,-0.006987847392071,0.0389605539127556,-0.2704703012770589,0.2070015036583622,-0.2179213216486958,1.859617939151001,-0.6932340697390325,2.7388684829858474,-0.253139710956256,0.2012386512227141,-0.3038236797493518,1.9336287305338784,-1.4078885205917655,1.2953088723019284,-0.2809713623625989,9.999730738419204,-1.0254779730569368,0.3173503163250539,-0.8012938878586202
0.28,1.8468789317859775,-0.6833492702435277,2.730209900363718,-0.0880897504001572,0.0067184178136689,0.0386579848178496,-0.2920508898512959,0.2280062639328455,-0.2272247851390949,1.8549551449378363,-0.6896092967205386,2.733192009396821,-0.2931397115523024,0.2412386518187606,-0.3438236803453982,1.57597286645122,-1.07902942871185,1.0502380137241654,-0.4651731745199561,9.999730738419204,-1.0167670327208,0.3121664897931935,-0.8147034013258534
0.3,1.8408431953618691,-0.6785808771289459,2.725528039556971,-0.0818026617198259,0.0208147593699605,0.0384060505431136,-0.310039419385856,0.2477741205166142,-0.2406668625999154,1.850292350724672,-0.6859845237020448,2.7275155358077945,-0.3331397121483489,0.281238652414807,-0.3838236809414447,1.4958649631524927,-0.8994264767280019,0.9883928291884336,-0.6721038730410245,9.735434819898728,-1.0064461432656475,0.3073918203893202,-0.8298801725311318
0.32,1.834490514234484,-0.6734329963277129,2.7205396515374143,-0.0765376710624466,0.0336003783910189,0.0382640164935454,-0.3241131818795738,0.2661160671954913,-0.2576807917471229,1.843629556481705,-0.6803597506537487,2.719839062188965,-0.3731397127443953,0.3212386530108534,-0.4238236815374911,1.4352452610325377,-0.7036881246858917,0.9170973339438532,-0.8506964573603711,9.321489040143206,-0.9953952986083044,0.3032639905870644,-0.8454466843431907
0.34,1.8278909200822653,-0.6679290590262951,2.715184991318164,-0.0723021791900011,0.04443024402509,0.0382513533977701,-0.3351130159642571,0.283544603974703,-0.2769772320072016,1.8369667622387376,-0.6747349776054524,2.7121625885701364,-0.4131397133404418,0.3612386536069,-0.4638236821335376,1.4116504975255757,-0.5499917042341623,0.8714268389605873,-0.9648220130039352,9.321489040143206,-0.9854420859644188,0.299786559413152,-0.8594148284694284
0.36,1.8210899591950205,-0.6620739378357764,2.7094262478043536,-0.0686807073273269,0.0531783226248399,0.0383788730988775,-0.3444242965343424,0.301062095653186,-0.2979651034179576,1.8293039679808696,-0.6681102045422551,2.7034861149364064,-0.4531397139364883,0.4012386542029464,-0.503823682729584,1.4439989672044435,-0.4655640285042672,0.8758745839241494,-1.0493935705378017,9.22222999182577,-0.9756517201015412,0.2965940254490341,-0.8728131733215012
0.38,1.8144678436096595,-0.6561901712704766,2.703552853956652,-0.0654858067172141,0.0597277993297575,0.0386230298048853,-0.3521894306998458,0.3173347593734048,-0.3192598505997688,1.8206411737081003,-0.6604854314641567,2.6938096412877752,-0.4931397145325347,0.4412386547989928,-0.5438236833256305,1.3951372250578515,-0.3882567082751698,0.8136331860109369,-1.0647373590905618,9.149991461639727,-0.9669282974956444,0.2934805911197552,-0.8848573774191256
0.4,1.807345191560243,-0.6496697231859198,2.6969190112776054,-0.0623019577345237,0.065010921276266,0.0389849591229811,-0.3596631891309147,0.3337849627309415,-0.343079111431552,1.796858372074667,-0.6403234333018064,2.687589861426663,-0.4521894321899619,0.4173347608635209,-0.419259852089885,1.4948440070478963,-0.373687921553445,0.822510167876836,-1.1909630415891574,9.087953670833484,-0.959892309817787,0.2905323681519757,-0.8946919106367296
0.42,1.8001104299285346,-0.6428154785882926,2.6900790196731608,-0.0595114358933088,0.068402753654377,0.0394417842494437,-0.3634344891689879,0.3509575589541381,-0.3382954668427358,1.796858372074667,-0.6403234333018064,2.687589861426663,-0.4521894321899619,0.4173347608635209,-0.419259852089885,0.9110488743396642,-0.1885650019036622,0.8586298111598306,0.2391822294408069,9.021585171313744,-0.9653288849220856,0.2876409005274299,-0.8906853656057933
0.44,1.7928074202977358,-0.6356319736866192,2.683339520695752,-0.0575499848127964,0.0695438090726191,0.0399719783012305,-0.3668351895288078,0.3666884778305131,-0.3363754557438926,1.796858372074667,-0.6403234333018064,2.687589861426663,-0.4521894321899619,0.4173347608635209,-0.419259852089885,0.8104212087736404,-0.1700350179909909,0.7865459438187505,0.0960005549421605,10.756274685669268,-0.9635430659147252,0.2878801301768507,-0.8907868585820733
0.46,1.7858009974329143,-0.6285187740939162,2.676907733840588,-0.0565063076510425,0.068620662410904,0.0405274490800212,-0.3706456289957645,0.3813574007884707,-0.3407219744763481,1.7923364777527673,-0.6361500856931712,2.683397262905764,-0.4721894324879852,0.4373347611615441,-0.4392598523879081,0.7883352313093438,-0.1905219733478347,0.7334461478978788,-0.2173259366227753,10.365983777890506,-0.9628886988124454,0.2883126900795693,-0.8902384054979162
0.48,1.7783392201802275,-0.6207352037332965,2.670001775700542,-0.0561929179256002,0.0656653289072224,0.0411620441398963,-0.375472342884417,0.3962626917559345,-0.3498382106454731,1.7832926891089682,-0.6278033904759007,2.6750120658639664,-0.5121894330840316,0.4773347617575906,-0.4792598529839546,0.9063258625888004,-0.2413356944326261,0.7452645483731923,-0.4558118084562496,10.024327663722032,-0.964281640849222,0.2890121399338638,-0.8878973525987728
0.5,1.7707672414061066,-0.6126562509206867,2.6628742036604147,-0.0567414149399766,0.0608186416717058,0.0418386940319252,-0.3817834666298793,0.4109260343578466,-0.3626008850767039,1.774248900465169,-0.6194566952586303,2.666626868822169,-0.5521894336800781,0.5173347623536371,-0.519259853580001,1.0219219121698828,-0.3155561872731166,0.733167130095605,-0.6381337215615374,9.766406961352004,-0.9669644493182636,0.2901078607671519,-0.8844372447781307
0.52,1.763040774122581,-0.6042853433191545,2.655458822972496,-0.0581590936726941,0.054756995263208,0.0425262366752061,-0.3908181939708197,0.4255115377320794,-0.378282871914964,1.7632051117915677,-0.6091100000115576,2.6562416717505686,-0.5921894342761246,0.5573347629496835,-0.5592598541760475,1.1622047130349449,-0.4517363670470176,0.7292751687116406,-0.7840993419130055,9.574814467027863,-0.9706533044711778,0.2915245048480057,-0.8801176822044551
0.54,1.7555086044770734,-0.5960598331751508,2.648115043882652,-0.0602607468056052,0.0486804428004058,0.0431548355410517,-0.4017493811486489,0.4397562953610367,-0.3939590976269649,1.7521613231179658,-0.5987633047644849,2.645856474678969,-0.632189434872171,0.59733476354573,-0.599259854772094,1.191792794069165,-0.546559358891463,0.7122378814478636,-0.7838112856000473,9.398091779822607,-0.9759971460238496,0.2934661875322419,-0.8739391745933267
0.56,1.747329437174875,-0.5870881085793079,2.640055751052621,-0.0626165696355432,0.0426658258798613,0.0437978771647676,-0.4157252342921476,0.4566467475392036,-0.4111655670323524,1.740117534429463,-0.587416609502511,2.634471277592468,-0.6721894354682174,0.6373347641417764,-0.6392598553681403,1.3934439666435434,-0.698792657174932,0.8445226089083435,-0.8603234702693724,9.368810086200938,-0.9814442449456884,0.2955554940386408,-0.8674422458125709
0.58,1.7388438240523336,-0.5777647516813533,2.6316455511545085,-0.0643448573853471,0.0378151340635594,0.0444220373133962,-0.4322130069913449,0.4746167917665722,-0.4289756317367312,1.7270737457260592,-0.5750699142256359,2.6220860804910653,-0.7121894360642639,0.6773347647378228,-0.6792598559641868,1.509940017755791,-0.8243886349598661,0.8985022113684321,-0.8905032352189424,9.350631292347316,-0.9859569203815788,0.2970891484824599,-0.8621656074247632
0.6,1.730003186829924,-0.5680751032964744,2.6228714039329284,-0.065093710349458,0.0350280607770223,0.0449831451048058,-0.4510524693046769,0.4932574741022498,-0.4475338738357708,1.7172331737027664,-0.5540339120930247,2.610196769567672,-0.532213008481461,0.5746167932566884,-0.5289756332268474,1.6177211811694148,-0.9419731156666028,0.932034116783878,-0.9279121049519806,9.350631292347316,-0.9887740313492516,0.2977852072901481,-0.8590887553451066
0.62,1.7212173637267556,-0.5584680643748533,2.6144688112923022,-0.0634508146651762,0.0360034742842832,0.0454392116744461,-0.4721115740936124,0.5164518214337207,-0.4358960852046104,1.7172331737027664,-0.5540339120930247,2.610196769567672,-0.532213008481461,0.5746167932566884,-0.5289756332268474,1.671004014707808,-1.0529552394467734,1.1597173665735454,0.5818894315580248,9.324979404841542,-0.999518426232275,0.2966492510699828,-0.8468264156971476
0.64,1.7115721450877377,-0.547919674669572,2.605841238628369,-0.0592150678939896,0.0408459008684905,0.0458506675919386,-0.4908104863211031,0.5365233276219628,-0.4278059394018864,1.7172331737027664,-0.5540339120930247,2.610196769567672,-0.532213008481461,0.5746167932566884,-0.5289756332268474,1.4300044914836545,-0.9349456113745324,1.0035753094121025,0.4045072901361968,11.20740825901703,-0.9991109794809117,0.2954504819172157,-0.8453620858194761
0.66,1.701589470738656,-0.5370112279599993,2.5973025006798616,-0.0544446204072967,0.047943168507316,0.0461793385839599,-0.5061441908641698,0.5531762454575928,-0.4267470693319239,1.711911043617952,-0.5482877441604578,2.6049070132354037,-0.5522130087794842,0.5946167935547115,-0.5489756335248706,1.1330968331075837,-0.7666852271533381,0.8326458917815027,0.0529435034981234,10.73946860535034,-0.9952038698271136,0.2934444680650342,-0.849132351339867
0.68,1.6918523074530487,-0.5263610880421966,2.589144363297588,-0.0501652617101965,0.055625610160255,0.0464428136838214,-0.5178015617151087,0.5670890454810691,-0.4320213321062569,1.7012667834483226,-0.536795408295324,2.5943275005708664,-0.5922130093755307,0.634616794150758,-0.588975634120917,0.9450901378470142,-0.5828685425469438,0.695640001173814,-0.263713138716648,10.297002782287564,-0.9890119125687258,0.290868846617482,-0.8564758626202089
0.7000000000000001,1.6813924201392378,-0.5148790212042199,2.580398136435258,-0.0462427432266493,0.0637678133058226,0.0466973916017928,-0.5273625243689788,0.5804316120601957,-0.4425580290461161,1.6906225232786931,-0.5253030724301903,2.583747987906329,-0.6322130099715771,0.6746167947468045,-0.6289756347169635,0.9752667227348129,-0.4780481326935037,0.667128328956329,-0.5268348469929574,9.935729259087566,-0.9820923153541008,0.2883930478388468,-0.864912297199108
0.72,1.6707657012841493,-0.5031389598495343,2.571393889654068,-0.0429976651056974,0.0712923358806871,0.0469485951577104,-0.5347004635006225,0.5929700641544772,-0.457530009729822,1.6779782630792617,-0.5118107365352542,2.5711684752119903,-0.6722130105676236,0.7146167953428509,-0.66897563531301,1.0430943596021929,-0.3668969565821856,0.6269226047140752,-0.748599034185296,9.650354169622917,-0.9747887273610676,0.2860409809739351,-0.8740419931153405
0.74,1.660012905841573,-0.4911545714313038,2.5620610443289373,-0.0404139834117767,0.0777325563188794,0.0472080817099578,-0.5401912131258906,0.6049667523389524,-0.4750144440821843,1.6653340028798302,-0.498318400640318,2.5585889625176508,-0.7122130111636701,0.7546167959388974,-0.7089756359090564,1.095187544972295,-0.2745374812634038,0.5998344092237595,-0.8742217176181177,9.313127546916803,-0.9683311722058424,0.2839364741044899,-0.8823996791980537
0.76,1.649704760609999,-0.4795422565979733,2.552854806747096,-0.0382340364327672,0.0827552334574719,0.0474811217197757,-0.5445850507406645,0.6167012783175817,-0.4931977277746776,1.6516897426654975,-0.4838260647304808,2.5450094498084104,-0.7522130117597164,0.7946167965349438,-0.7489756365051028,1.1041248964336208,-0.2196918807386982,0.586726298931467,-0.909164184624664,9.313127546916803,-0.962116750771664,0.2818679059138547,-0.8904492528716117
0.78,1.6387704176158804,-0.4670808927581482,2.5427750346293894,-0.0359725042477678,0.0870088886365983,0.0478035095506967,-0.5485913325383703,0.6287310017548093,-0.5139002788972898,1.6370454824362637,-0.4683337288057424,2.530429937084269,-0.7922130123557629,0.8346167971309902,-0.7889756371011493,1.213837059496851,-0.2003140898852895,0.6014861718613818,-1.0351275561306106,9.237348028291308,-0.9565248535320452,0.2796911869687433,-0.8978775879484318
0.8,1.6277606279162578,-0.4543822398935092,2.5322665615464173,-0.0336590695616126,0.0903391036828908,0.0481577890224973,-0.5521728762332948,0.6404220453989486,-0.5359693223074805,1.611340850988962,-0.4356443426704077,2.5170800206845247,-0.6485913340284865,0.7287310032449255,-0.613900280387406,1.2614977544259676,-0.1790771847462235,0.5845521822069655,-1.1034521705095337,9.096307318123763,-0.9516993898213186,0.2774126894491229,-0.9044710444846984
0.8200000000000001,1.6167042411343284,-0.441438642461012,2.521617374748783,-0.0310907142159651,0.0930565300139228,0.0485433200924427,-0.5531020893193631,0.6532068556060077,-0.5262267473652317,1.611340850988962,-0.4356443426704077,2.5170800206845247,-0.6485913340284865,0.7287310032449255,-0.613900280387406,0.8050350543534982,-0.0464606543034151,0.6392405103529508,0.4871287471124419,9.096307318123763,-0.9554487756187646,0.2740109548452994,-0.9038097145247294
0.84,1.6061960839840874,-0.4289259410499806,2.51168831893445,-0.0288311900833808,0.0950784995748315,0.0489061340777293,-0.5530160900563921,0.6633575838568689,-0.519947157769992,1.611340850988962,-0.4356443426704077,2.5170800206845247,-0.6485913340284865,0.7287310032449255,-0.613900280387406,0.5968205873223271,0.0042999631485518,0.5075364125430637,0.3139794797619832,11.06891516584892,-0.9532540797961818,0.2740423700071398,-0.9039885646052712
0.86,1.5951380934375257,-0.415553637728592,2.5012897316123457,-0.0270711868883978,0.096256773238865,0.0492617103985678,-0.5528766174306635,0.6734056310185499,-0.5205284824518059,1.6048549376486771,-0.4283570326379585,2.5109410178806506,-0.6685913343265096,0.7487310035429486,-0.6339002806854291,0.5032907776881529,0.0069736312864276,0.5024023580840475,-0.0290662340906966,10.620537203551976,-0.9509912341624228,0.2738789090780454,-0.9051181422463238
0.88,1.5840803547597355,-0.401986179018383,2.4908124691700357,-0.0259553021576233,0.0963379965831921,0.0495896749370431,-0.5530286446635386,0.6829046780212212,-0.5271385239165611,1.5918831109681073,-0.41378241257306,2.4986630122729028,-0.7085913349225561,0.7887310041389951,-0.6739002812814756,0.5786787848285914,-0.0076013616437553,0.4749523501335673,-0.3305020732377595,9.907171841246964,-0.949515996817514,0.2737506947332076,-0.9059857628496092
0.9,1.5730156804252005,-0.3882343313492206,2.48015704744181,-0.0255935655953136,0.095287366387841,0.0498819960563482,-0.5535249393307582,0.691885073173441,-0.5380617867958759,1.5789112842875377,-0.3992077925081614,2.4863850066651545,-0.7485913355186026,0.8287310047350416,-0.7139002818775221,0.7074805252042949,-0.0248147333609782,0.4490197576109855,-0.5461631439657388,9.907171841246964,-0.9493073347603064,0.2739871653230465,-0.905719936455004
0.92,1.562491868150014,-0.3750071299427495,2.469800489166632,-0.0260930411689432,0.093121036684886,0.0501213481747912,-0.5543149977703515,0.7000962893763957,-0.5515455122471112,1.5639394575771657,-0.3826331724134606,2.472107001027604,-0.788591336114649,0.868731005331088,-0.7539002824735686,0.7903466263512648,-0.0395029219796672,0.4105608101477365,-0.6741862725617664,9.676077389546665,-0.9500913107730352,0.274619127102746,-0.9046813969915866
0.94,1.5513938594896863,-0.3609165781127851,2.4586089192441083,-0.0276607809690402,0.0894502272597683,0.050332258626102,-0.5555607987735733,0.70862834648761,-0.5669412710960297,1.5489676308667937,-0.3660585523187598,2.4578289953900536,-0.8285913367106955,0.9087310059271344,-0.793900283069615,0.8822944650493687,-0.0622900501610901,0.4266028555607148,-0.7697879424459209,9.501864865062087,-0.9524209294758657,0.2759756493553114,-0.9019954500705089
0.96,1.5402567368445177,-0.3466402108482706,2.4471032413557583,-0.0299882548020654,0.0844156376211973,0.050531246100783,-0.5583491745701338,0.7186720902420837,-0.5828446906980329,1.5329958041415204,-0.3484839322091578,2.442550989737602,-0.8685913373067419,0.9487310065231808,-0.8339002836656614,0.950750470977736,-0.1394187898280219,0.502187187723685,-0.7951709801001627,9.437759866201304,-0.9553508135873078,0.2778459281497906,-0.8984809616631458
0.98,1.5296012692257537,-0.3328744394048742,2.4358750243971112,-0.0321031609930069,0.0789790834561424,0.0507539743342295,-0.563306368456452,0.7297405535794614,-0.5982644072814682,1.516023977401346,-0.3299093120846547,2.426272984070249,-0.9085913379027885,0.9887310071192272,-0.8739002842617078,0.9808826527557932,-0.2478596943159106,0.5534231668688883,-0.7709858291717664,9.415014594574131,-0.959869562403729,0.2799041685721432,-0.8930103931311069
1.0,1.5182607087358024,-0.3181505824918738,2.42373358774265,-0.0337871334259124,0.0732665052778004,0.0510318431900654,-0.5706374620422326,0.7419607409413288,-0.6150853170267988,1.5014359508029311,-0.2963874117259011,2.405961804033038,-0.6633063699465681,0.8297405550695776,-0.6982644087715844,1.1022941043378285,-0.3665546792890328,0.6110093680933681,-0.8410454872665285,9.398882503986895,-0.9650128340616688,0.281577047738508,-0.8868352135800103
1.02,1.5067184746008655,-0.3031311212373583,2.4115525759273013,-0.0335027325583274,0.0697916284193604,0.0513684861428468,-0.5834696885785461,0.7590368498175396,-0.6005644075214138,1.5014359508029311,-0.2963874117259011,2.405961804033038,-0.6633063699465681,0.8297405550695776,-0.6982644087715844,1.2914297746055068,-0.641611326815672,0.8538054438105402,0.7260454752692491,9.364077008931416,-0.9723736139319948,0.2786370302276478,-0.8835314031105285
1.04,1.4949126368127503,-0.2877908709182563,2.3996635022934742,-0.0306424525315126,0.0707488037678147,0.0517228356731355,-0.595872914679099,0.7738800936202337,-0.5891940418478676,1.5014359508029311,-0.2963874117259011,2.405961804033038,-0.6633063699465681,0.8297405550695776,-0.6982644087715844,1.12188136609649,-0.6201613050276444,0.7421621901347042,0.5685182836773106,10.950329071216402,-0.9753203731716796,0.2790841619648423,-0.8772509684079516
1.06,1.4834936180457072,-0.2729719927064002,2.3885084064793745,-0.026775647947827,0.0743137095018928,0.0520512886495758,-0.6051845266380261,0.7850056338624516,-0.5855543315454206,1.4948028871034655,-0.2880900061752053,2.398979159945322,-0.6833063702445913,0.8497405553676007,-0.7182644090696075,0.7478824340104939,-0.4655805979463578,0.5562770121108951,0.1819855151223515,10.471453991148335,-0.9742832908837212,0.2778909297718296,-0.8765714194701846
1.08,1.4713094988979547,-0.257171706058349,2.3767767749923694,-0.0227610584922866,0.0794991482538626,0.0523568663149154,-0.6124925893153204,0.7944267896335756,-0.5880867039411414,1.481536759704534,-0.2714951950738138,2.3850138717698903,-0.7233063708406378,0.8897405559636472,-0.758264409665654,0.609464654655323,-0.3654031338647112,0.4710577885562006,-0.1266186197860397,10.471453991148335,-0.970734353607785,0.2761296873044426,-0.8795248567093836
1.1,1.4590021396832586,-0.2411968010345378,2.364927460281795,-0.0192875034242282,0.0851226036483208,0.0526196035467856,-0.617719843771799,0.8026930142955824,-0.5966991623105303,1.4682706323056027,-0.2549003839724222,2.3710485835944586,-0.7633063714366842,0.9297405565596936,-0.7982644102617005,0.6515924694162807,-0.2613627228239323,0.4133112331003385,-0.4306229184694476,10.08145139116823,-0.9659882320847925,0.2744781300809839,-0.8841721147850007
1.12,1.4472303176455237,-0.2258746233149281,2.353466626535537,-0.0165802303273393,0.0902219009577154,0.0528351697326854,-0.6210935490080047,0.8098735756843807,-0.6092771003772004,1.453004504876869,-0.2363055728412283,2.3550832953892247,-0.8033063720327307,0.96974055715574,-0.8382644108577469,0.7435503931948576,-0.1686852618102863,0.359028069439915,-0.6288969033335035,9.522044071972232,-0.9606615488762348,0.2727426844255025,-0.8898808852307704
1.14,1.4347848708194495,-0.209603743409153,2.341119041774704,-0.0143844877938797,0.0948733697186697,0.0530270280946166,-0.6232265392815001,0.8169428495148393,-0.6249301252951637,1.4377383774481354,-0.2177107617100345,2.3391180071839908,-0.8433063726287772,1.0097405577517866,-0.8782644114537934,0.8653633183224434,-0.1066495136747669,0.3534636915229316,-0.7826512458981638,9.522044071972232,-0.955480196221529,0.2709525388109058,-0.8960169717066115
1.16,1.422304114729444,-0.1931851693564839,2.328437926208428,-0.0125421164816242,0.09861314421581,0.053202028254475,-0.6247381086925318,0.8245020838701966,-0.6424005977527302,1.4214722500045005,-0.1981159505639394,2.322152718963856,-0.8833063732248235,1.049740558347833,-0.9182644120498398,0.9547830565292972,-0.0755784705515849,0.3779617177678662,-0.873523622878325,9.399507098061804,-0.950898133355909,0.2693339923689951,-0.9015568153378842
1.18,1.4104233847345362,-0.1774473673491102,2.316053365369966,-0.0108006501308584,0.1013979594841108,0.0533701694803364,-0.6257928749349526,0.831633527566846,-0.6603692697588763,1.4042061225459643,-0.1775211394029432,2.304187430728819,-0.92330637382087,1.0897405589438791,-0.9582644126458862,0.9680433805996144,-0.0527383121210423,0.356572184832471,-0.8984336003073079,9.318952795795669,-0.946637349657073,0.2675054818091613,-0.9068953426181896
1.2,1.3978983025449458,-0.1607390033323358,2.3026332083135226,-0.0089226091542694,0.1036110756377845,0.0535489154138894,-0.6266620217867932,0.8387473066518112,-0.680773555172686,1.3791337409877886,-0.1358656909707679,2.283034901882022,-0.7257928764250687,0.9316335290569622,-0.7603692712489925,1.0813141684634928,-0.0434573425920292,0.3556889542482566,-1.0202142706904838,9.249213699900793,-0.9428568998227485,0.2655297898886357,-0.9118123376158668
1.22,1.3853720495070443,-0.1438778361027174,2.2891146087628966,-0.006614367247988,0.1057555166571433,0.053747814152017,-0.6256556090171244,0.8467379655486027,-0.6683989070254492,1.3791337409877886,-0.1358656909707679,2.283034901882022,-0.7257928764250687,0.9316335290569622,-0.7603692712489925,0.7382333862602941,0.050320638483442,0.3995329448395757,0.6187324073618383,9.172015814529914,-0.9438763783520238,0.2584412690685143,-0.9190486327191948
1.24,1.3728831363973486,-0.1268831366950218,2.2758485933488264,-0.0043086556090566,0.1080810610686369,0.0539345973651498,-0.6232623892508135,0.8524144244967372,-0.6593617105417666,1.3791337409877886,-0.1358656909707679,2.283034901882022,-0.7257928764250687,0.9316335290569622,-0.7603692712489925,0.5468560306982156,0.1196609883155452,0.2838229474067255,0.4518598241841309,11.240862137366094,-0.9422303087043272,0.2589847605346955,-0.9178914358703596
1.26,1.3610694855290026,-0.1106406496347879,2.2633344913831537,-0.002692753080467,0.1097853316140315,0.0540641979136006,-0.6204590623882242,0.857164301538089,-0.658331902010844,1.371875812223538,-0.1265493556801983,2.275431209169532,-0.7457928767230919,0.9516335293549854,-0.7803692715470156,0.2805373371622569,0.1401663431294608,0.2374938520675884,0.0514904265461302,10.765904229085208,-0.9397222266269376,0.2595599680950795,-0.9179361307740224
1.28,1.3486932614175735,-0.0934517917516078,2.250124351158369,-0.0017472990473089,0.1106755137389112,0.054138975352638,-0.6174021229473743,0.8615292564583745,-0.6629858106680298,1.3573599546950366,-0.107916685099059,2.2602238237445524,-0.7857928773191384,0.9916335299510318,-0.8203692721430621,0.353753360374772,0.1528469720424974,0.2182477460142773,-0.2326954328592867,10.328351012757594,-0.9381573057169146,0.260100229427753,-0.9178070988875744
1.3,1.3363775358542451,-0.0761816045079252,2.2367660277618047,-0.0018621783061355,0.1104059468519387,0.0541305516066989,-0.6144423428520308,0.8654104420619122,-0.6725862208592243,1.3428440971665352,-0.0892840145179198,2.2450164383195728,-0.8257928779151849,1.0316335305470783,-0.8603692727391086,0.5384973902933303,0.1479890047671739,0.1940592801768836,-0.4800205095597254,9.99761258788476,-0.9372662642403864,0.2608647206351752,-0.9176390105100914
1.32,1.3241197590712108,-0.0588359579981979,2.223179203747814,-0.0032368952249637,0.1087624631972252,0.0540289112935786,-0.6115964508677719,0.8691253231310774,-0.6856009994757624,1.3263282396082314,-0.0686513439069782,2.2278090528647905,-0.8657928785112313,1.0716335311431249,-0.900369273335155,0.6915271234405926,0.1422945992129443,0.1857440534582588,-0.6507389308269051,9.74731818806049,-0.9377276638950762,0.2622073896114602,-0.916387978751301
1.34,1.312527285154622,-0.0422861619826351,2.210019993851214,-0.0058122622169662,0.1056440253133896,0.0538488168287657,-0.6089459300554051,0.8731119832108584,-0.6989119218183053,1.3098123820499277,-0.0480186732960366,2.210601667410008,-0.9057928791072778,1.1116335317391712,-0.9403692739312016,0.7072824272836806,0.1325260406183415,0.1993330039890495,-0.6655461171271471,9.56582226262799,-0.939808286103972,0.2642361409937028,-0.913833050693126
1.36,1.3003678891184778,-0.0247550612025532,2.1958904534538863,-0.0090363658685378,0.100605884435333,0.0536441149124594,-0.6074341647536051,0.8798586411108704,-0.7133473731026596,1.2922965244767228,-0.0263860026701939,2.192394281940325,-0.9457928797033242,1.1516335323352176,-0.980369274527248,0.8002891367038663,0.0755882650899986,0.3373328950006027,-0.7217725642177153,9.515322881679822,-0.9433199472418836,0.2668465575053506,-0.909450204233234
1.38,1.2882124298668944,-0.0070727510332741,2.1814707822273887,-0.0118936617871406,0.0943477372331144,0.0534917471976948,-0.6084622178742056,0.8879500355589325,-0.7278877282904628,1.273780666888617,-0.00375333202945,2.1731868964557406,-0.9857928802993706,1.191633532931264,-1.0203692751232942,0.8335908563563729,-0.0514026560300251,0.404569722403103,-0.7270177593901583,9.488371592454314,-0.9483790955935442,0.2691824028519961,-0.9034717614000668
1.4,1.276009764389968,0.0107790438115316,2.166758076989052,-0.0140701676580789,0.087669467790173,0.0534059532350046,-0.6119455578811562,0.8966348262921249,-0.7426383017839112,1.257789318973184,0.0373247507446724,2.1450763958128656,-0.7084622193643217,0.954456533120864,-0.8278877297805789,0.8734109371724612,-0.1741670003475304,0.4342395366596197,-0.7375286746724219,9.479962560548302,-0.953966588637318,0.2708897168120202,-0.8970478843592226
1.42,1.2642944839867518,0.0280664010384004,2.152811784878489,-0.0102361182135099,0.0832376909200701,0.0537030012795039,-0.6209371040653485,0.9196285493859968,-0.7245613995989513,1.257789318973184,0.0373247507446724,2.1450763958128656,-0.7084622193643217,0.954456533120864,-0.8278877297805789,1.5299784288550662,-0.4495773092096145,1.149686154693591,0.9038451092479972,9.464487100263796,-0.9592010638457826,0.2626074241336636,-0.9001448217413494
1.44,1.2517758562118613,0.0465958123176557,2.138475903556269,0.0001194816406006,0.0826567153396621,0.0543741972648455,-0.6299311144131737,0.9309274985731512,-0.710386625302444,1.257789318973184,0.0373247507446724,2.1450763958128656,-0.7084622193643217,0.954456533120864,-0.8278877297805789,1.0117839458446785,-0.4497005173912605,0.5649474593577286,0.7087387148253632,11.065822545570882,-0.964310842556835,0.2581694692629868,-0.8914738973807532
1.46,1.239102561454347,0.0652629832663985,2.124330670712697,0.0118473225599078,0.0848478874786689,0.0551202864422621,-0.6366756611630809,0.9348560886420928,-0.7052265669322075,1.250704696779541,0.046869316075881,2.13679751851506,-0.7284622196623449,0.9677578326332504,-0.8478877300786021,0.4678379344808367,-0.3372273374953605,0.196429503447082,0.2580029185118238,11.065822545570882,-0.9645963681745674,0.2514494126930856,-0.8899599500221811
1.48,1.2263152500991372,0.0839600793105475,2.1101934285585235,0.0229896681845064,0.0884810169018522,0.0558471927697545,-0.6415041961088442,0.9346400727489514,-0.7087247918012707,1.2365354523922545,0.0659584467382983,2.120239763919448,-0.7684622202583914,0.994360431658023,-0.8878877306746485,0.2983244451225835,-0.2414267472881648,-0.0108007946570731,-0.1749112434531574,10.494334894767237,-0.9617955582130356,0.2441010329038145,-0.8934621229830153
1.5,1.2140945003998398,0.1016916483867796,2.096634337852493,0.0323807691934358,0.0923884501453631,0.0564778949989775,-0.6445471631579585,0.9319943073332718,-0.7183699962604303,1.222366208004968,0.0850475774007156,2.1036820093238364,-0.8084622208544379,1.0209630306827957,-0.927887731270695,0.5227085520531347,-0.152148352455711,-0.1322882707839812,-0.4822602229579809,10.029626934537191,-0.9573708887838328,0.2360761514734016,-0.8999399406783446
1.52,1.2011823560508328,0.120284715340155,2.0821118126172373,0.0408253457305062,0.0963433813678633,0.0570475155369488,-0.6464413166786747,0.9275633639983646,-0.733605824006954,1.206196963587879,0.1054668380143715,2.0851242546984223,-0.8484622214504843,1.0475656297075684,-0.9678877318667416,0.7989861130190883,-0.0947076760358101,-0.2215471667453616,-0.7617913873261828,9.675438099444364,-0.9522789991154996,0.2282563990594437,-0.90780622634269
1.54,1.1882448702572397,0.1387745737762787,2.067251675393638,0.047766978900327,0.099696655362126,0.0574913849330298,-0.6471945028280053,0.9217994881116418,-0.7517474199533098,1.1900277191707906,0.1258860986280275,2.0665665000730087,-0.8884622220465308,1.074168228732341,-1.007887732462788,0.952505981731774,-0.037659307466531,-0.288193794336139,-0.9070797973177946,9.405476150725008,-0.9472704614974988,0.2206279661809358,-0.9163331101095968
1.56,1.1752974823882587,0.1571434026652289,2.052007650162413,0.0534291936103362,0.1022958929099733,0.057804747272145,-0.6475257294972593,0.9155132826363036,-0.7717501325253691,1.172858474738801,0.1469704242173027,2.0470087454326937,-0.9284622226425772,1.1007708277571135,-1.0478877330588343,1.048492489988616,-0.0165613334627001,-0.3143102737669045,-1.0001356286029606,9.278615988744605,-0.9427587598475172,0.2138868154256338,-0.924299600463654
1.58,1.1629939819526585,0.1744716320496219,2.037141649271787,0.0579091506477043,0.1041375708378684,0.0579951136385574,-0.6475868526264775,0.90893384989543,-0.7920986933648083,1.1546892302919096,0.1687198147821972,2.026450990777477,-0.9684622232386236,1.1273734267818862,-1.087887733654881,1.0692948604863008,-0.0030561564609121,-0.3289716370436846,-1.0174280419719628,9.201039650758505,-0.938495156924093,0.2072723993727966,-0.9321969200520376
1.6,1.1500431708830614,0.1925713002142465,2.02106141967606,0.0618242101065048,0.1054846335372027,0.0580893046835934,-0.6475122479927672,0.901441326876393,-0.814921592421409,1.1306146393213343,0.2199183245443934,1.9975367146035468,-0.7475868541165936,0.9010642104615096,-0.8920986948549244,1.2010705520388438,0.003730231685517,-0.3746261509518511,-1.1411449528300366,9.070872260506803,-0.9346647125155716,0.2011355346711828,-0.939608363177154
1.62,1.1371035260870122,0.2106635332930117,2.004838683687734,0.0704441509990199,0.1068152740053668,0.0584911811626046,-0.6460754951282582,0.9051547881668356,-0.8047013792860664,1.1306146393213343,0.2199183245443934,1.9975367146035468,-0.7475868541165936,0.9010642104615096,-0.8920986948549244,0.5484223055299642,0.0718376432254475,0.1856730645221349,0.5110106567671302,9.070872260506803,-0.9349716602133424,0.1865468873013911,-0.9495412008991672
1.64,1.124213907112397,0.2286767284636338,1.988810704299463,0.0833187031245895,0.1083276237398695,0.0591803423128893,-0.6429267129458704,0.8954155838315527,-0.7992274990263355,1.1306146393213343,0.2199183245443934,1.9975367146035468,-0.7475868541165936,0.9010642104615096,-0.8920986948549244,0.5803668999313915,0.1574391091193894,-0.4869602167641484,0.2736940129865473,11.09298302748448,-0.9332196789343056,0.1771409214639203,-0.9513563977429492
1.66,1.1113941294487402,0.2464415427156461,1.9727936033209117,0.0963227853892378,0.1093083946342105,0.0598084055628331,-0.6392689105209379,0.8812193562657368,-0.8027616738937262,1.1231387707801683,0.2289289666490085,1.9886157276549976,-0.7675868544146168,0.8994902825747255,-0.9120986951529476,0.7539940113713955,0.182890121246626,-0.7098113782907978,-0.1767087433695358,10.577139996622464,-0.9302408461484376,0.165441555434355,-0.955928791874298
1.68,1.0992847886519623,0.2630311472619034,1.9574493011565084,0.1081769982749086,0.10938229072872,0.0602533259008627,-0.6356776786293133,0.8655048264632453,-0.8122717974844659,1.1081870336978368,0.2469502508582387,1.970773753757899,-0.8075868550106633,0.8963424268011574,-0.952098695748994,0.9357962440135622,0.179561594581229,-0.785726490124572,-0.475506179536983,10.113959127276756,-0.9274899881432708,0.1527079711664128,-0.961519166125345
1.7,1.0866118029514176,0.2801505112704189,1.9410533767931597,0.1200404170374138,0.1082902228479138,0.0605007845854704,-0.6318536486183777,0.8470031642782625,-0.8270529738519633,1.0932352966155048,0.2649715350674689,1.9529317798608008,-0.8475868556067098,0.8931945710275893,-0.9920986963450406,1.1993934758231188,0.1912015005467837,-0.9250831092491418,-0.7390588183748714,9.781816289348171,-0.9257915078747534,0.1394741269883931,-0.9668324474602524
1.72,1.0740167448083795,0.2968799397549748,1.92432098840762,0.1312771469855614,0.1056028342495754,0.0604421308336778,-0.6279124025609334,0.8266222463385506,-0.8456124659826542,1.0762835595033706,0.2828354264880207,1.9330898059339,-0.8875868562027562,0.8900467152540211,-1.032098696941087,1.3922733071309714,0.197062302872214,-1.0190458969855931,-0.9279746065345428,9.535459190597976,-0.9255168859882484,0.1258642278621683,-0.97136289673588
1.74,1.0615020638298058,0.3131750837461423,1.907198825710575,0.1417234096083018,0.1008514788671621,0.0599649302360737,-0.6240464682763253,0.8037789717841889,-0.8656806402537515,1.0593318223912365,0.3006993179085724,1.913247832006999,-0.9275868567988028,0.886898859480453,-1.0720986975371336,1.5325568984820688,0.1932967142304065,-1.1421637277180874,-1.0034087135548653,9.35912670847756,-0.9267612077398042,0.1124029952659806,-0.97505791160961
1.76,1.0496652342876636,0.3281967053328839,1.8905542496390968,0.1503405413795169,0.0946903671959087,0.0590873133749031,-0.6224598505379947,0.778835587989681,-0.8853463191835395,1.0413800852642012,0.318484512934785,1.892405858065197,-0.9675868573948492,0.8837510037068848,-1.11209869813318,1.5901483254222004,0.0793308869165287,-1.2471691897253945,-0.9832839464893994,9.314766173434691,-0.9294640400130962,0.0985156239039875,-0.9781188546873532
1.78,1.0372122736818454,0.3434770288956308,1.872625395241857,0.1576895728669153,0.087315439880914,0.0578043325290686,-0.6232095850499354,0.7507025155692219,-0.9064851797610036,1.022428348122265,0.3361910115666583,1.8705638841084935,-1.0075868579908955,0.8806031479333166,-1.1520986987292263,1.75988869830358,-0.0374867255970357,-1.4066536210229574,-1.056943028873214,9.311446958891793,-0.934166829948345,0.0863169839169317,-0.9789501179607346
1.8,1.0247200344172134,0.358176414992127,1.8542735099533632,0.1631903028757306,0.0796574404067004,0.0562528676454832,-0.6262219695133497,0.7209284028940289,-0.9275860913846514,1.0060517944293486,0.3810121546740919,1.8273011362538067,-0.7232095865400515,0.6790045279531597,-0.9936404846101516,1.8308609430398408,-0.150619223170717,-1.488705633759646,-1.0550455811823845,9.305851117714155,-0.9401825876266732,0.0764663841874633,-0.9776553290812716
1.82,1.012109439563605,0.3723162443100447,1.8358102392428457,0.170071219271955,0.0739286548161232,0.0550375815296919,-0.634610529203034,0.6927632107278962,-0.917961192006758,1.0060517944293486,0.3810121546740919,1.8273011362538067,-0.7232095865400515,0.6790045279531597,-0.9936404846101516,1.5461926395643235,-0.4194279844842108,-1.408259608306639,0.4812449688946729,9.326017076492462,-0.950138849389146,0.0662417436082457,-0.9729440614388972
1.84,0.9999665644901352,0.3851619425012117,1.8184138936798653,0.1779906208006976,0.07193141392097,0.0545015657636717,-0.6428949168513858,0.6606060295208387,-0.9138292245350652,1.0060517944293486,0.3810121546740919,1.8273011362538067,-0.7232095865400515,0.6790045279531597,-0.9936404846101516,1.673162079027926,-0.414219382417591,-1.607859060352873,0.2065983735846377,11.14702210212272,-0.9530116141706132,0.0566407083826239,-0.9720900724081
1.86,0.98703379597505,0.3980024335751976,1.800135552726266,0.1862468056665118,0.0723490929738036,0.0543366819684049,-0.6497202252695982,0.6249634902958408,-0.9144585993232144,0.998819698563948,0.3878021999536235,1.8173647314077053,-0.7432095868380747,0.6646649304299472,-1.011071545579981,1.814780668588628,-0.3412654209106192,-1.782126961249897,-0.0314687394074642,10.754772793472512,-0.9531913151578514,0.0462749715753163,-0.9745590735127908
1.88,0.9739834854999788,0.4101186057327192,1.7817966416721054,0.1941562462313619,0.0740557488392446,0.0543592010892056,-0.6548282773865945,0.5882443288966048,-0.9194253095205508,0.984355506833147,0.4013822905126867,1.797491921715502,-0.7832095874341212,0.6359857353835224,-1.0459336675196402,1.8701986662367,-0.2554026058498193,-1.835958069961796,-0.2483355098668094,10.464839855389071,-0.9513230856923472,0.0359176728108686,-0.9793593002534446
1.9,0.9615052161768022,0.4209388559821708,1.7642518186813847,0.2013129863411771,0.076063663400236,0.0544098692164099,-0.6583619624265047,0.5524088933145462,-0.9271862515072222,0.969891315102346,0.4149623810717499,1.7776191120232991,-0.8232095880301676,0.6073065403370975,-1.0807957894592994,1.841804545708934,-0.1766842519955069,-1.7917717791029295,-0.3880470993335772,10.247469702107992,-0.9484747810948116,0.0248281897053474,-0.9854668835067611
1.92,0.94830947384659,0.4315801073957413,1.7455977343702462,0.2084006219884736,0.0780139331131884,0.0543762128246846,-0.660994742856538,0.5134888815306584,-0.9379534662493524,0.9534271233417426,0.4271085118784918,1.7560031962341132,-0.8632095886262141,0.5786273452906727,-1.1156579113989586,2.023383159064218,-0.1316390215016671,-1.946000589194391,-0.538360737106508,10.086947326665722,-0.9450504762236236,0.0136915350021741,-0.9921839450031276
1.94,0.9350715474852772,0.4414075564794553,1.7267124561329934,0.2142687283615873,0.0794220683685431,0.054115248996728,-0.6626951003149592,0.4714665863257986,-0.950004775415384,0.9369629315811392,0.4392546426852338,1.7343872804449272,-0.9032095892222606,0.5499481502442478,-1.1505200333386176,2.187463463915493,-0.085017872921056,-2.101114760242989,-0.6025654583015794,9.945399378167169,-0.9428681138065766,0.0041237138261495,-0.9974390323355724
1.96,0.9224665486108246,0.4499400231169021,1.7085431197659322,0.2178056680459364,0.0801760905961198,0.0535681196323001,-0.6641372317404202,0.4294568660329436,-0.9618277314615744,0.9194987398056348,0.4506837936158151,1.7118998116072497,-0.9432095898183068,0.5212689551978229,-1.1853821552782768,2.183276569632421,-0.0721065712730506,-2.1004860146427493,-0.5911478023095218,9.945399378167169,-0.9408333532520898,-0.0044792637945546,-1.0029367880149849
1.98,0.909168439703938,0.4580520127529767,1.6891741003054088,0.2191580891113991,0.0804620020565013,0.0526819828782614,-0.6656565416490577,0.3843263822928324,-0.9743724192258753,0.9010345480152292,0.4613959646702358,1.688540789721081,-0.9832095904143532,0.4925897601513981,-1.2202442772179358,2.343308588469902,-0.0759654954318789,-2.25652418700556,-0.6272343882150366,9.961224981739178,-0.940016114610112,-0.0103911428629629,-1.0069239069491502
2.0,0.8958392583727119,0.4652437207616234,1.6695545965127256,0.2174138422899251,0.0803122232096006,0.0514530555465658,-0.6672521779451225,0.3374918787680572,-0.9868455152081572,0.8758856126214852,0.4772683318676183,1.640455479344115,-0.7656565431391739,0.2843263808027163,-1.0210929649648106,2.4246622955500023,-0.0797818148032369,-2.3417251762387625,-0.6236547991140984,9.975112145384628,-0.9405376305705204,-0.0127370769837762,-1.0090790406290244
2.02,0.8824804755861646,0.4715510000707895,1.6499691610244174,0.2154951381973023,0.080224897638319,0.0502057459374703,-0.6684024675324108,0.294825019903528,-0.9698130246452186,0.8758856126214852,0.4772683318676183,1.640455479344115,-0.7656565431391739,0.2843263808027163,-1.0210929649648106,2.297765080614674,-0.0575144793644177,-2.133342943226457,0.851624528146927,11.860149561587605,-0.9441361782922412,-0.016681209815951,-1.010726003492302
2.04,0.8697800696263189,0.4767155344721309,1.6316955543827727,0.2150993087721391,0.0803201954688529,0.0491411886892797,-0.6684734682573925,0.2510609901697792,-0.9547139257360668,0.8758856126214852,0.4772683318676183,1.640455479344115,-0.7656565431391739,0.2843263808027163,-1.0210929649648106,2.314777595962377,-0.0035500362490836,-2.188201486687441,0.7549549454575866,11.860149561587605,-0.9454902166287132,-0.0177710633206006,-1.0100033635199792
2.06,0.8564152999638632,0.4812306047216126,1.6127333362280627,0.2140126457882548,0.0800479251612026,0.0478715306799289,-0.6680809105177307,0.2030124755286388,-0.942389021927278,0.8682290471900935,0.4801115956756455,1.6302445496944669,-0.785656543437197,0.2643263805046931,-1.0304370741125977,2.480280787882064,0.0196278869830923,-2.402425732057019,0.6162451904394461,11.615350384675368,-0.946491658406981,-0.0191098945711028,-1.0102813468469871
2.08,0.8430614302925942,0.4847719469012226,1.5939852373133974,0.2107375859050367,0.0789893707293233,0.0462620148281668,-0.667461309860168,0.1545195489038429,-0.9328115066335784,0.85291591632731,0.4857981232916998,1.609822690395171,-0.8256565440332435,0.2243263799086466,-1.049125292408172,2.4716778900241736,0.0309800328781306,-2.4246463312397952,0.4788757646849773,11.263428442367513,-0.9481699904242658,-0.0186981259676274,-1.010195220434983
2.1,0.8303873845857136,0.4872571993046587,1.576339374107805,0.2056850851199888,0.0768771392844588,0.0443587061911761,-0.6668134021378498,0.1102856375222456,-0.9249511434874674,0.8376027854645265,0.4914846509077541,1.5894008310958745,-0.86565654462929,0.1843263793126002,-1.067813510703746,2.2465774020275715,0.0323953861159131,-2.2116955690798648,0.3930181573055469,11.263428442367513,-0.951894956689882,-0.0158805715107994,-1.0076875036005528
2.12,0.8170570498157084,0.4889930087219017,1.5579191825214325,0.1988993874699234,0.0730492603741213,0.0419363169972619,-0.6664013889553282,0.0662054964899934,-0.9174061651614964,0.8202896545719407,0.4951711784940061,1.5680445608817994,-0.9056565452253365,0.1443263787165537,-1.0865017289993202,2.236154783453726,0.0206006591260798,-2.204007051612612,0.3772489162985559,11.157485010126948,-0.9574498242780626,-0.0116158372302335,-1.0035018401954487
2.14,0.8037239502257715,0.4898678465513525,1.5396535260383426,0.1909756911631202,0.0673041214854381,0.039091866225441,-0.6673781552668139,0.0240348671894928,-0.9094066986631149,0.8029765236793549,0.4988577060802581,1.5466882906677246,-0.9456565458213828,0.1043263781205072,-1.1051899472948945,2.14668786289846,-0.0488383155742844,-2.1085314650250297,0.3999733249190784,11.07252560255074,-0.9643237057703028,-0.0067559380827884,-0.9982966825249904
2.16,0.7903373941239158,0.4899119148873614,1.5215535563687297,0.1818808819821367,0.0603085270623611,0.035994061222611,-0.6715833431195348,-0.0166974236453314,-0.9008205358902832,0.7846633927718679,0.5015442336516089,1.5248648149962605,-0.9856565464174294,0.0643263775244608,-1.1238781655904686,2.091963977158151,-0.2102593926360474,-2.036614541741213,0.429308138641582,11.091931471477436,-0.9723872300604264,-0.001022346489844,-0.99167545794567
2.18,0.7775119222342118,0.4892202739728442,1.504522480332806,0.1722435243011416,0.0533326701648243,0.0330063937013308,-0.6784837480864252,-0.0533552185412084,-0.8922122073558373,0.7653502618494799,0.5032307612080585,1.5025741338674068,-1.0256565470134758,0.0243263769284144,-1.142566383886043,1.9141008564677484,-0.3450202483445186,-1.8328897447938512,0.4304164267222909,11.091931471477436,-0.9818527963374882,0.0062881094742307,-0.9832850291040937
2.2,0.7638412866032523,0.487771050558148,1.48677452731565,0.1613554761265657,0.0462666585879782,0.0299607610627847,-0.6884350753900691,-0.0890522301899077,-0.8829431031987086,0.7435877348298906,0.4865525130457837,1.4599118699650142,-0.7784837495765413,-0.1533552200313245,-0.8748595648643774,1.9099881201380011,-0.4975663651821949,-1.7848505824349623,0.4634552078564335,11.092774376117632,-0.991421263546802,0.0146716056069866,-0.9741734748197256
2.22,0.7499134659523423,0.4856622322965342,1.4694920378545544,0.1521959640877988,0.0413015446986476,0.0274704392524326,-0.7039159414467081,-0.1209308659933337,-0.8459190586196421,0.7435877348298906,0.4865525130457837,1.4599118699650142,-0.7784837495765413,-0.1533552200313245,-0.8748595648643774,2.5625595171350533,-0.7740433028319504,-1.5939317901713004,1.8512022289533248,11.069947501908246,-1.0016876611591825,0.0201686602887914,-0.965863641781556
2.24,0.7356594214925809,0.4828906803155275,1.4529384158167769,0.1446121876277339,0.0401682714422729,0.0257283483405397,-0.7202599572465509,-0.1543329071176159,-0.8112800290673036,0.7435877348298906,0.4865525130457837,1.4599118699650142,-0.7784837495765413,-0.1533552200313245,-0.8748595648643774,2.5410064797543988,-0.8172007899921396,-1.6701020562141122,1.7319514776169276,13.00150760395536,-1.0068644755530785,0.0276765925541227,-0.9585073100441484
2.26,0.7218335005118554,0.4796489121958768,1.4378225252907255,0.1375523452749389,0.0417651772483762,0.0244917486989857,-0.7340097815095462,-0.1848519607455697,-0.7815108276641158,0.7358028973341252,0.4850189608454704,1.4511632743163705,-0.7984837498745645,-0.1733552203293477,-0.8713890363660854,2.2397966725758445,-0.6874912131497657,-1.525952681397691,1.4884600701593864,12.709876692066246,-1.0092105329488483,0.035173612398235,-0.9541328718373606
2.28,0.7070193731163708,0.4756346485450474,1.4224961394489932,0.130057849209131,0.0450993192264722,0.0234173570956666,-0.7464499752334591,-0.2146209561114985,-0.7527687186192359,0.7202332223425943,0.481951856444844,1.4336660830190828,-0.838483750470611,-0.2133552209253942,-0.8644479793695016,2.160474680095176,-0.6220096861956459,-1.488449768296439,1.4371054522439974,12.43679407514719,-1.0095576657831469,0.0424640152415302,-0.952046412587341
2.3000000000000003,0.6919758064768852,0.4710498946911702,1.4077113681402085,0.1225274684638262,0.0492600693288198,0.0224430242872338,-0.7571000343972605,-0.2420171727086126,-0.7270812781852414,0.7046635473510635,0.4788847520442175,1.4161688917217954,-0.8784837510666574,-0.2533552215214407,-0.8575069223729176,1.9518075212981885,-0.5325029581900675,-1.3698108298557012,1.2843720216997256,12.20952128904355,-1.008309567150251,0.0493408839049075,-0.9519972130220844
2.32,0.6767368616314219,0.4659437759374635,1.3934128616896702,0.1150943149994231,0.0536304196706513,0.021492929234389,-0.7661341373245482,-0.2669542913263237,-0.7040164703221976,0.6870938723297304,0.4738176476137887,1.399018753274337,-0.918483751662704,-0.2933552221174871,-0.8505658653763336,1.7574557337339591,-0.4517051463643839,-1.2468559308855556,1.1532403931521884,11.9864638702129,-1.0065614510293488,0.0553801929610925,-0.9529447704663926
2.34,0.6621068684746464,0.4606533602582028,1.3802436756384038,0.1083009772371195,0.0575610571643122,0.0205774144759999,-0.7733513078992711,-0.2885313677012701,-0.6833490943453844,0.6695241973083972,0.4687505431833598,1.3818686148268786,-0.9584837522587504,-0.3333552227135336,-0.8436248083797497,1.5368784969556597,-0.3608585287361465,-1.0788538187473218,1.0333687988406617,11.793225185268966,-1.0047527533855871,0.0613275094649962,-0.9540652714093812
2.36,0.6465665616765497,0.4546565371048958,1.366795113170033,0.1014021417384419,0.0613054815241404,0.0195863138153138,-0.7802251570163734,-0.309773978818201,-0.6626243197490534,0.650954522272163,0.4626834387380298,1.3648920028043348,-0.9984837528547968,-0.37335522330958,-0.8366837513831658,1.523166611716008,-0.3436924558551157,-1.0621305558465466,1.0362387298165463,11.695825567589964,-1.0029582189083297,0.0669093944594741,-0.9552806825765796
2.38,0.6308949683367101,0.448251983122452,1.3537466097532669,0.0946435635537468,0.0646993757356178,0.0185712866313256,-0.7865200249902713,-0.3293569865302325,-0.643235086621521,0.6313848472210275,0.4556163342777987,1.3480889172067057,-1.038483753450843,-0.4133552239056264,-0.8297426943865819,1.4133841614473492,-0.3147433986948944,-0.979150385601571,0.9694616563766244,11.62102018252699,-1.0014035968716548,0.0720921870148589,-0.9562630927855406
2.4,0.6151031740562318,0.4414751115933853,1.3410730171392349,0.0880560846900741,0.0677942585803448,0.0175455215581104,-0.7922791049086787,-0.3471319369894596,-0.6250743681103423,0.5915689670871965,0.4317841337959404,1.3215848554221907,-0.8865200264803874,-0.4293569880203486,-0.5781427837626915,1.30281192251304,-0.2879539959203703,-0.8887475229613584,0.908035925558931,11.532536600874664,-0.999949966015526,0.0774122192039746,-0.9570849506742776
2.42,0.6000166131836385,0.4347305028284197,1.329486936274661,0.0825614297664136,0.0701938035367542,0.0165863149457426,-0.7955251643148801,-0.3621518363449738,-0.595443414461604,0.5915689670871965,0.4317841337959404,1.3215848554221907,-0.8865200264803874,-0.4293569880203486,-0.5781427837626915,1.66892756916833,-0.1623029703100686,-0.7509949677757088,1.4815476824369178,11.448038646449277,-1.0006882381475253,0.0823342387652763,-0.9554782377650116
2.44,0.5840756222955625,0.4273302563619276,1.3179010045199724,0.0777777701497967,0.0718564341762756,0.0155911971561258,-0.798442526227597,-0.3771123526282458,-0.5648159109523472,0.5915689670871965,0.4317841337959404,1.3215848554221907,-0.8865200264803874,-0.4293569880203486,-0.5781427837626915,1.7105350180582068,-0.1458680956358482,-0.7480258141635998,1.5313751754628402,12.324795272245863,-1.001337302734209,0.0869300366888887,-0.9532304672578712
2.46,0.5680799228635119,0.4196425088670587,1.3069125806789283,0.0738679141637073,0.0725493471520375,0.0146036667678462,-0.8010954370730256,-0.3910315457487078,-0.5355598266054665,0.5827037668223927,0.4274905639157369,1.3158034275845638,-0.9065200267784106,-0.4493569883183718,-0.5651243231909255,1.625346381844731,-0.1326455422714256,-0.6959596560230985,1.4628042173440323,12.22525981349736,-1.0029890802371224,0.0906584145653539,-0.9499787523823082
2.48,0.5528340927570443,0.412089676274907,1.2970061595744289,0.0708853186661783,0.0722968089137494,0.013673388006129,-0.8037202767851375,-0.4034343403666925,-0.5086889089154221,0.5649733662927849,0.4189034241553299,1.30424057190931,-0.9465200273744572,-0.4893569889144182,-0.5390874020473938,1.4855683385116756,-0.1312419856055957,-0.6201397308992385,1.343545884502223,12.132129601603992,-1.00532360255759,0.0937499702629683,-0.9461419906291368
2.5,0.536728900693539,0.4038914613246017,1.2871248946288671,0.0684831287378266,0.0711033576205887,0.0127075325344287,-0.8067465911244561,-0.4158377335074975,-0.4808748041988827,0.5472429657631772,0.4103162843949229,1.292677716234056,-0.9865200279705036,-0.5293569895104647,-0.513050480903862,1.530218253279862,-0.1513157169659329,-0.6201696570402482,1.3907052358269667,12.062375615304518,-1.008535950349129,0.0960262476711606,-0.94160523695168
2.52,0.5205593952734476,0.3954507779427565,1.277794067092979,0.066824739943326,0.068903462932891,0.0117536606349932,-0.8101805460037984,-0.427745652101739,-0.4535953928049952,0.5275125652037671,0.3997291446047136,1.2824167066159788,-1.02652002856655,-0.5693569901065112,-0.4870135597603302,1.49812954826794,-0.1716977439671141,-0.5953959297120753,1.3639705696943754,12.024143420267135,-1.0124201201930738,0.0975922469758107,-0.9364346086526965
2.54,0.5051287210247374,0.3872161294301698,1.2694371562380382,0.0659724964060409,0.0658563322380035,0.0108599668638228,-0.8140583129944182,-0.4385600983296083,-0.4274362224808382,0.5077821646443571,0.3891420048145044,1.2721556969979018,-1.0665200291625965,-0.6093569907025577,-0.4609766386167983,1.428540790542287,-0.1938883495309906,-0.5407223113934656,1.3079585162078493,11.982686098185695,-1.0175606079831296,0.0987196675637952,-0.9297414859840456
2.56,0.4887907928063467,0.3783217860186339,1.2611820105247795,0.0657563701938698,0.0618473344271645,0.0099384521687512,-0.8197107232930346,-0.4503173468668225,-0.3994226178691187,0.4870517640700458,0.3775548650093939,1.2625456104084127,-1.1065200297586428,-0.649356991298604,-0.4349397174732665,1.5451089595004943,-0.2826205149308203,-0.587862426860708,1.4006802305859738,11.992877355506607,-1.023226308616051,0.0991840240205234,-0.922539524492329
2.58,0.4723172543482252,0.3691868892481245,1.2534909200436042,0.0659603011458667,0.0576135526121412,0.0090538593461376,-0.8275152931438061,-0.4625540041420529,-0.3710736281174985,0.4653213634808334,0.3649677251893823,1.2535864468475122,-1.1465200303546892,-0.6893569918946505,-0.4089027963297348,1.5924135076704256,-0.3902284925385746,-0.6118328637615217,1.4174494875810129,12.024614271525024,-1.0287413698451855,0.0992555733290901,-0.9155810955434034
2.6,0.4565004752973799,0.360276753116821,1.246711382515631,0.0662923884565913,0.0540915695865099,0.0082755389123091,-0.8371265898682461,-0.4746884952616977,-0.3439665336298918,0.4309414896910349,0.3460591890410219,1.2349372386377293,-0.9275152946339222,-0.5625540056321691,-0.2710736266273824,1.560783033462694,-0.4805648362219972,-0.6067245559822382,1.3553547243803337,12.047198978392773,-1.034133616011607,0.0991576573133232,-0.9087588622674218
2.62,0.4396041352563259,0.3505860356048427,1.2400850818930296,0.0646009308604123,0.0525732661246274,0.0074818851003127,-0.8519217164105878,-0.4931621506507881,-0.3202515752056636,0.4309414896910349,0.3460591890410219,1.2349372386377293,-0.9275152946339222,-0.5625540056321691,-0.2710736266273824,1.675239509668426,-0.7397563271170859,-0.9236827694545202,1.185747921211408,12.067862421440624,-1.0368937881797151,0.1002284508308852,-0.9053213470381388
2.64,0.4224241652307443,0.3405740628039273,1.233947941258519,0.0604286058376721,0.0539492147589105,0.0067307346513824,-0.8650207324994915,-0.5066299321981617,-0.294465842522041,0.4309414896910349,0.3460591890410219,1.2349372386377293,-0.9275152946339222,-0.5625540056321691,-0.2710736266273824,1.5952032569051957,-0.6549508044451868,-0.6733890773686774,1.2892866341811304,11.786040369100192,-1.0394403793688587,0.1039478223251573,-0.901285201939254
