t,x,y,z,roll,pitch,yaw,v_x,v_y,v_z,ref_x,ref_y,ref_z,ref_v_x,ref_v_y,ref_v_z,a_com,a_x,a_y,a_z,thrust,wind_x,wind_y,wind_z
0.0,1.0501915275822868,0.4529812891867552,1.7201375255335,0.0272629511789938,0.0997020972447098,0.0419273644502133,0.0004242579759442,-0.0077740006448078,0.0003383941528827,1.0502011993972171,0.4527680808583688,1.7201471312084953,-0.099648168463385,-0.1073265440859046,-0.0236820883857753,0.3896459657764022,0.0212128987972107,-0.3887000322403915,0.0169197076441377,10.260102026630191,-0.9402206834234368,0.2537040183738402,-0.8811105994435801
0.02,1.0503812199644325,0.4531074461690991,1.7201192388084845,0.0334024925163964,0.0932809834297336,0.042153240903127,0.0180643041858896,0.015692700785991,-0.0023157396850153,1.0502011993972171,0.4527680808583688,1.7201471312084953,-0.099648168463385,-0.1073265440859046,-0.0236820883857753,1.4738569577478882,0.8820023104972704,1.1733350715399444,-0.1327066918949076,10.260289428912984,-0.9568243998159568,0.2533605802950985,-0.8602250075390512
0.04,1.05085875130368,0.453463577966506,1.7199990116578372,0.047321266373595,0.0759973690633131,0.0423720044298994,0.0273173600042255,0.0177771409205424,-0.0097296106475763,1.0502011993972171,0.4527680808583688,1.7201471312084953,-0.099648168463385,-0.1073265440859046,-0.0236820883857753,0.6019331675968521,0.4626527909167944,0.1042220067275686,-0.3706935481280456,10.096356240417208,-0.962976373958342,0.2449817265910778,-0.8515347838764794
0.06,1.0514038473105,0.4537674794765203,1.719723714947604,0.0618965462467518,0.05293240395182,0.0420137448355006,0.0256456419623403,0.0120916930945036,-0.017391358733899,1.0492047177125834,0.4516948154175098,1.7199103103246376,-0.1196481687614083,-0.1273265443839278,-0.0284831691342141,0.4843070873228161,-0.0835859020942577,-0.2842723913019399,-0.3830874043161374,9.7455789466012,-0.976636935159397,0.2339309325838497,-0.8382860746851772
0.08,1.0518112064567644,0.4539125182913707,1.7193027975607342,0.0759538533779482,0.027837519985629,0.0410825140342884,0.0143814698375878,0.0023276025816367,-0.0243468910317774,1.0472117543433157,0.4495482845357917,1.719436668556922,-0.1596481693574547,-0.1673265449799743,-0.0380853306310918,0.8224938704123239,-0.5632086062376257,-0.4882045256433446,-0.347776614893918,9.731303895040584,-0.9951849374764608,0.2209049717369933,-0.8215475434933314
0.1,1.0518973628292123,0.4538371080505559,1.718778011649991,0.0887053145760451,0.0047809020311527,0.0398392302028513,-0.0051010098083943,-0.0100711813849765,-0.0306019414606494,1.045218790974048,0.4474017536540736,1.7189630267892064,-0.1996481699535012,-0.2073265455760207,-0.0476874921279694,1.196267646551756,-0.9741239822991103,-0.6199391983306647,-0.3127525214436034,9.778925692101438,-1.0142436745601766,0.2067946848414145,-0.8055621008222372
0.12,1.0515130884114583,0.4534718647537941,1.7180979558574134,0.1015096196439875,-0.0165823296100678,0.0383930359597064,-0.032627261629588,-0.0261299309268476,-0.0371145013237358,1.041225827574978,0.4432552227425532,1.718009276946647,-0.2396481705495476,-0.2473265461720672,-0.0572896536248471,1.6263389961371828,-1.3763125910596852,-0.8029374770935569,-0.3256279931543192,9.844720695029537,-1.0327034912040691,0.1912819642640888,-0.7922555068084135
0.14,1.050516973283961,0.452754444267559,1.717288776559489,0.1137021701478476,-0.0336944858263238,0.0370405451357149,-0.0656973598693178,-0.0451158827273382,-0.0434968418488805,1.037232864175908,0.4391086918310327,1.7170555271040877,-0.2796481711455941,-0.2873265467681137,-0.0668918151217248,1.933152887082934,-1.6535049119864895,-0.9492975900245272,-0.3191170262572338,9.911309007703494,-1.0481082759988796,0.1759848718074006,-0.7831340066187384
0.16,1.0488093695686151,0.4516169743252658,1.7163526551008106,0.1249517735184324,-0.0455951556171895,0.0360009578802832,-0.1031764924138997,-0.0677200975674886,-0.049805484752132,1.032239900761937,0.4339621609046111,1.7158617232241062,-0.3196481717416405,-0.3273265473641601,-0.0764939766186025,2.2110149706157336,-1.873956627229093,-1.1302107420075205,-0.3154321451625769,9.986814304058498,-1.0609612112588438,0.159554355896965,-0.7787267697414715
0.18,1.0464615451903545,0.45006814152397,1.71534435632045,0.1337780155443067,-0.0513432961942449,0.0354625386121968,-0.1419270695341742,-0.0936305632403261,-0.0559434970605226,1.0262469373330645,0.4278156299632884,1.714427865306703,-0.359648172337687,-0.3673265479602065,-0.0860961381154801,2.350869335817915,-1.9375288560137247,-1.295523283641875,-0.3069006154195291,10.065072043195867,-1.0695346867515565,0.1446420126563693,-0.7793446095353709
0.2,1.0431958889650732,0.447885635884701,1.7141623882059345,0.1405679613711755,-0.0513413989430473,0.0354918882742388,-0.1820211762321065,-0.1228258609408355,-0.0617445458682871,1.0393651917136455,0.4453866133619537,1.7125471814674238,-0.2419270710242903,-0.1936305647304422,-0.0747623244064899,2.496775403894299,-2.004705334896616,-1.459764885025469,-0.2900524403882259,10.146713677986554,-1.075730599609975,0.1324848323889762,-0.782126443639242
0.22,1.0391194152398966,0.4449645757534987,1.7128871501880425,0.1404979849598589,-0.0451253522271382,0.0359136355915963,-0.2229786899241308,-0.1659872530276712,-0.0648457480296837,1.0393651917136455,0.4453866133619537,1.7125471814674238,-0.2419270710242903,-0.1936305647304422,-0.0747623244064899,2.9791110878715887,-2.0478756846012165,-2.158069604341786,-0.1550601080698273,10.185050424825022,-1.076655720360751,0.1257010703857562,-0.79017297967368
0.24,1.034537778583542,0.4414817711872176,1.711659544919282,0.1336559600400642,-0.0342070767326337,0.0365055179498079,-0.256596557506654,-0.1970690555800185,-0.0639267334251441,1.0393651917136455,0.4453866133619537,1.7125471814674238,-0.2419270710242903,-0.1936305647304422,-0.0747623244064899,2.2896965183963345,-1.6808933791261569,-1.5540901276173635,0.045950730226979,10.52556322831606,-1.076777817314423,0.1296667332757603,-0.7927007078687142
0.26,1.0290881472261408,0.4372688737602,1.7104028602529235,0.1247101233644984,-0.0201876972697093,0.0372415870117953,-0.2860034036812741,-0.2221984710345455,-0.0617210316477729,1.0369459210034029,0.4434503077146493,1.711799558223359,-0.2619270713223136,-0.2136305650284654,-0.0785260898756834,1.9372114258352688,-1.470342308731004,-1.256470772726349,0.110285088868561,10.52556322831606,-1.072641901991463,0.1354068367959368,-0.7996432175247354
0.28,1.0231109815358903,0.4326032147610859,1.7091882982882272,0.1160524145974317,-0.0055892344697655,0.0379423995574726,-0.309794060290698,-0.2430123507426385,-0.0598919035439118,1.032107379582917,0.4395776964200404,1.710304311735229,-0.30192707191836,-0.2536305656245119,-0.0860536208140703,1.583160320396222,-1.189532830471196,-1.0406939854046515,0.0914564051930549,10.456760903786744,-1.0661227773210975,0.1406171476347114,-0.8091247026505012
0.3,1.0167116117898387,0.4275541898906949,1.707997942407125,0.1084885354486017,0.0080918394121201,0.0384970736469946,-0.3287286217213324,-0.2609932767864517,-0.0592793218662563,1.0272688381624313,0.4357050851254316,1.7088090652470993,-0.3419270725144064,-0.2936305662205584,-0.0935811517524572,1.305954224193315,-0.9467280715317188,-0.8990463021906592,0.0306290838827733,10.363757033055665,-1.0582206219237662,0.145177300221003,-0.8201864580576281
0.32,1.01031913204352,0.4224438048917674,1.7068655212763828,0.1025008736137416,0.0193719896189493,0.038838699613697,-0.3431481721477681,-0.2762459041512072,-0.0600144779089435,1.0204302967121432,0.4298324738010204,1.7069374422120502,-0.3819270731104529,-0.3336305668166048,-0.1011086826908441,1.0501268142892446,-0.7209775213217862,-0.7626313682377761,-0.0367578021343576,10.268246896540404,-1.050366899397571,0.1485031390833946,-0.8311667303926811
0.34,1.0033225651016162,0.4167645874546557,1.7056471339639243,0.0974535790676777,0.0289431512362084,0.0389917110394603,-0.3556790032645237,-0.2910195608414406,-0.0618866586638946,1.0135917552618552,0.4239598624766093,1.7050658191770012,-0.4219270737064994,-0.3736305674126513,-0.1086362136292311,0.9731234778494672,-0.6265415558377785,-0.7386828345116697,-0.0936090377475547,10.181625811786034,-1.043615996906292,0.150701143886171,-0.8407763352292567
0.36,0.9960908454855496,0.4107911788459173,1.70437937795267,0.0933462364671929,0.0361256558443713,0.0389412862725691,-0.3668691061136502,-0.3056035541701283,-0.064865926276235,1.0057532137966658,0.4170872511372969,1.7030060078684923,-0.4619270743025458,-0.4136305680086977,-0.116163744567618,0.93111129663856,-0.5595051424563263,-0.7291996664343825,-0.1489633806170218,10.073616958349705,-1.0374125681489526,0.1517615995063998,-0.8498912814266016
0.38,0.9886437264183838,0.4045307289093606,1.7030432352786018,0.0897953552750382,0.0412334039577714,0.0387151500139266,-0.3773586905262426,-0.3197231229410122,-0.0686280677621081,0.9969146723165754,0.4092146397830834,1.7007580082865237,-0.5019270748985922,-0.4536305686047441,-0.1236912755060049,0.8993710468771353,-0.52447922062962,-0.705978438544197,-0.1881070742936537,10.073616958349705,-1.0327257677577593,0.1521645473480193,-0.8572468736964717
0.4,0.9813766277366952,0.3983263501230956,1.701698982917848,0.0867700125400919,0.0445452401002474,0.0383756455074221,-0.3871361978274327,-0.3326537255229128,-0.0727026291700283,0.9697757918920716,0.3885445727623099,1.6996118318904965,-0.4773586920163587,-0.3769487041995476,-0.0798617030088618,0.8357663890447992,-0.4888753650595046,-0.6465301290950298,-0.2037280703960128,10.023254388724126,-1.029015471174443,0.152253020093922,-0.8635708185401371
0.42,0.973548433234125,0.3914099377178727,1.700253688526604,0.0800159825833694,0.0463186889557851,0.0376172814000721,-0.3953272328511703,-0.3561991582372906,-0.0710879799372997,0.9697757918920716,0.3885445727623099,1.6996118318904965,-0.4773586920163587,-0.3769487041995476,-0.0798617030088618,1.249087215341807,-0.409551751186879,-1.1772716357188906,0.0807324616364339,10.023254388724126,-1.029225833406156,0.1544553992072858,-0.866149803284658
0.44,0.9655549669929973,0.3841326409787895,1.698854697690147,0.0700062093533178,0.0460319784789795,0.0364782416624167,-0.403723580657345,-0.3698230734252327,-0.0689483449206493,0.9697757918920716,0.3885445727623099,1.6996118318904965,-0.4773586920163587,-0.3769487041995476,-0.0798617030088618,0.8072913964842091,-0.4198173903087382,-0.6811957593971019,0.1069817508325167,10.442345430201383,-1.0305315287930734,0.1616575641966201,-0.863740042787146
0.46,0.9573852488444562,0.3766469692402311,1.6974855045421664,0.0602076017103077,0.0437485535367056,0.0352490267891764,-0.4129858630134942,-0.3780965847155297,-0.0680815854641205,0.965002204971908,0.3847750857203145,1.6988132148604078,-0.4973586923143819,-0.3883938204512547,-0.0821084300582125,0.622479187345221,-0.4631141178074588,-0.413675564514851,0.0433379728264397,10.368805263170543,-1.0332256922269092,0.1684000590796368,-0.8595650542400428
0.48,0.9494395259057594,0.3694141208803693,1.6961901510865427,0.052141184982988,0.0399960068708887,0.0341201002055671,-0.423086053469643,-0.3830884292957168,-0.0683280130483282,0.955455031131581,0.3772361116363235,1.6972159808002307,-0.5373586929104284,-0.4112840529546688,-0.086601884156914,0.563456045573836,-0.5050095228074425,-0.2495922290093544,-0.012321379210381,10.27843208492868,-1.037286334959284,0.174311268670863,-0.8539761072461184
0.5,0.9408495706975728,0.361715589067016,1.6948131974450256,0.0452281637206725,0.0348008424956253,0.0330328145143069,-0.4356603512992765,-0.3866967041860458,-0.0694096276277641,0.9459078572912538,0.3696971375523326,1.6956187467400534,-0.5773586935064748,-0.434174285458083,-0.0910953382556155,0.6563202413664984,-0.6287148914816715,-0.1804137445164527,-0.0540807289717962,10.208515838736275,-1.0418801986673567,0.1786516039118472,-0.8481960944641849
0.52,0.931979072226294,0.3539562800279229,1.6934075315458197,0.0398990614626923,0.0291483566079964,0.0320882141153306,-0.4509494767048033,-0.3892719305709921,-0.0711359700702932,0.9343606834211244,0.3610136518431709,1.693796839974941,-0.6173586941025213,-0.4570645179614971,-0.0955887923543169,0.7800150716949728,-0.7644562702763397,-0.1287613192473113,-0.0863171221264551,10.161853315119515,-1.0469607431147725,0.1816413498771275,-0.8421829958713991
0.54,0.9227753127779338,0.3461527984175825,1.6919655141189145,0.0360207395847267,0.0239396292593994,0.03130465605256,-0.4687781537854769,-0.3912688947190555,-0.072989655942394,0.9228135095509948,0.3523301661340092,1.6919749332098288,-0.6573586946985678,-0.4799547504649113,-0.1000822464530184,0.9017839868394412,-0.8914338540336825,-0.0998482074031748,-0.0926842936050401,10.134487116049058,-1.0513283987576538,0.1832538417165918,-0.837448219422494
0.56,0.9136730326724836,0.3386998461108848,1.6905603570127603,0.033302142103725,0.0203642880466042,0.0307046018180972,-0.4885309967422978,-0.3933072963598367,-0.0748368446573219,0.9102663356659642,0.3430744246122622,1.6900406900922489,-0.6973586952946141,-0.5028449829683255,-0.1045757005517199,0.997173495780104,-0.9876421478410446,-0.1019200820390586,-0.0923594357463974,10.140626923455784,-1.0542527424719412,0.1839075572559213,-0.8350087685777708
0.58,0.9036635720649884,0.3308119977039801,1.689041829335478,0.0311179649924066,0.0191836755189459,0.030224555984753,-0.5112072647421931,-0.3954376840262907,-0.0769023054501537,0.8967191617660323,0.3332464272779298,1.6879941106222016,-0.7373586958906606,-0.5257352154717396,-0.1090691546504214,1.1434791321873563,-1.1338133999947653,-0.1065193833226979,-0.1032730396415868,10.158674668819913,-1.0562994425031276,0.1843855172274992,-0.8335209106558216
0.6,0.8932039431841493,0.322883436464855,1.6874809613237105,0.0294543974136451,0.0208418712138193,0.0298801504931232,-0.5332327136711179,-0.3973762838696416,-0.0790477693163907,0.8781032088278787,0.3110401135026656,1.6851967140629704,-0.6037907869427775,-0.401867061969568,-0.0661062157935026,1.110722270725948,-1.101272446446239,-0.0969299921675465,-0.1072731933118527,10.14849809719908,-1.0565880566178614,0.1846622201793996,-0.8341193247969072
0.62,0.8828526487280092,0.3151644411114851,1.6860104490992571,0.0234479654952874,0.0253339586127553,0.0293290273255021,-0.5547843952745177,-0.411679887957984,-0.0754693495259468,0.8781032088278787,0.3110401135026656,1.6851967140629704,-0.6037907869427775,-0.401867061969568,-0.0661062157935026,1.3056350543385074,-1.077584080169991,-0.7151802044171179,0.1789209895221945,10.14849809719908,-1.0544773205026203,0.1870717506903301,-0.8388549091674974
0.64,0.871552595345694,0.3068877120072931,1.6845443229029748,0.0131282198539929,0.0326812604242709,0.0284966156901087,-0.5736650388416454,-0.4145822610836495,-0.0713465464446468,0.8781032088278787,0.3110401135026656,1.6851967140629704,-0.6037907869427775,-0.401867061969568,-0.0661062157935026,0.9771130647431284,-0.9440321783563854,-0.1451186562832773,0.2061401540650022,10.540855387874217,-1.051174011789889,0.1948151652362906,-0.8415074511640526
0.66,0.8599129955252539,0.2986274080377453,1.683147901815044,0.002700069817756,0.0411036104846277,0.0276084030043345,-0.5890347670667476,-0.4112010349640791,-0.0685781617801154,0.8720653009584509,0.3070214428829699,1.6845356519050354,-0.6223074913828944,-0.4031529375582235,-0.0639469978621724,0.7989449127380134,-0.7684864112551093,0.1690613059785212,0.13841923322657,10.472748950529422,-1.046712247433945,0.2023836582735484,-0.8453571068811911
0.68,0.8486017245588036,0.290882014652061,1.681856919690054,-0.0059108778804298,0.0490729827620564,0.026797361749143,-0.6006914688966,-0.4045450701772345,-0.0674631294931988,0.8599894852195954,0.2989841016435785,1.683213527589165,-0.6593409002631282,-0.4057246887355344,-0.059628561999512,0.6734683767532536,-0.5828350914926173,0.3327982393422302,0.0557516143458315,10.36825870114808,-1.0414787886708738,0.2094351779162862,-0.8500204779496401
0.7000000000000001,0.8364831721423837,0.282885627816151,1.680509387953176,-0.0132670704209164,0.0566761505102356,0.026022877030759,-0.6104024303343752,-0.3956508576436076,-0.0674130252091038,0.8479136694807399,0.2909467604041871,1.6818914032732952,-0.696374309143362,-0.4082964399128454,-0.0553101261368516,0.6584305185032238,-0.4855480718887639,0.4447106266813466,0.0025052142047475,10.27899531408002,-1.0363204028532669,0.2151211213921303,-0.854814450706343
0.72,0.8241922911716653,0.2750818281683314,1.6791526800000802,-0.0188600035212653,0.0629840235650187,0.0253631031510374,-0.6181340492577422,-0.3854336451683579,-0.0683084207476857,0.8339861832978727,0.2827808316059302,1.6807852007505582,-0.7334077180235957,-0.4108681910901564,-0.0509916902741912,0.6422053704055194,-0.3865809461683467,0.5108606237624852,-0.0447697769290933,10.218566184242263,-1.0319839721188842,0.2193029573317715,-0.8588434432507203
0.74,0.8117621055248354,0.2674904892964657,1.6777741142472429,-0.0228279238555359,0.0677592757413835,0.0248383386492493,-0.6244926741998018,-0.3744769554698068,-0.069517399105053,0.8200586971150055,0.2746149028076733,1.679678998227821,-0.7704411269038295,-0.4134399422674673,-0.0466732544115308,0.6362837200744246,-0.3179312471029816,0.5478344849275507,-0.0604489178683678,10.1747803210219,-1.0282957854789212,0.222417265426038,-0.8623696587014519
0.76,0.799840529492159,0.2604857333616259,1.6764421168614865,-0.0252624085483406,0.0709459518459961,0.0244685225208308,-0.6301363534025242,-0.3637424617496604,-0.0706356218678923,0.8052053757101323,0.2663846802299837,1.6786807566016506,-0.8074745357840633,-0.4160116934447782,-0.0423548185488704,0.6089558533227931,-0.2821839601361176,0.5367246860073227,-0.0559111381419653,10.16866085949914,-1.0254016235957395,0.2243428374108296,-0.8652834998213366
0.78,0.7871767121101682,0.2533325689241483,1.6750193213615456,-0.026678707241509,0.0731985047841504,0.0241987710753289,-0.6359733991009017,-0.3522713837389692,-0.0715736935974252,0.7894262190832534,0.2580901638728612,1.6777904758720468,-0.844507944664297,-0.4185834446220892,-0.03803638268621,0.6452455187408469,-0.2918522849188754,0.5735539005345569,-0.0469035864766417,10.199628145434872,-1.0234718810982588,0.2253940858533742,-0.867219588537294
0.8,0.7743954216259076,0.2464140595759217,1.6735811971820926,-0.0268279837859685,0.0746246505577069,0.0240538673755453,-0.6418868499001649,-0.3402763253766449,-0.0721749213934287,0.755378042155123,0.2357189997371999,1.6714406366816743,-0.6329702714607884,-0.3550483653032079,-0.0603953016118299,0.6693500585149016,-0.2956725399631599,0.599752918116217,-0.0300613898001768,10.199628145434872,-1.0223147236900956,0.2255366456259381,-0.8684135848783753
0.8200000000000001,0.7620450332583455,0.2400646203751318,1.6721655853852229,-0.0255162384572453,0.078524637099415,0.0239648521085961,-0.6569176331383146,-0.3288789097449363,-0.0767632352663477,0.755378042155123,0.2357189997371999,1.6714406366816743,-0.6329702714607884,-0.3550483653032079,-0.0603953016118299,0.9706674920262088,-0.7515391619074885,0.5698707815854298,-0.2294156936459478,10.223627028001829,-1.0136381845050395,0.2231343744821426,-0.880210341376541
0.84,0.7487885639760726,0.2336096020356543,1.6705797705625491,-0.0225537677339535,0.0869370017338969,0.0238979757014944,-0.6673001880738745,-0.3176192127091833,-0.0815410644496881,0.755378042155123,0.2357189997371999,1.6714406366816743,-0.6329702714607884,-0.3550483653032079,-0.0603953016118299,0.802193673672452,-0.519127746777992,0.5629848517876485,-0.2388914591670218,10.041249766569308,-1.0088972755921164,0.220840908061112,-0.8862161979758537
0.86,0.7353778576140961,0.2273541178220241,1.6689081131428063,-0.0187896839698659,0.0974327373168171,0.0238838546221276,-0.6727847745563071,-0.3086822965938597,-0.08534976234724,0.7490483394405152,0.2321685160841678,1.670836683665556,-0.6323696459327658,-0.3556037616160556,-0.0581596232147109,0.5577977640024,-0.2742293241216331,0.4468458057661828,-0.190434894877594,10.018192346808974,-1.0020035175540305,0.2182342302534334,-0.8943732731631907
0.88,0.7225743074250914,0.2215614245117468,1.6672576788558082,-0.0152022457517831,0.108127023451169,0.0239058896796681,-0.674350440866827,-0.301569453864798,-0.0882176946032931,0.7363889340112993,0.2250675487781036,1.6696287776333194,-0.6311683948767205,-0.3567145542417511,-0.0536882664204728,0.3913721953255401,-0.0782833155259954,0.3556421364530854,-0.143396612802657,10.062082803971862,-0.9927304040898716,0.2152998571118566,-0.9051502845140692
0.9,0.7090988122236447,0.2155996601944339,1.665466621054928,-0.0116966496366768,0.1194573382618785,0.0239594892889649,-0.6727749153424263,-0.295007032588075,-0.0907406840574534,0.7237295285820836,0.2179665814720395,1.6684208716010829,-0.6299671438206752,-0.3578253468674466,-0.0492169096262347,0.36025383230796,0.0787762762200383,0.3281210638361481,-0.1261494727080155,10.104594022457604,-0.9824646568279632,0.2124981396382663,-0.916733050968274
0.92,0.6956857937711668,0.209761596186498,1.6636293823161288,-0.0085562603816208,0.1304896790995303,0.0240382372619181,-0.6683058536143541,-0.2891329614663017,-0.0928694404497906,0.7111301857056701,0.2108100745346905,1.667436533408558,-0.6287658927646299,-0.358936139493142,-0.0447455528319966,0.3840860191769767,0.2234530864036077,0.2937035560886647,-0.1064378196168606,10.18265250866898,-0.9718108449558588,0.2099591350114521,-0.9283625153127724
0.94,0.6823896118093086,0.2040353684631592,1.6617516399142718,-0.0057827643941272,0.1410340364610301,0.0241368127962033,-0.6612647572880508,-0.2837839462514139,-0.0948212417091286,0.6985308428292566,0.2036535675973416,1.6664521952160334,-0.6275646417085846,-0.3600469321188375,-0.0402741960377585,0.4527651968773034,0.3520548163151671,0.2674507607443921,-0.0975900629668985,10.210150710574451,-0.9616156613099758,0.2078232079047751,-0.939127540612914
0.96,0.669911152761412,0.1986896922776949,1.6599333468187534,-0.0034824640064947,0.150521895688105,0.0242430462979526,-0.6523962222545072,-0.2791542944527017,-0.0965202486570147,0.6859615312292442,0.1964692908443503,1.6655796409433647,-0.6263633906525393,-0.361157724744533,-0.0358028392435204,0.5073736641457499,0.4434267516771784,0.2314825899356082,-0.0849503473943059,10.210150710574451,-0.9509900898479788,0.2058698436115613,-0.94999152157204
0.98,0.6569802033729604,0.1931542917986947,1.6579865811810135,-0.0013776345013194,0.15992503274796,0.0243641735653371,-0.6409305176674341,-0.2746201132663152,-0.0980834790212954,0.673422250905633,0.1892572442757166,1.6648188705905518,-0.625162139596494,-0.3622685173702284,-0.0313314824492824,0.6214194836839669,0.5732852293536539,0.2267090593193271,-0.0781615182140316,10.237399251409444,-0.940599188392778,0.2042071962279554,-0.960276714696316
1.0,0.6443002321930497,0.1877063993484688,1.656011326006041,0.000440186046222,0.16873118522125,0.0244916578580232,-0.627424102123499,-0.2703857287447473,-0.0993805626725208,0.6249336774895886,0.1794232861353789,1.6530824072299488,-0.6025657347380137,-0.2576873594202659,-0.0915993877394045,0.7106963119367923,0.6753207771967584,0.211719226078394,-0.0648541825612698,10.27214756007652,-0.9304907750850588,0.2028234688412806,-0.9699537228935076
1.02,0.6318920009317927,0.1822374192680863,1.6539010386579052,-0.0013138388377748,0.1770133723886281,0.0243827752590988,-0.6139008496687939,-0.2753521540247818,-0.1116341342510988,0.6249336774895886,0.1794232861353789,1.6530824072299488,-0.6025657347380137,-0.2576873594202659,-0.0915993877394045,0.9456396690166784,0.6761626227352546,-0.2483212640017246,-0.6126785789289032,10.307975636177616,-0.9196245781012662,0.2040481832912903,-0.9798896319290132
1.04,0.6203715409077146,0.1770075977929943,1.6516749878411738,-0.0069783682384592,0.1844311651227681,0.0239811514094142,-0.5993106669978742,-0.2739659451661219,-0.1220853255273743,0.6249336774895886,0.1794232861353789,1.6530824072299488,-0.6025657347380137,-0.2576873594202659,-0.0915993877394045,0.9000311167730938,0.7295091335459858,0.069310442932996,-0.5225595638137716,9.69125210448965,-0.9080863172952396,0.2084571608310389,-0.9903974952061358
1.06,0.6085629939557708,0.1715955178966311,1.6491348202633036,-0.0137568846431111,0.1917431726444436,0.0234709336175424,-0.5821250032645411,-0.2671635576742559,-0.1313324685427065,0.6189080201422085,0.1768464125411763,1.6521664133525549,-0.5948927781521296,-0.254300808651056,-0.0903025694830263,1.0333551754971548,0.8592831866666539,0.3401193745932979,-0.4623571507666124,9.932761541111176,-0.8978477002063217,0.2143221248195369,-0.9986694725686378
1.08,0.597122704114431,0.1663534348078493,1.646427287928146,-0.0198855189903258,0.1983747753974942,0.0229861354152398,-0.5626140357674028,-0.2574551257164769,-0.1389152014335846,0.6068567054474482,0.171692665352771,1.6503344255977668,-0.5795468649803613,-0.2475277071126363,-0.08770893297027,1.1537215238605223,0.975548374856916,0.485421597888952,-0.3791366445439065,9.932761541111176,-0.8894025661395881,0.2198956973119534,-1.0047351304702192
1.1,0.5861009353780038,0.1613259744035639,1.643585944139196,-0.0247970205639416,0.2038422757343535,0.0225929408077761,-0.5405527884976528,-0.2460513867332015,-0.1448710633438838,0.5948053907526879,0.1665389181643656,1.648502437842979,-0.5642009518085932,-0.2407546055742165,-0.0851152964575136,1.2769261773789802,1.1030623634875003,0.5701869491637659,-0.2977930955149588,10.159761799275657,-0.8818687150918165,0.2248813566412689,-1.0098367028274753
1.12,0.5760575503152042,0.1567707730738006,1.6407907280106375,-0.0282773428379999,0.2075810458831375,0.0223353457791602,-0.5178331479415664,-0.2342912907256614,-0.149072215992123,0.5835213717165161,0.1617238260528813,1.6468001319138283,-0.548855038636825,-0.2339815040357968,-0.0825216599447573,1.2962750563423366,1.1359820278043165,0.5880048003770066,-0.2100576324119599,10.159761799275657,-0.8756947050931227,0.2287076739724242,-1.013937578231733
1.14,0.5659619841934295,0.1522204922255928,1.637773254261116,-0.0308222123099084,0.2098560004902331,0.0221965175827608,-0.4929840448515531,-0.2215377162379135,-0.1523977461862488,0.5722373526803441,0.156908733941397,1.6450978259846782,-0.5335091254650568,-0.2272084024973771,-0.0799280234320009,1.406405647088249,1.2424551545006657,0.6376787243873957,-0.1662765097062896,10.267410028790437,-0.8710623176672947,0.2316853046872886,-1.0166284062693325
1.16,0.556372695310099,0.1479321368682268,1.6347025710326604,-0.0322488036659427,0.2103596513418908,0.0222037837546049,-0.4672577623139643,-0.2080810700174681,-0.1544366649334567,0.5613369814734666,0.1522629693683731,1.643460360968347,-0.5181632122932887,-0.2204353009589574,-0.0773343869192446,1.455232052254717,1.2863141268794398,0.6728323110222714,-0.1019459373603953,10.428848014034884,-0.8687151817154241,0.2338770629517156,-1.0172775630251285
1.18,0.5473069152558765,0.1439219485218569,1.6316070688564537,-0.0322822006502264,0.2088212481830488,0.022388875074572,-0.4407555466267809,-0.1938466944840474,-0.1549906162075889,0.5508202580958831,0.1477865323338098,1.6418877368648344,-0.5028172991215204,-0.2136621994205376,-0.0747407504064882,1.5044033245530837,1.3251107843591707,0.7117187766710331,-0.0276975637066106,10.515317684686124,-0.8688187692949554,0.2349400163346795,-1.0159548979133035
1.2,0.5391891285714557,0.1403799851417057,1.6286705204216496,-0.0307569460826903,0.2051566233341932,0.0227526480407205,-0.4152369865897738,-0.1799374344111435,-0.1540546630956153,0.5403035347182996,0.1433100952992465,1.640315112761322,-0.4874713859497522,-0.2068890978821179,-0.0721471138937319,1.4539088953282349,1.2759280018503545,0.6954630036451955,0.0467976555986834,10.515317684686124,-0.8711972777596567,0.2348732667205796,-1.0125342365507737
1.22,0.5311880814491323,0.1369198440463714,1.625535824928311,-0.0277393225001186,0.1974246870469275,0.0233443526630481,-0.3869395112408547,-0.167160775049093,-0.1597038893242006,0.5252691379245374,0.1342296137976545,1.623857538046074,-0.4307868569839343,-0.1733227421638293,-0.1168581461064708,1.5778972499487192,1.4148737674459535,0.6388329681025262,-0.2824613114292648,10.60192220249246,-0.8751371216009597,0.2334619113578141,-1.008003234259882
1.24,0.5237078793973268,0.1336920573091529,1.6223186354141124,-0.0242040581475407,0.1856501999043133,0.0240525803416011,-0.3631334535455526,-0.156421786612656,-0.1613999193320008,0.5252691379245374,0.1342296137976545,1.623857538046074,-0.4307868569839343,-0.1733227421638293,-0.1168581461064708,1.3085591058654358,1.190302884765107,0.5369494218218474,-0.0848015003900123,10.171445332683106,-0.8798963702233915,0.2303834003386762,-1.0045883330469014
1.26,0.5169974521885853,0.1308107850327697,1.6192799817178083,-0.020916134891764,0.1726322205879479,0.0247210889431319,-0.3448972184648457,-0.1474624423084734,-0.158327280478867,0.5252691379245374,0.1342296137976545,1.623857538046074,-0.4307868569839343,-0.1733227421638293,-0.1168581461064708,1.0274619576917194,0.9118117540353438,0.4479672152091288,0.1536319426566901,10.415862382064006,-0.8893144685843986,0.2279086975270773,-0.9961572062778016
1.28,0.5102599945836797,0.1279513058317724,1.6161809357585113,-0.0177544943997167,0.1585317755649106,0.0253638196714815,-0.3302392287836901,-0.1389868845938776,-0.1515510672993967,0.5209612693546981,0.1324963863760163,1.6226889565850091,-0.428793119055365,-0.1692179516997857,-0.1092316520862472,0.9118782883695804,0.7328994840577779,0.4237778857297911,0.3388106589735137,10.64686803240329,-0.9014258807230466,0.226300996312023,-0.9843025738154112
1.3,0.5037700631747188,0.125253365140845,1.6132484586674174,-0.0149696627182414,0.1451716177607003,0.025923322389688,-0.3198046444227586,-0.1312405101794172,-0.141900202621173,0.5123455322150194,0.1290299315327397,1.62035179366288,-0.4248056431982264,-0.1610083707716985,-0.0939786640458,0.809360946042912,0.5217292180465793,0.3873187207230191,0.4825432339111868,10.827863633719062,-0.9144961632879216,0.2254542566000466,-0.9706611579840798
1.32,0.497448581495957,0.1227035604949209,1.610533058927218,-0.0125727133060096,0.1333894659116515,0.0263977359166076,-0.3130109987644197,-0.1240975536070893,-0.1300969955137461,0.5037297950753408,0.1255634766894631,1.6180146307407506,-0.4208181673410877,-0.1527987898436112,-0.0787256760053528,0.7689134345718659,0.3396822829169421,0.3571478286163956,0.5901603553713441,11.067955631195218,-0.9272832656421988,0.2252805347265964,-0.956473045673853
1.34,0.4912313768196605,0.1202915682337226,1.608065184902948,-0.0105306702652684,0.1236406165147039,0.0267974313729433,-0.3090964089743199,-0.1174249879272039,-0.1172537645442628,0.495313431728519,0.1225075008925908,1.6164401172206435,-0.4168306914839491,-0.144589208915524,-0.0634726879649055,0.7496594688800955,0.1957294895049921,0.3336282839942701,0.6421615484741676,11.110149909080064,-0.9382236046023112,0.2255991852169165,-0.9435869805336972
1.36,0.4853747973408926,0.1181214031221042,1.6059649679155774,-0.0088434513524481,0.1164957538150772,0.027122577320783,-0.3076310503703516,-0.1113441847802545,-0.104442221517429,0.4868970683816972,0.1194515250957186,1.6148656037005364,-0.4128432156268105,-0.1363796279874367,-0.0482196999244583,0.7128447893451061,0.0732679301984146,0.3040401573474724,0.640577151341689,11.110149909080064,-0.9477416013012704,0.2262374368473425,-0.9316532668003752
1.38,0.4792188746596284,0.1159584332076096,1.6040225445941227,-0.0072756459119212,0.1115526599806912,0.0274190635339166,-0.3081632140900165,-0.1052955418088706,-0.0904392176591886,0.478580391931304,0.1166007888220486,1.6136724148814403,-0.4088557397696718,-0.1281700470593495,-0.032966711884011,0.7631405458264126,-0.0266081859832484,0.3024321485691927,0.7001501929120191,11.165719630577769,-0.954879700654228,0.2270833292222957,-0.921940676429218
1.4,0.473035560497693,0.113912452522942,1.6023631690050943,-0.0059356772201843,0.1097139982849832,0.0276745581585912,-0.3099128480168526,-0.0996209719787097,-0.0761777780605544,0.4703634023773391,0.1139552920715807,1.612860550763356,-0.4048682639125332,-0.1199604661312623,-0.0177137238435638,0.7724160489347676,-0.087481696341804,0.283728491508043,0.7130719799317092,11.165719630577769,-0.9605719628561912,0.2282759590479302,-0.9135101185754008
1.42,0.4668530083483829,0.1120100359914854,1.6008392082393668,-0.0038128866537841,0.1092105887020113,0.0279771489221908,-0.3083548147203929,-0.0915772316163407,-0.0769334277153177,0.4638107139551276,0.110693656117166,1.599500583711163,-0.3359754063065321,-0.09793215442535,-0.0671894667022956,0.4114007570812967,0.0779016648229852,0.4021870181184515,-0.0377824827381655,11.163187308708077,-0.9620016569968038,0.2292913657372386,-0.9089412872390952
1.44,0.4610135640778608,0.1103269844533863,1.5993791456364992,-0.0011156015436486,0.1083485319018078,0.028312071678973,-0.3064752465913363,-0.0861259308666518,-0.0766770533219289,0.4638107139551276,0.110693656117166,1.599500583711163,-0.3359754063065321,-0.09793215442535,-0.0671894667022956,0.2885965351702506,0.0939784064528326,0.2725650374844436,0.0128187196694405,10.312443937629723,-0.9626273489526074,0.2271734615150734,-0.9087044506363704
1.46,0.4549041445834608,0.1086515021074845,1.597865709657582,0.0016930722180885,0.1070264905101977,0.0286589894109891,-0.3046176694616639,-0.0817450477800519,-0.0745951826161891,0.4638107139551276,0.110693656117166,1.599500583711163,-0.3359754063065321,-0.09793215442535,-0.0671894667022956,0.2596965298505004,0.0928788564836163,0.2190441543299982,0.1040935352869885,10.312443937629723,-0.9639875971515084,0.2252807759185788,-0.907425132676581
1.48,0.4488294085611602,0.1070541910420914,1.5964112399208927,0.0041917975985008,0.1053508379653327,0.0289786062494803,-0.3030094233623918,-0.078195173592317,-0.070887403565815,0.4604509598920622,0.1097143345729125,1.5988286890441403,-0.3415378447498352,-0.0964594769486459,-0.062539516510917,0.2689595125244856,0.0804123049636063,0.1774937093867418,0.1853889525187078,10.418554481345382,-0.9660858889665788,0.2238728560559321,-0.9050235510720228
1.5,0.4427829893229879,0.1055214665804088,1.5950460654649017,0.0062906016045014,0.1033985437710443,0.0292640692529076,-0.3017923650026958,-0.0751971333277498,-0.0658121842883085,0.4537314517659316,0.1077556914844055,1.5974848997100946,-0.3526627216364414,-0.0935141219952376,-0.0532396161281598,0.300945706040334,0.0608529179848021,0.1499020132283625,0.2537609638753247,10.506894576724337,-0.9686294253448148,0.2230232905842561,-0.9018627990489132
1.52,0.4370563173283846,0.1041171205175093,1.593852994990272,0.0079233448509052,0.1013864923678471,0.0295049473962751,-0.3011460001984358,-0.0727266528147113,-0.060020048603143,0.4470119436398009,0.1057970483958985,1.5961411103760486,-0.3637875985230476,-0.0905687670418294,-0.0439397157454027,0.3165039384464913,0.0323182402129973,0.1235240256519255,0.2896067842582728,10.576445845964372,-0.971688184707701,0.2225863125659722,-0.8978697229073478
1.54,0.4310345159624844,0.1026857538544275,1.5927191149382047,0.0092512480367497,0.0992365839174501,0.0297277076828795,-0.3011470636265143,-0.0705402175754673,-0.0536570691644167,0.43973619166934,0.1039856730550619,1.5952623160611406,-0.3749124754096539,-0.0876234120884212,-0.0346398153626455,0.3364075189555829,-5.317140392147035e-05,0.1093217619621972,0.3181489719363137,10.630644025520269,-0.9748264616838934,0.2225674463245926,-0.8935862602009613
1.56,0.4250028195284409,0.1012941317212728,1.5917140165677577,0.0100955732180845,0.0972818061204475,0.0299169013041282,-0.3021035816107044,-0.0687234677471526,-0.047158907435044,0.432460439698879,0.1021742977142253,1.5943835217462323,-0.3860373522962601,-0.0846780571350129,-0.0253399149798883,0.3407404160568793,-0.0478258992095081,0.0908374914157385,0.3249080864686393,10.639630306067374,-0.977593717815562,0.2228987174985475,-0.8896664397013139
1.58,0.419246188803878,0.100003160049056,1.5908809233511805,0.0103791264961846,0.0959070254681101,0.0300657927587571,-0.3037865576973484,-0.0672225154467383,-0.040849347633552,0.4249065658062529,0.1004365562472239,1.5937372249408934,-0.3971622291828663,-0.0817327021816047,-0.0160400145971311,0.3350216828988032,-0.0841488043322014,0.0750476150207145,0.3154779900746005,10.643824784502613,-0.9805320470659886,0.2237215722767555,-0.8854084503712046
1.6,0.4131498588941263,0.098675131928494,1.5901354323990016,0.0101099417609251,0.0950434493687813,0.0301914607904786,-0.3057339384462053,-0.0656266600283689,-0.0340156764002716,0.4040568609190106,0.0966420342767191,1.5888384559695026,-0.3201520206114577,-0.0772940044753709,-0.0169367986146921,0.3641363371799097,-0.0973690374428432,0.0797927709184659,0.3416835616640173,10.648037736387778,-0.9832195825929584,0.225053787148247,-0.8812858540277062
1.62,0.4069784575138717,0.0974378601110817,1.5894722820048048,0.0111162547392585,0.0956289491696111,0.0304234508477881,-0.3111492422134078,-0.0586056356118595,-0.0329327105754705,0.4040568609190106,0.0966420342767191,1.5888384559695026,-0.3201520206114577,-0.0772940044753709,-0.0169367986146921,0.446634956440902,-0.2707651883601253,0.3510512208254719,0.0541482912400574,10.654041485990092,-0.9814604256099236,0.2256918410002824,-0.8815654769613708
1.64,0.4010283108733459,0.096374300027324,1.5888599383571,0.0142537288802422,0.0979549745459108,0.0308177991138678,-0.3146741073377755,-0.0542305652296226,-0.0314975240743426,0.4040568609190106,0.0966420342767191,1.5888384559695026,-0.3201520206114577,-0.0772940044753709,-0.0169367986146921,0.2899382489752334,-0.1762432562183835,0.2187535191118458,0.0717593250563919,10.295794384577675,-0.9810291162308068,0.2233819141907225,-0.8827201069634834
1.66,0.3947143156688114,0.0953095848053069,1.5882562764707158,0.0182341346955394,0.1013794263303165,0.0313009129102085,-0.3163506502088672,-0.0526149440302573,-0.0289071665075465,0.400855340712896,0.0958690942319654,1.5886690879833556,-0.3234251131942795,-0.0793083022810974,-0.0121542888109201,0.1741477833788366,-0.083827143554585,0.0807810599682656,0.1295178783398055,10.353088674139144,-0.9794274289736664,0.2205891015182838,-0.8851363608021762
1.68,0.3883876460414677,0.0942570852434925,1.587714049441171,0.0220044572758073,0.1051038016990454,0.0317841307169139,-0.316126325334953,-0.0526901057073222,-0.0254580359484589,0.3944523003006669,0.0943232141424579,1.588330352011062,-0.3299712983599232,-0.0833368978925505,-0.0025892692033762,0.172861740564443,0.0112162436957108,-0.0037580838532474,0.1724565279543781,10.4578967438556,-0.9774295823633224,0.2181763595907053,-0.8877523866678805
1.7,0.3823972638988828,0.0932455619303934,1.587268639803346,0.0251002393206176,0.1084320752449914,0.0322121829917017,-0.314415896856727,-0.0536994604232431,-0.0216075742746502,0.3880492598884377,0.0927773340529505,1.587991616038768,-0.3365174835255669,-0.0873654935040035,0.0069757504041677,0.2166242000743924,0.0855214239113,-0.050467735796042,0.192523083690437,10.4578967438556,-0.9752307661260669,0.2161086195452094,-0.8903599073515697
1.72,0.3761392629351924,0.0921543576689448,1.5868840231359322,0.0277982573178752,0.1113745056025408,0.0326144937435746,-0.3114400826824813,-0.0553163556226227,-0.0170363413360673,0.3813189102179264,0.0910300241828705,1.588131131046851,-0.3430636686912106,-0.0913940891154566,0.0165407700117116,0.2844555794153287,0.1487907087122847,-0.0808447599689815,0.2285616469291472,10.495209267048269,-0.9733259734977672,0.2145609796155455,-0.8924107475379989
1.74,0.3699501027614387,0.0910260457304868,1.5865934835230169,0.0299443755533415,0.113538955321755,0.0329585192700464,-0.3076347748686255,-0.0573707177112616,-0.0122407109105609,0.3745885605474151,0.0892827143127904,1.5882706460549347,-0.3496098538568543,-0.0954226847269097,0.0261057896192556,0.3228732039341093,0.1902653906927898,-0.1027181044319442,0.2397815212753167,10.53014176925899,-0.97189696363428,0.2135088781471049,-0.8937247538296698
1.76,0.3638419852307647,0.0898514777330382,1.586401093301971,0.0315240843101815,0.1148592949567073,0.0332369529506979,-0.3034356575692888,-0.0598909642055884,-0.0072378955534036,0.3676945562477626,0.087434689552424,1.5886492865532067,-0.356156039022498,-0.0994512803383627,0.0356708092267995,0.3500442471444295,0.209955864966832,-0.1260123247163392,0.2501407678578678,10.544302175795565,-0.971097523606854,0.2129189954044329,-0.8942571545080884
1.78,0.3581180967916119,0.0886846794876064,1.586313362414942,0.0324322162716846,0.1154032950873458,0.0334356295710778,-0.2993561605694895,-0.0627369621520972,-0.0022441119104245,0.3606368973189691,0.0854859499017713,1.5892670525416672,-0.3627022241881417,-0.1034798759498158,0.0452358288343435,0.3524197609236387,0.2039748499899685,-0.1422998973254416,0.2496891821489534,10.55829633119174,-0.9709341122927808,0.2128000101298718,-0.8939615842508698
1.8,0.3521752650879954,0.0873951088898825,1.58632671072047,0.0326415943879439,0.1153522208026525,0.0335701658964763,-0.2951997751941654,-0.066024199860908,0.0033362070215521,0.3431502887631374,0.0855478313800015,1.5862011568194208,-0.2903067393931751,-0.067066446573857,0.0035235310756048,0.384777307429288,0.2078192687662017,-0.16436188544054,0.2790159465988366,10.574841971530075,-0.9714658325992228,0.2133376763357456,-0.892740260588362
1.82,0.3462499008165471,0.0860055006519673,1.586356234698435,0.0308880154191652,0.1165245466334957,0.0336061533319992,-0.2970891563325611,-0.0722109728287495,-0.0006491282087427,0.3431502887631374,0.0855478313800015,1.5862011568194208,-0.2903067393931751,-0.067066446573857,0.0035235310756048,0.3798974129273892,-0.0944690569197853,-0.3093386483920733,-0.1992667615147466,10.047628548535611,-0.9654722461923207,0.2144013635319231,-0.898476432384558
1.84,0.3406027302353014,0.0845970288046142,1.5863117963911564,0.0272782467933731,0.1197006546800806,0.0335646519614621,-0.2969955467411852,-0.0752007576845399,-0.0037953571287481,0.3431502887631374,0.0855478313800015,1.5862011568194208,-0.2903067393931751,-0.067066446573857,0.0035235310756048,0.2170618152542595,0.0046804795687971,-0.1494892427895224,-0.157311446000269,10.047628548535611,-0.9632584700037762,0.2171947277501786,-0.900776293133662
1.86,0.3346845161331819,0.0830906407379707,1.5862102496160255,0.0231413649875871,0.1241983784168399,0.0335177525442259,-0.294600766526409,-0.0752107782188303,-0.0061692676605203,0.3402472213692056,0.0848771669142629,1.5862363921301768,-0.2884968551579123,-0.067932343458209,0.0046770596728107,0.1686010372228653,0.1197390107388118,-0.0005010267145173,-0.1186955265886126,10.103742623297876,-0.9592698286199828,0.2204289098456852,-0.9046069425754
1.88,0.328838683010144,0.0816045809304244,1.586069716103959,0.0195128640113799,0.129045736933424,0.0335005189619227,-0.2899579143885381,-0.0735144787277432,-0.0077954118909487,0.3344410865813422,0.0835358379827858,1.586306862751689,-0.2848770866873865,-0.0696641372269129,0.0069841168672224,0.2601819219111415,0.2321426068935456,0.0848149745543529,-0.0813072115214178,10.15412223232306,-0.9546811957690838,0.223264097868135,-0.908889136735832
1.9,0.323390265123695,0.0802339710519343,1.585911186055058,0.0167724504849819,0.1333899660155433,0.0335175291266895,-0.2837300215694286,-0.0710072067109077,-0.0088350086879782,0.3286349517934787,0.0821945090513086,1.586377333373201,-0.2812573182168608,-0.0713959309956169,0.0092911740616342,0.3396830266333447,0.311394640955473,0.1253636008417769,-0.0519798398514782,10.196881601713358,-0.949572449774112,0.2257573921289773,-0.9135713793599256
1.92,0.3177983223011809,0.0788470364612696,1.5857273097000792,0.0146274982667966,0.1372902423785685,0.0335684005769569,-0.2757315353294169,-0.0679306825363402,-0.0094922759056029,0.3230098054291415,0.0807665904313963,1.5865631568544336,-0.277637549746335,-0.0731277247643208,0.0115982312560459,0.4297463883609685,0.3999243120005852,0.1538262087283727,-0.032863360881232,10.269562469722588,-0.9446654579973994,0.2277105530003205,-0.9179766028029172
1.94,0.3123790170714935,0.0775271560543248,1.585531999200496,0.0132442773378969,0.1402401187163766,0.0336547918337154,-0.2666355339297405,-0.0643478913619531,-0.0100253144009566,0.3173846590648042,0.079338671811484,1.5867489803356665,-0.2740177812758093,-0.0748595185330248,0.0139052884504577,0.4895348917587759,0.4548000699838211,0.1791395587193558,-0.026651924767684,10.269562469722588,-0.9405203180223158,0.2290989955262472,-0.9215422129461968
1.96,0.3074060393286575,0.0763437628404896,1.5853379816114526,0.0127133222374179,0.142062568216939,0.0337775421609315,-0.2573563319469161,-0.0605034909565802,-0.0103805841152702,0.3118500069122302,0.077867458347354,1.5869924802467594,-0.2703980128052836,-0.0765913123017287,0.0162123456448694,0.5025167173457795,0.4639600991412168,0.192220020268647,-0.0177634857156811,10.282133820692252,-0.9368924654033408,0.229925348439531,-0.9245956407198784
1.98,0.3023642341235545,0.0751789119630874,1.5851288025806105,0.0131066214607981,0.1429729759341776,0.0339601788274666,-0.2473683858665975,-0.0562628662677543,-0.0105096429318295,0.3064058489714192,0.0763529500390065,1.5872936565877127,-0.2667782443347578,-0.0783231060704326,0.0185194028392812,0.5425832213425027,0.4993973040159305,0.2120312344412924,-0.0064529408279647,10.29809932853641,-0.93410259840987,0.2299616416248993,-0.9269241821657268
2.0,0.2975224886872964,0.0740981094233885,1.5849205277069414,0.0145625471897247,0.1429518748412484,0.0342031280197357,-0.2373793334511336,-0.0521309224877968,-0.01029662371814,0.2899958148302246,0.0723657686496997,1.5846033204340189,-0.231863764897302,-0.0537709711583392,-0.0093087449634553,0.5406003716818347,0.4994526207731942,0.2065971889978746,0.010650960684475,10.317823461973603,-0.9322528960866654,0.2291873603835257,-0.9284047145294244
2.02,0.2928645508057447,0.0730651368821693,1.5846740896447316,0.0161049735778499,0.1424101847641766,0.0344407218301963,-0.2289473060789316,-0.0511024390477757,-0.014360355913187,0.2899958148302246,0.0723657686496997,1.5846033204340189,-0.231863764897302,-0.0537709711583392,-0.0093087449634553,0.4708258253989027,0.4216013686101,0.0514241720010546,-0.2031866097523519,10.340166737085385,-0.9290241955749532,0.2282052271911489,-0.9312668028088348
2.04,0.2885938867812387,0.0721049155468625,1.5843690770885157,0.0170934469038765,0.1417513144732757,0.0346273719741143,-0.2210446889175728,-0.0499863288452681,-0.0175331485591955,0.2899958148302246,0.0723657686496997,1.5846033204340189,-0.231863764897302,-0.0537709711583392,-0.0093087449634553,0.4294289031891949,0.3951308580679408,0.0558055101253802,-0.1586396323004246,10.08919393035194,-0.9274478643329024,0.2271886371467559,-0.9330922842165692
2.06,0.284259812663229,0.0711163914458348,1.5839912685829145,0.0177782912376494,0.1409611529797147,0.0347943183830501,-0.2128010196186934,-0.0489210851801188,-0.0200453847282475,0.2876771771812516,0.0718280589381163,1.5845102329843843,-0.2287628407034429,-0.0532725921364562,-0.0090685653697805,0.4341778384041506,0.4121834649439701,0.0532621832574645,-0.1256118084525973,10.147151035675051,-0.9261087430842424,0.2265798114538401,-0.934497609217638
2.08,0.2800899745896372,0.0701476566507877,1.583571316559241,0.0181017927910894,0.1401088420199535,0.0349325108896925,-0.2046176070281304,-0.0479975096157654,-0.0217947815437833,0.2830399018833056,0.0707526395149495,1.5843240580851152,-0.2225609923157247,-0.0522758340926902,-0.0085882061824308,0.420956122026578,0.409170629528148,0.046178778217671,-0.0874698407767927,10.197120174224438,-0.9250439519444752,0.2263662999826894,-0.9354739436202288
2.1,0.2760831399069471,0.0691968502517893,1.5831237365096458,0.0180561013621536,0.1392093129964776,0.035042528660796,-0.1965072260793236,-0.0471094109862101,-0.0228790594972416,0.2784026265853595,0.0696772200917827,1.584137883185846,-0.2163591439280065,-0.0512790760489242,-0.0081078469950811,0.4115296374228184,0.4055190474403419,0.0444049314777643,-0.0542138976729137,10.240720031823004,-0.9241920898212472,0.2265856647667354,-0.9360124575569752
2.12,0.272425812243182,0.0683110443051249,1.5826833663774666,0.0176981912353675,0.1383221505944507,0.0351239567587032,-0.1889077590538096,-0.0461625513712825,-0.023422071996466,0.2740754437067993,0.0686516385708043,1.5839757262459446,-0.2101572955402883,-0.0502823180051582,-0.0076274878077314,0.3838727158074962,0.3799733512756989,0.0473429807463801,-0.0271506249612221,10.276350985685896,-0.92354195237806,0.2271999691064245,-0.9361696296460782
2.14,0.2687300390015354,0.0674004006346709,1.5822111269110766,0.0170535620459463,0.1373730589636069,0.035191016654839,-0.1810955698917072,-0.0449339200958137,-0.0237637215207961,0.2697482608282393,0.0676260570498258,1.583813569306043,-0.2039554471525701,-0.0492855599613921,-0.0071471286203817,0.3957794799917167,0.3906094581051206,0.0614315637734418,-0.0170824762165008,10.305099296900153,-0.9229785762984068,0.2281409434142551,-0.93607758197501
2.16,0.265189350784161,0.0665182777814221,1.5817343937887012,0.0162458817410378,0.1364028705066855,0.0352473801389458,-0.1733915928437161,-0.0433283196814417,-0.0238827394261469,0.2655761241593721,0.0666253944799414,1.5836634213458252,-0.1977535987648519,-0.0482888019176261,-0.0066667694330321,0.3935205849393381,0.3851988523995556,0.0802800207186007,-0.0059508952675429,10.317395591221612,-0.9225812410357536,0.2292803653389776,-0.9357289322871216
2.18,0.2618014087020602,0.0656732023698691,1.5812577657299067,0.0154375113426434,0.1353793356282126,0.0353042346912655,-0.1658265774496286,-0.0412772320845414,-0.0237736190022182,0.2615590337001978,0.0656496508611512,1.583525282365291,-0.1915517503771337,-0.0472920438738601,-0.0061864102456824,0.3919449116580575,0.3782507697043746,0.1025543798450105,0.0054560211964349,10.329072540042944,-0.9223143858993323,0.2304341896347417,-0.9352044373655232
2.2,0.2587212862255751,0.0649126218535598,1.5808089827604537,0.0148210904558022,0.1343488813345521,0.0353691432586607,-0.1588100617043149,-0.0389179039415914,-0.0234705532236699,0.2575419432410236,0.0646739072423611,1.5833871433847568,-0.1853499019894155,-0.0462952858300941,-0.0057060510583327,0.3704381573099558,0.350825787265685,0.1179664071475013,0.0151532889274181,10.340306111901556,-0.922170539640676,0.2317185126262686,-0.9342914023634132
2.22,0.255658336271943,0.0641794561677828,1.5803317181212413,0.0149331863416152,0.131922901600479,0.0354708890942937,-0.1477711897859565,-0.0346587435524577,-0.0243269967850949,0.2535100798295788,0.063609340765642,1.5800690847797958,-0.1703647773139565,-0.04382723357354,-0.0129155526221943,0.5931497197676863,0.5519435959179211,0.2129580194566837,-0.0428221780712534,10.350838676457895,-0.925806147945722,0.2322132893640677,-0.930211971171678
2.24,0.2528173715619662,0.0635291636884344,1.5798429123364832,0.0162260127575983,0.1265274133953065,0.035604350108516,-0.1372929869029284,-0.0307104872307206,-0.0244353129380516,0.2535100798295788,0.063609340765642,1.5800690847797958,-0.1703647773139565,-0.04382723357354,-0.0129155526221943,0.5598955171034738,0.5239101441514029,0.1974128160868594,-0.0054158076478353,10.273288932563446,-0.9281556137857688,0.232196358922039,-0.9265722770555228
2.26,0.2501516218688033,0.0629504356402201,1.5793638964485792,0.0185610011940331,0.1190391789980682,0.0357585964614035,-0.1302007676682835,-0.0275662896788759,-0.0234322107219345,0.2535100798295788,0.063609340765642,1.5800690847797958,-0.1703647773139565,-0.04382723357354,-0.0129155526221943,0.3911258300511237,0.3546109617322449,0.1572098775922337,0.0501551108058563,10.3196213779529,-0.9328127270710984,0.2317128997202203,-0.9204428955802726
2.28,0.2477164872214471,0.0624401138237248,1.5789357758182392,0.0212383321560297,0.1112389502285141,0.0358976123606962,-0.1267054928204129,-0.0264246894369654,-0.0216627553533405,0.2518064320564392,0.0631710684299066,1.5799399292535738,-0.1712724172868221,-0.0443372338713397,-0.0107439393461895,0.2040292238622535,0.1747637423935327,0.0570800120955226,0.0884727684297009,10.366452442676746,-0.939573673225726,0.2307404890007683,-0.9123108899675356
2.3000000000000003,0.245193693729616,0.0619109017090856,1.5785279094934386,0.0238954154208027,0.1032904521555967,0.0360080882251478,-0.1259615910928937,-0.0265645367423556,-0.0191760517629403,0.2483991365101601,0.0622945237584358,1.57968161820113,-0.1730876972325533,-0.0453572344669391,-0.0064007127941799,0.1299677055612304,0.0371950863759587,-0.0069923652695111,0.124335179520011,10.404554152103628,-0.9470706560490668,0.229711097131053,-0.9036379055011152
2.32,0.2426570685633529,0.0613687866014838,1.5781750344097367,0.0261277135479262,0.0963547582711302,0.0360871620359456,-0.1278126486480652,-0.0275573134778475,-0.0162181488830782,0.2449918409638809,0.061417979086965,1.579423307148686,-0.1749029771782844,-0.0463772350625385,-0.0020574862421703,0.1813919042142411,-0.092552877758574,-0.0496388367745919,0.1478951439931017,10.453324174093725,-0.9542183510506204,0.2288295099397974,-0.8954746490877714
2.34,0.2401905977518073,0.060830068105962,1.5778968012356571,0.0278038230332626,0.0912488243480702,0.0361527091713608,-0.1318077239631889,-0.0290140271229028,-0.0132054389654794,0.2414937814203152,0.0604904343857142,1.5793821574238427,-0.1767182571240156,-0.0473972356581379,0.0022857403098392,0.2605717869647403,-0.1997537657561859,-0.0728356822527647,0.1506354958799388,10.465986628748396,-0.959581067060178,0.2282781599308203,-0.8891680966765854
2.36,0.2374908144930061,0.0602284076971668,1.577666915502867,0.0290694269992193,0.0881290942922584,0.0362386397426809,-0.1380685396649054,-0.0310600173368784,-0.0099333770007211,0.2379957218767495,0.0595628896844635,1.579341007698999,-0.1785335370697467,-0.0484172362537373,0.0066289668618488,0.3677304675566132,-0.313040785085826,-0.102299510698782,0.1636030982379148,10.465986628748396,-0.9633967500640416,0.227762353534722,-0.8848400932416066
2.38,0.2346572506261441,0.0595800840107206,1.5775027269889454,0.0296648894146103,0.0877845098970568,0.0363533098166159,-0.1446549182572497,-0.0336211712705904,-0.0066397557629222,0.2344522803345406,0.0586098449683227,1.579408438637956,-0.1803488170154779,-0.0494372368493368,0.0109721934138583,0.3898327631560075,-0.329318929617213,-0.1280576966855986,0.1646810618899457,10.47750012563938,-0.9662897080204133,0.2268916597094647,-0.8827731322482246
2.4,0.2317068311143063,0.0588774494600358,1.5774042567279123,0.0294121171029246,0.0896035164052924,0.0364711397221743,-0.1497935853686797,-0.0364103907589427,-0.0033646759773068,0.2274245047132816,0.0578990254471911,1.5771707392007994,-0.1591065207311047,-0.031422900981363,0.0057879141869072,0.3350813059484359,-0.2569333555715009,-0.1394609744176128,0.1637539892807741,10.468213590816047,-0.9668349631351094,0.226726106856761,-0.8829696633098058
2.42,0.2288362468550788,0.0581369860770844,1.5773399295245347,0.0275584804521678,0.0921745650048665,0.036493577024312,-0.1520743910298957,-0.0409811546870881,-0.0035636829018404,0.2274245047132816,0.0578990254471911,1.5771707392007994,-0.1591065207311047,-0.031422900981363,0.0057879141869072,0.2556049740668337,-0.1140402830608025,-0.2285381964072699,-0.0099503462266836,10.45858552705613,-0.9656254345869694,0.2276958169769261,-0.884911832557205
2.44,0.225780388803866,0.0572908924234929,1.5772705148524873,0.0239120401560787,0.0948186517876041,0.0363932735469869,-0.1533408107271105,-0.0429075327388455,-0.0033196165501325,0.2274245047132816,0.0578990254471911,1.5771707392007994,-0.1591065207311047,-0.031422900981363,0.0057879141869072,0.115912894362774,-0.063320984860736,-0.0963189025878722,0.0122033175853956,10.245563867792953,-0.9640052396323708,0.2303060529337201,-0.8865824530191859
2.46,0.2227080748211755,0.0564391473572663,1.5772127475494184,0.0200417879539216,0.0971152662134584,0.0362647805297465,-0.1537947406496339,-0.0421215962237441,-0.0024514795716212,0.2258334395059706,0.0575847964373774,1.5772286183426685,-0.1619968412258757,-0.0309832469235176,0.0082734481768732,0.0627974998266383,-0.0226964961261733,0.0392968257550693,0.0434068489255665,10.312609494679236,-0.9625472183716024,0.2333033620150931,-0.8875459627390099
2.48,0.2197872665087377,0.0556604782255531,1.5771790415177454,0.0168122966349517,0.0988275958072086,0.0361624382520864,-0.1536492685782094,-0.0399851388727507,-0.0011493967392851,0.2226513090913485,0.0569563384177502,1.5773443766264066,-0.1677774822154177,-0.0301039388078266,0.013244516156805,0.1253099341477215,0.0072736035712242,0.106822867549669,0.0651041416168037,10.312609494679236,-0.9613593339247174,0.23643450443554,-0.8877915087672152
2.5,0.2167193814216705,0.0548925427598265,1.5771740560954286,0.0140562440964856,0.1000896172303663,0.0360907409988736,-0.1531549544485881,-0.0370003195796628,0.0005957690403053,0.2194691786767264,0.0563278803981229,1.5774601349101447,-0.1735581232049597,-0.0292246306921357,0.0182155841367368,0.1746360234128905,0.0247157064810668,0.1492409646543964,0.0872582889795268,10.339519981388548,-0.9606487159027456,0.2392728756156965,-0.8873201719091556
2.52,0.2136636672076703,0.0541906411235634,1.5772078371631322,0.0119962001254707,0.1008012160487629,0.0360617967777745,-0.1524824216528164,-0.0334960623028725,0.0026916019546699,0.2159980162126272,0.0557433877842802,1.5778244465928797,-0.1793387641945017,-0.0283453225764447,0.0231866521166687,0.2069096120789228,0.0336266397885878,0.1752128638395148,0.1047916457182276,10.380970212791,-0.9605257832508876,0.2416724556714186,-0.8861081030399789
2.54,0.2107730194412911,0.0535924548732606,1.5772803598527616,0.0106542872438253,0.1010265464919867,0.0360743746600559,-0.1518705396236866,-0.0297459197417614,0.0048382840045621,0.212526853748528,0.0551588951704375,1.5781887582756142,-0.1851194051840437,-0.0274660144607538,0.0281577200966005,0.2182098340448845,0.0305941014564894,0.187507128055556,0.1073341024946096,10.380970212791,-0.9608949222228136,0.2439019109633076,-0.8841301985760013
2.56,0.2077403999816454,0.0530436361618267,1.5774024020710218,0.0099698694114871,0.1009024686363369,0.0361371262886038,-0.1514575743388635,-0.025380423118724,0.0072633273093627,0.2089111752596902,0.0545963852594871,1.5786773466578472,-0.1909000461735857,-0.0265867063450628,0.0331287880765323,0.2505440885471979,0.020648264241152,0.2182748311518705,0.1212521652400325,10.396878371055209,-0.9616522803007824,0.2456573475259022,-0.8817189983433003
2.58,0.2047131110727129,0.0525859239459448,1.577574721748496,0.0101947621246259,0.1005462957973792,0.0362623886810185,-0.1513195391455056,-0.0206811110390725,0.0098578442410721,0.2051509807461139,0.0540558580514289,1.5792902117395784,-0.1966806871631277,-0.0257073982293719,0.0380998560564641,0.2684869915167696,0.0069017596678974,0.2349656039825754,0.1297258465854667,10.403914030972372,-0.962657030893896,0.2467168844003742,-0.8792199480585693
2.6,0.2018371214304607,0.0522387189787579,1.5777881843235306,0.0113726425486747,0.1001050492574839,0.0364469025809528,-0.1514377103432776,-0.0162148502586948,0.0124872078034039,0.2013907862325376,0.0535153308433707,1.5799030768213098,-0.2024613281526698,-0.0248280901136809,0.043070924036396,0.2592055291329674,-0.0059085598885996,0.2233130390188822,0.1314681781165907,10.403914030972372,-0.963873575618288,0.2470238601654578,-0.8766486171280583
2.62,0.1988051308624295,0.0519597417505924,1.5780686212010298,0.0135975947927158,0.0996224771826176,0.0367064199226937,-0.1517669043250188,-0.0120373519075767,0.0154301467695454,0.1971471341154376,0.0515518683939912,1.5780676139605496,-0.1446801530839266,-0.0272874402715268,0.0091750528953193,0.256031008423018,-0.0164596990870638,0.2088749175559037,0.1471469483070758,10.410469767114591,-0.9651261012755502,0.2464199354559562,-0.8744117046875877
2.64,0.1957158874712558,0.051774356229605,1.5783547667303035,0.0172975828194595,0.1005677279379512,0.0370855472208518,-0.1569445620829762,-0.0073577461461297,0.0127374284345861,0.1971471341154376,0.0515518683939912,1.5780676139605496,-0.1446801530839266,-0.0272874402715268,0.0091750528953193,0.3740240031486299,-0.2588828878978669,0.2339802880723539,-0.1346359167479654,10.417389652018755,-0.9616355253958468,0.2457322444198048,-0.8757207670685886
