t,x,y,z,roll,pitch,yaw,v_x,v_y,v_z,ref_x,ref_y,ref_z,ref_v_x,ref_v_y,ref_v_z,a_com,a_x,a_y,a_z,thrust,wind_x,wind_y,wind_z
0.0,-1.433041971865722,0.7820308150867902,2.7293101564489324,0.0290938930320467,0.0996532966329396,0.0420190234181626,0.0020144862449237,-0.0074704034200306,-0.0014193032226741,-1.4329869720066826,0.7818756213786802,2.7292688330996837,0.0527997325278479,-0.1058119753296901,-0.1013899509932985,0.3933176315870093,0.1007243122461874,-0.3735201710015322,-0.0709651611337078,10.260909177867688,-0.9394193905614736,0.2519945893051868,-0.8826433919544412
0.02,-1.4331083942569078,0.7821418505044867,2.729198152855269,0.0350909836270538,0.1023716433493199,0.0425145153644336,-0.0081215906203439,0.0147846594897964,-0.0103817737151553,-1.4329412475534755,0.7816572949157886,2.7292391912877987,0.057313228151805,-0.1074704049101467,-0.1014193047127902,1.302261260910779,-0.5068038432633836,1.1127531454913553,-0.4481235246240603,9.705873436816091,-0.9330823044777754,0.2539835142227799,-0.8811866554829962
0.04,-1.4333183970948289,0.7824555105095241,2.7288821802675924,0.0483244247394399,0.1090208929088185,0.0436939995658159,-0.0129196372142404,0.0163478507815261,-0.0225386744704454,-1.4329412475534755,0.7816572949157886,2.7292391912877987,0.057313228151805,-0.1074704049101467,-0.1014193047127902,0.6581319284644117,-0.2399023296948257,0.0781595645864861,-0.6078450377645042,9.705873436816091,-0.9232634555019664,0.2374143523425457,-0.901254400402007
0.06,-1.433590773736266,0.7827324757003565,2.728269785647808,0.0630489603275903,0.1180992446042458,0.0451898300404247,-0.013628228910097,0.0108944414035488,-0.0382340267872174,-1.4329412475534755,0.7816572949157886,2.7292391912877987,0.057313228151805,-0.1074704049101467,-0.1014193047127902,0.8315435352145527,-0.0354295847928283,-0.2726704688988646,-0.7847676158385979,9.539485952383984,-0.9096503558267596,0.219332936481703,-0.9244232464114988
0.08,-1.4338390619005614,0.7828613001665816,2.727324423343578,0.0773226520200415,0.1280460714372207,0.0468307556338343,-0.0108042907231977,0.0019461701102032,-0.0556390000916829,-1.4323681152719576,0.7805825908666871,2.728224998240671,0.0683729765331813,-0.12747040520817,-0.1214193050108134,0.9886598021461902,0.1411969093449629,-0.447413564667281,-0.8702486652232746,9.411559761196258,-0.893367514240161,0.2004716814635246,-0.9498221529171136
0.1,-1.4339987667594942,0.7827817811251883,2.7260184919391586,0.0909497231719634,0.1381518701171102,0.0485607509811881,-0.0049942276319044,-0.0097458623371499,-0.0741790508110804,-1.4312218507089216,0.7784331827684843,2.726196612146415,0.0904924732959338,-0.1674704058042164,-0.1614193056068599,1.1337922390727115,0.2905031545646658,-0.5846016223676621,-0.9270025359698796,9.35168245125351,-0.8771432982289382,0.182968385787307,-0.97320631117807
0.12,-1.4340176156023354,0.7824656239127974,2.72442671576506,0.1032886723328758,0.1475530971788111,0.0502478612844546,0.0029615803333629,-0.0231929462726059,-0.092539904669668,-1.4300755861458856,0.7762837746702813,2.72416822605216,0.1126119700586864,-0.2074704064002628,-0.2014193062029063,1.2054458730733388,0.3977903982633677,-0.6723541967727966,-0.9180426929293772,9.35168245125351,-0.8594257623030123,0.1646431811682993,-0.997343630100616
0.14,-1.433850701607079,0.7818329462780937,2.722362218367029,0.1156589304811381,0.1570554701708509,0.0520360633454177,0.0135651805975185,-0.0396346534950485,-0.1130699265671389,-1.427823346744712,0.7721343665422761,2.7201398399281014,0.1347314668214389,-0.2474704069963093,-0.2414193067989528,1.417963217136785,0.5301800132077827,-0.8220853611221312,-1.0265010948735478,9.355038969197269,-0.8409377014155505,0.1462022317566552,-1.021335350243618
0.16,-1.433448865993796,0.7808474427882462,2.7198777949200803,0.127420203190622,0.1660677432158328,0.0538085778195133,0.0263231534418224,-0.0583477926055043,-0.1344495584194555,-1.4255711073435382,0.7679849584142708,2.716111453804043,0.1568509635841915,-0.2874704075923558,-0.2814193073949993,1.5572701311942108,0.637898642215194,-0.9356569555227904,-1.0689815926158266,9.343519305331029,-0.8219697803831014,0.1273906876932245,-1.0452457009896354
0.18,-1.432756804115083,0.7794647578718521,2.716960791659436,0.1385872679093532,0.1741348477594056,0.0554832088044803,0.0423276444866138,-0.0792271818809721,-0.1562828888292717,-1.4227658805232957,0.7628355502713644,2.711083067665084,0.178970460346944,-0.3274704081884022,-0.3214193079910457,1.7093763094353542,0.8002245522395713,-1.0439694637733892,-1.0916665204908096,9.343519305331029,-0.8057009532780911,0.1107004286105642,-1.0648079480336174
0.2,-1.4317753270466411,0.7777402470860545,2.7137819212424583,0.1485051696267373,0.1802852760031403,0.0568523800081567,0.0601394384480615,-0.1013621564696801,-0.1773107503439639,-1.4194076662839843,0.7566861421135568,2.7050546815112235,0.2010899571096965,-0.3674704087844486,-0.3614193085870921,1.7673341959352882,0.8905896980723845,-1.1067487294354037,-1.0513930757346135,9.373914524274369,-0.7894366424666335,0.0934262453161599,-1.0840618819726164
0.22,-1.430358501790904,0.7754310554191557,2.7099971865921835,0.1574896722000309,0.184826596586499,0.0579120077398099,0.0805651032940244,-0.1281985480098183,-0.2000600614199842,-1.428768355124238,0.7726721392625705,2.7049163837252603,0.0997646323717733,-0.2013621579597963,-0.2773107518340801,2.0340420655241744,1.0212832422981413,-1.3418195770069086,-1.1374655538010134,9.413433405269643,-0.7745355501716471,0.0770032128512252,-1.101930329262326
0.24,-1.4284047659926584,0.7724038354413668,2.705925259476264,0.1600748070646608,0.1849827686755946,0.0577944794212031,0.1139939015676003,-0.1714100990697331,-0.2046555897689915,-1.428768355124238,0.7726721392625705,2.7049163837252603,0.0997646323717733,-0.2013621579597963,-0.2773107518340801,2.7412777950371896,1.6714399136787967,-2.1605775529957376,-0.2297764174503641,9.44390010864754,-0.7752580761230772,0.0643630015681251,-1.1109532006580385
0.26,-1.4257914835444336,0.7685873650940532,2.7017980127967958,0.1554137977147366,0.1784684917771387,0.0560663163218645,0.1446588680217441,-0.2067519149601754,-0.2077521469506592,-1.428768355124238,0.7726721392625705,2.7049163837252603,0.0997646323717733,-0.2013621579597963,-0.2773107518340801,2.3446603082573736,1.5332483227071925,-1.767090794522115,-0.1548278590833826,10.84730488126752,-0.7752482136132076,0.0666710896997581,-1.1121827784686518
0.28,-1.4228017490737586,0.7643787025653526,2.697799312442752,0.1485123887305997,0.1680920950583943,0.0536298889261743,0.1678486486847727,-0.2340359968997463,-0.2128398959490538,-1.4277707088005205,0.7706585176829726,2.7021432762069195,0.1076896711565157,-0.2213621582578195,-0.2973107521321033,1.8083640703376485,1.1594890331514256,-1.3642040969785485,-0.254387449919731,10.647965155683778,-0.7809056320022341,0.0722277667640748,-1.1089885562199704
0.3,-1.4192469286589104,0.7594356275923693,2.693462334944929,0.140936192470635,0.1548381648194298,0.050780110008641,0.1858034534994063,-0.2586807968072313,-0.2206723488553982,-1.425775416153085,0.7666312745237766,2.696597061170238,0.1235397487260004,-0.2613621588538659,-0.3373107527281497,1.5740779022507625,0.8977402407316815,-1.232239995374247,-0.3916226453172217,10.188233484521334,-0.7904345907250677,0.0785747164943345,-1.102567459165858
0.32,-1.4153993792381605,0.754028117880176,2.688935422458479,0.1339522976219609,0.1409786305706927,0.0479865579742402,0.1976774064796272,-0.2808624344650974,-0.2315768678804472,-1.4237801235056493,0.7626040313645807,2.6910508461335563,0.1393898262954851,-0.3013621594499124,-0.3773107533241962,1.37106194583707,0.5936976490110435,-1.1090818828933036,-0.5452259512524482,9.985099149650525,-0.8014708711563256,0.0839342298438533,-1.0953763149101867
0.34,-1.4113707626810832,0.7481959754209049,2.684161556834468,0.1278360265239425,0.1278784072401698,0.0454465243162231,0.2043830484444907,-0.3013281654195688,-0.2452539132916754,-1.4209923269797395,0.7565767881755824,2.6835046310670725,0.1552399038649698,-0.3413621600459588,-0.4173107539202426,1.2756109799254505,0.3352820982431753,-1.0232865477235702,-0.6838522705614122,9.808807602451452,-0.8122235363883317,0.0876954346369326,-1.0888148529585886
0.36,-1.4074591105443104,0.7422881405833919,2.679356544064026,0.1228913102154266,0.1170014822750487,0.0433605138142433,0.2069846225227211,-0.3196383122256586,-0.2598590525476244,-1.41820453045383,0.7505495449865842,2.6759584160005887,0.1710899814344545,-0.3813621606420053,-0.4573107545162891,1.178282390209093,0.1300787039115195,-0.9155073403044888,-0.7302569627974487,9.808807602451452,-0.8225041796749977,0.089700947136345,-1.0837611338386242
0.38,-1.403315523766228,0.7356945329605865,2.673983199267062,0.1183114049016816,0.1076471894430842,0.0415141802184064,0.2071576870781153,-0.3386897498798636,-0.2767687383464688,-1.4150204819886831,0.7435223017826847,2.667412200919204,0.1869400590039392,-0.4213621612380517,-0.4973107551123356,1.2737000253670745,0.0086532277697115,-0.9525718827102514,-0.8454842899422194,9.70765644959647,-0.8309877665865315,0.090959029988969,-1.080176994086989
0.4,-1.399192536622884,0.7287244362133996,2.668255866564343,0.1140218095865347,0.1006592991728446,0.0400022788593967,0.2051304589502005,-0.3572426201591287,-0.2951010807274671,-1.4114401815842992,0.7354950585638842,2.657865985822917,0.2027901365734239,-0.4613621618340982,-0.5373107557083819,1.308045705103604,-0.1013614063957391,-0.9276435139632556,-0.9166171190499144,9.618545052758236,-0.8366049191779034,0.0915773421262282,-1.0792523391879585
0.42,-1.3951289196613794,0.7213907281719666,2.662150510579558,0.1098797398520846,0.0962954898051526,0.0388212744171824,0.2012400637227009,-0.3750759270777737,-0.3145650027585547,-1.388936013675374,0.7108623052054431,2.65350081252797,0.2496978986553339,-0.4572426216492448,-0.3951010822175832,1.3341722822718602,-0.1945197613749782,-0.8916653459322521,-0.97319610155438,9.54791757282237,-0.8390337779886986,0.0919356546368002,-1.080838502326439
0.44,-1.3913597953568693,0.7140877558944113,2.656261270444991,0.1066621105308693,0.0960402922616141,0.038182102231895,0.1963424627427472,-0.3930365885168552,-0.3043793958328585,-1.388936013675374,0.7108623052054431,2.65350081252797,0.2496978986553339,-0.4572426216492448,-0.3951010822175832,1.0610353942410924,-0.2448800489976893,-0.8980330719540713,0.5092803462848072,11.35688264998771,-0.8418602443234052,0.0875182273659943,-1.0867155495066878
0.46,-1.387471011808222,0.706039814761883,2.6502438828243204,0.1043450018159519,0.100107332159342,0.0380358375616607,0.1932722505572282,-0.4109289447181857,-0.298312840993492,-1.388936013675374,0.7108623052054431,2.65350081252797,0.2496978986553339,-0.4572426216492448,-0.3951010822175832,0.9570340915015028,-0.1535106092759489,-0.8946178100665281,0.3033277419683261,11.35688264998771,-0.840676738161012,0.0915100466952762,-1.084987441204728
0.48,-1.3836112064413495,0.6976362804667198,2.6442770064019854,0.1027033382465728,0.1070621423664638,0.0382200633925222,0.1933321923072122,-0.4285521736807199,-0.2986552004941263,-1.3864390346888205,0.7062898789889507,2.649549801705794,0.2586113865963607,-0.4772426219472681,-0.4151010825156064,0.8813328005171632,0.0029970874991999,-0.8811614481267105,-0.0171179750317163,10.89288198129634,-0.8352872928126547,0.0936235438931039,-1.087983556521467
0.5,-1.3799112820826316,0.6893323897757088,2.6385575248149578,0.1014361188373676,0.1149580316163156,0.0385296589516015,0.1964226012936002,-0.4446409484655789,-0.3033848246549581,-1.3814450767157138,0.6971450265559658,2.6416477800614424,0.276438362478414,-0.5172426225433145,-0.4551010831116528,0.8525969834625619,0.1545204493194008,-0.8044387392429464,-0.236481208041589,10.261803781201706,-0.8270146594205711,0.0947928790109625,-1.0940259700381123
0.52,-1.3759232274764226,0.6802709169616084,2.6324035599526323,0.1004416435319403,0.1235378045236786,0.0388881192522959,0.2024672834405154,-0.4606363440043481,-0.3119453612539583,-1.3764511187426072,0.6880001741229809,2.6337457584170907,0.2942653383604674,-0.557242623139361,-0.4951010837076993,0.956129760495061,0.3022341073457599,-0.7997697769384637,-0.4280268299500095,10.261803781201706,-0.8176536087630774,0.0951263070425194,-1.1014093560631115
0.54,-1.37178734259438,0.6708968139140993,2.626045461522972,0.0999072688056732,0.1315996963595338,0.0392107579670575,0.2109818096821223,-0.4759711759132979,-0.3235824778040511,-1.3705658119753978,0.6768553216601937,2.623843736742937,0.3120923142425208,-0.5972426237354075,-0.5351010843037458,1.0524693681946298,0.4257263120803448,-0.7667415954474899,-0.5818558275046404,10.058938463370396,-0.8076083207619053,0.0941208097199203,-1.1102502177827445
0.56,-1.367457151368389,0.6612203672938411,2.619437885134084,0.0999093867085441,0.1385618333893651,0.0394484170168023,0.221656841791402,-0.490952315930318,-0.3366221357373553,-1.3646805052081885,0.6657104691974065,2.613941715068783,0.3299192901245742,-0.637242624331454,-0.5751010848997923,1.1274124641865708,0.5337516054639863,-0.7490570008510028,-0.6519828966652069,9.906004214472889,-0.7981861103524622,0.0920074208353207,-1.1192315540303135
0.58,-1.3631274824446402,0.651741140793067,2.612909291076836,0.100115677769934,0.1438070867185446,0.0395419337275245,0.2335188676253571,-0.5060268461149598,-0.3499632968603758,-1.3583495240439278,0.6535656167197181,2.603039693379728,0.3477462660066275,-0.6772426249275003,-0.6151010854958386,1.1682633449735234,0.5931012916977548,-0.7537265092320916,-0.6670580561510264,9.85857578660034,-0.7891497216991249,0.0892336838274994,-1.128307381187735
0.6,-1.3583162233636534,0.6414489236616182,2.60575206980957,0.1001126654966865,0.1477138376175338,0.0394522526413285,0.2469430355841655,-0.5223370761740731,-0.3651115649660783,-1.3515728684826158,0.6404207642271286,2.5911376716757712,0.3655732418886809,-0.7172426255235468,-0.6551010860918851,1.2997133497138351,0.6712083979404218,-0.8155115029556625,-0.7574134052851234,9.82731970811892,-0.781505924316324,0.0867165776603666,-1.1362709981859491
0.62,-1.3532303060091402,0.6308245246713454,2.598280894438656,0.0995080854903941,0.1499640299789555,0.0391422611322175,0.260888990980197,-0.5391847255493649,-0.3812845123067224,-1.3459690715844452,0.6153320698529146,2.587496491561266,0.300144740801527,-0.6223370776641892,-0.4651115664561944,1.3600525606241445,0.697297769801572,-0.8423824687645909,-0.8086473670322059,9.782194414990045,-0.7754456147503872,0.0847025555668644,-1.1431887709037862
0.64,-1.3480795156908505,0.6203599412659169,2.591172592587935,0.0971588158021601,0.150258909177891,0.038529812964594,0.280395910500165,-0.5608021827683535,-0.366053532293862,-1.3459690715844452,0.6153320698529146,2.587496491561266,0.300144740801527,-0.6223370776641892,-0.4651115664561944,1.6430285435176262,0.9753459759984012,-1.0808728609494278,0.7615490006430164,9.742577558244191,-0.7747242147792262,0.0805908066215224,-1.1504077371716035
0.66,-1.342268818236836,0.6089490467688253,2.5839816675203653,0.0932812746042748,0.1484395120994871,0.0375779319982093,0.2994383408877911,-0.5788759045901327,-0.3542167656567205,-1.3459690715844452,0.6153320698529146,2.587496491561266,0.300144740801527,-0.6223370776641892,-0.4651115664561944,1.4399501900940814,0.9521215193813048,-0.903686091088962,0.591838331857078,11.801357533236114,-0.7784541766258323,0.0875645603696832,-1.143825142063921
0.68,-1.3360964775672055,0.5972058782056993,2.5769499809628966,0.0893329223468237,0.1445394764014347,0.0364374165183445,0.3166595488561761,-0.5944637739718096,-0.3494749872481403,-1.34296762417643,0.6091086990762726,2.5828453758967043,0.3107850818449993,-0.6423370779622124,-0.4851115667542176,1.1853650684774968,0.86106039841925,-0.7793934690838444,0.2370889204290099,10.899098825997498,-0.783901028091643,0.0939478012840984,-1.1365092319382974
0.7000000000000001,-1.3299382316203698,0.5857785217295535,2.5703039051498227,0.085858862490684,0.1390799546724822,0.035235023883763,0.330355316000173,-0.60766358551203,-0.3503070560207622,-1.3369647293603997,0.5966619575229889,2.57354314456758,0.3320657639319439,-0.6823370785582589,-0.5251115673502641,0.9519734775747328,0.684788357199842,-0.6599905770110215,-0.0416034386310937,10.550173362206806,-0.789254003935428,0.0987071999281051,-1.131079319592667
0.72,-1.3232132843354842,0.5734922947099812,2.56324529591623,0.0826991854072644,0.1323730617192769,0.0339456663431781,0.3411184684908726,-0.6202995697636497,-0.3557040525484365,-1.3309618345443688,0.584215215969705,2.5642409132384563,0.3533464460188885,-0.7223370791543053,-0.5651115679463106,0.8726985749171429,0.5381576245349823,-0.6317992125809857,-0.2698498263837195,10.550173362206806,-0.7952155154804674,0.1019260916567527,-1.12637935291605
0.74,-1.3163084942522425,0.5609622520643445,2.5560346785329897,0.0801141429360967,0.1255733491168612,0.0327120021235617,0.3486124045799547,-0.6321232023871973,-0.3652490135345983,-1.323894905623991,0.5697684743866189,2.55293868187953,0.374627128105833,-0.7623370797503518,-0.605111568542357,0.8471476358215487,0.3746968044541054,-0.5911816311773788,-0.4772480493080877,10.263459267517646,-0.8007034282438366,0.1036986539944607,-1.1229037186819089
0.76,-1.3092827760151775,0.5482022515340657,2.5486057230118653,0.0781014054053075,0.1193669979855885,0.0315845557961789,0.3535138772975308,-0.643406678313228,-0.3771525308535429,-1.3168279767036133,0.5553217328035328,2.541636450520604,0.3959078101927776,-0.8023370803463983,-0.6451115691384035,0.8559132379173573,0.2450736358788036,-0.5641737963015314,-0.5951758659472312,9.90603351962818,-0.8056478160375941,0.1040310125752013,-1.1210062873127835
0.78,-1.3025356518621034,0.5358657003610582,2.541311050400804,0.0763955000354121,0.1144044824471753,0.0306138934441257,0.3563762489153856,-0.6545276494745615,-0.3900997904414052,-1.309229030731062,0.5398749912055456,2.5293342191467767,0.4171884922797222,-0.8423370809424446,-0.6851115697344499,0.8653044286339444,0.1431185808927426,-0.5560485580666796,-0.6473629793931152,9.90603351962818,-0.8093281667068631,0.1036724472027655,-1.1205930817029424
0.8,-1.2953932873091802,0.5226539809689826,2.533350272142841,0.0745694873001814,0.1105643244674392,0.0297073702760695,0.3575879406798664,-0.6659712857730276,-0.4053680937061417,-1.3010980677063368,0.5234282495926571,2.516031987758048,0.4384691743666667,-0.8823370815384911,-0.7251115703304963,0.95596298731651,0.0605845882240357,-0.5721818149233004,-0.7634151632368247,9.722872269000618,-0.8113572087172665,0.1030508056962667,-1.1217761339298422
0.8200000000000001,-1.2882442911630303,0.5092160209178752,2.5250663234323314,0.0726307508818348,0.1086487153838629,0.0289462226996157,0.3572482221188122,-0.6771196369940508,-0.42225276523787,-1.277513890275187,0.4893554166803313,2.513081867457534,0.4294275116790119,-0.765631317270506,-0.5053680951962578,1.0117970107466816,-0.0169859280527095,-0.55741756105116,-0.8442335765864117,9.643950892362229,-0.8118040901790218,0.1024838346195246,-1.124044174776722
0.84,-1.2814580907146806,0.4962082692694149,2.517206437942503,0.0702248270650118,0.1098930083177365,0.0284104676960991,0.3576830744499096,-0.6910881306740037,-0.4042018624381367,-1.277513890275187,0.4893554166803313,2.513081867457534,0.4294275116790119,-0.765631317270506,-0.5053680951962578,1.141427838413538,0.0217426165548706,-0.6984246839976449,0.9025451399866602,9.643950892362229,-0.8099729400279713,0.0977493320692453,-1.1335633942502297
0.86,-1.2742867552730934,0.4822619469355954,2.50927277393313,0.0675371605521614,0.1146701897847086,0.0280759114266575,0.3598316388799611,-0.7027678855721541,-0.390596071378379,-1.277513890275187,0.4893554166803313,2.513081867457534,0.4294275116790119,-0.765631317270506,-0.5053680951962578,0.902981940507028,0.1074282215025784,-0.5839877449075215,0.6802895529878866,11.932517424446814,-0.8092719142482231,0.1035320985758652,-1.1291380664541364
0.88,-1.2670451219575318,0.4680978993005137,2.501533407543205,0.0652443326711669,0.1217142082213539,0.0279127799801413,0.3645884635574751,-0.713051763418214,-0.3843206517837472,-1.273219615158397,0.4816991035076262,2.508028186505572,0.4437954258788409,-0.7855633235700017,-0.525368095494281,0.6476233775389355,0.2378412338756963,-0.5141938923029943,0.3137709797315896,10.90930190018844,-0.8045591921055559,0.1080968757918595,-1.128833471122098
0.9,-1.2596800502405334,0.45374020766291,2.4938517679532395,0.0634193372471612,0.1297628371846669,0.027837597083463,0.371989843275417,-0.722293506958065,-0.3841549632779943,-1.2646310649248167,0.4663864771622161,2.497920824601646,0.4725312542784992,-0.8254273361689931,-0.5653680960903275,0.5920677707544966,0.3700689858970957,-0.4620871769925538,0.008284425287644,10.90930190018844,-0.7973785045225597,0.111072497773311,-1.1318215489596393
0.92,-1.252522015689832,0.4399378014881976,2.4865142367506814,0.0621745024406559,0.1374683656142603,0.0277968439277686,0.3812962855223595,-0.7301945730068229,-0.3882457724889205,-1.2560425146912364,0.4510738508168059,2.487813462697721,0.5012670826781573,-0.8652913487679845,-0.6053680966863739,0.6437612756346662,0.4653221123471274,-0.3950533024378921,-0.2045404605463069,10.574315387027127,-0.7883252084373206,0.1128805225247094,-1.137146186841403
0.94,-1.2447758693233362,0.4252565156869901,2.4786708961242048,0.0616103404407354,0.1450409564988536,0.0277695183817622,0.3929806963834672,-0.7375665818316354,-0.3960539764592777,-1.2460171730376732,0.4337680238414462,2.4757061007639938,0.5300029110778155,-0.905155361366976,-0.6453680972824204,0.7934734093323256,0.5842205430553832,-0.3686004412406241,-0.3904101985178598,10.32812191627636,-0.7785677493555583,0.1133094090779737,-1.1437926818759048
0.96,-1.2367756307279476,0.4104336585992992,2.4706528888781545,0.0620825686918726,0.151657014029332,0.0277584459108938,0.4065611295190062,-0.7444394137516885,-0.4054254236886421,-1.23599183138411,0.4164621968660865,2.4635987388302665,0.5587387394774738,-0.9450193739659674,-0.6853680978784669,0.8937113710853616,0.6790216567769514,-0.3436415960026584,-0.4685723614682224,10.136119533535748,-0.7690437201309258,0.1120215150378098,-1.1510931922100347
0.98,-1.2284825613035215,0.3954640456541282,2.462435048409331,0.0634166863481156,0.1568924800199955,0.0277291392339115,0.4220232498652222,-0.7521964056230197,-0.4159112372344847,-1.2252480940205557,0.398159769575752,2.450491376881638,0.5874745678771319,-0.9848833865649588,-0.7253680984745132,1.0114350871545608,0.7731060173108012,-0.3878495935665582,-0.5242906772921302,10.039135672293014,-0.7610970694281655,0.1098043272632275,-1.1574518140235486
1.0,-1.2203060570185478,0.3810903462179836,2.454424138745579,0.0650611589871171,0.1603331642360107,0.0276371296559461,0.4377882699294119,-0.7604168978493174,-0.426829124161862,-1.2137859609470094,0.3788607419704428,2.436384014918108,0.6162103962767901,-1.02474739916395,-0.7653680990705597,1.043207320030298,0.7882510032094836,-0.4110246113148863,-0.5458943463688609,10.00001449649426,-0.75421730143344,0.1068469778231646,-1.163363902651382
1.02,-1.2113720069661735,0.3657834790599156,2.4457557821648392,0.0668542120272287,0.162324815876859,0.0274426079680542,0.454693641942234,-0.7698440678016081,-0.4394869380300687,-1.198416643522077,0.3430695013255178,2.433082682537486,0.5117809842152625,-0.832575025872465,-0.5268291256519781,1.1563773044766203,0.8452686006411025,-0.4713584976145324,-0.6328906934103373,9.944728503876831,-0.7489624181326688,0.1036838575118595,-1.1683449525360954
1.04,-1.2020127938104268,0.3501191106176095,2.4371480569908,0.0639131743262021,0.1618588951712377,0.0267568360056434,0.4806017325297337,-0.7947284483285344,-0.4187761170724985,-1.198416643522077,0.3430695013255178,2.433082682537486,0.5117809842152625,-0.832575025872465,-0.5268291256519781,2.073282214771721,1.2954045293749883,-1.244219026346316,1.0355410478785103,9.944728503876831,-0.7504375124003638,0.1011851736148802,-1.1727575965723958
1.06,-1.1926432190218517,0.3348608858286325,2.429363718873637,0.0555458692705428,0.158149176006036,0.0255384607180176,0.5040302726993695,-0.8089539344287093,-0.4017274436606777,-1.198416643522077,0.3430695013255178,2.433082682537486,0.5117809842152625,-0.832575025872465,-0.5268291256519781,1.6139378971706362,1.1714270084817873,-0.7112743050087467,0.8524336705910379,12.322942314609463,-0.75837494477617,0.1147917289147012,-1.161049309001048
1.08,-1.1823434453592874,0.3185957540803838,2.421444346280712,0.045562016716666,0.1513747015831549,0.0240937508559126,0.5241395097227256,-0.8164794507904131,-0.3914216689726343,-1.1932988336799244,0.3347437510667931,2.427814391280966,0.5265795270724326,-0.8470066514770945,-0.5468291259500013,1.1908230369081956,1.0054618511678048,-0.3762758180851866,0.5152887344021723,11.765992391133295,-0.7667745659813657,0.128887555563462,-1.1500048593943135
1.1,-1.1716971634869031,0.3022297048459528,2.4136490803560324,0.036200131870407,0.1430007942719392,0.0227275821231144,0.5390579852841743,-0.8197012631813129,-0.388913082759411,-1.1830632139956192,0.3180922505493438,2.4172778087679268,0.5561766127867729,-0.8758699026863536,-0.5868291265460478,0.7733595427562626,0.7459237780724326,-0.1610906195449901,0.1254293106611653,10.694052814317727,-0.7766184628513186,0.1413903258352128,-1.1387948441884153
1.12,-1.1608044448867854,0.2858315741372575,2.4058253719607428,0.0281909774877587,0.1342353982628623,0.0215510480646339,0.5492400078691907,-0.820170586017711,-0.3935300891502006,-1.172827594311314,0.3014407500318945,2.406741226254887,0.585773698501113,-0.9047331538956126,-0.6268291271420943,0.5594877028566884,0.5091011292508218,-0.0234661418199055,-0.2308503195394801,10.289155764055977,-0.7852974525558742,0.1508747635007179,-1.1299197760675412
1.14,-1.1503060331236483,0.270262173521026,2.398254563338137,0.0219911592702373,0.1264111339439627,0.0206334080319741,0.5552581472240695,-0.8189597630226546,-0.403150689201993,-1.1611121203412915,0.2833460869539823,2.394204643712045,0.6153707842154532,-0.9335964051048716,-0.6668291277381407,0.5706137900906516,0.3009069677439413,0.0605411497528185,-0.4810300025896219,10.289155764055977,-0.793017193077825,0.1581666962676553,-1.1231433935566044
1.16,-1.1391610092581057,0.2539086686451822,2.3900573937337337,0.0169167141094778,0.1193483782343045,0.0198659572122257,0.5588126702664451,-0.816658025108615,-0.4161839555455691,-1.1493966463712697,0.26525142387607,2.381668061169204,0.6449678699297935,-0.9624596563141308,-0.7068291283341872,0.685198261575254,0.1777261521187789,0.1150868957019823,-0.651663317178805,9.8085736471794,-0.7990227931555623,0.1628921349878185,-1.119052231808913
1.18,-1.1279663743708883,0.2376020392020775,2.381575214408369,0.0130214294852554,0.1138893355469304,0.0192611290457487,0.5603518227569311,-0.8142295641065255,-0.4314705014646234,-1.136941245258389,0.2464351795179263,2.36813147861146,0.6745649556441337,-0.9913229075233896,-0.7468291289302336,0.7777289041867242,0.0769576245242986,0.1214230501044744,-0.7643272959527131,9.8085736471794,-0.8027976669526646,0.1658456593742016,-1.1175238050959435
1.2,-1.1167615776120785,0.2213471729663682,2.372765489235855,0.0099731393058357,0.1104535782235979,0.0187795850383673,0.5600241767744584,-0.8115128964122461,-0.4487372884226789,-1.1237459170026494,0.2268973538795511,2.353594896038816,0.7041620413584738,-1.0201861587326486,-0.78682912952628,0.874113217932676,-0.016382299123635,0.1358333847139681,-0.8633393479027751,9.595708608982932,-0.8039536363689728,0.1674611781284528,-1.1185448487801657
1.22,-1.106134586670848,0.2059578497100557,2.364061401884592,0.007680840075266,0.1094349133411757,0.0184112349427749,0.5588447746380386,-0.8086527973921417,-0.4666263849533545,-1.0887603687733554,0.1807715281457558,2.350328624814721,0.6525632413606209,-0.8436697885330843,-0.548737289912795,0.9077319682704056,-0.058970106820988,0.1430049510052211,-0.8944548265337832,9.513469757057464,-0.8029711665741355,0.1683173881298802,-1.1214977272239963
1.24,-1.094956106030588,0.1897077089238084,2.354871885387225,0.0023086977062101,0.1115243743456616,0.0178564381912746,0.5596143215175152,-0.8146553857788588,-0.4495240798642155,-1.0887603687733554,0.1807715281457558,2.350328624814721,0.6525632413606209,-0.8436697885330843,-0.548737289912795,0.90707236357147,0.0384773439738306,-0.3001294193358539,0.8551152544569507,9.513469757057464,-0.7980606856620008,0.1671715799763671,-1.133887460831455
1.26,-1.083744896122632,0.1734255458107415,2.3460220436177,-0.0061316109080046,0.1171433575276274,0.0170906334105338,0.5620104481722511,-0.8125959592346444,-0.4365165726490951,-1.0887603687733554,0.1807715281457558,2.350328624814721,0.6525632413606209,-0.8436697885330843,-0.548737289912795,0.6692867557855169,0.1198063327367937,0.1029713272107157,0.6503753607560225,11.906642563414607,-0.795830771374284,0.1786900896266037,-1.1289411414491144
1.28,-1.0730246656372302,0.1580517752409238,2.3377800391912955,-0.0141984935034885,0.1245738672298172,0.016317628536545,0.5667032653571429,-0.805800640430038,-0.4317146568250006,-1.082234736359749,0.172334830260425,2.344841251915593,0.6710710542778534,-0.8501011669572519,-0.5687372902108182,0.4776433982814555,0.2346408592445892,0.3397659402303243,0.2400957912047224,11.328620068370585,-0.7893999333965747,0.1902074807745392,-1.1278142688212114
1.3,-1.0616159360096504,0.1420390839436017,2.3291411384551566,-0.0216412877416354,0.1334515820387323,0.0155211908543062,0.5742463181988547,-0.7959183034043122,-0.432712175651152,-1.0691834715325368,0.1554614344897633,2.3338665061173374,0.7080866801123185,-0.8629639238055872,-0.6087372908068647,0.6236049933078898,0.377152642085593,0.4941168512862859,-0.04987594130757,10.836166060648791,-0.7802171232144918,0.2000129208531398,-1.129851860635367
1.32,-1.0500286204402716,0.1262435460414574,2.3204284013552887,-0.0276399959544265,0.1425202341971616,0.0147855240797405,0.5843617192824664,-0.784322603891061,-0.4387232388271414,-1.0561322067053245,0.1385880387191016,2.3228917603190813,0.7451023059467835,-0.8758266806539224,-0.6487372914029111,0.8260061543198118,0.5057700541805821,0.5797849756625617,-0.3005531587994686,10.47823680806323,-0.7695732570758099,0.2077758167179266,-1.1340641276239467
1.34,-1.0382141331320704,0.1106925830348589,2.311551503789861,-0.0320924640044249,0.151077559705252,0.0141502860507963,0.5967517668661003,-0.7717111423382723,-0.4486737053013808,-1.0412301605863885,0.1210715051060231,2.309917014491023,0.7821179317812486,-0.8886894375022577,-0.6887372919989576,1.0143643633787889,0.6195023791816967,0.6305730776394347,-0.497523323711968,10.216822181193493,-0.7593881886159078,0.2132720070199311,-1.1389141590670029
1.36,-1.0267395908392116,0.0961584444726162,2.3029212602214697,-0.0350049318577426,0.1583094524957238,0.0136618620680418,0.6105553333759038,-0.7591594132343722,-0.4592873726444021,-1.0263281144674528,0.1035549714929447,2.296942268662965,0.8191335576157136,-0.901552194350593,-0.7287372925950041,1.0732360951307285,0.6901783254901761,0.6275864551950061,-0.5306833671510691,10.0322497401512,-0.7491106033940662,0.2170083644585779,-1.144866014338235
1.38,-1.0143565898231954,0.0811152127732431,2.2936099436909325,-0.0369426044835248,0.1645967296612782,0.013279702929533,0.6270769153076278,-0.7459857319453341,-0.4713329183838964,-1.0105006777026555,0.0857168689586579,2.2829675228200057,0.8561491834501787,-0.9144149511989282,-0.7687372931910504,1.2161452631101126,0.8260790965861964,0.6586840644519032,-0.6022772869747117,9.99127876654984,-0.7401187745734888,0.2194144075937558,-1.1503028841096696
1.4,-1.001625203160736,0.066340821873464,2.284048340684237,-0.037759976192129,0.1691387159278476,0.0130562519778638,0.6451343833814223,-0.7322960526696854,-0.4842302113191076,-0.9937478502919966,0.0675571975031627,2.267992776962145,0.8931648092846436,-0.9272777080472636,-0.8087372937870969,1.3036675544045735,0.9028734036897246,0.684483963782434,-0.6448646467605595,9.960187051623508,-0.733242492769513,0.2206181029418984,-1.154559810166694
1.42,-0.98918797351834,0.0525636065600523,2.27471766384855,-0.0372842911154129,0.1717076878274477,0.0130171284478803,0.6630043926772993,-0.7188100930210753,-0.4972954339813175,-0.9693684839916648,0.0297260192399797,2.2598368301182816,0.7451343848715384,-0.7298456102624052,-0.5842302128092237,1.296059781695846,0.8935004647938505,0.6742979824305051,-0.6532611331104943,9.931991959693732,-0.7277914455478398,0.2205087046053776,-1.1581898575083045
1.44,-0.9756497624489068,0.0382190061950382,2.264943755489872,-0.0394730805571127,0.1719803233886149,0.012901816924724,0.6900645512816631,-0.7150175416678466,-0.4777637478267634,-0.9693684839916648,0.0297260192399797,2.2598368301182816,0.7451343848715384,-0.7298456102624052,-0.5842302128092237,1.679376665239369,1.353007930218192,0.1896275676614378,0.9765843077277014,9.896434523981952,-0.7259835333083681,0.2198612392046237,-1.1635952437373742
1.46,-0.9615752613394726,0.0240241931959627,2.255557123290152,-0.0455824599460742,0.1691589865516433,0.0126744460891337,0.7157470070122379,-0.703862829493427,-0.4620439957036218,-0.9693684839916648,0.0297260192399797,2.2598368301182816,0.7451343848715384,-0.7298456102624052,-0.5842302128092237,1.6055581139124917,1.2841227865287408,0.5577356087209773,0.785987606157082,11.61389360236626,-0.7321120111960879,0.2303726318546081,-1.151834699431917
1.48,-0.9477555184771104,0.0108013747371212,2.246854621486729,-0.05169443484627,0.1638732947091361,0.0126157288532739,0.7372248394515469,-0.6886182001260669,-0.4547191741426592,-0.9619171401429496,0.0224275631373557,2.2539945279901894,0.7651343851695616,-0.7293555217809492,-0.6042302131072469,1.3668842505303405,1.0738916219654504,0.7622314683680076,0.3662410780481295,11.099712545472356,-0.7397952699060096,0.2415589058753011,-1.1392414487718834
1.5,-0.932815499976718,-0.0027798347722306,2.237780033266068,-0.0571687073298183,0.1565234218648236,0.0127889434046848,0.7552288821113747,-0.6704606776474994,-0.4533627123240791,-0.9470144524455189,0.0078306509321076,2.242309923734005,0.805134385765608,-0.7283753448180371,-0.6442302137032934,1.280313597641071,0.9002021329913901,0.907876123928375,0.0678230909290061,11.099712545472356,-0.7483541158656514,0.25109478459814,-1.127195283193271
1.52,-0.917561493782292,-0.0159852017380244,2.2286706574829576,-0.0612594905364967,0.1484874351983611,0.0131716836076633,0.7689602059873119,-0.6512417243164212,-0.4578337321962663,-0.932111764748088,-0.0067662612731404,2.2306253194778205,0.8451343863616545,-0.727395167855125,-0.6842302142993398,1.2019852757267175,0.6865661937968559,0.9609476665539074,-0.2235509936093588,10.683261756445065,-0.7567571283693146,0.2582808074036049,-1.1168574777281124
1.54,-0.9020741477401888,-0.0288010111789084,2.219415692682392,-0.0638810790340183,0.140671773787918,0.0137029981677939,0.778951316975448,-0.6316984707772096,-0.4673663375355733,-0.9152090770208549,-0.0213141646302429,2.216940715191833,0.885134386957701,-0.726414990892213,-0.7242302148953863,1.1964861284508757,0.4995555494068049,0.97716267696058,-0.4766302669653527,10.333876557511758,-0.7638040171238496,0.2629109433346803,-1.1091602709042965
1.56,-0.8872034446074383,-0.0406118552155212,2.2104229984278785,-0.0650926177928912,0.1340477514682515,0.0142858223144256,0.7858476322490642,-0.6128005212343182,-0.4787185256799466,-0.8983063892936218,-0.0358620679873455,2.203256110905847,0.9251343875537474,-0.7254348139293009,-0.7642302154914328,1.154950038902153,0.3448157636808113,0.944897477144574,-0.5676094072186638,9.920255796984748,-0.7698067810872731,0.2655149331831243,-1.1037345490990371
1.58,-0.8714259666550644,-0.0526547761726399,2.200706262662803,-0.0648975363594781,0.1281986651863438,0.0149555652202839,0.7914071444054537,-0.5926470175838316,-0.492417736779807,-0.8804037015514875,-0.0503854669203751,2.188571506604959,0.9651343881497938,-0.7244546369663888,-0.8042302160874791,1.249740242576188,0.277975607819475,1.0076751825243258,-0.6849605549930221,9.920255796984748,-0.7742857498840967,0.2661829657356757,-1.1003341501532689
1.6,-0.8555549175587097,-0.0642911392393298,2.190699317388184,-0.0628652573744617,0.1236948735277866,0.0156794071208304,0.7953099756522781,-0.5722119171499077,-0.5076328951072266,-0.8615010137944521,-0.064884361429332,2.1728869022891697,1.0051343887458402,-0.7234744600034767,-0.8442302166835256,1.2887265656590945,0.1951415623412222,1.0217550216961968,-0.7607579163709799,9.734459592687926,-0.7769426837504525,0.2646826062257189,-1.099170502205811
1.62,-0.8396213903383072,-0.0755296221999254,2.180374976231028,-0.058941382071172,0.1208529301833204,0.0164327897594075,0.7978262304028756,-0.5533743916006906,-0.5239914663771087,-0.8157894187760958,-0.0929017350968251,2.1653176726328227,0.8953099771423942,-0.5254005600093666,-0.6076328965973428,1.2537810422668736,0.1258127375298734,0.9418762774608568,-0.8179285634941025,9.670577859727018,-0.7771096284485443,0.2611179707280827,-1.1008346253639498
1.64,-0.8244024525600382,-0.0860251367708762,2.1706094203909125,-0.0596281540671129,0.1200107314922832,0.0167357786668253,0.8041793510318899,-0.5499531484109154,-0.5032565051286401,-0.8157894187760958,-0.0929017350968251,2.1653176726328227,0.8953099771423942,-0.5254005600093666,-0.6076328965973428,1.0977313704475766,0.3176560314507137,0.1710621594887607,1.0367480624234315,9.670577859727018,-0.7750774601291834,0.2569690812350992,-1.1106695785865497
1.66,-0.8082548808820665,-0.0969070840235101,2.160716199090753,-0.0665542645636233,0.1209808816114896,0.016532388523769,0.8103523890577515,-0.5371087895597296,-0.4877208522674705,-0.8157894187760958,-0.0929017350968251,2.1653176726328227,0.8953099771423942,-0.5254005600093666,-0.6076328965973428,1.054087831479823,0.3086519012930833,0.6422179425592867,0.7767826430584795,12.051338681066229,-0.7778552857630929,0.268238276910195,-1.099808365621873
1.68,-0.7919828555260875,-0.1074451592887792,2.1510444406514075,-0.0749778905258364,0.1234016012116284,0.0161448673969339,0.8166954675216216,-0.5171202961830978,-0.4805638164684903,-0.8068363190046719,-0.0981557406969188,2.1592413436668494,0.9153099774404174,-0.5160382885812584,-0.6276328968953659,1.107923365236004,0.3171539231935028,0.9994246688315888,0.3578517899490097,11.447698669767306,-0.7776840754173733,0.2805539415243838,-1.091636245171944
1.7,-0.7755794838156546,-0.117541252257186,2.141439342952983,-0.0826666394447453,0.1267230153354279,0.0157490239365636,0.823521765313568,-0.4936596011945665,-0.4802662297853216,-0.788930119461824,-0.1086637518971061,2.1470886857349023,0.955309978036464,-0.497313745725042,-0.6676328974914124,1.221772389526002,0.3413148895973217,1.1730347494265658,0.0148793341584352,10.95277404297576,-0.7753938172593038,0.2909155260864727,-1.0867931338142418
1.72,-0.7598626694756307,-0.126678736551023,2.132273850380424,-0.0886325194944219,0.1303184143011449,0.0154349375676424,0.8306832026646888,-0.4696554199420711,-0.4845131740725013,-0.7710239199189761,-0.1191717630972935,2.134936027802956,0.9953099786325104,-0.4785892028688255,-0.7076328980874589,1.2703576645133117,0.3580718675560368,1.2002090626247686,-0.2123472143589877,10.58901779180087,-0.7713965463386493,0.2997954388863178,-1.0844191431678862
1.74,-0.7431638977542162,-0.1357974704828351,2.122503457997269,-0.0934431028503668,0.1342825304024512,0.0151980459450445,0.838937691941624,-0.4436993436299775,-0.4924407151844872,-0.751117720346326,-0.12874354715467,2.1207833698412064,1.0353099792285567,-0.4598646600126091,-0.7476328986835054,1.4183620824955951,0.4127244638467642,1.2978038156046838,-0.3963770555992951,10.330669155902797,-0.7664020986721602,0.3068134207468409,-1.0838932795003666
1.76,-0.726289163600187,-0.1443876021022248,2.112556989655189,-0.0967524119820683,0.1382029197355103,0.0150813702316592,0.8482378860530949,-0.4169934874785514,-0.5017737837128439,-0.7312115207736757,-0.1383153312120465,2.106630711879457,1.0753099798246033,-0.4411401171563927,-0.7876328992795518,1.488961493329073,0.4650097055735436,1.3352928075713004,-0.4666534264178318,10.138958970968815,-0.7608947158726221,0.3118823379160255,-1.0850020956947013
1.78,-0.7092120227212279,-0.152434810457167,2.102415689114076,-0.0985223419347246,0.1416935806978923,0.0151299525606806,0.8590379307320084,-0.3894719384792348,-0.5118603472258724,-0.7103053211861243,-0.1474190016980176,2.0914780539028066,1.1153099804206497,-0.4224155743001763,-0.8276328998755982,1.5619021959542407,0.5400022339456745,1.3760774499658317,-0.5043281756514251,10.057993514104965,-0.7561191890938539,0.3152111033895667,-1.0861698810542495
1.8,-0.6927782216150657,-0.1595623142898338,2.092586946345305,-0.0985204194113054,0.1442512709188891,0.0153873681927429,0.870262557208486,-0.3624842317233158,-0.522212745269458,-0.6883991215836718,-0.1560545586125833,2.075325395911255,1.155309981016696,-0.4036910314439598,-0.8676329004716447,1.5504037383313718,0.5612313238238797,1.3493853377959524,-0.5176199021792838,10.057993514104965,-0.7517856724830044,0.3170461654364093,-1.0873028047805235
1.82,-0.6752444287115126,-0.166507685700207,2.08201884724751,-0.0963159060151115,0.1459896729184306,0.0159277313739582,0.8824894754409881,-0.3337271432351049,-0.5340657576444096,-0.6492650937546415,-0.1776865258759996,2.0664763090818323,0.970262558698602,-0.2826663629541469,-0.6222127467595742,1.6710487501445297,0.6113459116251052,1.4378544244105451,-0.5926506187475755,10.02373307832204,-0.7486754628780392,0.316981999456986,-1.0877720507913236
1.84,-0.6573834975536474,-0.1729444787894297,2.0715448963518224,-0.0946125392319626,0.1458010087044488,0.0166368758396858,0.903181548128322,-0.3107182393901928,-0.5110366338284038,-0.6492650937546415,-0.1776865258759996,2.0664763090818323,0.970262558698602,-0.2826663629541469,-0.6222127467595742,1.928673165660297,1.0346036343666989,1.1504451922456027,1.1514561908002874,12.318171732076737,-0.7462832584880926,0.3127452296787683,-1.095290352303433
1.86,-0.6391134476087329,-0.1789093680217486,2.0615294049140287,-0.0955406249449344,0.1427472740100436,0.0174539135290415,0.922513498476491,-0.286621899155315,-0.4918266709462035,-0.6492650937546415,-0.1776865258759996,2.0664763090818323,0.970262558698602,-0.2826663629541469,-0.6222127467595742,1.81891491755014,0.9665975174084462,1.2048170117438917,0.960498144110014,11.766679746078808,-0.7541330162987232,0.3203026450819886,-1.077736058053644
1.88,-0.6214254893900942,-0.1841108786107179,2.052296796499277,-0.0977138852995254,0.1375381457544334,0.018390004504268,0.9380019828202992,-0.2620709183293572,-0.4809034726011347,-0.6395624681676555,-0.180513189505541,2.060254181614237,0.9902625589966252,-0.2667027892003131,-0.6422127470575973,1.5507740558110452,0.774424217190417,1.2275490412978871,0.5461599172534415,11.766679746078808,-0.7660536865141806,0.3310255250785506,-1.0533955945274338
1.9,-0.6025349474840037,-0.1890631170315298,2.0427389142173835,-0.1002522061621979,0.1305865920827527,0.0195424593498296,0.949852164106642,-0.2344304032190949,-0.4756963928197517,-0.6201572169936834,-0.186166516764624,2.047809926679045,1.0302625595926718,-0.2347756416926456,-0.6822127476536438,1.5260558246092333,0.592509064317126,1.3820257555131137,0.2603539890691481,11.253364968616552,-0.7778685132094946,0.340664165310507,-1.0313275430328654
1.92,-0.583453113088838,-0.1934493282294546,2.033216575356527,-0.1020852130689618,0.123274169400392,0.0208217420731842,0.9575462430104382,-0.2058513052319613,-0.4766970784311655,-0.6007519658197114,-0.1918198440237069,2.035365671743853,1.070262560188718,-0.202848494184978,-0.7222127482496903,1.4806797962666676,0.3847039451898182,1.4289548993566812,-0.0500342805706877,10.472281435201694,-0.7882787823599656,0.3476794034390859,-1.0136081722931598
1.94,-0.5642547593777695,-0.1972597072804415,2.023622736103364,-0.102831523073531,0.1164562335287802,0.0221580893832096,0.961819928060202,-0.1768368296288471,-0.482576273448809,-0.579346714615937,-0.1958768139074065,2.02092141677886,1.1102625607847645,-0.1709213466773105,-0.7622127488457368,1.4955509958571864,0.2136842524881832,1.4507237801557118,-0.2939597508821751,10.183737226935593,-0.7967729808082763,0.3527413948817313,-0.9997501518549088
1.96,-0.5459639183926718,-0.2003377909377386,2.0143741349908835,-0.1021455491143268,0.1110530066191134,0.0234314736416477,0.963254467367537,-0.1488549576632153,-0.4906165864418341,-0.5579414634121627,-0.199933783791106,2.006477161813866,1.150262561380811,-0.1389941991696429,-0.8022127494417832,1.4574718648666147,0.0717269653667529,1.399093598281588,-0.4020156496512578,10.183737226935593,-0.802608298073885,0.3553773739778467,-0.9905467860577282
1.98,-0.526700721413806,-0.2029992580166757,2.0044545711903137,-0.099460127798699,0.1070263466021104,0.0247436957885873,0.9628851180166046,-0.1190783231137042,-0.5009577390035753,-0.5355362121934871,-0.2031925749871139,1.991032906833971,1.1902625619768574,-0.1070670516619754,-0.8422127500378296,1.5761692646598733,-0.0184674675466178,1.488831727475555,-0.5170576280870587,10.041068362420448,-0.8063263444239086,0.3556031284777286,-0.9847127777367564
2.0,-0.5074616622307356,-0.2050834052211275,1.9943110822783277,-0.0948120367517135,0.105133969954896,0.025976159423669,0.9611048656657076,-0.0915280049636409,-0.5127924526292149,-0.5121309609599105,-0.2056531874954301,1.9745886518391749,1.2302625625729038,-0.0751399041543079,-0.882212750633876,1.5018736424908397,-0.0890126175448424,1.3775159075031655,-0.5917356812819796,9.836061923454508,-0.8069506124672958,0.3533705608726594,-0.983449388726238
2.02,-0.4882547823049411,-0.2066447238484519,1.983920758732644,-0.0892758581467859,0.105335619087153,0.0270696137566129,0.9599002972329426,-0.0663243272541688,-0.5256757688335386,-0.4594064189474502,-0.2096598054693096,1.9686714596468664,1.061104867155824,0.002088890413995,-0.612792454119331,1.4165593806938912,-0.0602284216382587,1.2601838854736045,-0.6441658102161851,9.836061923454508,-0.8057265643260619,0.3497381275482895,-0.985211033217248
2.04,-0.4699712202064495,-0.2076856621320549,1.9741637232012104,-0.0848573849516941,0.1066035157401861,0.0279565461781932,0.9647932274879032,-0.0439226909232299,-0.5007336177394401,-0.4594064189474502,-0.2096598054693096,1.9686714596468664,1.061104867155824,0.002088890413995,-0.612792454119331,1.6940225632974817,0.2446465127480257,1.1200818165469453,1.2471075547049235,9.756677634041807,-0.7992564181784497,0.3407615334899588,-1.0019856431624157
2.06,-0.4506263983892301,-0.2083179108070012,1.9643747563784697,-0.0815974243405142,0.108560792805932,0.0287479075888139,0.9694778409000926,-0.0203536465684615,-0.4799617320601951,-0.4594064189474502,-0.2096598054693096,1.9686714596468664,1.061104867155824,0.002088890413995,-0.612792454119331,1.5881724475716823,0.2342306706094754,1.1784522177384198,1.038594283962252,12.254878514307164,-0.8058912591428519,0.3460480016566692,-0.982167501276868
2.08,-0.4311912342613103,-0.208475169944576,1.954911939077422,-0.0789374397706862,0.111108337656391,0.029459083418952,0.9739498935037278,0.0034001495795498,-0.4672893498606552,-0.448795370275892,-0.2096389165651696,1.9625435351056733,1.081104867453847,0.0208122694895222,-0.6327924544173542,1.3645799321972467,0.2236026301817628,1.1876898074005686,0.6336191099769961,11.669268432590798,-0.8099641483809692,0.3503777405201299,-0.9677654173998868
2.1,-0.4126440299021101,-0.2081884433458667,1.946098650445202,-0.0764901693966638,0.1138849637884043,0.0301112038779456,0.9782812429662028,0.0254915981691427,-0.4610205756797224,-0.4275732729327755,-0.2095971387568898,1.9502876860232867,1.1211048680498936,0.0582590276405765,-0.6727924550134007,1.1684286656491276,0.2165674731237465,1.104572429479648,0.31343870904664,10.796253742684712,-0.8119755998612533,0.3537775089303898,-0.9572280623846108
2.12,-0.393029453520884,-0.2074424659049708,1.936902610076044,-0.0739369447015822,0.1170549102002861,0.0307885540020482,0.98304050534328,0.0478564661239681,-0.4591105489178964,-0.406351175589659,-0.2095553609486098,1.9380318369409,1.16110486864594,0.0957057857916309,-0.7127924556094472,1.1472642451082569,0.2379631188538566,1.1182433977412678,0.0955013380913,10.796253742684712,-0.8122616581286577,0.3562193181818445,-0.9502527004425064
2.14,-0.3733166553485171,-0.2062566776156315,1.927696739600334,-0.0714032316280081,0.1203814021860947,0.0314647986307201,0.9881239205004304,0.069511092233416,-0.4615386652133535,-0.3831290782167402,-0.2076412452327772,1.923775987828711,1.2011048692419863,0.1331525439426853,-0.7527924562054936,1.1187713018577523,0.2541707578575247,1.0827313054723966,-0.1214058147728597,10.499688756943216,-0.8114595762169946,0.3578709592790999,-0.945956194157135
2.16,-0.3544892723412465,-0.2047351796574858,1.9188883483223795,-0.0690255217750103,0.1235801643280946,0.0321131634894462,0.9935445449420716,0.0894989437927314,-0.4655229597752024,-0.3599069808438214,-0.2057271295169446,1.9095201387165224,1.241104869838033,0.1705993020937397,-0.7927924568015401,1.054480894149014,0.2710312220820576,0.9993925779657686,-0.1992147280924422,10.260782396977447,-0.8097776178972287,0.3589948830152359,-0.9434099679973508
2.18,-0.3345487873689052,-0.2027236611029264,1.909519770406216,-0.066408199050464,0.1267512406959811,0.0328277009398814,1.0002850508299568,0.1104409819027016,-0.4711776202704978,-0.3356848834560014,-0.2028768448473356,1.894264289589432,1.2811048704340793,0.2080460602447941,-0.8327924573975864,1.135758078488895,0.3370252943942609,1.0471019054985111,-0.2827330247647697,10.162914772008662,-0.8081787600276771,0.3597591243516413,-0.9413320370728768
2.2,-0.3144642116580907,-0.2002966406801288,1.9000224143692883,-0.0634848291739818,0.1293989256086911,0.0336078559771098,1.007857162530856,0.1310111685292963,-0.4783199068742662,-0.3104627860532803,-0.1990903912239503,1.8780084404474409,1.3211048710301256,0.2454928183958484,-0.8727924579936329,1.1526943560569325,0.3786055850449665,1.0285093313297355,-0.3571143301884211,10.075261438075358,-0.8070239539705429,0.3601781695622283,-0.9391721652458492
2.22,-0.2942224071524287,-0.1974645399669303,1.8903642667296672,-0.060191326443444,0.1313077671890667,0.0344678331396438,1.0159067501528354,0.1509131287736232,-0.4871093163782721,-0.2640713535315479,-0.193746082253664,1.8761064190255752,1.1078571640209722,0.2201970248120074,-0.5783199083643824,1.1598896519494832,0.4024793810989635,0.9950980122163416,-0.4394704752002959,9.989465386514894,-0.806210775862915,0.3601442358222044,-0.9373061410746758
2.24,-0.2747617157364747,-0.1943558216241051,1.8813878224917693,-0.055683486063828,0.1313924891058268,0.0354845297534509,1.0319737999937426,0.1743361346097145,-0.457196618946885,-0.2640713535315479,-0.193746082253664,1.8761064190255752,1.1078571640209722,0.2201970248120074,-0.5783199083643824,2.062496521578569,0.8033524920453616,1.171150291804565,1.4956348715693568,9.898146624886976,-0.8061896323675959,0.3544221503280906,-0.9421240561824412
2.26,-0.2539617521020016,-0.1906547374830588,1.872522718435684,-0.0500357248238897,0.1288982641305977,0.0367466743319969,1.046901235687158,0.194323787784128,-0.431359613039063,-0.2640713535315479,-0.193746082253664,1.8761064190255752,1.1078571640209722,0.2201970248120074,-0.5783199083643824,1.795748792344381,0.7463717846707629,0.9993826587206768,1.2918502953911004,12.53965481047362,-0.8192933806989934,0.360671041585774,-0.9150742147868298
2.28,-0.2328941508443229,-0.1865805896318338,1.8640696893902875,-0.0445262866635104,0.1242694300322199,0.0380761140397469,1.0588805101052412,0.211983522362087,-0.4151201667586215,-0.2529927818913382,-0.1915441120055439,1.8703232199419315,1.1278571643189954,0.2380341960685496,-0.5983199086624056,1.3407916098736694,0.5989637209041665,0.8829867288979512,0.8119723140220719,11.881540766010405,-0.8325130633844305,0.365603203205468,-0.8904795544289678
2.3000000000000003,-0.2126947253235275,-0.1824011807829224,1.8562644475539487,-0.0396613479511804,0.1185523302490448,0.0393364622746002,1.0665044386549205,0.2270397595836609,-0.4072275016785808,-0.2308356386109187,-0.1871401715093038,1.858756821774644,1.167857164915042,0.273708538581634,-0.6383199092584521,0.9315427095262672,0.3811964274839652,0.7528118610786921,0.3946332540020386,10.74486976116532,-0.8440041055622749,0.3689390011236017,-0.8706685932950204
2.32,-0.1913168736069403,-0.1777092837775699,1.8481446788576648,-0.0350886381045232,0.112254180564192,0.0405970739301234,1.070640678371256,0.2413396316636297,-0.4054396559657089,-0.2086784953304993,-0.1827362310130637,1.847190423607356,1.2078571655110883,0.3093828810947184,-0.6783199098544985,0.7496519405489064,0.2068119858167683,0.7149936039984414,0.0893922856435941,10.74486976116532,-0.853571845359342,0.3704567732196125,-0.8557655466331193
2.34,-0.1698930990646953,-0.1727441126784482,1.839995564561088,-0.031137614376492,0.1066154087295752,0.0417566108800261,1.0713385007119351,0.2544676927153024,-0.4097970248623746,-0.1845213520202775,-0.1765485733911693,1.833624025410266,1.2478571661071347,0.3450572236078029,-0.718319910450545,0.6924947774121243,0.0348911170339638,0.6564030525836358,-0.2178684448332857,10.326208958320422,-0.8602558308530097,0.3707845194878261,-0.8459866748946657
2.36,-0.148488775139578,-0.1675272467600295,1.83171579179628,-0.0278156441950429,0.1026063120763837,0.0427959295832498,1.0689979583834843,0.2666431353130914,-0.4179323699513002,-0.1603642087100557,-0.1703609157692749,1.820057627213176,1.2878571667031813,0.3807315661208873,-0.7583199110465915,0.7414569787911334,-0.1170271164225411,0.6087721298894483,-0.4067672544462802,9.97342085321361,-0.8633474983226043,0.3701011282376802,-0.8419122205627813
2.38,-0.1282155004537219,-0.1623460180071929,1.82367496236663,-0.0250032068527632,0.1010149819686399,0.0436826779055716,1.065252309841966,0.2780831607096081,-0.4280613700081545,-0.1352070653849328,-0.1632813995845534,1.805491229001185,1.3278571672992276,0.4164059086339717,-0.7983199116426378,0.7866077583860981,-0.1872824270759188,0.5720012698258364,-0.5064500028427149,9.789381199480886,-0.8637736097016835,0.3681307081685082,-0.842651056889277
2.4,-0.1069474079540183,-0.1566623410436853,1.8149824646920216,-0.0222197834015281,0.1015997277707187,0.0445389084296433,1.0619948321890185,0.2896256610969058,-0.4407530203944942,-0.1090499220449087,-0.1553100248370048,1.7899248307742928,1.367857167895274,0.4520802511470561,-0.8383199122386843,0.8730957355572433,-0.1628738826473741,0.5771250193648853,-0.6345825193169868,9.65254724573424,-0.8615654815064524,0.3653721298005972,-0.8473522452440332
2.42,-0.0857302672684146,-0.1507522188778651,1.806018594911849,-0.0195544439541487,0.1037494438381589,0.0453484785471983,1.0600718310837065,0.3007390373091743,-0.4550696066972753,-0.0538476663445674,-0.14218105798884,1.792944813672297,1.131458115012581,0.3877724051693431,-0.5266293511277935,0.9112761758262748,-0.096150055265598,0.5556688106134244,-0.7158293151390521,9.536575513733624,-0.8582769098800259,0.3626786775006648,-0.8531604203856068
2.44,-0.0654702608091926,-0.1449302631034155,1.7976395232877562,-0.017272276630517,0.1040568760864204,0.0461278243562425,1.072270016046898,0.3115978265625165,-0.4261522992092764,-0.0538476663445674,-0.14218105798884,1.792944813672297,1.131458115012581,0.3877724051693431,-0.5266293511277935,1.6605117379893783,0.609909248159568,0.542939462667108,1.4458653743999432,9.454380135418432,-0.8526763353852101,0.354228067749455,-0.869683801092858
2.46,-0.0439044848387535,-0.1385923845398847,1.7893871303506372,-0.0155351194065078,0.0998455903850446,0.0469673217820619,1.0830445759260705,0.3217244026866019,-0.4010844997389997,-0.0538476663445674,-0.14218105798884,1.792944813672297,1.131458115012581,0.3877724051693431,-0.5266293511277935,1.455191787075484,0.5387279939586209,0.5063288062042703,1.253389973513838,12.297994709317209,-0.8659268695877241,0.3623917687609618,-0.8438912386654233
2.48,-0.0221800126475579,-0.1320591021438517,1.7815390643300042,-0.0147587697873395,0.0924360270524282,0.0477756114283745,1.088306823064637,0.3311543667942471,-0.3853216500599078,-0.0425330851944416,-0.1383033339371466,1.787678520161019,1.1453507715772937,0.4074017539838306,-0.5438046172744534,0.9553571295914424,0.2631123569283522,0.4714982053822592,0.7881424839545931,11.677313879087706,-0.8794184816074488,0.3697066700617638,-0.8194780904206821
2.5,-0.0004099967487955,-0.1253449519377948,1.7739077613031218,-0.0151426304358261,0.0836984191824524,0.0485171794767815,1.088106095438942,0.3399374047576658,-0.3785157888598873,-0.0199039228941899,-0.1305478858337597,1.7771459331384631,1.1731360847067187,0.4466604516128055,-0.578155149567773,0.555656805322575,-0.0100363812847725,0.4391518981709363,0.3402930600010234,11.05739770846958,-0.8905612538079909,0.3753919892862106,-0.8001554616439843
2.52,0.0202224776154587,-0.1188066314174011,1.766715267200848,-0.0167280663567285,0.0755113014038996,0.0491426068277934,1.0836109444781572,0.3480219476758618,-0.3788950664652052,0.0027252394060616,-0.1227924377303729,1.7666133461159073,1.2009213978361435,0.4859191492417804,-0.6125056818610928,0.4628986602332417,-0.2247575480392338,0.4042271459097996,-0.0189638802658959,10.537278132263054,-0.8996602045661308,0.3801030036313838,-0.7849304878735578
2.54,0.0418118084665802,-0.1117532441013884,1.7590796862843958,-0.0196666541714277,0.0680078528418373,0.0497150531747897,1.0754096410258824,0.3573156547629899,-0.3848898009437401,0.0267436673627845,-0.1130740547455372,1.7543632324786855,1.2287067109655687,0.5251778468707553,-0.6468562141544125,0.6884243081228387,-0.4100651726137383,0.4646853543564061,-0.2997367239267412,10.120359805294356,-0.9072540862547092,0.3842683821052599,-0.7728164051673135
2.56,0.0632049311342082,-0.1044923026818374,1.7512889174423114,-0.0231222101096896,0.0624388658489748,0.0502397342627027,1.0641518071751286,0.3684479435597142,-0.3939911987472723,0.0507620953195074,-0.1033556717607016,1.7421131188414636,1.2564920240949935,0.5644365444997304,-0.6812067464477323,0.91310201900307,-0.5628916925376926,0.5566144398362144,-0.4550698901766098,9.796085379758551,-0.9117737623153894,0.3876838386176047,-0.7654282170007201
2.58,0.0843458805694244,-0.0969885847842782,1.7432927467862749,-0.026294545840538,0.0597080495703777,0.0507369482968807,1.0505491538059026,0.381250316014091,-0.4051641130589234,0.0754751561044659,-0.0926558213351416,1.7290042418969087,1.284277337224419,0.6036952421287052,-0.7155572787410519,1.0883093923138312,-0.6801326684612974,0.640118622718841,-0.5586457155825592,9.652411063763791,-0.9131730122473308,0.389872682807054,-0.7631255311033376
2.6,0.1041751971810229,-0.0896140996177926,1.735476563732061,-0.0286757272994889,0.0600075591389826,0.051182787378164,1.0378059944286913,0.3942132483098184,-0.4170249976477148,0.10088284971766,-0.0809745034688573,1.715036601645021,1.312062650353844,0.6429539397576801,-0.7499078110343715,1.0852491739748649,-0.6371579688605689,0.6481466147863713,-0.5930442294395655,9.489591617869335,-0.9116337663783536,0.3905418214977039,-0.7663090100402707
2.62,0.1248041512495996,-0.0815825480174616,1.726995988284577,-0.0304990509935516,0.0625962399137635,0.0516309000248437,1.026037497128716,0.4081579917245176,-0.4304503959355307,0.1560654969024575,-0.0699034372023016,1.7146253138496752,1.0372026625354744,0.4559336754355108,-0.4571584552785875,1.1326900688050243,-0.58842486499876,0.69723717073496,-0.6712699143907985,9.436484074721193,-0.907992903788185,0.390620079137177,-0.7723704214156133
2.64,0.1453996388243343,-0.0730609303779531,1.7186294383816298,-0.0256254538645079,0.0613544468257905,0.0526452236760084,1.034260758882612,0.4407082557904661,-0.4033495011384234,0.1560654969024575,-0.0699034372023016,1.7146253138496752,1.0372026625354744,0.4559336754355108,-0.4571584552785875,2.1573132731710207,0.4111630876947991,1.627513203297423,1.3550447398553682,12.16606541049896,-0.9064281195879168,0.3799695594950557,-0.7876475074066716
