t,x,y,z,roll,pitch,yaw,v_x,v_y,v_z,ref_x,ref_y,ref_z,ref_v_x,ref_v_y,ref_v_z,a_com,a_x,a_y,a_z,thrust,wind_x,wind_y,wind_z
0.0,1.5265000405716111,1.981050893871492,2.4735646157210147,0.0219025844769095,0.0994891531190461,0.0415113520739996,0.0007687682965562,-0.0051405551367687,-0.0003287157172925,1.5265275007081536,1.980825481004836,2.473552736045073,-0.0991228072871909,-0.1068865746222814,-0.1003781802223503,0.2604052890723632,0.0384384148278102,-0.2570277568384362,-0.0164357858646274,10.259881356470032,-0.940502331993676,0.2583594154100886,-0.8791273239172531
0.02,1.526672449240283,1.9812251209917329,2.4734621364231084,0.0287828635705357,0.0936233203957573,0.041843556969208,0.0161080715861297,0.0182371922876394,-0.0105003566876614,1.5265275007081536,1.980825481004836,2.473552736045073,-0.0991228072871909,-0.1068865746222814,-0.1003781802223503,1.4876790481140685,0.7669651644786764,1.1688873712204093,-0.5085820485184457,10.258975983838354,-0.9530701792737732,0.257398019858119,-0.8621752443561613
0.04,1.527107211424816,1.9816413523691407,2.4730650614617584,0.0430379002586718,0.0772324417602245,0.0422042467984897,0.0251713510026846,0.0212978504438511,-0.0289592923180069,1.5265275007081536,1.980825481004836,2.473552736045073,-0.0991228072871909,-0.1068865746222814,-0.1003781802223503,1.0395226870263217,0.4531639708277454,0.1530329078105834,-0.9229467815172724,9.62706264438657,-0.9563241541103504,0.2466717274573926,-0.8593297406990018
0.06,1.5276088727693435,1.9820296856598547,2.472272652548538,0.0578531052161572,0.0546985418638266,0.0419961888810659,0.0234739009438625,0.0169810507921474,-0.0493890611178823,1.5255362726352817,1.9797566152586128,2.47254895424285,-0.1191228075852141,-0.1268865749203047,-0.1203781805203735,1.0474869320801914,-0.0848725029411034,-0.2158399825851831,-1.021488439993773,9.064281794430826,-0.9659990561075986,0.2327870337293526,-0.8537671841650694
0.08,1.5279579760593245,1.9822800206132225,2.4711342292353686,0.0714229860022559,0.0313117417803257,0.0412702971461483,0.012750120836221,0.0092787469632471,-0.0694607989163279,1.5235538164895377,1.977618883766167,2.470541390638403,-0.1591228081812606,-0.1668865755163511,-0.16037818111642,1.2012489358156464,-0.5361890053820759,-0.3851151914450169,-1.0035868899222782,9.064281794430826,-0.9803519777709104,0.2161317966469153,-0.8462266332146499
0.1,1.528016995667983,1.9823529905988069,2.469516630726844,0.0850544167444338,0.0074371822296202,0.0401181090982565,-0.0068165690452174,-0.001911000603024,-0.0913337273389394,1.521571360343794,1.9754811522737212,2.468533827033956,-0.1991228087773071,-0.2068865761123975,-0.2003781817124665,1.5704225556310838,-0.9783344940719269,-0.5594873783135577,-1.0936464211305743,9.049060638569244,-0.9958553287057156,0.1979312369016378,-0.8396268680954931
0.12,1.5276092923596707,1.982171183044138,2.4674556099381144,0.0980365271437061,-0.0136110427683432,0.0387976519277388,-0.0332467321126027,-0.016019241233652,-0.1137443874607907,1.5175889041682478,1.9713434207514733,2.4645262633997067,-0.2391228093733535,-0.246886576708444,-0.2403781823085129,1.8707175498705133,-1.3215081533692623,-0.705412031531402,-1.120533006092565,9.055031002382748,-1.0112661135165033,0.1792177904634817,-0.8340882366806351
0.14,1.5266157034276964,1.9816784353726933,2.464938712297994,0.1103955734148646,-0.0304934935262961,0.0375445764401382,-0.0646691117241115,-0.0328326039710832,-0.1368849600409427,1.5136064479927016,1.9672056892292256,2.460518699765457,-0.2791228099694,-0.2868865773044905,-0.2803781829045594,2.1245830216347685,-1.5711189805754415,-0.8406681368715597,-1.1570286290076004,9.11403576468274,-1.024143765155996,0.1609621281495155,-0.8317347078260843
0.16,1.5250543965030872,1.980874440169212,2.462113826506995,0.1215742834434619,-0.0421026092453298,0.0365964895275609,-0.0978637260995786,-0.0511901530359683,-0.1593462817741098,1.5086239918022544,1.9620679576920763,2.4555111361163067,-0.3191228105654464,-0.3268865779005369,-0.3203781835006058,2.2041965685973164,-1.6597307187733534,-0.9178774532442556,-1.1230660866583544,9.11403576468274,-1.034701218958031,0.1414482842723295,-0.8334172504959181
0.18,1.5227070713673008,1.9796269547984848,2.4586738560307424,0.1327599637883602,-0.0493161417233645,0.0360240076621806,-0.1351765834581764,-0.0728528291104836,-0.1835222253482681,1.502641535596906,1.9559302261400264,2.449503572452256,-0.3591228111614928,-0.3668865784965833,-0.3603781840966522,2.4728511412301635,-1.8656428679298884,-1.0831338037257645,-1.2087971787079168,9.147869290344715,-1.0415753587183767,0.1243505932033386,-0.8367012422450993
0.2,1.5195931553843427,1.9779103555725897,2.4547474662562245,0.1429886628274302,-0.0507707090006542,0.0360776647980864,-0.1736236943500522,-0.0976903475427268,-0.2078117917365419,1.515948242194392,1.9759843133429609,2.449497744763329,-0.2351765849482925,-0.1728528306005997,-0.2835222268383842,2.590880976200267,-1.9223555445937928,-1.241875921612159,-1.2144783194136908,9.178421243733736,-1.045954789579126,0.1088062238150587,-0.8423227840554048
0.22,1.5156844686385171,1.975471680368198,2.450537564709251,0.1466656691311206,-0.045780190875431,0.0365840794449776,-0.2143910946646682,-0.1416049461560626,-0.2112822517637883,1.515948242194392,1.9759843133429609,2.449497744763329,-0.2351765849482925,-0.1728528306005997,-0.2835222268383842,3.001048563662067,-2.0383700157308,-2.19572993066679,-0.1735230013623162,9.208904642501238,-1.051737734182821,0.0957193327219006,-0.848691761231408
0.24,1.5112674855834198,1.9724242008428807,2.446489443918794,0.1436103939101722,-0.0358668273086701,0.0373525235575721,-0.2478632866637385,-0.1758410095276142,-0.2144314552549956,1.515948242194392,1.9759843133429609,2.449497744763329,-0.2351765849482925,-0.1728528306005997,-0.2835222268383842,2.3991733758904084,-1.673609599953514,-1.7118031685775774,-0.1574601745603698,10.3831980490786,-1.0509105224971436,0.0968695631910872,-0.8518067441637878
0.26,1.505991858488685,1.9685948543850973,2.4421426645508317,0.1374419145887052,-0.0225415204844916,0.0383064937627396,-0.2773453047287775,-0.2046629601009226,-0.2201199433889726,1.513596476344909,1.9742557850369544,2.446662522494945,-0.2551765852463157,-0.1928528308986229,-0.3035222271364075,2.0810172520235843,-1.47410090325195,-1.4410975286654206,-0.284424406698848,10.3831980490786,-1.0450062501853654,0.0999590012752937,-0.8610203929166711
0.28,1.5001845903134672,1.9642413526396505,2.437648555136716,0.1306069658045384,-0.0081871882756617,0.0392573164284835,-0.3014451608295644,-0.2289827199052654,-0.2291334180434492,1.5088929446459431,1.9707987284249424,2.4409920779581773,-0.2951765858423621,-0.2328528314946694,-0.3435222277324539,1.7702376297876306,-1.2049928050393426,-1.215987990217139,-0.4506737327238275,10.10863855473417,-1.0362922153177043,0.1030000713064717,-0.8738136142840146
0.3,1.493946938530491,1.9594365169103367,2.432934418120732,0.1240843939034094,0.0057514969437874,0.0400729598328663,-0.3208416858877006,-0.2502408269993516,-0.2418259832010243,1.5041894129469773,1.9673416718129304,2.4353216334214096,-0.3351765864384086,-0.2728528320907158,-0.3835222283285003,1.572604139503832,-0.9698262529068108,-1.062905354704309,-0.6346282578787595,9.641575061074946,-1.0266110371233623,0.1056569141933731,-0.8871938125707846
0.32,1.4876991766488727,1.954500649844396,2.4281903694611406,0.118553030222579,0.0177259515515999,0.0406538433131822,-0.3357263782001995,-0.2683319954157538,-0.2569492239395341,1.497485881218209,1.961884615171116,2.42765118885484,-0.375176587034455,-0.3128528326867623,-0.4235222289245468,1.3942353193985189,-0.7442346156249446,-0.9045584208201146,-0.7561620369254868,9.641575061074946,-1.016899815211963,0.1082294017017515,-0.9000887947861066
0.34,1.4808472265590276,1.948950613226414,2.4228653195240466,0.1136070424706909,0.0284286546335273,0.0410335735023199,-0.3485629268534438,-0.2857916366954729,-0.2748980606896177,1.4907823494894408,1.9564275585293016,2.41998074428827,-0.4151765876305016,-0.3528528332828088,-0.4635222295205933,1.4069264334220992,-0.6418274326622175,-0.8729820639859526,-0.8974418375041815,9.45794556803594,-1.007317994054263,0.1094111661044357,-0.9132717961575988
0.36,1.4737571378652825,1.943054179564168,2.4171614842412725,0.1093181974743448,0.037046229671964,0.0411724216737563,-0.3597550700285581,-0.3029287748300776,-0.2946810246438335,1.4830788177457714,1.9499705018725864,2.4113102997067988,-0.455176588226548,-0.3928528338788552,-0.5035222301166397,1.4232983129957149,-0.5596071587557122,-0.8568569067302356,-0.9891481977107874,9.348961935591433,-0.9984061467354108,0.1096063484836631,-0.9259718019458568
0.38,1.4664554542068766,1.9368216545193373,2.411044781049072,0.1053610203081493,0.0437766883244152,0.041091894040032,-0.3698756940559522,-0.3194016294059627,-0.3160226619837594,1.474375285987201,1.9425134452009696,2.4016398551104263,-0.4951765888225944,-0.4328528344749016,-0.5435222307126861,1.4398328487458578,-0.5060312013697055,-0.8236427287942522,-1.0670818669962971,9.26897340511914,-0.9911343487330724,0.1095882730060085,-0.9365508368434456
0.4,1.45933736448164,1.9306025047816728,2.404826293784305,0.1018080558661945,0.0486904199877633,0.0408489659480606,-0.3789160088392876,-0.3343590453893256,-0.3375039920430713,1.4479616695040791,1.9208515730490396,2.395243647949884,-0.4698756955460683,-0.4194016308960788,-0.4160226634738755,1.3846471801493765,-0.4520157391667695,-0.747870799168146,-1.0740665029655927,9.20271893037534,-0.9847081812266132,0.1095245538921074,-0.9461474655713564
0.42,1.451699132577628,1.9237415694462583,2.3981074127722244,0.0986256295583902,0.0518421613456131,0.0404093573233639,-0.384464716897233,-0.3512055191830364,-0.3318714709166359,1.4479616695040791,1.9208515730490396,2.395243647949884,-0.4698756955460683,-0.4194016308960788,-0.4160226634738755,0.9304798958524508,-0.2774354028972692,-0.8423236896855424,0.2816260563217682,9.1454140228916,-0.9904443628198168,0.1106880688543884,-0.9421500212758348
0.44,1.44395502315848,1.916554035433842,2.3915043522224324,0.0963726941627575,0.0523505574232124,0.0397653375221948,-0.3897930063627783,-0.3668598013310877,-0.3292074373260196,1.4479616695040791,1.9208515730490396,2.395243647949884,-0.4698756955460683,-0.4194016308960788,-0.4160226634738755,0.837472825188032,-0.2664144732772655,-0.7827141074025629,0.1332016795308171,10.86343038400446,-0.990305804574429,0.112173149242691,-0.9420598272609186
0.46,1.4360967287870412,1.909055471750984,2.384889207224029,0.0948493241189622,0.0503158776508724,0.0389249281452482,-0.3959171590986439,-0.382231562171789,-0.3326815369671039,1.4432629125486185,1.9166575567400783,2.391083421315145,-0.4898756958440916,-0.439401631194102,-0.4360226637718987,0.8453780905490015,-0.3062076367932792,-0.7685880420350649,-0.173704982054218,10.466907480844384,-0.9916634363976,0.1123578070040737,-0.9411442428160126
0.48,1.428506417583435,1.9016532375570545,2.378490603385233,0.0939152895892981,0.0462124623211317,0.0379567690760022,-0.4029887698118488,-0.3962332660013504,-0.3406597241408547,1.433865398637697,1.908269524122157,2.3827629680456672,-0.529875696440138,-0.4794016317901485,-0.4760226643679452,0.8799245120879268,-0.3535805356602473,-0.7000851914780698,-0.3989093586875381,10.1285206828843,-0.9944690578565912,0.1113898804184076,-0.939530386052346
0.5,1.420344286668297,1.8935800632187385,2.371556128448589,0.0935620670858305,0.0402344498502918,0.036825279728958,-0.4131892383295699,-0.4103867339952413,-0.3525287661327966,1.4244678847267758,1.8998814915042357,2.37444251477619,-0.5698756970361845,-0.519401632386195,-0.5160226649639916,1.0550407243817586,-0.5100234258860553,-0.7076733996945445,-0.5934520995970971,9.876249302337785,-0.9984119044710912,0.1093611308735342,-0.9373321596266968
0.52,1.411946192883074,1.885226174158353,2.3643542751931523,0.0939695927236239,0.0335956705770738,0.0356798792176012,-0.4263418154336096,-0.42434849938533,-0.367171918647964,1.413070370786052,1.8894934588565115,2.36412206147691,-0.6098756976322309,-0.5594016329822414,-0.5560226655600381,1.20658929722176,-0.6576288552019832,-0.6980882695044349,-0.7321576257583701,9.54969965829605,-1.0035221588106658,0.1065332737063597,-0.93417782755969
0.54,1.4032577521933742,1.87659173430127,2.3568469464917183,0.0951709419374867,0.0271415216890531,0.034595848873329,-0.4419595130881161,-0.4384890617030649,-0.3828223362796221,1.4016728568453285,1.879105426208788,2.3538016081776303,-0.6498756982282774,-0.5994016335782879,-0.5960226661560846,1.3122533622881671,-0.7808848827253273,-0.7070281158867486,-0.7825208815829043,9.54969965829605,-1.008906186235371,0.1031514385433933,-0.9307908256576024
0.56,1.394689362218073,1.8681123072925567,2.3494185710286937,0.0966839416858283,0.0218910226925284,0.0336613070515413,-0.4592608913303694,-0.4533184499481818,-0.3983232889889153,1.3892753428897036,1.8677173935461624,2.342481154863449,-0.6898756988243238,-0.6394016341743343,-0.6360226667521309,1.377976759330206,-0.8650689121126653,-0.7414694122558435,-0.7750476354646596,9.515955277755891,-1.0133917969006982,0.0989450297023544,-0.9288410679764182
0.58,1.385291791515605,1.8588713790585265,2.341272044969413,0.0981307584241421,0.0181482861037105,0.0328267593945869,-0.4797134947579534,-0.4699636377109291,-0.4155537387627334,1.3758778289191775,1.8553293608686363,2.3301607015343677,-0.7298756994203702,-0.6794016347703807,-0.6760226673481774,1.5750076682600622,-1.022630171379199,-0.832259388137363,-0.8615224886909051,9.50134258725666,-1.0160309361367994,0.0947240763977491,-0.9290290239170248
0.6,1.3754644121937425,1.8492851951214837,2.3327709467705597,0.0989207132875872,0.0171291240361607,0.0322061721890087,-0.5018104417199916,-0.4877338519964947,-0.4336967719024013,1.3613061167777076,1.83537319717298,2.320494358031276,-0.5797134962480696,-0.5699636392010452,-0.5155537402528496,1.6831705441703873,-1.104847348101906,-0.8885107142782817,-0.907151656983396,9.471616146224733,-1.0171858015550836,0.0912640250906179,-0.9306722958093332
0.62,1.365186277738148,1.8392599474113047,2.3242147827359365,0.097169679156066,0.0196176171305353,0.0317518130062084,-0.5243262631612012,-0.5131053946195252,-0.4208558489491708,1.3613061167777076,1.83537319717298,2.320494358031276,-0.5797134962480696,-0.5699636392010452,-0.5155537402528496,1.8135370774645687,-1.1257910720604836,-1.2685771311515242,0.6420461476615263,9.440419086578004,-1.0225389465235597,0.0904873416231226,-0.927297758744045
0.64,1.3550328967766403,1.829304800844289,2.3162985750614955,0.0929531621088407,0.0247426064891928,0.0314007792022796,-0.542965505104837,-0.5328401016279761,-0.4130585474300344,1.3613061167777076,1.83537319717298,2.320494358031276,-0.5797134962480696,-0.5699636392010452,-0.5155537402528496,1.4121596155561866,-0.9319620971817876,-0.9867353504225462,0.3898650759568189,11.351546576366673,-1.019741048623929,0.0942069419615427,-0.92957182484688
0.66,1.3439929373732096,1.81846990752027,2.3080620114107195,0.087884652957772,0.0317021688066986,0.0311093210321028,-0.5597287431984336,-0.5494041618244222,-0.4112922110094761,1.3555089818152268,1.829673560780969,2.315338820628748,-0.5997134965460927,-0.5899636394990684,-0.5355537405508728,1.181624079312756,-0.8381619046798294,-0.8282030098223037,0.0883168210279145,10.878502558502078,-1.014559183276067,0.0979872076775995,-0.9349486936931912
0.68,1.3326457320791172,1.8073327430528563,2.29979455147553,0.0830412071393089,0.0392842752813612,0.0308584339693561,-0.5739046185574431,-0.5634096069487209,-0.4157914098658642,1.3439147118902657,1.8182742879969485,2.3050277458236907,-0.6397134971421392,-0.6299636400951149,-0.5755537411469193,1.0214581803398015,-0.7087937679504774,-0.7002722562149344,-0.2249599428194026,10.44385086035618,-1.0090187746824733,0.1010697532922013,-0.9411183621210736
0.7000000000000001,1.321039587295224,1.7959367861005309,2.291375661393451,0.0787825628586924,0.0467664776589263,0.0306119355971445,-0.5858293816656786,-0.5755630457357268,-0.4258597234525763,1.332320441965304,1.806875015212928,2.2947166710186337,-0.6797134977381857,-0.6699636406911613,-0.6155537417429657,0.9890361318190092,-0.5962381554117713,-0.6076719393502961,-0.5034156793356032,10.07917768252355,-1.0028506220789362,0.1037061047161955,-0.9480940714137162
0.72,1.3098112286557362,1.7848986784971232,2.28315016127775,0.0753979736969126,0.0533272149345516,0.0303601810178864,-0.5954174863894454,-0.5858588454286471,-0.4394918934883948,1.3187261720105403,1.7934757423991043,2.2824055961837746,-0.7197134983342321,-0.7099636412872078,-0.6555537423390122,0.9795040880416538,-0.4794052361883405,-0.5147899846460136,-0.6816085017909257,9.787092882085744,-0.996637759271962,0.1054459642445926,-0.9554325574382058
0.74,1.2978116384089649,1.7730777525871042,2.274188320432025,0.0725919772897594,0.0593320185662819,0.0300655908901337,-0.6039564674194396,-0.5958031548421533,-0.4560900873757201,1.3051319020557768,1.780076469585281,2.2700945213489154,-0.7597134989302786,-0.7499636418832543,-0.6955537429350587,1.0574775731231794,-0.4269490514997143,-0.4972154706753107,-0.8299096943662682,9.558204977437526,-0.9909936534185886,0.1063161757420384,-0.962408792715641
0.76,1.285649762213949,1.761055017326516,2.264875157504909,0.0702810083036995,0.0643647521514771,0.0297265134235288,-0.6117544652117336,-0.6059488082313699,-0.474469843793238,1.290537632086112,1.7656771967565568,2.256783446499155,-0.799713499526325,-0.7899636424793006,-0.735553743531105,1.1197750870487708,-0.3898998896146977,-0.507282669460829,-0.918987820875894,9.441292820590206,-0.9857831195561328,0.1065686641016549,-0.9691329694619704
0.78,1.2733378750470832,1.7488313524505446,2.255177245913744,0.0681351266610976,0.0686070922088588,0.0293386972959392,-0.6190044305838927,-0.6158536138886453,-0.4944054535583838,1.2749433621015458,1.7502779239129311,2.242472371634493,-0.8397135001223714,-0.8299636430753471,-0.7755537441271515,1.170572199518336,-0.3624982686079525,-0.4952402828637736,-0.99678048825729,9.288826887787764,-0.9813017244654676,0.1065794871129203,-0.975127550222929
0.8,1.2615114141214894,1.737039056073925,2.245582025040242,0.0661609345204609,0.0720551382537047,0.0289327480545183,-0.6254888417931271,-0.6248890721650939,-0.5146255831226688,1.2423876535178886,1.7180386717561122,2.230456973235825,-0.7190044320740088,-0.7158536153787615,-0.5944054550485,1.1538422060580475,-0.3242205604617243,-0.4517729138224291,-1.0110064782142492,9.288826887787764,-0.9769623588069046,0.106445377780365,-0.9811343825118272
0.8200000000000001,1.248963935483278,1.7244141289433508,2.2353662400856837,0.063764373205512,0.074955471180594,0.0284343704094322,-0.628788474128344,-0.6369600562844429,-0.5042861232086355,1.2423876535178886,1.7180386717561122,2.230456973235825,-0.7190044320740088,-0.7158536153787615,-0.5944054550485,0.8116351743102997,-0.1649816167608453,-0.6035492059674463,0.5169729957016644,9.223552076809028,-0.978724877123159,0.1074901561672985,-0.9801690831855084
0.84,1.2363600644195831,1.7115733346397763,2.2253621710761124,0.0614307938217951,0.0768011162416337,0.0278746907889753,-0.6315177702057175,-0.6465666012374135,-0.4971701896540433,1.2423876535178886,1.7180386717561122,2.230456973235825,-0.7190044320740088,-0.7158536153787615,-0.5944054550485,0.6131298259030944,-0.1364648038686744,-0.4803272476485321,0.3557966777296112,11.197186344285,-0.9770561668783416,0.109294770448843,-0.981389111237638
0.86,1.2236978160656071,1.6985522413839198,2.2154183042466884,0.059666232118455,0.0775148624632427,0.0272898299794941,-0.6346839668441054,-0.6551893593083706,-0.4975487185996107,1.2351976091971486,1.7108801356023249,2.22451291868534,-0.739004432372032,-0.7358536156767846,-0.6144054553465231,0.4596739117728667,-0.1583098319193954,-0.4311379035478568,-0.0189264472783695,10.741794640418448,-0.9759746691077396,0.1101611180231713,-0.982536780982101
0.88,1.2116041659904115,1.6860307108898536,2.20591129438862,0.0585811674750295,0.0772731899535277,0.0267266198754171,-0.6382589770921859,-0.6625252396555913,-0.5031613741997252,1.2208175205556684,1.6965630632947493,2.21262480958437,-0.7790044329680784,-0.7758536162728311,-0.6544054559425696,0.4952215202010996,-0.1787505124040245,-0.3667940173610329,-0.280632780005724,10.335579102955307,-0.9756243275163642,0.110198427232105,-0.9834225928591296
0.9,1.198794679005012,1.6727082837221463,2.195746317682948,0.058319306831674,0.0761398991357637,0.0261498523198197,-0.6425708998267691,-0.6694022980539772,-0.5132260458453979,1.2064374319141882,1.682245990987174,2.2007367004834,-0.8190044335641249,-0.8158536168688776,-0.6944054565386161,0.6464986953177738,-0.215596136729157,-0.3438529199192963,-0.5032335822836354,10.030970886925388,-0.9761759490465752,0.1092491693095369,-0.9837234819242904
0.92,1.1858927931737762,1.659254414868148,2.1853410897838863,0.059252898154452,0.0741104275698425,0.0256074998479457,-0.6474854237622093,-0.6758110583291731,-0.5267798011210986,1.1900573432429056,1.6659289186497963,2.186848591352628,-0.8590044341601714,-0.855853617464924,-0.7344054571346625,0.788874254635249,-0.2457261967720114,-0.3204380137597939,-0.6776877637850343,9.6208080267661,-0.977540916365038,0.1070329782489658,-0.9835612643736662
0.94,1.1728863189918002,1.6456718311378136,2.174652802309867,0.0615342606681304,0.0712112959603546,0.0251046656332581,-0.6530150914288447,-0.6823529918042781,-0.541372260397484,1.1736772545716232,1.649611846312419,2.172960482221856,-0.8990044347562178,-0.8958536180609705,-0.774405457730709,0.8460407582219365,-0.2764833833317714,-0.3270966737552505,-0.7296229638192708,9.6208080267661,-0.979786341345879,0.1036512707409514,-0.982756783440946
0.96,1.1604151925320223,1.6326232415629154,2.1642229053974145,0.0643898818803742,0.0678870797701642,0.024630375142419,-0.6595534989122812,-0.6909708669150315,-0.5557856478785081,1.1562971658854395,1.6322947739601403,2.158072373076182,-0.9390044353522642,-0.9358536186570168,-0.8144054583267554,0.9010608782459504,-0.326920374171824,-0.4308937555376702,-0.7206693740512082,9.57072931743096,-0.982608989141541,0.0991757131877534,-0.9817862604889336
0.98,1.1471381411463455,1.6186931047415238,2.152941368097632,0.0671624123891035,0.0642845090790828,0.0240959986679741,-0.667943849320123,-0.7015540966222559,-0.5716345652150574,1.1379170771843543,1.6139777015929606,2.1421842639156075,-0.9790044359483108,-0.9758536192530632,-0.8544054589228018,1.0411422954416676,-0.4195175203920875,-0.5291614853612181,-0.7924458668274625,9.54997565814756,-0.9856805103227436,0.0948263628568565,-0.9806222362088994
1.0,1.13367430852079,1.6045399569933374,2.141336152864081,0.069317236672153,0.0611853996315858,0.0235428613151055,-0.67810329790456,-0.713056915066355,-0.5880819128134395,1.1137409486803391,1.583615399910411,2.124359639836879,-0.7679438508102391,-0.801554098112372,-0.6716345667051735,1.1247716109501218,-0.5079724292218535,-0.5751409222049586,-0.8223673799191034,9.519714313617442,-0.9882727509381214,0.0911325985963792,-0.9798806813717496
1.02,1.1199793080512292,1.5900735317829175,2.129729939945548,0.0690223613765506,0.0602999836171384,0.0229705513136808,-0.6906025734653546,-0.7321415510697807,-0.5716388541444722,1.1137409486803391,1.583615399910411,2.124359639836879,-0.7679438508102391,-0.801554098112372,-0.6716345667051735,1.4060844563174597,-0.6249637780397277,-0.9542318001712846,0.8221529334483613,9.49828154908846,-0.992890627569774,0.0895557147328647,-0.9768247580629464
1.04,1.1067497971677505,1.5760054150790292,2.1189778750609367,0.0659429326205668,0.0620899734351143,0.0224185221719189,-0.7010723739516781,-0.747316006965897,-0.5610200392775891,1.1137409486803391,1.583615399910411,2.124359639836879,-0.7679438508102391,-0.801554098112372,-0.6716345667051735,1.0637669659560471,-0.5234900243161755,-0.7587227948058106,0.5309407433441549,11.552523863624629,-0.9930975305884512,0.0923366735969164,-0.97595559720812
1.06,1.0926275231774931,1.560931903187519,2.107807731427643,0.0614358656495576,0.0655336336427929,0.0218531110154421,-0.7104004573843485,-0.7589319394439447,-0.5568582609250813,1.1060615101722369,1.5755998589292872,2.1176432941698278,-0.7879438511082623,-0.8215540984103952,-0.6916345670031967,0.7734071161374638,-0.4664041716335221,-0.5807966239023854,0.208088917625393,11.052930206736164,-0.9909700110424384,0.0961345651506998,-0.9775538178432392
1.08,1.0783342326469014,1.5456593379906862,2.09664303566004,0.0570102842303235,0.069702486081118,0.021334083183248,-0.7182938541270383,-0.7677445072538,-0.5597850016300868,1.090702633156032,1.55956877696704,2.104210602835724,-0.8279438517043087,-0.8615540990064416,-0.7316345675992432,0.6093703198694922,-0.394669837134487,-0.4406283904927643,-0.1463370352502768,10.587643581513476,-0.9876378552054462,0.0993912973079696,-0.9807468429384788
1.1,1.0646219382564166,1.5310049965207366,2.0859292876862003,0.0533501287235364,0.0737807460089366,0.0208815886394702,-0.7246147988509622,-0.7744870367173796,-0.5678297101080858,1.0753437561398274,1.5435376950047923,2.0907779115016205,-0.8679438523003552,-0.901554099602488,-0.7716345681952896,0.6126446365270225,-0.3160472361961985,-0.3371264731789836,-0.4022354238999492,10.196746455491848,-0.9832949925499236,0.102017655276655,-0.9853444117107456
1.12,1.050069547140968,1.5154531115496317,2.074442046117213,0.0502595884240271,0.0777918434825486,0.0204416358341438,-0.7302198986556467,-0.7804544896430654,-0.5806784037393938,1.0579848790938202,1.5255066130127426,2.0753452201377147,-0.9079438528964016,-0.9415541001985344,-0.8116345687913361,0.7617686103272526,-0.2802549902342244,-0.2983726462842895,-0.6424346815654014,9.889842865623905,-0.97873920166609,0.10364001705697,-0.9905778269687638
1.14,1.0354153441659844,1.4997898952785695,2.0626681244518688,0.0480204112409837,0.0812203174762825,0.0200336925552442,-0.7349044268570528,-0.7857813505361707,-0.5960713851556915,1.040626002047813,1.5074755310206929,2.059912528773809,-0.947943853492448,-0.9815541007945808,-0.8516345693873826,0.8474434027218983,-0.2342264100703039,-0.266343044655265,-0.7696490708148818,9.645336223965389,-0.9751035267551916,0.1043822095918409,-0.995029484796415
1.16,1.021409437916299,1.4848060494084885,2.0511822661625376,0.0463510400547905,0.0839418488218173,0.0196569640641246,-0.739141895255948,-0.7912067547127134,-0.6122005375037702,1.0222671249869049,1.488444449013742,2.043479837395002,-0.9879438540884944,-1.0215541013906273,-0.8916345699834289,0.8768419247190693,-0.211873419944758,-0.2712702088271346,-0.8064576174039384,9.53114470708897,-0.9716075493198651,0.1045463727133342,-0.9996435045292696
1.18,1.0065815754840215,1.4689234444381805,2.0387458242057845,0.0448036141889625,0.0863938791856574,0.019262341019434,-0.7433927150801469,-0.7967422909594709,-0.6306660484297334,1.0029082479110951,1.46841336699189,2.026047146001293,-1.027943854684541,-1.0615541019866737,-0.9316345705794754,0.987024220161078,-0.2125409912099474,-0.2767768123378755,-0.923275546298158,9.455247318364854,-0.9683969204011944,0.1044767168025099,-1.0040401113488138
1.2,0.991670429156132,1.4529325700920788,2.025925860079112,0.043403950608821,0.0885370905125855,0.0188716140314898,-0.7474790941063887,-0.8020305168989028,-0.6504619042515124,0.9694119397300142,1.429086329890207,2.007212521784298,-0.8431401567891885,-0.896742292449587,-0.716050931416279,1.0446766663054778,-0.204318951312088,-0.264411296971595,-0.9897927910889504,9.377305760941454,-0.9654790215834584,0.1042844336846897,-1.0081527547941898
1.22,0.9767091631843412,1.436798454401516,2.0130721062846204,0.0413378078561948,0.0905866711918804,0.0184382051607194,-0.7483662848087381,-0.8105431407513034,-0.6338956626407242,0.9694119397300142,1.429086329890207,2.007212521784298,-0.8431401567891885,-0.896742292449587,-0.716050931416279,0.932325363408352,-0.0443595351174719,-0.4256311926200296,0.8283120805394117,11.506588942041162,-0.9678554801866622,0.1049951907847347,-1.0066654901475414
1.24,0.962487837079813,1.4213449911638187,2.0011374548671026,0.0391175755035936,0.0923312284601087,0.0180077831144814,-0.7485887984264881,-0.815785125882416,-0.6233156770191977,0.9694119397300142,1.429086329890207,2.007212521784298,-0.8431401567891885,-0.896742292449587,-0.716050931416279,0.5904744198028348,-0.0111256808874971,-0.2620992565556312,0.5289992810763255,11.506588942041162,-0.9659605334266338,0.1074369345659137,-1.0074854495496912
1.26,0.9475154742165856,1.4049854416831178,1.9887238950034447,0.0372731663408263,0.0935793674825627,0.0175752806649827,-0.7486839123372403,-0.8199861464788644,-0.6189007309037483,0.9609805381621224,1.4201189069657112,2.0000520124701358,-0.8630896451309968,-0.9167422927476102,-0.7331279080135881,0.3047514147224053,-0.0047556955376115,-0.2100510298224167,0.2207473057724673,11.021987251860082,-0.96440902221126,0.1091027034300172,-1.0084293733037293
1.28,0.9325395810841222,1.388551822561139,1.976336333277873,0.0361988893357496,0.0940396499071295,0.0171777456805039,-0.7489814932918452,-0.8232273576423061,-0.6203027653527321,0.9441177350263386,1.4021840611167191,1.9857309938418093,-0.9029886218146136,-0.9567422933436568,-0.7672818612082063,0.177198369255338,-0.0148790477302429,-0.1620605581720891,-0.0701017224491895,10.283753409714336,-0.96329278281536,0.1097215033458039,-1.0094666606220577
1.3,0.9175540806509578,1.3720637075074478,1.96386834809896,0.0362571991158819,0.0936468322497011,0.016838556481213,-0.7496499553400765,-0.8256047125217434,-0.6264047346984833,0.9272549318905547,1.3842492152677277,1.971409975213484,-0.94288759849823,-0.9967422939397032,-0.8014358144028245,0.3291378420555649,-0.0334231024115672,-0.1188677439718621,-0.3050984672875623,10.041143956821545,-0.9629513262086048,0.1091554787756005,-1.0101062291034075
1.32,0.9033019471895966,1.356360583894755,1.9518794948692115,0.0376494525897353,0.0924528826352162,0.0165863390531928,-0.7506096660035123,-0.8274370037362803,-0.6352683877285031,0.90839717992059,1.3643143693889337,1.9553812589254276,-0.9827865751818468,-1.0367422945357496,-0.8355897675974427,0.4550897732562237,-0.0479855331717904,-0.0916145607268437,-0.4431826515009895,10.041143956821545,-0.963534318971369,0.1071098860018167,-1.010210637959043
1.34,0.8882781196341019,1.3397899987449768,1.939066809069591,0.0406858837417911,0.090210437792139,0.0163932517352907,-0.7517903181104452,-0.8300047635055988,-0.645576623429218,0.8895394279506256,1.3443795235101397,1.9393525426373708,-1.0226855518654634,-1.076742295131796,-0.869743720792061,0.534432065121535,-0.0590326053466427,-0.1283879884659278,-0.5154117850357409,9.865838930564678,-0.965681825184957,0.103469840466281,-1.009076531094621
1.36,0.8732220141439946,1.3231338463697764,1.9260440864453523,0.0443301778480624,0.086979343533603,0.016194003460005,-0.7538784275213078,-0.8355711295538448,-0.6561750354931754,0.8696842015635705,1.3234446776164444,1.922469977519449,-1.06258452854908,-1.1167422957278423,-0.9038976739866792,0.6075997246794901,-0.1044054705431341,-0.2783183024123004,-0.5299206031978698,9.81484406510026,-0.9683535552437978,0.0992340167489545,-1.0077308555495827
1.38,0.8588683065900401,1.3071898661822825,1.9134749507514972,0.0474826256071592,0.0832818398667252,0.0159441731285247,-0.757044912586237,-0.8423861510321052,-0.6663554671292968,0.8488315007594252,1.301509831707848,1.9047335635716611,-1.102483505232697,-1.1567422963238887,-0.9380516271812974,0.632677512073317,-0.1583242532464557,-0.3407510739130204,-0.5090215818060739,9.807745090852222,-0.9716837007582622,0.0949292802481867,-1.0059342389520394
1.4,0.8436793461480343,1.2902587173958326,1.9000311531957936,0.0502376517091886,0.0790961581873757,0.0156168877754455,-0.7618335541953254,-0.8503090188694332,-0.6775038218966587,0.8210160609607282,1.265070558630677,1.8801571773950323,-0.7932900463140259,-0.9423861525222214,-0.6652279990564876,0.7245494069541071,-0.2394320804544214,-0.3961433918663992,-0.5574177383680934,9.804364275098123,-0.9752837573345028,0.0910805306406817,-1.0039041399080506
1.42,0.8282965253118891,1.2730760617771728,1.886724014385259,0.0502418547444051,0.0786035659555827,0.015280887648142,-0.7759062702629541,-0.8669751493355442,-0.6506761119034041,0.8210160609607282,1.265070558630677,1.8801571773950323,-0.7932900463140259,-0.9423861525222214,-0.6652279990564876,1.728819876184112,-0.703635803381436,-0.8333065233055492,1.3413854996627284,9.780779642668676,-0.9773194323100772,0.0884161098266984,-1.0049101228721364
1.44,0.8126730310246565,1.2555833047000882,1.8739972186941165,0.0463566464899625,0.0843757105221941,0.0149879266690101,-0.7849749630890488,-0.8805152134797097,-0.6234856779985902,0.8210160609607282,1.265070558630677,1.8801571773950323,-0.7932900463140259,-0.9423861525222214,-0.6652279990564876,1.5850033300708168,-0.4534346413047341,-0.6770032072082766,1.3595216952406952,12.114799257687082,-0.9754883494110836,0.0932830385872096,-1.0044331277755605
1.46,0.7977107892081954,1.2387716285763295,1.8623571167410733,0.0413180564878074,0.0928381069334691,0.0147334015004152,-0.7890833521794528,-0.8882252681393444,-0.6031281820436709,0.813083160497588,1.2556466971054547,1.873504897404468,-0.8005390730595837,-0.9623861528202446,-0.6650025054419257,1.1076455269255387,-0.2054194545202003,-0.3855027329817351,1.0178747977459657,12.114799257687082,-0.9691745021160736,0.0990954527056202,-1.008371245257324
1.48,0.7819164686706345,1.2209537468654117,1.850471411201046,0.0362571312181599,0.1031893024970498,0.0145057130332601,-0.7897119962175937,-0.893147312064512,-0.5867561422535876,0.7972173595713075,1.2367989740550105,1.8602003374233376,-0.8150371265506993,-1.002386153416291,-0.664551518212802,0.8553733053702921,-0.0314322019070445,-0.2461021962583798,0.8186019895041641,11.678700130706602,-0.9603364664833414,0.1047378550263302,-1.014884714356629
1.5,0.7661427489537845,1.2030584071508736,1.8388619252871272,0.0320476851565167,0.1140605045223827,0.0143198697308953,-0.7872759828548149,-0.8962383569586704,-0.5752264927707318,0.7813515586450269,1.2179512510045658,1.846895777442208,-0.8295351800418148,-1.0423861540123376,-0.6641005309836783,0.6091418899543378,0.1218006681389383,-0.1545522447079172,0.5764824741427921,11.33395526213917,-0.9499335341217616,0.109268268524579,-1.023234486645356
1.52,0.7504456309771277,1.1851151988705124,1.827437933725748,0.0288959744621917,0.1249164519472414,0.014179941229176,-0.7822251835999218,-0.8981798628900322,-0.5677687691885505,0.7647608550441907,1.1971035279243192,1.8336137668225343,-0.8440332335329304,-1.082386154608384,-0.6636495437545545,0.4606996294305155,0.2525399627446578,-0.0970752965680887,0.3728861791090665,11.047255131368727,-0.9392704116532424,0.1124029903949226,-1.0321451022171062
1.54,0.7356517081645436,1.1680394877083229,1.8167092899959272,0.0268697657625116,0.1349434158070276,0.0140913782374584,-0.7750242356399497,-0.8994200944078892,-0.5619663126855058,0.7481701514433543,1.1762558048440723,1.820331756202861,-0.858531287024046,-1.1223861552044303,-0.6631985565254308,0.4665306185285085,0.3600473979986029,-0.0620115758928507,0.2901228251522336,10.83467527072844,-0.9281042987867832,0.1146398006187349,-1.0415315116792223
1.56,0.7202516954261303,1.1500351745200337,1.8055277411266264,0.0254691754848493,0.145042276960717,0.0140312471896162,-0.7650868684062602,-0.9009661715877544,-0.5565483515280819,0.7312169965052402,1.1544080817489244,1.8070610202639157,-0.8730293405151616,-1.1623861558004769,-0.6627475692963072,0.571174065602291,0.4968683616844771,-0.077303858993255,0.2708980578711939,10.779363539960286,-0.9169808926653302,0.1161064265100375,-1.0508309817580035
1.58,0.7050795747454244,1.1320017485237512,1.7944465643573335,0.0246407269251054,0.1544121685830068,0.0139933525410736,-0.752407687741567,-0.9023066507475924,-0.5518995294008927,0.7139013902298481,1.1315603586388754,1.7938015590056982,-0.8875273940062771,-1.2023861563965232,-0.6622965820671834,0.6785463393831968,0.6339590332346601,-0.0670239579919129,0.23244110635946,10.759226972680151,-0.9064474098767312,0.1171111278748142,-1.0593927580456406
1.6,0.6901946609148213,1.1139443197584613,1.7834502836035795,0.0243918100179571,0.1624339525234839,0.0139691155744993,-0.7366860249820445,-0.903406733720025,-0.5479958919570181,0.667459190358346,1.0868864159863716,1.766851587887289,-0.7263342524201167,-1.0023066522377089,-0.5300466617230849,0.8118177870735697,0.7860831379761235,-0.0550041486216235,0.1951818721937281,10.73406036041797,-0.8976411366554918,0.1176261081840518,-1.0663187751671306
1.62,0.6763439606954345,1.096728638463879,1.7731305624098614,0.023436229570676,0.1693782137211912,0.0138867289966226,-0.7217982757044292,-0.9082141524698906,-0.53850650549661,0.667459190358346,1.0868864159863716,1.766851587887289,-0.7263342524201167,-1.0023066522377089,-0.5300466617230849,0.914883611429166,0.7443874638807635,-0.2403709374932783,0.4744693230204044,10.714108139707603,-0.8886087354937559,0.1182042077351688,-1.074035583990268
1.64,0.6620894619624142,1.078539890019412,1.7624629834730106,0.021492278551347,0.1767049195822922,0.0137351516886354,-0.7042051081973173,-0.9103532803412652,-0.5288275757326404,0.667459190358346,1.0868864159863716,1.766851587887289,-0.7263342524201167,-1.0023066522377089,-0.5300466617230849,1.0096745668274116,0.8796583753555964,-0.1069563935687301,0.4839464881984834,11.122947415897215,-0.8791708492100666,0.1204392701463615,-1.0810614815016075
1.66,0.6482066310951009,1.0603295628547096,1.7519837301179126,0.0197996890306302,0.1838273353603104,0.0135955482806411,-0.6847548656042294,-0.9106520660620616,-0.5196263697075092,0.6601958478341449,1.0768633494639943,1.761551121270058,-0.7211195653558267,-1.0223066525357318,-0.5256760881875233,1.0759454007451237,0.972512129654396,-0.0149392860398278,0.4600603012565596,11.092590145490249,-0.869786973835808,0.1224517649343315,-1.0879375776770477
1.68,0.6353945702596553,1.04303822539328,1.7421960540432155,0.0190994946208245,0.1902992071956472,0.013523434111742,-0.6646933765568407,-0.9096627876119676,-0.5111510726701117,0.6456691627857425,1.0568172164192402,1.7509501880355964,-0.7106901912272466,-1.0623066531317784,-0.5169349411164003,1.0900374701385676,1.0030744523694346,0.0494639225047055,0.4237648518698733,11.083500745658055,-0.8608640798578695,0.1234708976470346,-1.0944604991024047
1.7,0.6223365437275231,1.0248658641255834,1.732067080050342,0.0198502314466399,0.1967502492485373,0.0135548973101505,-0.6419877606810688,-0.907792001592406,-0.5022159672942061,0.6311424777373401,1.036771083374486,1.7403492548011348,-0.7002608170986665,-1.1023066537278248,-0.5081937940452771,1.2236022032380758,1.1352807937885956,0.0935393009780793,0.4467552687952791,11.08672767659482,-0.8516640888337996,0.1230594483803649,-1.1012063513838597
1.72,0.6097587219338404,1.0067351200872698,1.7221189266153718,0.0226038504721523,0.2025023843408156,0.0137314656316025,-0.6168662291377794,-0.9058215231724788,-0.4930817943562139,0.6171372613953668,1.0147249502999296,1.7301853789202293,-0.6898314429700864,-1.1423066543238711,-0.499452646974154,1.340156005419732,1.2560765771644666,0.0985239209963684,0.456708646899609,11.10946073438754,-0.8438324708867783,0.1208181814575469,-1.106726781180336
1.74,0.5977122344623502,0.988618536411788,1.7123608224914175,0.0268540429673967,0.206876267415404,0.0140046561310236,-0.5891223237306611,-0.906418700615056,-0.4832119686187783,0.6031320450533935,0.9926788172253732,1.7200215030393238,-0.6794020688415063,-1.1823066549199177,-0.4907114999030308,1.472662867244572,1.3871952703559176,-0.0298588721288628,0.4934912868717833,11.142107505028434,-0.8374064280531373,0.1171525019706594,-1.1113762274613843
1.76,0.5868014724237688,0.9713657782228278,1.703284028669931,0.0310499094265702,0.2092069408092744,0.0142424130028754,-0.5609522987587258,-0.9096602440137628,-0.4727364026085472,0.5893875630646347,0.9696326841359154,1.7100761558351962,-0.6689726947129262,-1.222306655515964,-0.4819703528319077,1.5114524419907076,1.4085012485967665,-0.1620771699353485,0.5237783005115543,11.21354099767632,-0.8321047115490077,0.1129182258520544,-1.1153306317941944
1.78,0.5759058341844313,0.9531215918915468,1.6939572086029429,0.0349951384833681,0.2094228302440582,0.0143958587675001,-0.530166267229595,-0.9145775595066794,-0.4604295169131168,0.5759038154290903,0.9455865510315566,1.7003493373078469,-0.6585433205843462,-1.2623066561120104,-0.4732292057607846,1.6758722836853477,1.5393015764565363,-0.2458657746458259,0.6153442847715185,11.309538617717408,-0.8294290878533759,0.1091913917707168,-1.117196470717066
1.8,0.5656403325515684,0.934765460854178,1.6848913670620873,0.0381888800618765,0.2067890685307243,0.0143919428749078,-0.4981394100902014,-0.9206445491655744,-0.4467476555164679,0.5493975208229516,0.9073927139162128,1.670935732757287,-0.5249943596295796,-1.0145775609967955,-0.4289999094919571,1.7675698522444403,1.6013428569696786,-0.3033494829447425,0.6840930698324449,11.408795817304965,-0.8302395276513406,0.1061908828329011,-1.116578937441819
1.82,0.5564867039626079,0.9171312512703113,1.676477059842251,0.0379135104774403,0.2005987452441086,0.0140113125241458,-0.4677681049409191,-0.93399134237925,-0.4395176374862286,0.5493975208229516,0.9073927139162128,1.670935732757287,-0.5249943596295796,-1.0145775609967955,-0.4289999094919571,1.6976647388965154,1.5185652574641189,-0.66733966068378,0.3615009015119685,11.50041407446497,-0.8344642234795117,0.106225215248528,-1.1134109754785295
1.84,0.5474356045435145,0.8983544670344132,1.6677916589841266,0.0338301453321984,0.1905150837901486,0.0132460305237083,-0.4395437368427487,-0.9422859271775512,-0.4291549267052403,0.5493975208229516,0.9073927139162128,1.670935732757287,-0.5249943596295796,-1.0145775609967955,-0.4289999094919571,1.559487789506253,1.411218404908518,-0.4147292399150737,0.5181355390494108,11.123354312132506,-0.8406656523288679,0.1096773299559292,-1.1092234781989012
1.86,0.5389037585859654,0.8794670657920933,1.6593398770025312,0.0289227879517579,0.178175248308898,0.0124222618742323,-0.4156114433541811,-0.9459488437071494,-0.4164059533151077,0.5441475772266557,0.8972469383062447,1.6666457336623672,-0.5239599781095765,-1.0345775612948187,-0.4227139880077251,1.3681264119481489,1.1966146744283783,-0.1831458264799024,0.6374486695066323,11.265900037569736,-0.8503110650441195,0.1141667164162492,-1.1017349556808236
1.88,0.5308029266917533,0.8605340748501885,1.6511614095441296,0.0246493619030388,0.1647700529011661,0.0116963758199408,-0.3961644121731516,-0.9472859273377298,-0.4019802054432555,0.5336476900340642,0.8769553870863088,1.658065735472528,-0.5218912150695704,-1.0745775618908653,-0.4101421450392613,1.2125149649111024,0.9723515590514764,-0.0668541815290191,0.7212873935926095,11.355589054872326,-0.8625906088474731,0.1185812717801889,-1.0916808102845703
1.9,0.5234250481153484,0.8425366452558194,1.6436721358693032,0.0216523141864519,0.1519575888245773,0.011146362287784,-0.3817744617556914,-0.9474015538076498,-0.3870501802437882,0.5231478028414726,0.856663835866373,1.649485737282689,-0.5198224520295642,-1.1145775624869116,-0.3975703020707973,1.0368096437560748,0.7194975208730109,-0.0057813234960013,0.7465012599733672,11.417048617132425,-0.8761580822292527,0.1222469156581991,-1.0798868534835775
1.92,0.5159127955432043,0.823595254026063,1.6361058965645396,0.0196785003109705,0.1391271738499175,0.0107153482818114,-0.37055217318728,-0.9469357892497277,-0.3702899847403682,0.5127513538008812,0.8343722846166347,1.6415343312412731,-0.5177536889895581,-1.154577563082958,-0.3849984591023334,1.0087874536404715,0.5611144284205671,0.0232882278961121,0.8380097751709975,11.463703514385998,-0.890771649677617,0.1254202621484922,-1.065985126906018
1.94,0.5085850854855037,0.8046708752850442,1.6288812132496104,0.0190834361510872,0.1275514396728105,0.0104360104460592,-0.3629797337062614,-0.9457696851875088,-0.3529875701054351,0.50235490476029,0.8120807333668965,1.633582925199857,-0.515684925949552,-1.1945775636790046,-0.3724266161338695,0.9461437398418407,0.3786219740509328,0.0583052031109365,0.8651207317466575,11.505288697643664,-0.9035952957878588,0.1272836543871321,-1.0533076138044433
1.96,0.5017345130870187,0.7867096276547627,1.6223423812755942,0.0197524068282676,0.118063964903681,0.0102946206197603,-0.3586053106202839,-0.945057618486179,-0.3361520926012771,0.4920101747956988,0.7887891821022571,1.6259458152326527,-0.5136161629095457,-1.234577564275051,-0.3598547731654056,0.8704537884277415,0.2187211542988731,0.0356033350664919,0.8417738752078963,11.514186943933964,-0.9158328652641516,0.1280006416519788,-1.040842555975089
1.98,0.4945892706109087,0.7678123319098912,1.6158099242347683,0.0215836428937638,0.1098572399006373,0.0102550400211826,-0.3562756623086671,-0.9448100093742754,-0.3179435592157703,0.4817171639071078,0.7644976308227166,1.61862300133966,-0.5115473998695396,-1.2745775648710973,-0.3472829301969418,0.9179314511160858,0.1164824155808402,0.0123804555951789,0.910426669275341,11.523969171664248,-0.9263052030523938,0.1276242388496125,-1.0298063684946817
2.0,0.4874658070937328,0.7489074871998813,1.6096453913318691,0.0242948111661068,0.1037391165402892,0.0103096167004545,-0.3562780102334419,-0.9459715113491464,-0.2994075667967217,0.4767754874954754,0.7205718314411774,1.59991274627398,-0.3581767349914799,-0.9976799067100433,-0.2605343360466819,0.9286173960644474,-0.0001173962387385,-0.058075098743543,0.9267996209524288,11.542655542460125,-0.934160383267822,0.126454912717154,-1.0212159156873857
2.02,0.4802963934102263,0.7297286747504177,1.603831714604301,0.0197047436824957,0.100950190382523,0.0099389019550725,-0.3604989526529214,-0.967418480743636,-0.2827582832283119,0.4767754874954754,0.7205718314411774,1.59991274627398,-0.3581767349914799,-0.9976799067100433,-0.2605343360466819,1.373851788274547,-0.2110471209739756,-1.0723484697244934,0.8324641784204917,11.558179037168884,-0.940566613393592,0.1313977993690623,-1.0131304424860967
2.04,0.4734156934584865,0.7112852307207571,1.598626548904731,0.008950501399577,0.1017929620620328,0.0092401461378442,-0.3631933721410212,-0.9719833798460588,-0.2659496995618442,0.4767754874954754,0.7205718314411774,1.59991274627398,-0.3581767349914799,-0.9976799067100433,-0.2605343360466819,0.88123022682185,-0.1347209744049893,-0.2282449551211318,0.8404291833233851,11.493065634142113,-0.9426637771227232,0.1432515109454594,-1.0078966555583415
2.06,0.4661416370084837,0.6918773078699838,1.5934861306877557,-0.0029912259663365,0.1050219123754033,0.0084894467977391,-0.3637828894494825,-0.9683759851597754,-0.2490304054686426,0.4731937201455606,0.710595032374077,1.597307402913513,-0.3585569495280425,-1.0082538861771968,-0.2490524914128643,0.865481570704781,-0.0294758654230675,0.1803697343141674,0.8459647046600779,11.484798294874054,-0.9431383263368508,0.1563418846935394,-1.0030331341101677
2.08,0.4588800071596859,0.6725965752526594,1.5886697272047092,-0.0134777299743106,0.1095531863708847,0.0078234533929553,-0.3621181558281546,-0.9600281418531784,-0.2335252137981923,0.466030185445731,0.6906414342398761,1.5920967161925794,-0.3593173786011676,-1.029401845111504,-0.2260888021452289,0.8844048770767792,0.0832366810663953,0.417392165329844,0.7752595835225181,11.401132008807508,-0.9418898834275474,0.167986677806014,-0.999923857374144
2.1,0.4516752926490959,0.6535168876007471,1.584150363457815,-0.0217134948769503,0.1144919193198962,0.0072928273781739,-0.3582814556355887,-0.9488630863452846,-0.2191850611903515,0.4588666507459014,0.6706878361056753,1.5868860294716458,-0.3600778076742927,-1.050549804045811,-0.2031251128775936,0.9287339630892024,0.1918350096282967,0.5582527753946964,0.7170076303920386,11.30689350688226,-0.9398962284971736,0.1769923098020872,-0.9981088088625472
2.12,0.4449210472940946,0.635613898979526,1.5801175392710818,-0.0274071553719791,0.118942180362368,0.0069348381772499,-0.352819375890089,-0.9367302541291328,-0.2060353844062522,0.4516650945924155,0.6496768400247591,1.582823527214094,-0.3608382367474179,-1.071697762980118,-0.1801614236099582,0.9353527840576676,0.2731039872749835,0.6066416108075956,0.6574838392049656,11.222490645294783,-0.9376676236204722,0.1843320843468665,-0.9967558470388352
2.14,0.4379395679468927,0.6170235368024181,1.5761430784743726,-0.0313681449937325,0.1229317055898978,0.0067214090383587,-0.3455589529140255,-0.9233076252092318,-0.1920865179319378,0.4444635384389296,0.6286658439438428,1.578761024956542,-0.361598665820543,-1.0928457219144252,-0.1571977343423229,1.0337451146570924,0.3630211488031748,0.6711314459950435,0.6974433237157198,11.222490645294783,-0.9359139128686974,0.1897495223091716,-0.9952798742056498
2.16,0.4311159534069521,0.5987013121311762,1.572450985144262,-0.0336265295551338,0.1259390051896704,0.0066691576040813,-0.3371642224730545,-0.9098640670579352,-0.1777940314018581,0.4372429715586157,0.607126148889569,1.575272614930681,-0.3623590948936681,-1.1139936808487323,-0.1342340450746875,1.067094098658086,0.4197365220485527,0.6721779075648249,0.7146243265039833,11.237138332016912,-0.9350519040559412,0.1937016210966321,-0.9931291826796576
2.18,0.4244692148911257,0.5806530251156995,1.5690512150441818,-0.0343632108059615,0.1278146797379549,0.006777935819226,-0.3280223547095423,-0.8958999958933525,-0.162883916616664,0.4300033939514736,0.5850577548619375,1.572358297136511,-0.3631195239667932,-1.1351416397830394,-0.1112703558070522,1.1190180434232768,0.4570933881756112,0.6982035582291435,0.7455057392597066,11.261727310686185,-0.935097903153626,0.1962269061712346,-0.9904624808629164
2.2,0.4180088221362434,0.562889329153433,1.5659576840621454,-0.0333846375973808,0.1285631983983831,0.0070630001708717,-0.3185936173584665,-0.8814387446205518,-0.1471931770081338,0.4080680971556487,0.5358580253210319,1.5609070192133483,-0.3127153007859354,-0.8928186634668343,-0.1109611482622481,1.1664349380412804,0.4714368675537872,0.7230625636400312,0.784536980426509,11.348402004281525,-0.9362516383194508,0.1974726759957804,-0.9868003455729104
2.22,0.4120064606863315,0.5460737589534302,1.563195067392368,-0.0371967086610845,0.1290812267572632,0.007027632765115,-0.313604000052914,-0.8858743850317828,-0.144510553161125,0.4080680971556487,0.5358580253210319,1.5609070192133483,-0.3127153007859354,-0.8928186634668343,-0.1109611482622481,0.3597487227849297,0.2494808652776264,-0.2217820205615506,0.1341311923504409,11.348402004281525,-0.9363375525133144,0.2031036357727766,-0.9831299466961972
2.24,0.4057960673901307,0.5284399097662105,1.5603438326115844,-0.0464768379172778,0.1300517306454408,0.0066325048535487,-0.3076151799423683,-0.8765263581712782,-0.1406314414126402,0.4080680971556487,0.5358580253210319,1.5609070192133483,-0.3127153007859354,-0.8928186634668343,-0.1109611482622481,0.588003147224623,0.2994410055272817,0.467401343025231,0.193955587424241,10.496330056150327,-0.9351189482786908,0.212164052672978,-0.9819961798725424
2.26,0.3997134591692783,0.5110763100274357,1.5575838852166466,-0.0560151923179225,0.1311622263969255,0.0062387661872439,-0.3008992237220722,-0.8602595943980613,-0.135513703220938,0.4049409441477893,0.5269298386863636,1.559797407730726,-0.309653890001214,-0.8922023969815306,-0.1005765945913649,0.916382719999378,0.3357978110148096,0.8133381886608448,0.2558869095851068,10.62955067242001,-0.9345946675381116,0.221418271780343,-0.9795495387813818
2.28,0.3937723936281679,0.4940830289810367,1.5549385823243296,-0.0639958083733972,0.1322166749334051,0.0059826078781668,-0.2935306283917657,-0.8402799534261924,-0.1292604213863233,0.3986866381320706,0.5090734654170268,1.557578184765481,-0.3035310684317713,-0.8909698640109234,-0.0798074872495985,1.109713684030389,0.3684297665153241,0.9989820485934442,0.3126640917307383,10.713345226349702,-0.9344318096372062,0.2300371926972617,-0.9764559941520892
2.3000000000000003,0.3882704403277988,0.4783304067040944,1.5525527517477071,-0.0696855021416363,0.1330324221760939,0.0059075230252952,-0.2859981259784833,-0.819363359763743,-0.1221634882900408,0.3924323321163519,0.4912170921476901,1.555358961800236,-0.2974082468623285,-0.889737331040316,-0.0590383799078322,1.166842901185969,0.3766251206641202,1.0458296831224734,0.3548466548141213,10.872898561079635,-0.934662226336022,0.236984694773191,-0.9730925226186864
2.32,0.3826380345854204,0.4621860285975172,1.5502015921370085,-0.0737532535785327,0.133604592141405,0.0060084702838814,-0.277639831466704,-0.7965069629998042,-0.1132277109807343,0.3864841671791053,0.4734223455268838,1.5541781942020794,-0.2912854252928857,-0.8885047980697087,-0.0382692725660658,1.296267792836176,0.4179147255889609,1.14281983819694,0.4467888654653279,10.872898561079635,-0.9354379569654288,0.2423131177312942,-0.9693230736350756
2.34,0.3771759349840556,0.4465058472734556,1.5480403600903954,-0.0760001694230612,0.1338251717346842,0.0062882757377373,-0.2690094777048814,-0.7729927768479884,-0.1032723143584977,0.3805360022418588,0.4556275989060774,1.5529974266039228,-0.285162603723443,-0.8872722650991015,-0.0175001652242994,1.3476923595005756,0.4315176880911348,1.1757093075907887,0.4977698311118293,11.026984144896232,-0.9365308839055664,0.2462679703545088,-0.965245390290528
2.36,0.3721489753320895,0.432053501346789,1.54618227931552,-0.076370380782129,0.1336614879954289,0.0067274469280945,-0.2606318275696216,-0.7498128395835545,-0.0927804936011252,0.3747409078438483,0.4378636656095363,1.5523358866893102,-0.2790397821540002,-0.8860397321284942,0.0032689421174668,1.3393774824304965,0.4188825067629881,1.1589968632216952,0.5245910378686255,11.026984144896232,-0.9378822189967246,0.2485609327884799,-0.9613134829962894
2.38,0.367029348212414,0.4173201883857453,1.544454270612939,-0.0746368752158831,0.1330987603288567,0.0073862583695594,-0.2518202901200936,-0.7249712893974954,-0.0804833318379404,0.3690988839850738,0.4201305456372604,1.552193574458242,-0.2729169605845575,-0.884807199157887,0.0240380494592331,1.45427472929022,0.4405768724763975,1.2420775093029524,0.6148580881592376,11.091095163545106,-0.939814556778717,0.249211885907006,-0.9569976963284816
2.4,0.3620857421648876,0.403078451672937,1.5429884234035958,-0.070580184436975,0.1321512038554901,0.0082473109798359,-0.2430558500007351,-0.7013050577305989,-0.0666351949735742,0.3544383337064093,0.3810716239158705,1.540430104021042,-0.2457166427129493,-0.7028233936292106,-0.0539458538678171,1.4393373705730486,0.438222005967924,1.183311583344826,0.6924068432183114,11.168407955592556,-0.9427960678334736,0.2479555946267699,-0.9519722015568388
2.42,0.3572988002407612,0.3891749605941494,1.5416117728613783,-0.0681919394741145,0.1305377391194682,0.0090453527339751,-0.2361626639152275,-0.6888649556674945,-0.0718332811083281,0.3544383337064093,0.3810716239158705,1.540430104021042,-0.2457166427129493,-0.7028233936292106,-0.0539458538678171,0.7571199594750679,0.3446593042753812,0.622005103155221,-0.2599043067376946,11.242768580361371,-0.9444418309859988,0.2493515909211938,-0.9462287670486365
2.44,0.3528764180651734,0.3762329557011507,1.5402152957802158,-0.0682932120640009,0.128104100882659,0.0097126548755943,-0.229781547634045,-0.6739203567441665,-0.0748523925001077,0.3544383337064093,0.3810716239158705,1.540430104021042,-0.2457166427129493,-0.7028233936292106,-0.0539458538678171,0.826399896492435,0.3190558140591271,0.7472299461664,-0.1509555695889813,10.015385609238365,-0.9455517472901008,0.2499432120254084,-0.9450739858523596
2.46,0.3483458314319616,0.3629353857272872,1.5387108591597627,-0.0695923679629038,0.1247414795791967,0.0104069419227058,-0.2237275250020316,-0.6565584149483391,-0.0753020573821633,0.3519811672792798,0.3740433899795785,1.5398906454823638,-0.2444959132315204,-0.6983938144755537,-0.0486383582737925,0.9196336382723048,0.3027011316006689,0.8680970897913698,-0.0224832441027784,10.207486663453892,-0.9478727267017276,0.2519622400168375,-0.9418869357970764
2.48,0.3439250671580904,0.3500031375593724,1.53722478389232,-0.0714098146632461,0.1208874138802619,0.0111246571010516,-0.2187848754904033,-0.637583212164536,-0.073276067687339,0.3470668344250209,0.3599869221069942,1.5388117284050076,-0.2420544542686627,-0.6895346561682397,-0.0380233670857431,0.9856377873295854,0.2471324755814144,0.948760139190158,0.1012994847412115,10.501265736937968,-0.9508180296196582,0.2545629357533019,-0.9375743806045546
2.5,0.3395879664992918,0.3374675854809656,1.5357987190028035,-0.0730915916770861,0.1169939502724456,0.0118808334572067,-0.2152995308056489,-0.6170392956699846,-0.0694116755065284,0.3421525015707619,0.34593045423441,1.5377328113276512,-0.239612995305805,-0.6806754978609258,-0.0274083758976938,1.0596386877537023,0.174267234237721,1.027195824727567,0.193219609040534,10.501265736937968,-0.9542133291813252,0.2574317087610143,-0.9323656819596216
2.52,0.3355171444395256,0.3259534929733753,1.5345300183132466,-0.073981135336559,0.1137582835666261,0.0126355284570856,-0.2134724981317976,-0.5961687309767852,-0.064307279401923,0.3373602416646458,0.3323169442771915,1.5371846438096972,-0.2371715363429473,-0.671816339553612,-0.0167933847096445,1.078162068750624,0.0913516336925643,1.0435282346599684,0.2552198052302667,10.607391957960315,-0.9573933304892638,0.2598219470574867,-0.9272551581706144
2.54,0.3312540186213639,0.3142699181574307,1.5333053090686406,-0.0736767559275925,0.1113952558918836,0.0134544082683045,-0.2130335384892239,-0.5734203090501031,-0.0583928649841178,0.3325679817585297,0.318703434319973,1.5366364762917435,-0.2347300773800896,-0.662957181246298,-0.0061783935215952,1.1754400065801995,0.0219479821286866,1.137421096334107,0.2957207208902627,10.698047761038652,-0.9597660572474104,0.2612944315318454,-0.9229797689538194
2.56,0.3269902725073935,0.3030487770508593,1.532204167549343,-0.0716154383652948,0.1105275949016901,0.0142944905738804,-0.2132016079973986,-0.5500364743832912,-0.0519689912879248,0.327836758326485,0.3053114033204374,1.5363536835534908,-0.2322886184172318,-0.6540980229389841,0.004436597666454,1.21253672557681,-0.0084034754087386,1.1691917333405966,0.3211936848096463,10.730537323192948,-0.9618543515473376,0.2614545477154978,-0.9191983371501832
2.58,0.3229426825001059,0.2928137054925875,1.5312845915846949,-0.0679189102423137,0.1108749965025245,0.0151345374304961,-0.2127198744515527,-0.5291492748841715,-0.0450948004016648,0.3231665713685118,0.2921408512785846,1.5363362655949395,-0.2298471594543741,-0.6452388646316701,0.0150515888545033,1.0997291376356713,0.0240866772922968,1.0443599749559829,0.343709544313004,10.755519711684428,-0.963348473176796,0.2601719537179831,-0.916250443143047
2.6,0.3187018592331779,0.2824383672152554,1.5304672526750045,-0.0633085280165871,0.1120334090157446,0.0160205225945047,-0.2112801805430232,-0.5097143096398519,-0.0369494916712933,0.3123066887775282,0.2663562417483789,1.5290298515646117,-0.2062461124683369,-0.5115547604695034,-0.0126360107550392,1.0560973521783346,0.0719846954264732,0.9717482622159824,0.4072654365185755,10.78532691788132,-0.9637793525189912,0.2583446462546581,-0.914502196510208
2.62,0.3144930910488955,0.2724187499235512,1.5297267125768796,-0.0588949363363018,0.1135061343874764,0.0168796413818988,-0.2096266099563038,-0.4931632717573263,-0.0375270477002832,0.3123066887775282,0.2663562417483789,1.5290298515646117,-0.2062461124683369,-0.5115547604695034,-0.0126360107550392,0.8321729412217778,0.0826785293359708,0.8275518941262772,-0.028877801449495,10.82323997259391,-0.9620343875574618,0.2573709167575002,-0.9141715066405288
2.64,0.3105330702152399,0.263202148301504,1.5290251891513087,-0.0550926697726227,0.114866283617746,0.0176770141803178,-0.2072744526948959,-0.4778744292861224,-0.0362651324868823,0.3123066887775282,0.2663562417483789,1.5290298515646117,-0.2062461124683369,-0.5115547604695034,-0.0126360107550392,0.7760054411817864,0.1176078630703958,0.7644421235601967,0.063095760670041,10.273327089932536,-0.9603994904549024,0.2551062652119865,-0.9159696159322878
