t,x,y,z,roll,pitch,yaw,v_x,v_y,v_z,ref_x,ref_y,ref_z,ref_v_x,ref_v_y,ref_v_z,a_com,a_x,a_y,a_z,thrust,wind_x,wind_y,wind_z
0.0,-0.0096833408208433,-2.4587961705519463,1.9768376582814853,0.0236943428995297,0.0994882224619361,0.0417225415047916,-0.0003573177261495,0.0078159797536957,-0.0002219148485638,-0.0096874272246595,-2.4586501548965813,1.9768285576238056,0.0870471292704152,0.1056577444270788,-0.0603190327135992,0.3913644773980359,-0.0178658863074771,0.3907989876847857,-0.0110957424281909,10.25517696035331,-0.9412646648641576,0.2591766241519251,-0.876037590886672
0.02,-0.009770163779559,-2.458924446410994,1.976763114536056,0.0165509209799024,0.1022955226245568,0.0412950301486098,-0.0081061959319913,-0.0162744975675745,-0.0074007837802363,-0.0096874272246595,-2.4586501548965813,1.9768285576238056,0.0870471292704152,0.1056577444270788,-0.0603190327135992,1.3152303697011969,-0.3874439102920896,-1.2045238660635118,-0.3589434465836275,10.25517696035331,-0.9297820644661036,0.2595102211963508,-0.8920785708544321
0.04,-0.0099769407299069,-2.459271390195683,1.9764990643737184,0.0013564946451238,0.1090176276054113,0.040323503977015,-0.0127796136703274,-0.017977363876989,-0.0200016410546557,-0.0096874272246595,-2.4586501548965813,1.9768285576238056,0.0870471292704152,0.1056577444270788,-0.0603190327135992,0.6773518123453681,-0.2336708869168038,-0.0851433154707285,-0.6300428637209702,9.918736648351569,-0.9238141314526396,0.2708011740960605,-0.8968844531947555
0.06,-0.0102494304104105,-2.4595654420974493,1.9759533267187943,-0.0156984783302437,0.118156450728744,0.0391151289620473,-0.0138115961076613,-0.0108705838552079,-0.0339593750909949,-0.0088169559319553,-2.4575935774523106,1.9762253672966696,0.1044956737726735,0.1256577447251021,-0.0723264122454596,0.7848401898764686,-0.051599121866697,0.3553390010890557,-0.6978867018169562,9.498494633578956,-0.9130174570906072,0.2819315247168825,-0.9076926958195712
0.08,-0.0105055894736416,-2.4596681884255798,1.9751315015623003,-0.0322480231192662,0.1281325235531297,0.0377854923299049,-0.0114145755471431,0.0006292331649699,-0.0475469835207168,-0.007076013346547,-2.455480422563769,1.9750189866423973,0.1393927627771901,0.1656577453211485,-0.0963411713091803,0.8980737746763516,0.119851028025911,0.5749908510088968,-0.6793804214860973,9.498494633578956,-0.90087066119737,0.2929957423632023,-0.9186689009675356
0.1,-0.0106823429207881,-2.459499558643084,1.9740457008883516,-0.0479016991085542,0.1382327657858486,0.0363698896331955,-0.0060935786421569,0.0159218385871609,-0.0604302118222785,-0.0053350707611387,-2.4533672676752274,1.9738126059881256,0.1742898517817067,0.205657745917195,-0.120355930372901,1.034594558428393,0.2660498452493086,0.7646302711095481,-0.6441614150780841,9.547397278611244,-0.8873783021837871,0.3050112401903497,-0.9294606270869724
0.12,-0.0107282229091997,-2.4590043823350136,1.9727793282255213,-0.0611509343607437,0.147603261956171,0.0350280897910483,0.0012404309450268,0.0351551414509179,-0.0722803253819232,-0.0018492737255046,-2.449254112756884,1.971405487380668,0.2091869407862233,0.2456577465132414,-0.1443706894366217,1.187574026166773,0.3667004793591922,0.9616651431878496,-0.5925056779822382,9.614480476270728,-0.8738435016825479,0.3169005597993183,-0.9386530567050833
0.14,-0.0106031343502308,-2.458060413721304,1.9712036310285588,-0.0729246471735238,0.1570571832225247,0.0336906579547117,0.0111398376324519,0.0580607266066691,-0.0846880902384448,0.0016365233101294,-2.44514095783854,1.9689983687732096,0.2440840297907399,0.2856577471092879,-0.1683854485003424,1.393392185302774,0.4949703343712542,1.1452792577875597,-0.6203882428260754,9.676349932778066,-0.8602169007537903,0.3277517926001186,-0.9470535336170928
0.16,-0.0102582851622327,-2.456622973260896,1.9693822565847332,-0.0821029123601186,0.1660142140631996,0.0324952986480383,0.0231005505523379,0.0839142720877742,-0.0968491794377771,0.0059947475708765,-2.440027802905295,1.9659908811891589,0.2789811187952565,0.3256577477053343,-0.1924002075640631,1.548674076435726,0.5980356459943014,1.2926772740552583,-0.6080544599666171,9.718270984993978,-0.8475875171198952,0.3367253929500566,-0.954103791875056
0.18,-0.0096905519879864,-2.4547632094874703,1.9674290742796283,-0.0883834955566542,0.174040239927748,0.0315267905180684,0.0362700636351445,0.1099655353390941,-0.1081422981545524,0.0112253990567365,-2.4339146479571485,1.9623830246285143,0.3138782077997731,0.3656577483013807,-0.2164149666277838,1.5649592024865726,0.6584756541403293,1.302563162565993,-0.5646559358387669,9.76955641951008,-0.8349418381411432,0.3445586810141899,-0.9605578339645592
0.2,-0.008803817397511,-2.4522680336314453,1.965143530372204,-0.0927738088189982,0.1819815334236985,0.0306862799329916,0.0519285432756839,0.1378053084869977,-0.1198022029726211,-0.0078770488062291,-2.449264932720516,1.9620219593719008,0.1149351562226155,0.2099655368292102,-0.1462795366272526,1.7001428866027248,0.7829239820269677,1.3919886573951787,-0.5829952409034312,9.815977171545455,-0.8228334091788064,0.3508412782111047,-0.966329942435372
0.22,-0.0075357493202995,-2.4490745568825445,1.962732976255255,-0.0911644381850982,0.1883237260994592,0.0304209099543398,0.0743089647829429,0.178658494057866,-0.1198778797262189,-0.0078770488062291,-2.449264932720516,1.9620219593719008,0.1149351562226155,0.2099655368292102,-0.1462795366272526,2.3290941184833094,1.1190210753629488,2.0426592785434154,-0.0037838376798916,9.853272783109787,-0.8206070758095906,0.3525771918504929,-0.963842063201008
0.24,-0.0058004021842948,-2.4451608112885266,1.9603540841878344,-0.0832188775287066,0.1921238180939731,0.0308711681968111,0.0979815039017958,0.2093752503870572,-0.1179396407393201,-0.0078770488062291,-2.449264932720516,1.9620219593719008,0.1149351562226155,0.2099655368292102,-0.1462795366272526,1.9414331034643355,1.183626955942646,1.5358378164595607,0.0969119493449383,10.69865506215956,-0.8149119486989034,0.3516608123529092,-0.9621637905000162
0.26,-0.0037106699091824,-2.440947492773667,1.9581244870476404,-0.0744097479812039,0.1937585481950295,0.0315816977526131,0.1206477589190553,0.2323399570323294,-0.1168061530972434,-0.006727697244003,-2.4471652773522234,1.9605591640056284,0.1306681747401097,0.2299655371272334,-0.1539069843217926,1.6143277718957774,1.1333127508629754,1.1482353322636127,0.0566743821038363,10.657885171065573,-0.8122667089871916,0.3494928492799034,-0.9584334339991516
0.28,-0.0010505432241811,-2.4360839628703777,1.9557916850741237,-0.0655918662994277,0.1937279618358701,0.0324392749369381,0.1440707118379869,0.2527592415935362,-0.1165692026029489,-0.0044289941195507,-2.442965966615639,1.9576335732730832,0.1621342117750981,0.2699655377232799,-0.1691618797108726,1.5537358615372578,1.1711476459465804,1.020964228060338,0.0118475247147274,10.572657150988562,-0.8120641838990103,0.3471017667784093,-0.9536110219381604
0.3,0.0020734111723724,-2.4308374499754013,1.953452181839783,-0.0578793285138813,0.1920763566453128,0.0333212259391084,0.1670472534698499,0.2709277960652321,-0.1174257086657134,-0.0021302909950984,-2.438766655879055,1.9547079825405385,0.1936002488100865,0.3099655383193264,-0.1844167750999527,1.465223054339566,1.1488270815931512,0.9084277235847926,-0.0428253031382289,10.489235844160248,-0.8131582418925059,0.3454190625473183,-0.948249762238731
0.32,0.0056494715787158,-2.4252455136460243,1.951084009879989,-0.0514384378811504,0.1888435077118992,0.0341905426309816,0.1892539557403521,0.2875523840191099,-0.1193152414083841,0.0017417139811033,-2.4325673451126684,1.9510196470385397,0.225066285845075,0.3499655389153728,-0.1996716704890327,1.3902202022994137,1.1103351135251085,0.8312293976938889,-0.0944766371335337,10.408838128458228,-0.8157364435131398,0.3447818343220696,-0.9410546245026916
0.34,0.0094471792610041,-2.419635252306494,1.9487960511131777,-0.0464258891397039,0.1844311611908659,0.0349891211093368,0.2092326350825024,0.3023540242636572,-0.121393648780218,0.005613718957305,-2.426368034346282,1.94733131153654,0.2565323228800634,0.3899655395114193,-0.2149265658781128,1.2475535653718048,0.998933967107514,0.7400820122273694,-0.1039203685916971,10.336110616337464,-0.8201594041373735,0.3451252042173214,-0.9320556559937776
0.36,0.0138368738338887,-2.413425882764313,1.946342910636784,-0.0419647241431206,0.1786649486649972,0.0358033188969363,0.228379703941551,0.3177917720235135,-0.1237787666561346,0.0102723748593815,-2.419168723564994,1.943261603649814,0.2879983599150518,0.4299655401074657,-0.2301814612671928,1.2355394460235885,0.9573534429524284,0.7718873879928118,-0.1192558937958263,10.300649276753576,-0.8261666146255457,0.3462920331858937,-0.9213029979197416
0.38,0.018584531425787,-2.4069118701057146,1.9438393996459329,-0.0379792815582905,0.1723288409611957,0.0365861879864124,0.2451954047335654,0.3327781634399155,-0.1264309533297081,0.0157176816873326,-2.410969412768805,1.938810523378361,0.3194643969500402,0.4699655407035121,-0.2454363566562729,1.1340125825620773,0.8407850396007235,0.7493195708201006,-0.1326093336786744,10.265370789727967,-0.8338443851398141,0.3473253768752325,-0.9096750255966866
0.4,0.0236443081898488,-2.400104851292916,1.9412778191546347,-0.0343003581511305,0.1659457606901057,0.0373284923014993,0.2597706014498261,0.347109114592052,-0.1295467969188794,0.0308443016624653,-2.390272961933719,1.937517851979448,0.2815588350547821,0.4327781649300316,-0.1597412363051433,1.0338290495952387,0.7287598358130323,0.7165475576068253,-0.1557921794585665,10.2233687465814,-0.8412896564931799,0.3480026472805466,-0.8991306099805161
0.42,0.028787583547759,-2.3933764065751872,1.9388956989997712,-0.0311394173300474,0.1580630783494543,0.0380507501788638,0.2801013554521315,0.3604425633250281,-0.1209168368868679,0.0308443016624653,-2.390272961933719,1.937517851979448,0.2815588350547821,0.4327781649300316,-0.1597412363051433,1.2899579678920527,1.016537700115272,0.6666724366488075,0.4314980016005741,10.174318707481689,-0.8547602120232384,0.3474581042795423,-0.8849025522337614
0.44,0.0345650596947201,-2.386038037995144,1.9365610247024323,-0.0285546063460722,0.1470043757675687,0.0388204106554688,0.2959486420387943,0.3728622009454589,-0.1130876892566778,0.0308443016624653,-2.390272961933719,1.937517851979448,0.2815588350547821,0.4327781649300316,-0.1597412363051433,1.0801382358267284,0.7923643293331367,0.6209818810215373,0.3914573815095065,10.917523338073806,-0.8690918235228663,0.3526698607743316,-0.8618599985620156
0.46,0.0405971605657644,-2.378455898574263,1.934352660282891,-0.0268741975578124,0.1350149895680387,0.0395346490814099,0.3060803199193437,0.3848753066481934,-0.1080584760073211,0.0336598900130131,-2.3859451802844185,1.9359204396163965,0.2888315211190254,0.4527781652280548,-0.1664032929002304,0.8250130168788159,0.5065838940274736,0.6006552851367281,0.2514606624678353,10.7262214725979,-0.8825493539106832,0.3571492395544843,-0.8409781190337965
0.48,0.0464667221209345,-2.371035166359154,1.9323248773667936,-0.0260676373804263,0.1240496137034881,0.0401398930163707,0.3110749930226222,0.3957494255076808,-0.1056004370700733,0.0392910667141088,-2.377289616985818,1.9327256148902932,0.303376893247512,0.4927781658241013,-0.1797274060904045,0.6108092496759875,0.2497336551639251,0.5437059429743651,0.1229019468623866,10.527929552595197,-0.8954722410475273,0.3610880359067538,-0.8214988904792145
0.5,0.0527073171158181,-2.363006049474889,1.9302204068157371,-0.0262099267011445,0.1138941932801049,0.0406778790516762,0.3125385044048024,0.4066684016238553,-0.1050547310668569,0.0449222434152044,-2.368634053687217,1.9295307901641905,0.3179222653759986,0.5327781664201477,-0.1930515192805786,0.5515063463671734,0.0731755691090102,0.545948805808727,0.0272853001608217,10.358821586913107,-0.9060361336979724,0.3644714053371569,-0.805605671197185
0.52,0.0589419100583836,-2.354760377364579,1.9281042795715828,-0.0275206000094981,0.1058399215240252,0.0410990266615584,0.3108502673790231,0.4174951411186124,-0.106560334915568,0.0512806887227244,-2.3579784903588146,1.925669759778579,0.3324676375044852,0.5727781670161942,-0.2063756324707527,0.5530263901745532,-0.0844118512889652,0.5413369747378549,-0.0752801924355527,10.101112186987848,-0.9135228449223544,0.3675524729531327,-0.7939570488154711
0.54,0.0648089202177427,-2.346722312614709,1.9260560726139475,-0.0298073111748825,0.1006261421041673,0.0413856027934015,0.3067775691780007,0.4282942733538692,-0.108958076032263,0.0576391340302444,-2.347322927030412,1.9218087293929675,0.3470130096329719,0.6127781676122407,-0.2196997456609268,0.5894007340805261,-0.2036349100511231,0.5399566117628429,-0.1198870558347504,10.101112186987848,-0.9185817602696464,0.3708313590529635,-0.7853925337801814
0.56,0.0708817751107091,-2.338013750136097,1.923843730673476,-0.0325330052129558,0.09830046271932,0.0415972837024998,0.3008320535050043,0.4420253287345207,-0.112177548527467,0.0643612136409765,-2.3356673636871075,1.9176145961776012,0.3615583817614585,0.652778168208287,-0.2330238588511009,0.7652712617623537,-0.2972757836498196,0.6865527690325723,-0.1609736247602008,10.04765116892213,-0.9214698751425928,0.3736563549257942,-0.7802718154664438
0.58,0.076841721201504,-2.329012334670379,1.9215611738283664,-0.0346751704271202,0.0990459265495526,0.0417677752516321,0.2958335687351009,0.4572174324663278,-0.1159071427331804,0.0714469275549208,-2.323011800328902,1.9130873601324807,0.3761037538899451,0.6927781688043335,-0.246347972041275,0.8211192646811959,-0.2499242384951694,0.7596051865903564,-0.1864797102856696,10.006751537056516,-0.922110654190886,0.3756158298238925,-0.7785873649096028
0.6,0.0824290102529867,-2.3201706578778545,1.9193204813021083,-0.0358542395817972,0.1016643779635804,0.0419330285586764,0.2927990927164203,0.4725454624945736,-0.1197659223167547,0.0916333996382591,-2.3061514630470628,1.915765816691707,0.2694768735152265,0.557217433956444,-0.1381468706326126,0.8047464338680881,-0.151723800934031,0.7664015014122894,-0.1929389791787139,9.973771562014008,-0.9208907516370248,0.3771513822255484,-0.7791586020023936
0.62,0.0884087810097136,-2.310485100447963,1.9170223758735612,-0.0343863203543039,0.10144118435093,0.0424089767188291,0.3055399794515377,0.4947475129284763,-0.1090246806764071,0.0916333996382591,-2.3061514630470628,1.915765816691707,0.2694768735152265,0.557217433956444,-0.1381468706326126,1.3880161294478772,0.6370443367558709,1.110102521695136,0.5370620820173762,9.95143784726406,-0.931105104699581,0.3762939378661772,-0.7694362882144667
0.64,0.0946303921528975,-2.3003924821791566,1.91494953838892,-0.0297388926629214,0.0940211872700898,0.0433366528619845,0.3149933118032363,0.5125721019066244,-0.0989273535023967,0.0916333996382591,-2.3061514630470628,1.915765816691707,0.2694768735152265,0.557217433956444,-0.1381468706326126,1.1280929492406633,0.4726666175849325,0.8912294489074019,0.5048663587005231,10.699152738637167,-0.9386192203906016,0.3795303734520462,-0.7531073102287872
0.66,0.1006509100093816,-2.29052369388478,1.9131343811276973,-0.0247552082280658,0.0829033167652631,0.0443283001052867,0.3176439071294905,0.5252798899329786,-0.0925778477500734,0.0943281683734114,-2.3005792887074983,1.914384347985381,0.2642055344712516,0.5772174342544671,-0.142594816212499,0.7225471531414014,0.1325297663127084,0.6353894013177097,0.3174752876161625,10.699152738637167,-0.9493604250500478,0.3810202219328359,-0.7346227390399562
0.68,0.1069742509228823,-2.2799034948185684,1.9113247150966248,-0.0200800233392887,0.0693727516263301,0.0453088983997205,0.3139888204995286,0.5361256550735269,-0.0888389128577632,0.0997177058437159,-2.2894349400283693,1.9116214105727287,0.2536628563833019,0.6172174348505136,-0.1514907073722719,0.6020172628035572,-0.1827543314980945,0.5422882570274179,0.1869467446155105,10.462720419418474,-0.9608101568562132,0.3811447042168522,-0.7171969325423614
0.7000000000000001,0.1131607941279904,-2.2690828139437937,1.9095583161413503,-0.016380560181836,0.0559317914823696,0.0461574972314128,0.3044765261293339,0.5455278763992834,-0.0881011052614052,0.1051072433140204,-2.2782905913492404,1.9088584731600764,0.2431201782953521,0.6572174354465601,-0.1603865985320448,0.6697571763202518,-0.475614718509737,0.4701110662878205,0.0368903798178998,10.094377710125627,-0.970753604512034,0.3807788345867288,-0.7026431275577857
0.72,0.1188135385873653,-2.258639047474858,1.9078671386678547,-0.0138458747024559,0.0446305518294429,0.0468309911404028,0.2909632212396553,0.5535826330489982,-0.0899327548505576,0.1099696468799275,-2.2651462426403093,1.9056507411894357,0.2325775002074024,0.6972174360426066,-0.1692824896918176,0.7919019098742285,-0.6756652444839306,0.4027378324857444,-0.0915824794576199,10.094377710125627,-0.9794789676905362,0.3798938140000905,-0.6906518456638311
0.74,0.1244535464752695,-2.2474859978553368,1.9060366648167704,-0.0121592594177265,0.0350801304032791,0.0474159367427645,0.2736846681871908,0.5614309254825564,-0.0930606071270533,0.1148320504458345,-2.252001893931378,1.9024430092187945,0.2220348221194526,0.737217436638653,-0.1781783808515905,0.961675035514926,-0.8639276526232226,0.3924146216779056,-0.1563926138247864,9.962453237641968,-0.9860900252183412,0.3786672637702939,-0.6824761439861898
0.76,0.1297157071182253,-2.2361731093076758,1.9041328857555229,-0.0112744669361264,0.0285869696378574,0.0478996876001948,0.2533924357815583,0.5694976160497279,-0.097158907257985,0.1194308870595428,-2.2378575452075458,1.8990128799691597,0.2114921440315029,0.7772174372346994,-0.1870742720113634,1.110903074838094,-1.014611620281627,0.4033345283585787,-0.2049150065465826,9.904372776290984,-0.9895950035123507,0.3774382586241447,-0.6789162599913917
0.78,0.1343143625933661,-2.2252761651282325,1.9022419547553724,-0.0109168203239036,0.0260726430669764,0.0482844985596185,0.2319257612321649,0.5771524941614179,-0.1016692455389325,0.1237661567210523,-2.222713196468812,1.8953603534405297,0.2009494659435531,0.8172174378307459,-0.1959701631711362,1.1616350831080555,-1.073333727469669,0.3827439055844983,-0.2255169140473738,9.854669092961558,-0.9908603368551492,0.3758140487388882,-0.6795791635765217
0.8,0.1387236169441821,-2.2136482484726585,1.900156468829014,-0.0109602331502606,0.0272569008859084,0.048621553103223,0.210534454620346,0.5852576125678045,-0.1066297745118574,0.1459106506549743,-2.196418540420161,1.8971584924784255,0.2017830963228021,0.677152495651534,-0.1202709741421763,1.170350151272707,-1.0695653305909425,0.4052559203193306,-0.2480264486462456,9.854669092961558,-0.989947191270776,0.3741391300548318,-0.6839297990348977
0.8200000000000001,0.142718735969631,-2.201813283571404,1.8980752487983887,-0.0100298479784394,0.0316330908121431,0.0489954373117911,0.190483922539827,0.5975250912705831,-0.1006530326895183,0.1459106506549743,-2.196418540420161,1.8971584924784255,0.2017830963228021,0.677152495651534,-0.1202709741421763,1.2126791756746145,-1.0025266040259508,0.6133739351389278,0.2988370911169539,10.512805027502507,-0.9899961117038014,0.3723377643122323,-0.6874971990107581
0.84,0.1461726324725186,-2.1903673834884705,1.8962160081062,-0.0078709090132487,0.0379917828726768,0.0494267945560417,0.1744542637331604,0.606635227822175,-0.0953958528619071,0.1459106506549743,-2.196418540420161,1.8971584924784255,0.2017830963228021,0.677152495651534,-0.1202709741421763,0.9586220438559712,-0.8014829403333312,0.4555068275795992,0.2628589913805622,10.512805027502507,-0.9874995793482187,0.3716978645528738,-0.6917460067662543
0.86,0.1495140542944737,-2.1781539122120868,1.8943485766689772,-0.0055893899743044,0.0458042883264829,0.0498885552385668,0.1608442077070372,0.6142910904840175,-0.0917108443659654,0.1479284816182024,-2.1896470154636463,1.895955782737004,0.1957545633409295,0.6971524959495572,-0.1239913198628251,0.802223699703466,-0.680502801306157,0.3827931330921241,0.1842504247970819,10.384863569214758,-0.9834553127534948,0.3707537523673116,-0.6983900370935313
0.88,0.1526156000498203,-2.165798324369133,1.892535990342589,-0.0039551037240243,0.0538075459702551,0.0503191375738055,0.1502185360085595,0.6210032243181884,-0.0898122379492599,0.1519641435446584,-2.176103965550616,1.8935503632541604,0.1836974973771844,0.7371524965456037,-0.1314320113041226,0.635535888005565,-0.5312835849238889,0.3356066917085454,0.0949303208352757,10.157293539587954,-0.9785787401035992,0.3699468522918133,-0.7060662206945456
0.9,0.1555329946772839,-2.153316227044696,1.8907442685120384,-0.003329765742142,0.0612654627883186,0.05069030687838,0.1421601879695574,0.627047333312627,-0.0894656991375917,0.1559998054711145,-2.162560915637585,1.8911449437713168,0.1716404314134393,0.7771524971416501,-0.1388727027454201,0.5039551463233947,-0.4029174019501036,0.3022054497219262,0.0173269405834106,10.157293539587954,-0.973686260577132,0.3695907331559425,-0.7133705117649854
0.92,0.1581751827460169,-2.141349861608757,1.8890376427421105,-0.0039361879135739,0.0674124254625397,0.050963283379348,0.1363939126074252,0.6324420260923236,-0.0902118434981507,0.1594326140993832,-2.147017865694752,1.8883674897164084,0.1595833654496942,0.8171524977376966,-0.1463133941867177,0.3965771461709498,-0.2883137681066114,0.2697346389848309,-0.0373072180279487,10.07930547916476,-0.9690405470464476,0.3699555862894524,-0.7198922052869202
0.94,0.1608533352784023,-2.128642275993833,1.88722134192488,-0.0060552806488976,0.0726481363477734,0.0511469183300485,0.1317546946574605,0.6381940390297709,-0.0914046542381787,0.1628654227276521,-2.1314748157519188,1.8855900356615,0.1475262994859491,0.8571524983337431,-0.1537540856280152,0.3742685983400206,-0.2319608974982318,0.2876006468723657,-0.0596405370013992,10.022781448034948,-0.965063673534365,0.3712815861247124,-0.724901461412175
0.96,0.1634475847322181,-2.1157938809645835,1.885379190219312,-0.0091592884848342,0.0765541292249678,0.0512616546537701,0.1278826943431004,0.6465976859021648,-0.0927647567396526,0.1659968047068272,-2.1149317657941844,1.8826265643205595,0.1354692335222039,0.8971524989297894,-0.1611947770693128,0.4676097357968949,-0.1936000157180067,0.4201823436196961,-0.068005125073696,10.004955905395946,-0.9625443739261396,0.3737123990346407,-0.7270836218178925
0.98,0.1659689710262333,-2.102751554071736,1.8835088208109492,-0.0119810308455078,0.0792061787300105,0.0514020073791001,0.1243892840885849,0.6570681897859278,-0.0942136366268486,0.1688267600369087,-2.097388715821549,1.879477075693586,0.1234121675584588,0.937152499525836,-0.1686354685106103,0.5566296338539917,-0.1746705127257719,0.5235251941881514,-0.0724439943598033,10.004955905395946,-0.9608745483689836,0.3760617926382947,-0.7279306317648903
1.0,0.1683001569812031,-2.090157336022751,1.881703427468064,-0.0139736346149333,0.0807351137787368,0.0515938230109007,0.1211221534158529,0.6679026976800713,-0.0957592105003387,0.1721884352306625,-2.069898144582439,1.878798138979607,0.1327499540367456,0.757068191276044,-0.1302743982871861,0.5710724619944864,-0.1633565336366015,0.541725394707171,-0.077278693674504,10.005360341258893,-0.9597905479823164,0.3781290265447917,-0.7280562787729579
1.02,0.1706206062207642,-2.076611004774888,1.8798253740566715,-0.0131457854484756,0.0836410956709536,0.0519814656059292,0.1114189170396985,0.6855547474321482,-0.091637962999345,0.1721884352306625,-2.069898144582439,1.878798138979607,0.1327499540367456,0.757068191276044,-0.1302743982871861,1.02802278377691,-0.4851618188077194,0.8826024876038452,0.2060623750496863,9.998851352440395,-0.9573830512042332,0.3779047009326241,-0.7313453144474887
1.04,0.1727669608497624,-2.0627535488248148,1.878019681875705,-0.0086994230405238,0.089555243308794,0.0525925732812223,0.1042430073052664,0.6985322925418622,-0.089153099946223,0.1721884352306625,-2.069898144582439,1.878798138979607,0.1327499540367456,0.757068191276044,-0.1302743982871861,0.7518059955602778,-0.3587954867216087,0.6488772554857025,0.1242431526560984,10.40663932323332,-0.954482340135446,0.3765277341911369,-0.735265814943089
1.06,0.1748080018607993,-2.048691109212881,1.876236241727099,-0.0035421184497515,0.0970914398263835,0.0532663422642905,0.1005641187453195,0.7070385824868912,-0.0893230095418607,0.17351593477103,-2.062327462669679,1.877495394996735,0.1344220880263777,0.7770681915740671,-0.1374865506192536,0.4634653680052563,-0.1839444279973429,0.42531449725145,-0.0084954797818823,10.240171480088064,-0.9496761146850672,0.374018561628533,-0.7424998763048439
1.08,0.1767100799954755,-2.035197759168608,1.8745167586534224,0.0007589164370056,0.1046853836048032,0.053892514897571,0.1000248290540999,0.7130887557973516,-0.0916837667098266,0.1761709338517649,-2.0471860988441577,1.8748899070309917,0.137766356005642,0.8170681921701136,-0.1519108552833886,0.3258397031661653,-0.0269644845609796,0.3025086655230213,-0.1180378583982962,10.080433579523742,-0.9437449017878315,0.3713514370033506,-0.751390732424114
1.1,0.1787287257623102,-2.02088054417612,1.872639982770344,0.0042588626527161,0.1123129498538051,0.0545046073889424,0.1020304875807571,0.718505225840684,-0.0959676202126445,0.1788259329324998,-2.032044735018637,1.872284419065248,0.1411106239849062,0.8570681927661601,-0.1663351599475235,0.3595560272387146,0.1002829263328605,0.2708235021666172,-0.2141926751408965,9.956183450337448,-0.937096871135568,0.3690327796596679,-0.7608406082191984
1.12,0.1808119067594295,-2.006460011577006,1.8706606282255531,0.0066423415739272,0.1189570361847733,0.0550499725887578,0.1062140199194381,0.7235619851885238,-0.1017737247750027,0.1816481454121979,-2.0149033711633138,1.868957715866297,0.1444548919641705,0.8970681933622066,-0.1807594646116585,0.4381312820371066,0.2091766169340508,0.2528379673919889,-0.2903052281179097,9.800997169224502,-0.9308161468177492,0.3673304041805368,-0.7693505556557828
1.14,0.1828844912431614,-1.992669089465729,1.8686650483046805,0.0079583252563318,0.1240362387080312,0.0554993360840532,0.1117109858668752,0.7280269060733797,-0.1080149082323486,0.1844703578918961,-1.9977620073079907,1.8656310126673468,0.1477991599434348,0.937068193958253,-0.1951837692757935,0.4719759635923037,0.2748482973718519,0.2232460442427974,-0.3120591728672954,9.774755167293732,-0.924574898520148,0.3660551920656718,-0.7774317477469505
1.16,0.1851894835612657,-1.9780552436623973,1.8664308914426384,0.0085002670403587,0.1279470243868301,0.055901439170924,0.118479497705776,0.733148569369062,-0.1151052737316965,0.1873761770710758,-1.9796206434377663,1.8619437018517928,0.151143427922699,0.9770681945542994,-0.2096080739399285,0.5529861443608295,0.33842559194504,0.2560831647841155,-0.3545182749673942,9.774755167293732,-0.919345110236677,0.3654322409478397,-0.7838242970107671
1.18,0.1876366349116218,-1.963335256461044,1.8640510007616635,0.0084265139182183,0.1303713418097254,0.0562440861390344,0.1258349675545072,0.7385993926085779,-0.1225486663265043,0.1903656029497371,-1.960479279552641,1.857895783419636,0.1544876959019633,1.0170681951503455,-0.2240323786040634,0.5899544558787557,0.3677734924365627,0.2725411619757922,-0.3721696297403876,9.74753861732188,-0.91519363378506,0.3652870491325057,-0.788608767126461
1.2,0.1902325985154219,-1.9485021426376528,1.8615193550222635,0.0079387397556723,0.1314080946549037,0.0565415118793755,0.1333028126319906,0.744435113935707,-0.1302566335569129,0.1939283832893472,-1.9264052868306156,1.8579235674453385,0.1102056406298256,0.838599394098694,-0.1581601840538793,0.6108132127218916,0.3733922538741677,0.2917860663564586,-0.3853983615204302,9.74753861732188,-0.912402321785842,0.3655685436487479,-0.7915051356822169
1.22,0.1929070778753006,-1.934256389027852,1.859087325230265,0.0085303841483629,0.1293709780663347,0.0568682029655962,0.1476505592441889,0.7542719785877549,-0.1253284680493914,0.1939283832893472,-1.9264052868306156,1.8579235674453385,0.1102056406298256,0.838599394098694,-0.1581601840538793,0.9040306331923732,0.7173873306099171,0.4918432326023902,0.2464082753760754,9.739098393758468,-0.9203909119864035,0.3663720881009768,-0.7828949526132469
1.24,0.1959998944915752,-1.9190902545362665,1.8566198096550384,0.0105036619412119,0.1223507237610891,0.0572481272636031,0.1600752232404589,0.7617286540231327,-0.1217924904619208,0.1939283832893472,-1.9264052868306156,1.8579235674453385,0.1102056406298256,0.838599394098694,-0.1581601840538793,0.7457838518429282,0.6212331998134992,0.3728337717688934,0.1767988793735304,10.512440731994502,-0.9251627673762812,0.3681571811242372,-0.7736572158095624
1.26,0.1992835086587037,-1.9037948528518929,1.854194537292888,0.0127706558376191,0.1122288402963788,0.0575862651145228,0.1671142939254897,0.7673205492847214,-0.1209930277791111,0.1950304396956455,-1.9180192928896285,1.8563419656047997,0.1070797752448892,0.8585993943967172,-0.1652824875993543,0.4512675185149113,0.3519535342515381,0.2795947630794326,0.0399731341404842,10.330015301143249,-0.931964639390468,0.3689590086149399,-0.7631165409332753
1.28,0.2026518663640993,-1.888407463970533,1.85175596102838,0.0145814417194829,0.1008678652885818,0.0578436865647057,0.1689787582931495,0.771292727950759,-0.1228535496799547,0.197234552508242,-1.9012473050076544,1.8531787619237217,0.1008280444750166,0.8985993949927636,-0.1795270946903043,0.2383063809296558,0.0932232183829914,0.1986089333018803,-0.0930260950421792,10.148823776502468,-0.9401177334627971,0.3693674165337028,-0.7515027652670506
1.3,0.2058418913132471,-1.8737269466261808,1.849384587312729,0.0155013135849808,0.0902591388614563,0.0580119659165322,0.166526232138704,0.7739650101002264,-0.1266480437564152,0.1994386653208385,-1.8844753171256807,1.8500155582426443,0.0945763137051439,0.93859939558881,-0.1937717017812543,0.2624602909055756,-0.1226263077222733,0.1336141074733732,-0.1897247038230277,9.993982732611585,-0.9474921735863971,0.369372898588765,-0.741527447126812
1.32,0.2091127606852061,-1.8582283237039008,1.8467936540684895,0.0152175624139966,0.0802448394813332,0.0581101130597869,0.1605063077894021,0.7758759517617309,-0.1323133171743393,0.2013301915949414,-1.8657033292139045,1.8461401242070192,0.0883245829352712,0.9785993961848566,-0.2080163088722043,0.4242243218652978,-0.3009962174650965,0.0955470830752203,-0.2832636708962041,9.870580258691916,-0.9539408262627233,0.3695970692286138,-0.7330234883149639
1.34,0.2122336160801102,-1.8426959018678453,1.844079781504166,0.0133058332474798,0.0720258714373744,0.0581300174331584,0.1517976822713777,0.7774352752902023,-0.1388096968954969,0.2032217178690443,-1.846931341302128,1.8422646901713944,0.0820728521653986,1.018599396780903,-0.2222609159631544,0.5488046049394486,-0.4354312759012199,0.0779661764235717,-0.3248189860578787,9.774200730140365,-0.9592033738302744,0.3703432942919989,-0.7262265025290356
1.36,0.2151532913931284,-1.8271141017445576,1.8412318013864424,0.0101178887787282,0.0661200032462208,0.0581123740477831,0.1405464994832659,0.7810302849474798,-0.1456571003809817,0.2049569508739003,-1.8271593533754509,1.8380331409584956,0.0758211213955259,1.0585993973769494,-0.2365055230541044,0.6826421885959959,-0.5625591394055925,0.1797504828638774,-0.3423701742742396,9.736131458765158,-0.962444810940044,0.3713379881588047,-0.7222759109844493
1.38,0.2176964331563114,-1.8122209340929716,1.838398053467331,0.0070582766087859,0.0632791250305452,0.0581381457630927,0.1277419896421678,0.7864428297362804,-0.1522928539381177,0.2065358906095096,-1.8063873654338725,1.8334454765683228,0.0695693906256532,1.0985993979729958,-0.2507501301450544,0.7702018219801116,-0.6402254920549022,0.27062723944003,-0.3317876778568041,9.725865041160432,-0.964023268969818,0.372463452637548,-0.7205593106484202
1.4,0.2201098814497636,-1.796422251558503,1.835277348696445,0.004303652804166,0.0634508703168135,0.0582260012449605,0.1146329939745281,0.7930982428799148,-0.1594268083835351,0.2240835326384198,-1.7728987926061572,1.830783410770425,0.0890496866402872,0.8864428312263966,-0.1573104451128097,0.8170581337272592,-0.6554497833819873,0.332770657181719,-0.356697722270867,9.728106258779915,-0.9640929599440295,0.3730951611306589,-0.7215834839985693
1.42,0.2223108700380871,-1.7804242857739108,1.832166863407113,0.0040015949693406,0.0651914806064503,0.0584891180084689,0.1063532224730778,0.8057697216586991,-0.1504514160236631,0.2240835326384198,-1.7728987926061572,1.830783410770425,0.0890496866402872,0.8864428312263966,-0.1573104451128097,0.8798844506113521,-0.4139885750725123,0.6335739389392137,0.4487696179935996,9.712284821855064,-0.9680397451156152,0.371818173430346,-0.7203914761606688
1.44,0.2243620785168522,-1.7642032985479037,1.829252524085004,0.0067887425569606,0.0670191013643745,0.058962658054173,0.0992260672011033,0.8153987948393193,-0.1415080480030082,0.2240835326384198,-1.7728987926061572,1.830783410770425,0.0890496866402872,0.8864428312263966,-0.1573104451128097,0.747494521955588,-0.356357763598724,0.4814536590310114,0.4471684010327423,10.574762101150554,-0.9693172104218416,0.3725085967119397,-0.7172419041453908
1.46,0.2261855987987093,-1.7486523381539385,1.826625854463422,0.0104939016282011,0.0686399162576074,0.0594810544801071,0.0931048926592966,0.8209289594601457,-0.1354238043422867,0.2249740295048226,-1.7640343642938934,1.829210306319297,0.081311226039911,0.9064428315244196,-0.158313963347748,0.5125171202694885,-0.3060587270903345,0.2765082310413169,0.3042121830360761,10.574762101150554,-0.9697501894282772,0.3718982750014623,-0.7161146818861295
1.48,0.2279848354137991,-1.7321975394656983,1.8239642254076132,0.0139485665228002,0.0700814192002978,0.059987697657728,0.0871412711135435,0.8243926649927081,-0.1311534902852988,0.2267550232376284,-1.7463055076693654,1.8260640974170408,0.0658343048391588,0.9464428321204662,-0.1603209998176248,0.4055786609974209,-0.2981810772876583,0.1731852766281238,0.2135157028493983,10.42100628020944,-0.9699774700193672,0.3709732191239733,-0.715856597669252
1.5,0.229667788298085,-1.7156850092039595,1.8213678023470703,0.0164109761630227,0.0711703196871441,0.0604138821291097,0.0814321578099688,0.8268962785977165,-0.1287746691836575,0.2285360169704341,-1.7285766510448377,1.8229178885147843,0.0503573836384065,0.9864428327165128,-0.1623280362875016,0.3336197147571228,-0.2854556651787313,0.1251806802504196,0.1189410550820627,10.293598696306615,-0.9700691453090676,0.370263891693139,-0.7159096854900182
1.52,0.2312382220588939,-1.6991302551319425,1.8188023683053105,0.0176846755840995,0.0718765387495655,0.0607440392688796,0.0758543036152376,0.8286963379230309,-0.1278790574693677,0.2295431646432023,-1.7088477943905072,1.8196713277890344,0.0348804624376543,1.026442833312559,-0.1643350727573783,0.2964573803057759,-0.2788927097365626,0.0900029662657175,0.044780585714492,10.1893577639903,-0.9700373830779356,0.3699857247293722,-0.7160466870686922
1.54,0.232627702331992,-1.683375758948941,1.8163784770605316,0.0175644777483878,0.0722058702153272,0.0609532059348401,0.0706414365616801,0.8297936877312123,-0.1273077078709633,0.2305503123159704,-1.689118937736177,1.8164247670632845,0.019403541236902,1.0664428339086056,-0.1663421092272551,0.267883369599428,-0.260643352677873,0.0548674904090717,0.028567479920219,10.102169783213869,-0.9701528019995292,0.3702070344658833,-0.7160049413248266
1.56,0.2339813042407637,-1.6667620634238056,1.813838870283928,0.016058000141311,0.0722654832206596,0.0610681338912075,0.064963104357232,0.8316190382267433,-0.1266783674620554,0.2311705369587197,-1.6683900810669456,1.8131280304257875,0.0039266200361497,1.106442834504652,-0.1683491456971319,0.2998809363976514,-0.2839166102224087,0.0912675247765504,0.0314670204453942,10.102169783213869,-0.9704560905993688,0.371230613090063,-0.7153684257087767
1.58,0.2352187257310697,-1.6501009697876576,1.8113134953292136,0.0134769046732134,0.0721457963309874,0.0611036765141973,0.059030171718958,0.8346355142575256,-0.1258785100189453,0.2314038385714502,-1.646661224382813,1.8097811178765435,-0.0115503011646024,1.1464428351006983,-0.1703561821670086,0.3351812541889777,-0.2966466319136957,0.1508238015391128,0.0399928721555073,10.10438504304784,-0.9710518284552132,0.3729038287275221,-0.7140809254792163
1.6,0.2363340240838391,-1.6333557194640926,1.808806646873789,0.010666054671252,0.0719507939949232,0.0611222940114576,0.0527852557204518,0.839746952611744,-0.124843221751854,0.2381702343170176,-1.6083691940747813,1.8050195698282665,0.0406192673859626,0.9346355157476416,-0.1340269222391253,0.406809536740942,-0.3122457999253137,0.2555719177109228,0.0517644133545637,10.123519911274345,-0.9720440346650954,0.3749349413475659,-0.7119039582317905
1.62,0.2372242023453495,-1.6172830653247938,1.8064814680238048,0.0103351507723084,0.0733840915551821,0.0613176249618509,0.0417965530890382,0.850866395637165,-0.1199537238069447,0.2381702343170176,-1.6083691940747813,1.8050195698282665,0.0406192673859626,0.9346355157476416,-0.1340269222391253,0.818994488489531,-0.5494351315706785,0.5559721512710503,0.2444748972454641,10.123519911274345,-0.9719207200537848,0.3755871048943108,-0.7119787462698188
1.64,0.2379619691816182,-1.600179599807817,1.8041298358449027,0.0128196795737389,0.0775076314467985,0.0617453437306654,0.0329178796212212,0.8587583703809493,-0.1155167813400844,0.2381702343170176,-1.6083691940747813,1.8050195698282665,0.0406192673859626,0.9346355157476416,-0.1340269222391253,0.6340358159419589,-0.4439336733908502,0.3945987371892112,0.2218471233430156,10.397019025006555,-0.97139700607921,0.3751922204352452,-0.7130154119265473
1.66,0.2385527926393504,-1.5829507799113716,1.801851676219658,0.0163591147988311,0.0830680578068807,0.062270696277073,0.0268887810039318,0.8635221672462875,-0.1125932685447027,0.2385764269908772,-1.599022838917305,1.8036793006058751,0.0369370865193635,0.9546355160456648,-0.1356566046831613,0.4110678708436348,-0.3014549308644701,0.2381898432669116,0.1461756397690833,10.317223375705908,-0.9691053911030304,0.3740128414864862,-0.7166939792878
1.68,0.2390518240928099,-1.5656537923156642,1.799615034159837,0.0194674018289823,0.0890689899787422,0.0627828668295415,0.0234796059218927,0.8661575787420577,-0.1112218592959387,0.2393888123385965,-1.580330128602352,1.8009987621610926,0.0295727247861654,0.9946355166417112,-0.1389159695712333,0.2261008172233659,-0.1704587541019566,0.1317705747885089,0.0685704624381999,10.219901120889515,-0.9657653048123074,0.3724246554652368,-0.7222443069648395
1.7,0.2394846110583428,-1.5491816564423178,1.7975046110739312,0.021557939015565,0.0944925833843845,0.0632099249345685,0.0223069712574428,0.8678923127572487,-0.1110057387892178,0.2402011976863158,-1.561637418287399,1.79831822371631,0.0222083630529672,1.0346355172377577,-0.1421753344593053,0.1052506797264915,-0.0586317332224939,0.0867367007595487,0.0108060253360471,10.138032298554208,-0.961958589840918,0.3711727137737257,-0.7281234848807903
1.72,0.2399338372821057,-1.5318117216843072,1.7952795555967018,0.0226844375031069,0.0994304289763202,0.0635686052594455,0.0227373485934032,0.8691275644575046,-0.1115535854452312,0.2406453649473751,-1.540944707942644,1.795474717027124,0.014844001319769,1.074635517833804,-0.1454346993473773,0.0709085215753143,0.0215188667980197,0.0617625850127978,-0.0273923328006728,10.079977797316133,-0.9582320153505371,0.3705722303726452,-0.7333510503467002
1.74,0.2404069742391857,-1.514424227969051,1.793038967372907,0.0223311424042277,0.1032555294194545,0.0637939954904701,0.0244989357544289,0.8697922694233349,-0.1124848296036473,0.2410895322084345,-1.5202519975978888,1.7926312103379378,0.0074796395865709,1.1146355184298506,-0.1486940642354494,0.105026635908164,0.0880793580512887,0.0332352482915132,-0.0465622079208062,10.03330163069677,-0.9550063403092154,0.3708588480951326,-0.7373664410403873
1.76,0.2409231363143531,-1.4970133930755014,1.7907797845502726,0.0205945767237304,0.1058593688192749,0.0638875756036715,0.0269458495773161,0.8713583514478742,-0.1133922852056351,0.2413495904261638,-1.4985592872382325,1.7897062195265498,0.0001152778533727,1.154635519025897,-0.1519534291235214,0.1521797936143332,0.1223456911443572,0.0783041012269669,-0.045372780099389,10.03330163069677,-0.9527621959074274,0.3720083045309536,-0.739616101947154
1.78,0.241461633952042,-1.4804318542074704,1.7886188516909265,0.0180664820290865,0.1072329899338405,0.0638858243762698,0.0295116100891394,0.874202225158865,-0.114027684726893,0.2414255396005633,-1.4758665768636752,1.7866997445929602,-0.0072490838798254,1.1946355196219434,-0.1552127940115934,0.1941293205553404,0.128288025591166,0.1421936855495409,-0.0317699760628918,10.039700511232695,-0.9514128707947608,0.3739671988230305,-0.7402346239446826
1.8,0.2420791713036863,-1.4628976402464784,1.7863338163975555,0.0153122088359749,0.1076522698111695,0.0638549253457739,0.0320271592102001,0.8790823072207659,-0.1144306887964245,0.242937214456499,-1.4367217429495271,1.7829174674545816,0.0029147565795941,0.9742022266489812,-0.1311393326010099,0.2752526139358835,0.1257774560530366,0.2440041030950412,-0.0201502034765765,10.054520295465409,-0.9512309489407554,0.3764100041496678,-0.7388856655159407
1.82,0.2427516479978348,-1.445196458091302,1.784076512078279,0.0148262421589904,0.1069196104578933,0.0639614071290175,0.0350989693066745,0.8901766093678511,-0.1111036175872668,0.242937214456499,-1.4367217429495271,1.7829174674545816,0.0029147565795941,0.9742022266489812,-0.1311393326010099,0.5991430551847143,0.1535905048237192,0.5547151073542644,0.166353560457886,10.291835759941932,-0.9547280281151408,0.3782436589058064,-0.7334116111264366
1.84,0.2434863242123758,-1.4273079483182218,1.7818809913778313,0.0171768640931059,0.1047513451580243,0.0642331984854397,0.0380928699942977,0.8979560677503045,-0.1086193534737162,0.242937214456499,-1.4367217429495271,1.7829174674545816,0.0029147565795941,0.9742022266489812,-0.1311393326010099,0.4348993626045819,0.1496950343811583,0.3889729191226654,0.1242132056775278,10.291835759941932,-0.9572320114683718,0.3784474262044286,-0.7291791597277267
1.86,0.2442327870222067,-1.4101979572638528,1.7798252576057911,0.0204626012756159,0.1013977170205955,0.0645228372884575,0.04021964376179,0.9024789181666326,-0.1078818706490836,0.2429663620222949,-1.4269797206830372,1.7816060741285715,-0.0024046141223149,0.9942022269470044,-0.1345616621758333,0.2526025705688746,0.1063386883746148,0.226142520816408,0.0368741412316311,10.10804148438001,-0.9606649681462248,0.3779674030329657,-0.7239136213958361
1.88,0.245050066560953,-1.3921237573004068,1.7776615246074354,0.0236038417365244,0.0966748470255348,0.0647545670997063,0.0412156992188342,0.904806002467436,-0.1085831400925823,0.2430246571538868,-1.4074956761500577,1.7789832874765512,-0.013043355526133,1.034202227543051,-0.14140632132548,0.1313318949164499,0.0498027728522084,0.1163542150401708,-0.035063472174935,10.10804148438001,-0.9644815011147736,0.3771067884331226,-0.7185923526611991
1.9,0.2458666183478325,-1.3740158697623794,1.7754699907003022,0.0258526389612107,0.0911286338858618,0.0648789080712345,0.0401148959719961,0.9060439225171114,-0.1105734257167627,0.2430829522854787,-1.388011631617078,1.7763605008245311,-0.0236820969299511,1.0742022281390973,-0.1482509804751268,0.1294744251141587,-0.0550401623419016,0.0618960024837689,-0.0995142812090219,10.016726465006286,-0.9678946574504168,0.3763603184628277,-0.7138032178399889
1.92,0.2466359029874107,-1.3558916979671551,1.773228391500291,0.0270231945959075,0.0854762399300648,0.0649060047323017,0.0366984750989738,0.9064197735634668,-0.1135141791852728,0.2426093103468797,-1.366527587054296,1.7733954812150283,-0.0343208383337693,1.1142022287351436,-0.1550956396247735,0.226170436580597,-0.1708210436511179,0.0187925523177701,-0.147037673425502,9.891896324687876,-0.9715861371290384,0.3757817424627577,-0.7088571376710529
1.94,0.2472829081456225,-1.338676321340081,1.771038793517017,0.0267849791371491,0.0806049274635824,0.0648424096165926,0.0314552867222855,0.9059187749815356,-0.1168098948454153,0.2421356684082806,-1.345043542491514,1.770430461605526,-0.0449595797375874,1.1542022293311902,-0.1619402987744203,0.3106596435210292,-0.262159418834415,-0.0250499290965655,-0.1647857830071264,9.891896324687876,-0.9745349389666202,0.3756025618007722,-0.7049330940863597
1.96,0.2478349249114697,-1.3205590703122367,1.7686646305697349,0.025121162366867,0.0766500710363322,0.0647095250467654,0.0238733045263192,0.9059293119246176,-0.1204374324823572,0.2413960579345861,-1.322559497913831,1.7672943255172822,-0.0555983211414055,1.1942022299272366,-0.168784957924067,0.420254667893616,-0.3790991097983149,0.0005268471541086,-0.1813768818470944,9.864897614340409,-0.9764769932235916,0.3759349378379634,-0.7023697215627568
1.98,0.2482140966242444,-1.302431137279132,1.7662184792738376,0.0223639770434983,0.0746578038677347,0.0645556914598729,0.014408158286914,0.9071561486775775,-0.1239907483718784,0.2403904789257962,-1.2990754533212467,1.763987072950297,-0.0662370625452237,1.234202230523283,-0.1756296170737138,0.5092155132222064,-0.4732573119702563,0.0613418376479935,-0.1776657944760604,9.874087479041918,-0.9773118063866704,0.3765811138414834,-0.7016124430279261
2.0,0.2484017709191361,-1.284254523047837,1.763703941674172,0.0194230308062602,0.0748959843503175,0.0644422617664498,0.0051169602983201,0.9104655816337572,-0.1272786646429947,0.2489345045385901,-1.257073329845253,1.7600189418552437,-0.0141350103919656,1.0071561501676936,-0.1418113841823728,0.5198295392736224,-0.4645598994296965,0.165471647808979,-0.1643958135558142,9.874087479041918,-0.97788381079437,0.3775734922035693,-0.7013168406693593
2.02,0.2484052772543611,-1.2668592319612717,1.7613186379273855,0.0187955464336997,0.0771145288037492,0.0645213364147479,-0.0038859910551724,0.9195209701430253,-0.1236408611089967,0.2489345045385901,-1.257073329845253,1.7600189418552437,-0.0141350103919656,1.0071561501676936,-0.1418113841823728,0.6638652135017818,-0.4501475676746327,0.4527694254634007,0.181890176699899,10.301330909571334,-0.977830433575361,0.37724857037317,-0.703035833506004
2.04,0.2482503236809035,-1.248403623839592,1.758877196386783,0.0206568880046721,0.0811534161451285,0.0648096178982511,-0.0108720976519405,0.925462207321983,-0.1207812390139412,0.2489345045385901,-1.257073329845253,1.7600189418552437,-0.0141350103919656,1.0071561501676936,-0.1418113841823728,0.4803161019697524,-0.3493053298384013,0.2970618589478946,0.1429811047527762,10.301330909571334,-0.976962655558084,0.3770635306551417,-0.7044569222154994
2.06,0.2479802720331846,-1.2298513383886474,1.7564712921470749,0.0235678025950101,0.0859494761797344,0.0651894463982172,-0.015592026140091,0.9292768485322244,-0.1199555788087673,0.2487931544346705,-1.247001768343576,1.75860082801342,-0.0198436441277415,1.0271561504657167,-0.1453755113444717,0.3062308249937264,-0.235996424407528,0.1907320605120721,0.0412830102586941,10.090240035645364,-0.975000104324906,0.3759296333801013,-0.7079109732737142
2.08,0.247656415279541,-1.2121803599054122,1.754183632658065,0.0261644844914509,0.0905229806185781,0.065543744576553,-0.0181858879781732,0.9308029627857596,-0.1208976942441457,0.2485104542268312,-1.2268586453402222,1.7557646003297724,-0.0312609115992934,1.067156151061763,-0.1525037656686695,0.1576762937435397,-0.1296930919041059,0.0763057126767496,-0.0471057717689189,10.090240035645364,-0.9719395241532548,0.3742517028220534,-0.713191448731387
2.1,0.2472787358132036,-1.1935587498431472,1.7517419716403375,0.0280723328161056,0.0948544447951172,0.0658489960211927,-0.0193844222912854,0.9314520294202754,-0.1232861049030401,0.2482277540189919,-1.2067155223368684,1.752928372646125,-0.0426781790708453,1.1071561516578097,-0.1596320199928673,0.1374979769966623,-0.0599267156556126,0.0324533317257957,-0.1194205329447223,9.993690370254626,-0.9685106812877828,0.3727485277927766,-0.7187967809802217
2.12,0.2468902964642744,-1.174930903607555,1.749240773914294,0.0288296254281047,0.0983609395976338,0.0660491440967488,-0.0193874051692526,0.9314199705824178,-0.1267613875555131,0.2473741904375749,-1.1845723993037125,1.7497357322462677,-0.0540954465423972,1.147156152253856,-0.166760274317065,0.1737715898904734,-0.0001491438983593,-0.0016029418928809,-0.1737641326236473,9.921004032612473,-0.9651770952210096,0.3717665608755625,-0.7238989832008018
2.14,0.2465118408576566,-1.156310758362702,1.746664819261256,0.0280379941281685,0.10084173153303,0.0661066198838157,-0.0185367284169849,0.930835661332394,-0.1306620833080585,0.246520626856158,-1.162429276270556,1.7465430918464104,-0.0655127140139491,1.1871561528499026,-0.1738885286412628,0.2017454806831962,0.0425338376133845,-0.0292154625011809,-0.1950347876272698,9.871497421078857,-0.9624063997829928,0.3715752282122182,-0.7278219499117284
2.16,0.2461710163541988,-1.1386225778423489,1.7441458696440972,0.0259429882945625,0.1022409775756583,0.0660353654361538,-0.0174605217644031,0.9312016365269836,-0.1342986356832186,0.2453816315879523,-1.1392861532224987,1.743172245088448,-0.076929981485501,1.227156153445949,-0.1810167829654606,0.1905037517963815,0.0538103326290917,0.0182987597294792,-0.1818276187580056,9.860087014174496,-0.9602323422972966,0.3723415807261129,-0.730421026835762
2.18,0.2458333632103941,-1.119977281909084,1.7414218298724955,0.0229237299549891,0.1028133773751008,0.0658769595240962,-0.0164394911234416,0.9335564620144128,-0.1379012679739382,0.2439572046329578,-1.1151430301595402,1.7396231919723808,-0.0883472489570529,1.267156154041995,-0.1881450372896583,0.2211711219178725,0.0510515320480733,0.1177412743714578,-0.1801316145359832,9.868167057262326,-0.9590485993864204,0.3738730332428874,-0.7312741581000239
2.2,0.2455130589021013,-1.1012631014927394,1.7386292908338925,0.0200462109962296,0.1026118601704905,0.0657102338325504,-0.0157111448259883,0.9377048667321488,-0.1411597770913631,0.245011388654222,-1.0732994588083635,1.7345267664737989,-0.0506181765203513,1.033556463504529,-0.128463794483104,0.2662594209576899,0.0364173148726668,0.2074202358868015,-0.1629254558712448,9.881315561859992,-0.9588114769105156,0.3755882021347636,-0.7306428041033619
2.22,0.2452307723238243,-1.0833451363839717,1.73601002773195,0.019583692128748,0.1016512161280429,0.0656938288045261,-0.0140769840915399,0.9472565010704606,-0.1343918102928164,0.245011388654222,-1.0732994588083635,1.7345267664737989,-0.0506181765203513,1.033556463504529,-0.128463794483104,0.5909940237114445,0.0817080367224184,0.4775817169155816,0.3383983399273357,9.90021372125466,-0.9613713282680276,0.3757012659836292,-0.7282465597177502
2.24,0.2449673689904838,-1.0643272710569234,1.7333964601963714,0.0217821210527527,0.0996705621798145,0.0658353587695238,-0.0124303825210618,0.9538722334464254,-0.1273686597935543,0.245011388654222,-1.0732994588083635,1.7345267664737989,-0.0506181765203513,1.033556463504529,-0.128463794483104,0.4893972173438871,0.0823300785239068,0.33078661879824,0.3511575249631068,10.509224237266608,-0.9653576088888868,0.3766865727962828,-0.7214891827085096
2.26,0.2447317520515007,-1.0452072291667858,1.7309103854475811,0.0251267815052702,0.0966668102811822,0.0660160826448637,-0.0113103887985998,0.9575032801318925,-0.1216399897668143,0.2445052068890185,-1.0629638941733182,1.7332421285289676,-0.0574539135997333,1.053556463802552,-0.1265762997849372,0.3437169847624061,0.0559996861230952,0.1815523342733493,0.2864335013369995,10.371520483720817,-0.96935789700283,0.3766874776402298,-0.7152765267333391
2.28,0.2445095967225369,-1.026045950216918,1.7285235921620237,0.0281042061019431,0.0926947911910174,0.0661240960384854,-0.0111182078986353,0.958644941970769,-0.1172977209747476,0.2434928433586114,-1.0422927649032276,1.7306728526393056,-0.0711253877584972,1.0935564643985989,-0.1228013103886035,0.2246977053466192,0.0096090449982285,0.0570830919438325,0.2171134396033329,10.371520483720817,-0.9735635764490002,0.3762668602762266,-0.7091736856678599
2.3000000000000003,0.244289337910443,-1.0078334429362952,1.7263271547945105,0.0300506225057034,0.0882011925584306,0.0661256618993883,-0.0122326474064406,0.9586720113579358,-0.1140992306244201,0.2424804798282044,-1.0216216356331371,1.7281035767496435,-0.084796861917261,1.133556464994645,-0.1190263209922698,0.1693594453331248,-0.0557219753902646,0.0013534693583394,0.1599245175163785,10.291835022931991,-0.977897050137542,0.3760358184831018,-0.7028870756127682
2.32,0.2440177994118881,-0.9886696973435672,1.7240749982746515,0.0309297777387049,0.0830298402939294,0.0660181731353097,-0.0150550266220625,0.957819249774175,-0.1112950827012058,0.2407845425898592,-0.9989505063332442,1.7257230503297982,-0.0984683360760249,1.1735564655906914,-0.1152513315959361,0.2034469975864712,-0.141118960781096,-0.0426380791880398,0.1402073961607144,10.232316614637057,-0.982246972285481,0.3762422303736523,-0.696395467871722
2.34,0.24366917091074,-0.9695331308437544,1.7218784483688914,0.030157946622398,0.077890033118866,0.0657924114377545,-0.0198415882316675,0.9561432240342276,-0.1084768492311262,0.239088605351514,-0.9762793770333512,1.723342523909953,-0.1121398102347888,1.213556466186738,-0.1114763421996024,0.290097717223817,-0.2393280804802519,-0.0838012869973703,0.1409116735039794,10.196338543923956,-0.9861198399440404,0.3770410607199721,-0.6903622010192303
2.36,0.2432277099084524,-0.9513767319582956,1.7198475422253423,0.027945523211568,0.073639045919346,0.0655011995460604,-0.0265098739332101,0.9552685322148566,-0.1054311251541247,0.2370508812591996,-0.9526082477185572,1.7210563722250158,-0.1258112843935527,1.2535564667827843,-0.1077013528032687,0.369146160516053,-0.3334142850771265,-0.0437345909685471,0.152286203850073,10.221875713402367,-0.989725242879899,0.3786078756257129,-0.6843893669708898
2.38,0.2426049048336586,-0.9322629496289644,1.7177776871689312,0.024694412915188,0.070544786218502,0.0651827370639827,-0.035562207959983,0.9564214075367514,-0.101681753341902,0.2346713703129162,-0.927937118388862,1.718864595274987,-0.1394827585523166,1.293556467378831,-0.103926363406935,0.4932840505895037,-0.4526167013386463,0.0576437660947393,0.187468590611136,10.221875713402367,-0.9928075584005416,0.3806897548540719,-0.6790929316070679
2.4,0.241784553925163,-0.9131040448062958,1.7157886162922675,0.0215284650862958,0.0695051734124643,0.0649320263774713,-0.0458481604711337,0.9594159439525876,-0.0973805465798138,0.2408267944356595,-0.8844418792521269,1.7126935995018362,-0.0722542386878463,1.0564214090268675,-0.0799149044797308,0.577209769099698,-0.5142976255575373,0.1497268207918067,0.215060338104412,10.254302460792132,-0.995404249388576,0.3828447821778617,-0.674697743462477
2.42,0.2407441294089178,-0.8938097615876553,1.7138967982086457,0.0209624233058365,0.0709238818248285,0.0649181883331991,-0.0572105304532861,0.9687878081236626,-0.0920144328688443,0.2408267944356595,-0.8844418792521269,1.7126935995018362,-0.0722542386878463,1.0564214090268675,-0.0799149044797308,0.7837896178367195,-0.5681184991076189,0.4685932085537525,0.2683056855484741,10.27991844398457,-0.9969009725962344,0.3838219063704862,-0.6727011361461391
2.44,0.2395697099367398,-0.8753461557461849,1.712203153097112,0.0229933785874868,0.0741313356738699,0.0651228009397307,-0.0656040133162474,0.974200168105798,-0.0865254187612016,0.2408267944356595,-0.8844418792521269,1.7126935995018362,-0.0722542386878463,1.0564214090268675,-0.0799149044797308,0.5698102118708998,-0.4196741431480629,0.2706179991067647,0.2744507053821322,10.33859971655056,-0.9975462569158668,0.3835953994980519,-0.6725546674524475
2.46,0.2381863428296453,-0.8558272317452223,1.7105310144902508,0.0261656585220716,0.0784404982819442,0.0654365952467393,-0.0720771719450369,0.9771521063573618,-0.0809974728950682,0.240104252048781,-0.8738776651618583,1.7118944504570388,-0.079592644833419,1.0764214093248907,-0.0755615347072966,0.4504828175785938,-0.3236579314394742,0.1475969125781961,0.2763972933066703,10.320688616090592,-0.9970014802451896,0.3826439913919932,-0.6744098063818066
2.48,0.2366971863536785,-0.8362780162038419,1.7089635786977833,0.0289406919622297,0.0829133984327082,0.0657343183313187,-0.0764232281653068,0.977855992178036,-0.0760237779784161,0.2386591672750241,-0.8527492369813209,1.7102961523674445,-0.0942694571245643,1.1164214099209373,-0.0668547951624281,0.3321193348866659,-0.2173028110134985,0.0351942910337133,0.2486847458326051,10.289887508133688,-0.9956877232749038,0.3815957116923196,-0.6773581497862023
2.5,0.2352189831263016,-0.817703388275819,1.707562922799497,0.0306641456422124,0.0867860460558574,0.0659471385429484,-0.0789474928491452,0.9775967152634668,-0.071663032278432,0.2372140825012672,-0.8316208088007835,1.7086978542778497,-0.1089462694157096,1.1564214105169837,-0.0581480556175597,0.2522659299847686,-0.1262132341919193,-0.0129638457284642,0.2180372849992048,10.289887508133688,-0.9940652572105296,0.3808474732959243,-0.6804903606748705
2.52,0.2336243963167041,-0.7981627909241213,1.7061769976345125,0.031217396076528,0.0901066015102436,0.066060901701186,-0.0803633482782793,0.9766166437491584,-0.0671619880514604,0.235035157112953,-0.8084923805904438,1.7075348931654986,-0.1236230817068549,1.19642141111303,-0.0494413160726912,0.2409594670402134,-0.070792771456702,-0.0490035757154228,0.2250522113485795,10.27141432101962,-0.992674303957752,0.3808300644903988,-0.6827277812991424
2.54,0.2320113230686833,-0.7786469701924802,1.704882288489493,0.0300895936444024,0.0924449615568561,0.0660247971853022,-0.0809081171838515,0.975192368590076,-0.0625227005509264,0.2328562317246388,-0.7853639523801041,1.7063719320531474,-0.1382998939980003,1.2364214117090766,-0.0407345765278227,0.2441737158350013,-0.0272384452786107,-0.0712137579541249,0.2319643750266997,10.271397397837063,-0.9918314775127026,0.3818417228904928,-0.6834922006485629
2.56,0.2303910329400621,-0.7591478198136629,1.7036857279420368,0.0273645719788274,0.0937559687371967,0.0658445096847694,-0.0812003127167845,0.9750779292921262,-0.0573567543597496,0.230310386029046,-0.7612355241548633,1.7054266394294175,-0.1529767062891456,1.276421412305123,-0.0320278369829542,0.2587734271158616,-0.0146097766466513,-0.0057219648974815,0.2582973095588397,10.311140295169023,-0.9918109234080056,0.3838049816290172,-0.6824926893806147
2.58,0.2288449239253871,-0.7405993858020101,1.7026520778448335,0.0242360479431613,0.0941603305197681,0.0656135174029645,-0.0816225509960347,0.9774623822234344,-0.0517019283680429,0.2273976200261745,-0.7361070959147213,1.70469901529431,-0.1676535185802909,1.316421412901169,-0.0233210974380858,0.3075750231348849,-0.0211119139625105,0.1192226465654089,0.2827412995853349,10.311140295169023,-0.9928312739252716,0.3866055647922199,-0.6794236741490471
2.6,0.2272050499882273,-0.7210088422538102,1.7016872824812277,0.0212477997030245,0.0938647800044085,0.0653782027947072,-0.082414190095509,0.9814265097098058,-0.0450400872739381,0.2247637963755854,-0.6917262666908384,1.7000669814264315,-0.1019136652220183,1.0398406658135126,-0.0448970700336804,0.3896188071536269,-0.0395819549737157,0.1982063743185713,0.3330920547052425,10.351129931981632,-0.9947200357564152,0.3895489382643862,-0.6749088695374176
2.62,0.2254863684148527,-0.7011407884153562,1.7008072335038316,0.0249772402378,0.0942928916027487,0.0656271328590181,-0.0891492605333477,1.0026020988721394,-0.043623025137431,0.2247637963755854,-0.6917262666908384,1.7000669814264315,-0.1019136652220183,1.0398406658135126,-0.0448970700336804,1.113300066551363,-0.3367535218919332,1.0587794581166765,0.0708531068253571,10.388812697608955,-0.995646730097943,0.3901678736999507,-0.6717881101411072
2.64,0.223744754288295,-0.6820103484485827,1.6999840551900156,0.0351442324194724,0.096345962798239,0.0663637207407522,-0.0935555932524369,1.009037352358072,-0.0430780368012117,0.2247637963755854,-0.6917262666908384,1.7000669814264315,-0.1019136652220183,1.0398406658135126,-0.0448970700336804,0.3909132504346049,-0.2203166359544588,0.3217626742966328,0.0272494168109621,10.029975841341184,-0.9959920463974212,0.3850906197637889,-0.6743608054220881
