t,x,y,z,roll,pitch,yaw,v_x,v_y,v_z,ref_x,ref_y,ref_z,ref_v_x,ref_v_y,ref_v_z,a_com,a_x,a_y,a_z,thrust,wind_x,wind_y,wind_z
0.0,0.7148836611911795,1.651537740063299,2.087869733078053,0.0295631134109014,0.099702970652561,0.042038695477205,0.0010676171166034,-0.0082818827526779,-0.0007289997692437,0.7149096568600667,1.6513668517753213,2.087849450164758,-0.0990792493051206,-0.1063974648152107,-0.1006910007730907,0.4191086640130643,0.0533808558301747,-0.4140941376338961,-0.0364499884621881,10.261154605676891,-0.9396226909428294,0.2514989643576874,-0.8827075628820668
0.02,0.715081340550009,1.6516629992930771,2.0877545326923284,0.036278957120756,0.0931966565475739,0.0422801791797991,0.0172300741382247,0.0150845122641144,-0.0108790842928942,0.7149096568600667,1.6513668517753213,2.087849450164758,-0.0990792493051206,-0.1063974648152107,-0.1006910007730907,1.5085072496459713,0.8081228510810609,1.168319750839618,-0.5075042261825248,10.261154605676891,-0.9527211718007336,0.2514798236775731,-0.8647050266235187
0.04,0.7155106572215532,1.6519818938798665,2.087379879911192,0.0494795710905339,0.0773367670783599,0.0424653406039614,0.0258096996967428,0.0166563289385508,-0.0279864164937346,0.7149096568600667,1.6513668517753213,2.087849450164758,-0.0990792493051206,-0.1063974648152107,-0.1006910007730907,0.9601320188030452,0.428981277925909,0.0785908337218217,-0.8553666100420182,9.200199344325938,-0.956161025347445,0.2408270574132963,-0.8617444162879012
0.06,0.7160257861398057,1.6522650950116202,2.086611639616464,0.063946645590759,0.0547633508809685,0.042076769946816,0.0241751150906438,0.0111682120171841,-0.0480091396254045,0.7139188643670155,1.6503028771271693,2.0868425401570274,-0.1190792496031438,-0.1263974651132339,-0.1206910010711139,1.0412741423186782,-0.0817292303049535,-0.2744058460683375,-1.0011361565834982,9.200199344325938,-0.9666633788491368,0.2263266107452429,-0.855481288891652
0.08,0.7164038930613867,1.6523959446611145,2.085433854552228,0.077898234531653,0.030039947209782,0.0411126537999647,0.0129291559426027,0.0018408566689713,-0.068832040647841,0.7119372793809131,1.648174927830865,2.0848287201415654,-0.1590792501991903,-0.1663974657092804,-0.1606910016671604,1.271872990849938,-0.5622979574020519,-0.4663677674106376,-1.0411450511218234,9.087555457840608,-0.9814101683261344,0.2096350650238829,-0.847616077644815
0.1,0.7164596353991785,1.6523067556384334,2.08383266602277,0.0912033045616923,0.0062070769245729,0.0397748224516576,-0.0071493314548618,-0.0106124820646219,-0.0903242783893421,0.7099556943948107,1.6460469785345608,2.082814900126104,-0.1990792507952367,-0.2063974663053268,-0.2006910022632068,1.596987464666649,-1.0039243698732323,-0.6226669366796649,-1.0746118870750534,9.068951890634253,-0.9962325752992603,0.1924219429801081,-0.8411577845777792
0.12,0.7160729494106108,1.651964090151354,2.081907660587852,0.1032600665359097,-0.0136520383732617,0.0383877141065462,-0.0326127961359319,-0.0250920174733229,-0.1113006850012723,0.7059741093789059,1.6419190292084542,2.07880108008084,-0.2390792513912832,-0.2463974669013733,-0.2406910028592533,1.8014262499232083,-1.2731732340535054,-0.7239767704350484,-1.0488203305965087,9.0847217493897,-1.011828478935824,0.1738571657529387,-0.8352482624172559
0.14,0.7150964676492876,1.6512796149025224,2.079441248515623,0.1153598992479417,-0.0305855859481679,0.0370135351716046,-0.0637753538732366,-0.0428790511914554,-0.1343157963727528,0.7019925243630012,1.6377910798823478,2.0747872600355755,-0.2790792519873297,-0.2863974674974198,-0.2806910034552998,2.131419084003942,-1.5581278868652324,-0.8893516859066253,-1.1507555685740272,9.116657794830644,-1.0255739925236056,0.1546831689208292,-0.8325177174059356
0.16,0.7134570240613204,1.6502127478379125,2.0765080466288643,0.1268670916669592,-0.0428864828941206,0.0359133377452546,-0.0985376029416397,-0.0631870003125087,-0.157891048096756,0.6970109393321953,1.6326631305413402,2.06977343997541,-0.3190792525833761,-0.3263974680934662,-0.3206910040513462,2.332712611771485,-1.7381124534201555,-1.0153974560526648,-1.1787625862001592,9.123943810498986,-1.036176198160263,0.1353710299795426,-0.83389674077131
0.18,0.7110895917304881,1.6487093776564383,2.0730990635162936,0.1376337665929083,-0.0499231480231356,0.0352866534885457,-0.1363423634435684,-0.0862694861824029,-0.1818579461090085,0.6910293542864882,1.6265351811854312,2.063759619900344,-0.3590792531794225,-0.3663974686895126,-0.3606910046473926,2.5181408175833635,-1.8902380250964343,-1.1541242934947098,-1.1983449006126232,9.15797376466071,-1.0426613863845726,0.1195871250030501,-0.8366497077382161
0.2,0.7081265681275061,1.646807764225485,2.0694117898983517,0.1463001744198766,-0.0511873088115202,0.035265754588557,-0.1730174492186578,-0.1122783573389077,-0.2049286529906023,0.7042724735583097,1.6443959033473183,2.0640061662108438,-0.2363423649336845,-0.186269487672519,-0.2818579475991246,2.5267473218855168,-1.8337542887544689,-1.3004435578252411,-1.1535353440796912,9.205868787024883,-1.047433499657121,0.1037315717564547,-0.8425489273756551
0.22,0.704236007016849,1.6440918613630224,2.065242390374002,0.149094742630945,-0.0463942406019601,0.0356887144887878,-0.2135539510385567,-0.1561369354174036,-0.2092553761689121,0.7042724735583097,1.6443959033473183,2.0640061662108438,-0.2363423649336845,-0.186269487672519,-0.2818579475991246,2.9939536504110698,-2.026825090994945,-2.192928903924793,-0.2163361589154921,9.232101523696656,-1.0530519842031487,0.0919923955244992,-0.8485754184904112
0.24,0.6995844022919239,1.640572887796881,2.0610287490352666,0.1447439626354064,-0.0360666556342023,0.0364156167522637,-0.2488676946758853,-0.1921349811059284,-0.2118163014894916,0.7042724735583097,1.6443959033473183,2.0640061662108438,-0.2363423649336845,-0.186269487672519,-0.2818579475991246,2.5246178530490866,-1.7656871818664308,-1.79990228442624,-0.1280462660289763,10.417250288577634,-1.052252932140935,0.0942790039305374,-0.851402071930456
0.26,0.6945656586234946,1.6366393564897652,2.056952137655986,0.138011346353971,-0.0234691288912159,0.0372590150951456,-0.2771425607805153,-0.2195383736462464,-0.2170101565462635,0.7019090499089728,1.6425332084705933,2.061187586734852,-0.2563423652317078,-0.2062694879705422,-0.3018579478971478,1.9858185379738675,-1.413743305231499,-1.3701696270159034,-0.2596927528385917,10.417250288577634,-1.0464993273037666,0.0978283052994613,-0.8603163088134699
0.28,0.6887589147921723,1.6319910187218356,2.0525244503489084,0.1304774283413033,-0.0091582725783318,0.0381554922742438,-0.3015668027936951,-0.243621145176954,-0.2256294546941606,0.6971822026102992,1.6388078187171429,2.0555504277828693,-0.2963423658277542,-0.2462694885665887,-0.3418579484931943,1.7683437046294024,-1.2212121006589889,-1.2041385765353767,-0.4309649073948554,10.134024796941958,-1.0379205586884417,0.1016025260930016,-0.8727070168504717
0.3,0.6825146317809845,1.6268955466261277,2.0478869624193377,0.1234273891401924,0.0048023758181318,0.0389300658853027,-0.3213029349336171,-0.2646385973935323,-0.2378578525490353,0.6924553553116255,1.6350824289636925,2.049913268830887,-0.3363423664238006,-0.2862694891626351,-0.3818579490892407,1.5658719005858397,-0.9868066069961018,-1.050872610828918,-0.6114198927437378,9.878160608407596,-1.028041997218754,0.1050859819006156,-0.8861286439564531
0.32,0.6759182164273494,1.6214058628163268,2.0429661873932634,0.1172317222978307,0.0174068353430723,0.0395025575729235,-0.3372055143547913,-0.2833709516010673,-0.2536412462654674,0.6857285079831494,1.6293570391804395,2.042276109849102,-0.3763423670198471,-0.3262694897586816,-0.4218579496852871,1.4602299849777227,-0.7951289710587117,-0.9366177103767498,-0.7891696858216043,9.652648862418571,-1.0187179967836375,0.1078132909781847,-0.8984693081642098
0.34,0.6693861046602676,1.615859562372675,2.037979021673314,0.1122417836640085,0.0275843358454802,0.0398312970074622,-0.3495560799212626,-0.2996593281104026,-0.2705888861163964,0.6790016606546735,1.6236316493971872,2.034638950867317,-0.4163423676158936,-0.3662694903547281,-0.4618579502813337,1.3276578772770906,-0.6175282783235619,-0.8144188254667617,-0.8473819925464476,9.357150655282569,-1.009121450534712,0.1092751889280537,-0.9116743518422384
0.36,0.6622736983755566,1.6096906297084403,2.0323623032706517,0.1076970384789193,0.036286004318554,0.0399509026593866,-0.360975994900294,-0.3163463764099566,-0.2902990795171897,0.6712748133112962,1.6169062595990331,2.0260017918706312,-0.45634236821194,-0.4062694909507745,-0.50185795087738,1.4118815132445015,-0.5709957489515693,-0.8343524149777043,-0.9855096700396664,9.357150655282569,-1.0002103986363395,0.1098245205025113,-0.9242293887330894
0.38,0.6549446650055973,1.6031940771024304,2.0263344267145533,0.1035710481509573,0.0431298489891381,0.0398627089985641,-0.3713331591482406,-0.3324087856887578,-0.311581595617613,0.6625479659530179,1.6091808697859782,2.016364632859044,-0.4963423688079864,-0.4462694915468209,-0.5418579514734265,1.4302249251983392,-0.5178582123973319,-0.8031204639400602,-1.0641258050211626,9.19863308175627,-0.992547036235717,0.1100131475146967,-0.935316440703652
0.4,0.6477972095031422,1.596731985870494,2.0201998772893264,0.0999130394864666,0.0481480053087866,0.0396186678553566,-0.3805372112446108,-0.3469583228522263,-0.3331109134292803,0.6363780070481853,1.5865736378179929,2.0107553469336725,-0.4713331606383567,-0.432408787178874,-0.4115815971077291,1.3783279110026954,-0.4602026048185104,-0.7274768581734203,-1.0764658905833668,9.19863308175627,-0.9863982461845372,0.1100714939057727,-0.9444616315337868
0.42,0.640125021863449,1.5896249197642285,2.0135716779774,0.0967007838672803,0.0514014915436968,0.0391870270168363,-0.3862258703580133,-0.3632675452169746,-0.327180834666155,0.6363780070481853,1.5865736378179929,2.0107553469336725,-0.4713331606383567,-0.432408787178874,-0.4115815971077291,0.9131229528220368,-0.2844329556701275,-0.815461118237415,0.2965039381562673,9.138991650366734,-0.9917466992092686,0.1111790386161904,-0.9409070204222998
0.44,0.6323443015703561,1.5822010865069884,2.007064947919825,0.0944905520059795,0.0520050062037149,0.0385612614383232,-0.391688989964846,-0.3784683597593767,-0.3242881020500247,0.6363780070481853,1.5865736378179929,2.0107553469336725,-0.4713331606383567,-0.432408787178874,-0.4115815971077291,0.820485131765786,-0.2731559803416328,-0.7600407271201065,0.1446366308065161,10.878694432139127,-0.9915102285305284,0.1126667545204234,-0.9408791036726852
0.46,0.6244461114586984,1.5744752819624233,2.0005441646678945,0.0930481303065409,0.0500853962880535,0.0377491604732894,-0.3979838847525292,-0.3933923780179236,-0.3279047465123448,0.6316646754418017,1.582249549946204,2.006639530962595,-0.4913331609363799,-0.4524087874768972,-0.4315815974057523,0.8298074152119175,-0.3147447393841623,-0.7462009129273445,-0.1808322231160064,10.134345857192784,-0.9927294638511022,0.112796539076614,-0.940106836184934
0.48,0.6168153023957839,1.5668651429974767,1.994237807085343,0.0922408916925754,0.0461190538934608,0.0368181246938341,-0.4051501149943694,-0.4069851938731102,-0.33573321333482,0.6222380122290345,1.5736013742026265,1.9984078990204408,-0.5313331615324264,-0.4924087880729436,-0.4715815980017988,0.8622708268616548,-0.3583115120920077,-0.6796407927593312,-0.3914233411237616,9.88206065580198,-0.9955245508999396,0.1117974200866519,-0.9384397498056076
0.5,0.6086099970892455,1.5585812925897269,1.9874030496851232,0.0920822576399923,0.040263230026486,0.0357303390600304,-0.4153453887176971,-0.4207321321730264,-0.3474952600858915,0.6128113490162674,1.564953198459049,1.990176267078286,-0.5713331621284728,-0.5324087886689901,-0.5115815985978452,1.0383492460266823,-0.509763686166384,-0.6873469149958122,-0.5881023375535754,9.88206065580198,-0.9993219058513052,0.1096441085306384,-0.936369817800161
0.52,0.6001684229121647,1.5500246445076848,1.9803001488294376,0.0927473705728466,0.0337291566870786,0.0346313311813213,-0.428505654802795,-0.4343390094124644,-0.3621995039756245,0.601384685773698,1.5543050226856692,1.9799446351063288,-0.6113331627245193,-0.5724087892650366,-0.5515815991938917,1.1984933249798086,-0.6580133042548952,-0.6803438619718966,-0.7352121944866508,9.688516813544084,-1.0043084656890355,0.1066234212662968,-0.933343774403946
0.54,0.59143764520985,1.541192791320396,1.9728937720181865,0.0942263246698776,0.0273353873964285,0.0335891312204438,-0.4440692304446698,-0.4482443148836741,-0.3777348295722539,0.5899580225311285,1.543656846912289,1.9697130031343724,-0.6513331633205658,-0.612408789861083,-0.5915815997899382,1.3008927207895575,-0.7781787820937414,-0.6952652735604858,-0.7767662798314701,9.550931246933033,-1.0095266101230904,0.10301825034839,-0.9301545209406682
0.56,0.5828293958246794,1.5325296825637966,1.965562735447933,0.0960177341690607,0.0221322116519099,0.0326920647817936,-0.4613486199154967,-0.4629156520842453,-0.3931701870726637,0.5775313592736578,1.5320086711240084,1.9584813711475144,-0.6913331639166121,-0.6524087904571294,-0.6315816003859845,1.3711999278942175,-0.8639694735413456,-0.7335668600285589,-0.7717678750204876,9.518318732419177,-1.0138686237454229,0.0985778473465742,-0.9283675325822888
0.58,0.5733902948234807,1.523097589857232,1.9575199069446851,0.0977471280138005,0.0184358568738954,0.0318934516868405,-0.4817796156627721,-0.4794958462960995,-0.410341226465082,0.5641046960012861,1.5193604953208264,1.946249739145755,-0.7313331645126586,-0.6924087910531759,-0.671581600982031,1.5709654842993617,-1.021549787363771,-0.8290097105927097,-0.858551969620916,9.50339994514252,-1.0164591262295135,0.0941464395915309,-0.9286036823161146
0.6,0.5635218858265069,1.5133202388309293,1.9491236696824097,0.0987717305515899,0.0174657540175618,0.0313040869369636,-0.5038394941847184,-0.4973218832224755,-0.4284251126597524,0.5493013140403421,1.4991227975424268,1.9370028456214312,-0.5817796171528883,-0.5794958477862155,-0.5103412279551982,1.6818388543535752,-1.102993926097312,-0.8913018463188038,-0.9041943097335192,9.44325609023872,-1.0176009238302253,0.090472955295209,-0.9303171071926072
0.62,0.5537306485523462,1.5036231883186162,1.9410902644279608,0.0972917287921839,0.0197717049352225,0.0308888574387919,-0.5252086237483127,-0.52177299124048,-0.4161487255531,0.5493013140403421,1.4991227975424268,1.9370028456214312,-0.5817796171528883,-0.5794958477862155,-0.5103412279551982,1.7358038930177149,-1.0684564781797137,-1.2225554009002242,0.6138193553326177,11.36433666954781,-1.022954478327084,0.089619486784136,-0.9269359035794308
0.64,0.5430167694603651,1.492955680055718,1.9328653524635733,0.0928705159278521,0.0250627188255404,0.0305209493445835,-0.5446786001594656,-0.5428773736795539,-0.4073006763177009,0.5493013140403421,1.4991227975424268,1.9370028456214312,-0.5817796171528883,-0.5794958477862155,-0.5103412279551982,1.5023006646953092,-0.9734988205576444,-1.0552191219536933,0.4424024617699584,11.36433666954781,-1.0201382017858394,0.0933458443543734,-0.929267512779144
0.66,0.5319431300860661,1.48191769745328,1.92474499897376,0.0876425785851005,0.0319357228273116,0.0302202473915374,-0.5614009771572551,-0.5596239386424557,-0.4054520424710956,0.5434835178688132,1.4933278390645648,1.9318994333418795,-0.6017796174509115,-0.5994958480842387,-0.5303412282532214,1.1869106723040568,-0.8361188498894778,-0.8373282481450917,0.0924316923302637,10.896105537292897,-1.0151825280087154,0.0970376681837676,-0.9344372457734552
0.68,0.5211380019264281,1.4711505507017153,1.9169990381286328,0.0828248816005371,0.0390583160286441,0.0299690803329865,-0.5749285082794158,-0.5729010380014901,-0.4099661774936445,0.5318479255257554,1.4817379221088405,1.9216926087827757,-0.6417796180469579,-0.6394958486802852,-0.5703412288492679,0.9742341616014312,-0.6763765561080326,-0.6638549679517158,-0.2257067511274468,10.081768988086878,-1.009464614055129,0.1004765935278177,-0.9408127118302304
0.7000000000000001,0.5095104630162419,1.4595656529259835,1.9087023376582608,0.0783419172157124,0.0464761572028899,0.029711081610196,-0.5869255236114388,-0.5849102614946065,-0.4197027073776648,0.5202123331826977,1.4701480051531162,1.9114857842236712,-0.6817796186430044,-0.6794958492763317,-0.6103412294453143,0.9784552109918384,-0.599850766601151,-0.6004611746558197,-0.486826494201012,9.789395360199704,-1.0033982129239132,0.1033090143827242,-0.9476458970413691
0.72,0.4976633641968903,1.4477562307768097,1.9001593626773272,0.0746484798816615,0.0532904181418357,0.0294384754391457,-0.5970828758483914,-0.5955762774693785,-0.4341112843684944,0.5065767408098376,1.4565580881675897,1.899278959634765,-0.7217796192390509,-0.7194958498723781,-0.6503412300413608,1.030221811238098,-0.5078676118476289,-0.5333007987386007,-0.7204288495414823,9.554319530712746,-0.997255222941993,0.10514725864735,-0.9549147239321212
0.74,0.4856299498335354,1.4357428459201118,1.8913035234401352,0.071744383639066,0.0591877043805944,0.0291378790556927,-0.6057055538864872,-0.6053998793205603,-0.4507743304738973,0.4929411484369774,1.442968171182063,1.8870721350458588,-0.7617796198350973,-0.7594958504684246,-0.6903412306374073,1.0589037201157452,-0.4311339019047899,-0.4911800925590903,-0.8331523052701462,9.554319530712746,-0.9919722289966236,0.1060753887269179,-0.9614646145358504
0.76,0.4740455278360848,1.4241453203587306,1.8825651489367712,0.0694256840817268,0.0639242635421109,0.0288132274039187,-0.6132373809307448,-0.6148829547579436,-0.4682288918273535,0.4783055560492162,1.4283782541816352,1.8738653104420515,-0.8017796204311437,-0.799495851064471,-0.7303412312334536,1.062213314755186,-0.3765913522128794,-0.4741537718691679,-0.8727280676728094,9.443395443172449,-0.9868173053886604,0.1064741982630466,-0.968117182380372
0.78,0.4617025871253701,1.4117460012327985,1.8729925971739436,0.0671910438479787,0.0681611712665457,0.0284294854839351,-0.6206126670182857,-0.6245097890723196,-0.4881858038200303,0.4626699636465538,1.412788337166306,1.8596584858233427,-0.8417796210271902,-0.8394958516605174,-0.7703412318295001,1.167635559659956,-0.368764304377045,-0.4813417157187971,-0.9978455996338398,9.36284220916059,-0.982130062371569,0.1065894494931578,-0.974382203650432
0.8,0.4492167576409898,1.3991577732511498,1.863004591551456,0.0650733185393328,0.0717726846204911,0.0280097220552385,-0.6275607279625303,-0.6337759046913193,-0.5096187657228801,0.4306719537744559,1.3805205117791823,1.8485833069829416,-0.7206126685084018,-0.7245097905624357,-0.5881858053101465,1.2181012945139424,-0.3474030472122302,-0.4633057809499852,-1.0716480951424885,9.281405008145155,-0.978025651531688,0.1065155690779163,-0.980069370735116
0.8200000000000001,0.4372602650366842,1.3869995312256267,1.8534225358165908,0.0627372842340886,0.0745257032994296,0.0275439873131578,-0.6307014201911978,-0.6452372807054382,-0.4979296580871708,0.4306719537744559,1.3805205117791823,1.8485833069829416,-0.7206126685084018,-0.7245097905624357,-0.5881858053101465,0.8334601447151355,-0.1570346114333765,-0.5730688007059448,0.5844553817854647,11.215353559497087,-0.9797762412861168,0.1075652303258901,-0.9791629270485208
0.84,0.4246166171131834,1.3739962141800266,1.843546593896284,0.0603774580280231,0.0764236151666463,0.0269998482054544,-0.6335699807981158,-0.6545618019447357,-0.4907436204722029,0.4306719537744559,1.3805205117791823,1.8485833069829416,-0.7206126685084018,-0.7245097905624357,-0.5881858053101465,0.6058351114399982,-0.143428030345899,-0.466226061964875,0.3593018807483972,11.215353559497087,-0.978118138109222,0.1094760452588919,-0.9802879856949088
0.86,0.4119120023262331,1.3608170959686237,1.833737895804644,0.0586064807561914,0.0772190810008788,0.0264351561418345,-0.6368460256274506,-0.6629486204567183,-0.4907777327244252,0.4234658270893718,1.373275413873558,1.8427014489298403,-0.740612668806425,-0.7445097908604589,-0.6081858056081697,0.4502009499170844,-0.1638022414667428,-0.419340925599132,-0.0017056126111192,10.742355433728337,-0.9769697530072802,0.110408899637083,-0.9814970847431818
0.88,0.3991355958780909,1.3474803393416497,1.8238618380407952,0.0575208724286019,0.0770256555070445,0.0258671068056374,-0.6407311498580035,-0.6704142759294833,-0.4968012337223227,0.4090535737192038,1.3587852180623092,1.8309377328236371,-0.7806126694024714,-0.7845097914565053,-0.6481858062042162,0.5174764878632814,-0.1942562115276436,-0.3732827736382504,-0.3011750498948723,10.333002979279629,-0.9765317116421024,0.1104106674700923,-0.982445162970222
0.9,0.3869200644878707,1.3346796627873732,1.8143268396973835,0.0573298067572477,0.0760394104597627,0.0253459384304091,-0.6449848356037791,-0.6767721477391071,-0.5065754224898616,0.3946413203490358,1.3442950222510606,1.8191740167174344,-0.8206126699985179,-0.8245097920525518,-0.6881858068002626,0.6205867031183218,-0.2126842872887779,-0.3178935904811886,-0.4887094383769469,10.023696176052,-0.9769454163089236,0.1094378563501523,-0.982899022041464
0.92,0.3739687614011,1.321080270639405,1.804056389759056,0.0582788861636123,0.0741878939041968,0.0248344607191863,-0.6499947694035939,-0.6829447497777261,-0.5201008058767244,0.3782290669490654,1.3278048264100095,1.8054103005814293,-0.8606126705945644,-0.8645097926485983,-0.7281858073963091,0.7844368176713036,-0.2504966899907423,-0.3086301019309512,-0.6762691693431355,9.793317369460963,-0.9781535927399364,0.1072494891563932,-0.9828651776504254
0.94,0.3609114078953416,1.3073569253593118,1.7935006361008834,0.0606041887826974,0.0715024109221866,0.0243679380825799,-0.6555762729645437,-0.6892775419962431,-0.534832364283718,0.361816813549095,1.3113146305689585,1.791646584445424,-0.9006126711906108,-0.9045097932446448,-0.7681858079923556,0.8489349980747514,-0.2790751780474887,-0.3166396109258507,-0.7365779203496847,9.61197170892865,-0.980428222398522,0.1037021381077193,-0.9820385157460144
0.96,0.3477292445722161,1.2934801847874149,1.782642969072974,0.0636617732839281,0.0682288344230455,0.0239072047628735,-0.6624634688092146,-0.6982075616763366,-0.550199835136645,0.3444045601342235,1.2938244347130063,1.7768828682945177,-0.9406126717866572,-0.9445097938406912,-0.8081858085884019,0.9530711916027956,-0.344359792233545,-0.4465009840046718,-0.76837354264635,9.538907451427804,-0.9828595076925454,0.0994076830574553,-0.9813849775927792
0.98,0.3350640303128869,1.2801134562519794,1.7720387250553309,0.0662845370554418,0.0650608634076665,0.0234354598714391,-0.6704580031604402,-0.7082612830314897,-0.5652614624484954,0.3259923067044509,1.275334238842153,1.76111915212871,-0.9806126723827036,-0.9845097944367376,-0.8481858091844484,0.9897506123527604,-0.3997267175612828,-0.5026860677576572,-0.7530813655925173,9.538907451427804,-0.9854702873802512,0.0949900093675941,-0.9807830485812156
1.0,0.3215524284803859,1.265829798834334,1.7605596079356216,0.0684667932321198,0.0622157904853,0.0229226721800625,-0.6803948286064958,-0.7194835007801079,-0.5818875212064369,0.3015411301548649,1.244700392100405,1.743775651932906,-0.7704580046505564,-0.8082612845216058,-0.6652614639386115,1.1192681771645518,-0.4968412723027782,-0.5611108874309101,-0.8313029378970771,9.522068736194342,-0.9879386263906826,0.0911267919503057,-0.9802446186204068
1.02,0.3078178136615173,1.2512446681988272,1.749043119114058,0.0683771490227074,0.0613712368997491,0.0223867393840552,-0.6923826741386224,-0.7380826244897816,-0.5672939844057924,0.3015411301548649,1.244700392100405,1.743775651932906,-0.7704580046505564,-0.8082612845216058,-0.6652614639386115,1.3253369002084336,-0.5993922766063309,-0.9299561854836824,0.7296768400322284,9.484989350536123,-0.9924926471730352,0.0895705995172407,-0.9771765579412998
1.04,0.2945584587104877,1.2370642032147912,1.738375701635391,0.0654120892315,0.0630830096139682,0.0218538813261757,-0.7024690049455381,-0.7532418154041195,-0.5564530858625406,0.3015411301548649,1.244700392100405,1.743775651932906,-0.7704580046505564,-0.8082612845216058,-0.6652614639386115,1.0595520510444023,-0.5043165403457839,-0.7579595457168964,0.5420449271625882,11.066907173747497,-0.9927807820452408,0.0922790824457489,-0.9762113249298724
1.06,0.2804116079592875,1.2218717868552935,1.727299194649204,0.0609377248317023,0.0663613570245907,0.0212969291819238,-0.7114943194820438,-0.7648700975668626,-0.5520746210361754,0.2938365501083594,1.236617779255189,1.7371230372935198,-0.7904580049485795,-0.828261284819629,-0.6852614642366347,0.7678609945409196,-0.451265726825284,-0.5814141081371571,0.2189232413182584,11.066907173747497,-0.9907373571998644,0.0960680053689686,-0.9777197556701644
1.08,0.2660991042696678,1.20648026878253,1.7162385030241647,0.0564936267259397,0.0703192180061591,0.0207805856845294,-0.7191605405257386,-0.7736448714441749,-0.5544858980077367,0.2784273900153483,1.2204525535647568,1.7238178080147477,-0.830458005544626,-0.8682612854156755,-0.7252614648326812,0.5949408758909027,-0.3833110521847427,-0.4387386938656146,-0.1205638485780646,10.599545394057714,-0.9873979646548636,0.0995400207896418,-0.9808856384479148
1.1,0.251645945874651,1.19093417272851,1.705063335094177,0.0526389059133112,0.0743722485732077,0.0203073553411699,-0.7256687857344176,-0.7806426842400911,-0.5628924128101962,0.2630182299223371,1.204287327874325,1.7105125787359754,-0.8704580061406725,-0.908261286011722,-0.7652614654287276,0.6363885030917651,-0.3254122604339493,-0.3498906397958079,-0.4203257401229732,10.205919517020448,-0.9833939592495332,0.1020360978804108,-0.9851435805472822
1.12,0.2378044112855526,1.176047253959402,1.6942477172866914,0.0496897446302227,0.0779555138504958,0.0198925881038168,-0.7309612548961367,-0.7862141741574845,-0.575178709046969,0.2456090697995236,1.1861221021540902,1.695207349427401,-0.910458006736719,-0.9482612866077684,-0.8052614660247741,0.7245771265798792,-0.2646234580859552,-0.2785744958696712,-0.6143148118386399,9.893593150593006,-0.979045675452248,0.103706134636755,-0.9901732967403186
1.14,0.2231350203260647,1.160269672335963,1.6825864534257071,0.0473913553780508,0.0811906375794156,0.0194880126171544,-0.7356645011618421,-0.7913944150639239,-0.5904085857245415,0.2281999096767102,1.1679568764338557,1.6799021201188262,-0.9504580073327654,-0.9882612872038148,-0.8452614666208206,0.838010389104285,-0.2351623132852698,-0.2590120453219713,-0.7614938338786237,9.65240029989127,-0.975296176146619,0.104516522215784,-0.9948145395142296
1.16,0.2083741315033936,1.1443836969685743,1.6706024219841669,0.0456273713969765,0.0838581319255178,0.0190991806320773,-0.7401678300908404,-0.796950763840434,-0.6072981186368096,0.2097907495389956,1.14879165069872,1.6635968907953504,-0.990458007928812,-1.0282612877998611,-0.8852614672168669,0.9170732047709792,-0.2251664464499148,-0.2778174388255006,-0.8444766456134067,9.5332439733711,-0.9720073109304104,0.1047047090282063,-0.9992195530992646
1.18,0.1935245592839263,1.128386805693418,1.6582645425283613,0.0440628420722729,0.0861363984626558,0.0187134551035851,-0.7445313191011252,-0.8024310291792013,-0.625645365369377,0.1903815893863799,1.1286264249486837,1.6462916614569736,-1.0304580085248582,-1.0682612883959075,-0.9252614678129134,0.9819557108035416,-0.2181744505142413,-0.2740132669383666,-0.917362336628369,9.387717631319902,-0.9691360948408584,0.1046731485943073,-1.00322578408077
1.2,0.1793379374484308,1.1130907025645451,1.6461912663017488,0.0426788371843918,0.0880589350044616,0.0183506256267247,-0.7485460594312585,-0.8073756210509351,-0.6443106499320813,0.15629799332887,1.088265254234458,1.6269822742598925,-0.8445313205912414,-0.9024310306693174,-0.7256453668594931,0.9861034130647038,-0.2007370165066635,-0.2472295935866897,-0.9332642281352166,9.387717631319902,-0.9663163466305597,0.1045314975510521,-1.007272930244358
1.22,0.165096048727386,1.0976740154208244,1.634038678852244,0.0408272847886173,0.090012983516168,0.0179636648768515,-0.7501863356732897,-0.8149199850152314,-0.6322874820616363,0.15629799332887,1.088265254234458,1.6269822742598925,-0.8445313205912414,-0.9024310306693174,-0.7256453668594931,0.7144307164044084,-0.0820138121015612,-0.3772181982148181,0.6011583935222498,9.322911508216748,-0.9682367956549396,0.105059707804575,-1.006372269022996
1.24,0.150084081270067,1.0813207984607236,1.6215007401826724,0.038729154718447,0.0920557736600001,0.0175531402905308,-0.7509139876907807,-0.8200523429480354,-0.6226856943534954,0.15629799332887,1.088265254234458,1.6269822742598925,-0.8445313205912414,-0.9024310306693174,-0.7256453668594931,0.5455843257489633,-0.036382600874546,-0.2566178966401988,0.4800893854070454,11.381305512341896,-0.9662000810636744,0.1072521300588415,-1.0074016879117456
1.26,0.1350603444173167,1.0648791431394455,1.6090680744244723,0.0372524289233962,0.0935999228053345,0.0171754079222677,-0.7514609362492809,-0.823995119320303,-0.6210332581200984,0.1478526801229576,1.0792409439277648,1.6197258205912977,-0.8645313208892645,-0.9224310309673406,-0.7456453671575163,0.2154946852755335,-0.0273474279250118,-0.1971388186133793,0.0826218116698529,10.90860149737182,-0.9642232946415834,0.1084341534067357,-1.0089499153088008
1.28,0.120777239172225,1.0491958931490843,1.5972302674058787,0.0366697718845936,0.0944173352166502,0.0168585006755064,-0.7520607453651378,-0.8268123282324492,-0.62512466547523,0.1309620537111328,1.0611923233143783,1.6052129132541078,-0.904531321485311,-0.962431031563387,-0.7856453677535628,0.2501801909412831,-0.0299904557928443,-0.1408604456073103,-0.2045703677565846,10.136509961637785,-0.9626069466544654,0.108589342876941,-1.0106068548416434
1.3,0.1057273003521566,1.0326368986445948,1.584639905133432,0.0372620825823028,0.0945283207205522,0.0165903042886033,-0.7529839182821787,-0.8290592068787787,-0.6338950980730188,0.114071427299308,1.043143702700992,1.5907000059169178,-0.9445313220813576,-1.0024310321594334,-0.8256453683496092,0.4550307677466566,-0.0461586458520457,-0.1123439323164721,-0.4385216298894379,10.136509961637785,-0.961583822804548,0.1073434006970007,-1.0121446602351172
1.32,0.0906548950298625,1.0160360224782674,1.571835944843312,0.0393965640121632,0.0938686212464549,0.016406671836365,-0.7542704847495734,-0.8310818740110747,-0.6461978397807242,0.0951808008576808,1.0230950820578033,1.5741870985499256,-0.984531322677404,-1.0424310327554798,-0.8656453689456557,0.6267054514076151,-0.0643283233697333,-0.101133356614802,-0.61513708538527,9.883206431377404,-0.9614095758649024,0.1044853087691743,-1.0132367800849875
1.34,0.0755556392871247,0.99938160053422,1.5587697502360984,0.0429304889244199,0.0923597538836768,0.0162865036764092,-0.755665919706144,-0.8347629198890207,-0.6598055661107628,0.0762901744160536,1.0030464614146146,1.5576741911829337,-1.0245313232734503,-1.0824310333515264,-0.9056453695417022,0.7082858768653879,-0.0697717478285342,-0.1840522938973021,-0.6803863165019297,9.698637429954031,-0.9626752874030816,0.1004576972074803,-1.0131208987317843
1.36,0.0611787991637377,0.9834625590042718,1.5461002938374693,0.0464632986369826,0.0901976953793828,0.0161473040833854,-0.7576924797686999,-0.8407367778780057,-0.6731383396926982,0.0563995479595253,0.9819978407565249,1.54016128380104,-1.064531323869497,-1.1224310339475727,-0.9456453701377484,0.7374902988291792,-0.101328003127793,-0.2986928994492488,-0.6666386790967704,9.64530334362371,-0.9643004733675952,0.0957456604640554,-1.0130688443367726
1.38,0.0459943125129235,0.966569675211233,1.532484473171719,0.0497607132641091,0.087404851467392,0.0159387516822665,-0.7607522273618879,-0.8482048365615052,-0.6877658798435303,0.0355089214880959,0.9599492200835338,1.5216483764042454,-1.1045313244655433,-1.162431034543619,-0.985645370733795,0.8353126461068603,-0.1529873796593972,-0.3734029341749767,-0.731377007541606,9.598641257416602,-0.966343677863688,0.0913217235977789,-1.0126957648868125
1.4,0.0307365547550658,0.9495178508551404,1.5185705695794185,0.0524271731977767,0.0843844572312325,0.0156667995926563,-0.7649801359466388,-0.8565149110911663,-0.7029067860398839,0.0079567011448291,0.9241594333831578,1.4980961791795426,-0.8304382750947179,-0.9482048380516214,-0.7322772539296719,0.8890719742184959,-0.2113954292375486,-0.4155037264830519,-0.7570453098176777,9.598641257416602,-0.9684827685005668,0.0875628200153261,-1.0122156211353006
1.42,0.0153314436212531,0.9322106271638928,1.5047172489453655,0.0523920440489497,0.084131696026388,0.0153505749293293,-0.7749776635707238,-0.8732481358660176,-0.6796806456342626,0.0079567011448291,0.9241594333831578,1.4980961791795426,-0.8304382750947179,-0.9482048380516214,-0.7322772539296719,1.5160845689651312,-0.4998763812042506,-0.8366612387425643,1.161307020281066,9.575159182894822,-0.9714933647176424,0.085008822631487,-1.01195694519436
1.44,0.0005316318318854,0.9154793321768232,1.4920159250345488,0.0488596618561454,0.088428572254268,0.0150454178108347,-0.7818351291213922,-0.8863377301071151,-0.6586234100600822,0.0079567011448291,0.9241594333831578,1.4980961791795426,-0.8304382750947179,-0.9482048380516214,-0.7322772539296719,1.286244029336682,-0.3428732775334175,-0.6544797120548784,1.0528617787090189,12.223228524959268,-0.969276942605484,0.0891613130890003,-1.0125185543482496
1.46,-0.0151479319194556,0.897657840596025,1.4790136784937653,0.0437279762744154,0.0956446889810258,0.0147427421722373,-0.7853424541211645,-0.8948263436058408,-0.6430138793094109,-0.000347681606118,0.9146773850026416,1.4907734066402458,-0.8443754846412839,-0.9682048383496448,-0.7411795287469002,0.9055596861070616,-0.1753662499886177,-0.4244306749362825,0.7804765375335643,11.779807167974468,-0.963120777034822,0.0946206149449797,-1.016837920607406
1.48,-0.030861838183965,0.8797033578000616,1.4662458384512425,0.0387706643796858,0.1039860596145974,0.014475229881095,-0.7855625421185042,-0.9002227301412671,-0.6345355865205534,-0.0169564471080124,0.8957132882416091,1.4761278615616524,-0.8722499037344159,-1.008204838945691,-0.7589840783813568,0.5026203213656801,-0.0110043998669817,-0.2698193267713145,0.4239146394428739,11.2986731799474,-0.9556892689657954,0.0995443563283169,-1.0225481276342523
1.5,-0.0457661165477669,0.8625659664795134,1.454219234945134,0.0347526428449887,0.1118721051642704,0.0142444427831386,-0.7831393947249617,-0.9035911793525512,-0.6318595147394731,-0.0335652126099067,0.8767491914805767,1.461482316483059,-0.900124322827548,-1.0482048395417376,-0.7767886280158135,0.2468777711607865,0.1211573696771217,-0.1684224605642104,0.1338035890540156,10.87939481023841,-0.9472525007670732,0.1037705926605097,-1.0294753042575122
1.52,-0.0613814151477488,0.8444697677591196,1.4415709266709478,0.0314432693416023,0.1193671336759882,0.0140211523144835,-0.7783959421962435,-0.9059907061501664,-0.6333209573279854,-0.0515676990664577,0.855785094689742,1.4459465439227428,-0.92799874192068,-1.088204840137784,-0.7945931776502702,0.2756532476871711,0.2371726264359108,-0.1199763398807562,-0.0730721294256164,10.554265118624244,-0.939046870423788,0.1068617245360947,-1.0364941008743864
1.54,-0.0768807719188784,0.826332879054539,1.4288693643504846,0.0291118391395254,0.1255178102660334,0.0138169598158094,-0.7717295996658563,-0.9077500209775284,-0.6368418331529576,-0.0695701855230087,0.8348209978989072,1.4304107713624266,-0.955873161013812,-1.1282048407338303,-0.8123977272847268,0.3870784092696819,0.3333171265193613,-0.0879657413681012,-0.176043791248609,10.312532159516197,-0.9319859412618434,0.1088539269259667,-1.0427033418560343
1.56,-0.0922339479054874,0.8081567148466963,1.416084470123293,0.0274494571587161,0.1300952980467266,0.013615174181507,-0.763978129771068,-0.9098337074371792,-0.6414829516192809,-0.0882695324568879,0.8128569010931713,1.414429885061249,-0.983747580106944,-1.168204841329877,-0.8302022769191834,0.4635919957526964,0.3875734947394127,-0.1041843229825312,-0.2320559233161656,10.223608007095208,-0.9264281986397128,0.1100084061968453,-1.0477643523565652
1.58,-0.1066696193022607,0.7908514299353764,1.403845950828426,0.0262208321736323,0.1330477222844206,0.0134153350195015,-0.7560322810667076,-0.9116746901489426,-0.6465585033479031,-0.1076657398680955,0.7898928042725343,1.3980038850192096,-1.011621999200076,-1.2082048419259233,-0.84800682655364,0.4803304964488471,0.3972924352180218,-0.0920491355881791,-0.2537775864311087,10.179578047771429,-0.9218807329452832,0.1108262023737757,-1.0520046777335326
1.6,-0.1216998586241474,0.7726010669542205,1.3908528166143697,0.0253043386117078,0.1348132665466466,0.013204710508882,-0.7474802072917084,-0.9132638283206704,-0.6525183207330961,-0.1444712333555961,0.7452676954279293,1.3715180256610309,-0.7958666947441616,-1.0116746916390589,-0.6350353562342819,0.5272161540742117,0.4276036887499612,-0.0794569085863949,-0.2979908692596511,10.149596926867162,-0.9186504885373276,0.111252866123239,-1.0551421735451902
1.62,-0.1365729095405403,0.7542793928490575,1.3779680708311706,0.023689915566694,0.1368139017078833,0.012960634922119,-0.739959568996949,-0.9185007946697664,-0.6344467062468602,-0.1444712333555961,0.7452676954279293,1.3715180256610309,-0.7958666947441616,-1.0116746916390589,-0.6350353562342819,1.0131251983852927,0.3760319147379676,-0.2618483174547881,0.9035807243117976,10.11948929171649,-0.9175207206388788,0.1116633872983115,-1.0570804930257525
1.64,-0.1505422343986786,0.7368036478804023,1.3660903694494275,0.021375026240834,0.1398715614454879,0.0127088393571703,-0.730724586361071,-0.9207171105722596,-0.616885838361445,-0.1444712333555961,0.7452676954279293,1.3715180256610309,-0.7958666947441616,-1.0116746916390589,-0.6350353562342819,0.9982247258929504,0.4617491317939037,-0.1108157951246691,0.8780433942707611,11.738021458404546,-0.9145493268521944,0.1149712201988363,-1.058035738624332
1.66,-0.1650368141685754,0.7183848382208493,1.3539203607813148,0.0193276991688352,0.1432071164736022,0.0124795915397144,-0.7191346557906211,-0.921173153513639,-0.6011757913206198,-0.1524299003030377,0.7351509485115386,1.365167672098688,-0.8038335774796525,-1.0316746919370818,-0.6327307268115576,0.97639649197594,0.579496528522494,-0.0228021470689676,0.7855023520412563,11.575405047085953,-0.9115138394597186,0.1179924876724372,-1.0589673689493369
1.68,-0.1792840539259638,0.6999692074990489,1.3420369171023214,0.0181912735967195,0.1458702861369453,0.0123089537786559,-0.7061730242948411,-0.9204703188071732,-0.5880613744994276,-0.1683472341979209,0.7149174546787574,1.3524669649740024,-0.819767342950634,-1.0716746925331284,-0.6281214679661091,0.9226128605988776,0.6480815747890001,0.0351417353232852,0.6557208410596094,11.39155907121676,-0.9085472432659067,0.1199433231320898,-1.0601802912156126
1.7,-0.1932616972912836,0.6815795366138089,1.33039376987591,0.0184867029860593,0.1473253057148867,0.0122262937137876,-0.6923760699871649,-0.91878615605165,-0.5769011539473708,-0.1842645680928042,0.6946839608459763,1.3397662578493168,-0.8357011084216156,-1.1116746931291748,-0.6235122091206606,0.8912671809364261,0.6898477153838067,0.0842081377761649,0.5580110276028394,11.238222498050163,-0.9064968052719222,0.1203588165362435,-1.0610049217741804
1.72,-0.2062806086022805,0.6641450031466708,1.3195293877957976,0.0204775295234997,0.1473432885142633,0.0122499280042493,-0.6788617533618708,-0.916785894302482,-0.5672695872590499,-0.2009785902612365,0.6724504669833928,1.3272960136669036,-0.8516348738925972,-1.1516746937252211,-0.6189029502752121,0.8357704197108502,0.675715831264706,0.1000130874584004,0.4815783344160496,11.133439618610282,-0.905706234507274,0.1189202824652464,-1.0610561244676606
1.74,-0.219703894163977,0.645820097100839,1.3082963409396646,0.0243224528954388,0.1456871979095178,0.0123632685168121,-0.664247875580317,-0.9164240281107588,-0.5565040401255975,-0.2176926124296688,0.6502169731208093,1.3148257694844905,-0.8675686393635789,-1.1916746943212675,-0.6142936914297636,0.907735335928775,0.7306938890776937,0.0180933095861646,0.5382773566726173,11.075553468483122,-0.9077889357306156,0.1157586154083439,-1.0587431260401097
1.76,-0.2328339037498846,0.6274646207248493,1.2972902204637329,0.0286303631476702,0.1420098180342558,0.0124486939771109,-0.6496142849288601,-0.91925099242643,-0.5445822870275275,-0.2348049787348756,0.6269834792433246,1.3024707567732134,-0.8835024048345604,-1.231674694917314,-0.6096844325843152,0.9542823213386928,0.7316795325728431,-0.1413482157835655,0.5960876549034988,11.118311724786508,-0.911409849053326,0.1121997295031932,-1.0553264203387671
1.78,-0.2456787595594434,0.6090312468935333,1.2865369419410235,0.0325260595123621,0.1361637833841398,0.0124226805688509,-0.6360694570861191,-0.923885414000831,-0.5313139072520223,-0.252315689176857,0.6027499853509388,1.2902309755330723,-0.899436170305542,-1.2716746955133604,-0.6050751737388667,0.9759484188288352,0.6772413921370513,-0.2317210787200485,0.6634189887752606,11.188452559673353,-0.9161994742410392,0.1085129963914263,-1.0512337130763827
1.8,-0.2576565186841278,0.5914218993618094,1.2765782291588634,0.0355840539391451,0.129189471679869,0.0122846211419224,-0.6257556573725889,-0.9293751135768172,-0.517607605802039,-0.2774822324137493,0.5628369761934917,1.2599712465784227,-0.6350736596317396,-1.0238854154909471,-0.479688022182652,0.9005192466061099,0.5156899856765096,-0.2744849787993164,0.6853150724991652,11.259945377181792,-0.9227706190480316,0.1054930171116602,-1.0454604841665835
1.82,-0.2701892091940318,0.572687695068956,1.2664304642238398,0.035669868050124,0.1248035336268857,0.0120154861765645,-0.6282918482175431,-0.942960645172186,-0.4975966685125058,-0.2774822324137493,0.5628369761934917,1.2599712465784227,-0.6350736596317396,-1.0238854154909471,-0.479688022182652,1.2159734206967892,-0.1268095422477133,-0.6792765797684341,1.000546864476659,11.32022353497723,-0.921995223762535,0.1036527704168863,-1.0483065514197056
1.84,-0.2827619109375582,0.5537239899382587,1.2567026477216527,0.031839364084819,0.1269102890057652,0.011713346128045,-0.62811185074961,-0.9519736135961248,-0.4761579285980712,-0.2774822324137493,0.5628369761934917,1.2599712465784227,-0.6350736596317396,-1.0238854154909471,-0.479688022182652,1.1628473330774691,0.0089998733966589,-0.4506484211969419,1.071936995721731,11.839088382546834,-0.9239133491806392,0.1083580593357487,-1.044527445960241
1.86,-0.2946564295921995,0.535595512969451,1.247851615512645,0.0272002775161798,0.1323572600291486,0.0114638423637198,-0.6235428334298135,-0.9557360841114,-0.4566161534048308,-0.2838329690100667,0.5525981220385823,1.2551743663565962,-0.6348745001408637,-1.0438854157889703,-0.469362845168778,1.0209224766725178,0.228450865989821,-0.1881235257637614,0.9770887596620176,11.810908969571756,-0.9208277532109974,0.1143966206499899,-1.0449575062182632
1.88,-0.3070447790474112,0.5164675256496716,1.2389243066031888,0.022850550663483,0.13984797444004,0.0112704773987114,-0.6151572864280511,-0.9569588493474456,-0.4372212328955441,-0.2965344422027015,0.5321204137287633,1.2455806059129433,-0.6344761811591119,-1.083885416385017,-0.4487124911410299,1.0582715801045597,0.4192773500881208,-0.0611382618022793,0.969746025464338,11.618737850701107,-0.9144998352162704,0.1197652505086486,-1.0485003365976375
1.9,-0.3192254347895123,0.4973316846391916,1.2303706519917903,0.0195867312228786,0.1478140962081182,0.0111481834827904,-0.6030579295479207,-0.9567569942069668,-0.4191984662307945,-0.3092359153953363,0.5116427054189443,1.2359868454692902,-0.6340778621773601,-1.1238854169810633,-0.4280621371132818,1.085420771708496,0.6049678440065209,0.0100927570239384,0.9011383332374806,11.618737850701107,-0.9073246441765176,0.1238218771022857,-1.053036080657436
1.92,-0.3311275300021394,0.4782099416937901,1.2221655431008474,0.0175711434216555,0.1550698061623478,0.0110918644618739,-0.5876789306223796,-0.9557591984051276,-0.4022458003326579,-0.3219174726388835,0.489164997079323,1.2274256027270245,-0.6336795431956083,-1.1638854175771096,-0.4074117830855336,1.1455370852440845,0.7689499462770533,0.049889790091967,0.8476332949068299,11.539345770826005,-0.8996208933896934,0.1268013402713643,-1.0581685086385608
1.94,-0.3421241112717905,0.4600693199336564,1.2146818970929478,0.0168863863413865,0.1605801751135635,0.0111022807946868,-0.5706687428660575,-0.9540532579840206,-0.3863759196494488,-0.3345990298824308,0.4666872887397018,1.2188643599847588,-0.6332812242138565,-1.2038854181731562,-0.3867614290577855,1.166308099437056,0.8505093878161063,0.0852970210553472,0.7934940341604552,11.493939907083586,-0.8927207185112773,0.1284102183618195,-1.0628262424303236
1.96,-0.3533333333562847,0.4410054196238236,1.2071336364732177,0.0175008427648327,0.1645314659907373,0.0111848576150415,-0.5511880589562712,-0.9525299412802252,-0.3692697131505922,-0.3472706291514341,0.4432095803851793,1.210819376093187,-0.6328829052321047,-1.2438854187692026,-0.3661110750300375,1.2984989797402535,0.974034195489315,0.0761658351897676,0.855310324942829,11.49969006011088,-0.8874515648009145,0.1286278054814112,-1.0662826172511064
1.98,-0.3641413013064175,0.4219671732877348,1.1999343323715728,0.0193510970260194,0.1664286375332798,0.0113292298996747,-0.5307022751805511,-0.951481399887776,-0.35148367696385,-0.3599322704458937,0.4187318720157558,1.2032906510523087,-0.6324845862503529,-1.283885419365249,-0.3454607210022893,1.357488360164957,1.024289188786004,0.0524270696224571,0.8893018093371091,11.54484210175724,-0.8842020768563162,0.1276343751135502,-1.0681675157054125
2.0,-0.3745314481709854,0.4029379415991935,1.1931015652766173,0.022172216089589,0.1661465365562652,0.0115062188139133,-0.5095148473455537,-0.9518219236172164,-0.3326816292265893,-0.3906764150654451,0.374393103293346,1.1823601485233803,-0.4826437988815036,-1.051481401377892,-0.2695527192292652,1.416456894673964,1.0593713917498693,-0.0170261864720189,0.9401023868630344,11.599102046753616,-0.8838955220151067,0.1257910277094082,-1.0677296180565017
2.02,-0.384092562187384,0.3847781470272187,1.1869071098455912,0.0232116824923174,0.1661260221656959,0.0115700524461905,-0.4980608210373878,-0.9591436659640884,-0.3206184872076756,-0.3906764150654451,0.374393103293346,1.1823601485233803,-0.4826437988815036,-1.051481401377892,-0.2695527192292652,0.9087381705290836,0.5727013154082972,-0.3660871173435998,0.6031571009456865,11.665931181451016,-0.8791929529472402,0.1249162355551318,-1.0714867330056246
2.04,-0.3939064800144823,0.3655454360418603,1.1806510434404158,0.0217307861375337,0.1685455627058549,0.011521617528117,-0.4835702433438911,-0.9635818465921208,-0.3054347355701831,-0.3906764150654451,0.374393103293346,1.1823601485233803,-0.4826437988815036,-1.051481401377892,-0.2695527192292652,1.07263764031401,0.7245288846748354,-0.2219090314016181,0.7591875818746263,11.255349799976102,-0.8784577848504047,0.1275743236839262,-1.0704175526812203
2.06,-0.4033972259464728,0.346248036599654,1.1747283222214833,0.01918100505111,0.1720106534376259,0.0114272738529039,-0.4660766029380055,-0.9658411942702234,-0.2876265362296648,-0.3955028530542601,0.3638782892795671,1.1796646213310875,-0.4730321036216942,-1.071481401675915,-0.2531665276823482,1.2532598197626603,0.874682020294279,-0.112967383905127,0.8904099670259125,11.46230932743947,-0.8762570273751775,0.1310998089355138,-1.0705367449651393
2.08,-0.4120647844878929,0.3278994576106187,1.1694481696763526,0.0168270589201904,0.1753546331901008,0.0113473119591519,-0.4471275792690006,-0.9656194177446338,-0.2690871197772668,-0.4051557290318902,0.3428486612520092,1.1742735669465023,-0.4538087131020751,-1.111481402271962,-0.2203941445885143,1.3255420072853747,0.947451183450243,0.0110888262794817,0.926970822619902,11.611882773434443,-0.8737042152581416,0.1350300914186988,-1.070540104831205
2.1,-0.420779996045987,0.30860513924439,1.164285702443758,0.015235107854753,0.1782721505544595,0.0113207997787358,-0.4253476831773807,-0.9639882109722648,-0.2480727012580597,-0.4148086050095202,0.3218190332244514,1.168882512561917,-0.4345853225824562,-1.1514814028680085,-0.1876217614946804,1.5154458873516208,1.0889948045809976,0.0815603386184471,1.0507209259603525,11.723373901947523,-0.8715963079073802,0.1382032470154038,-1.0701209227860775
2.12,-0.429042337984129,0.2893557969745552,1.159559786348574,0.0150896280740038,0.1800907704047838,0.0113874650099259,-0.4020894166387035,-0.9613017149755316,-0.2255733545368528,-0.4235003114611694,0.2987894051670912,1.1651300773320237,-0.4153619320628372,-1.1914814034640546,-0.1548493784008465,1.623564616827506,1.1629133269338592,0.1343247998366659,1.1249673360603452,11.83230074140556,-0.8707306404582348,0.1402007654730357,-1.0685523923420126
2.14,-0.4368306387224545,0.2701661944748826,1.155297145576372,0.0168253106580363,0.1805507765290449,0.0115739647787162,-0.3780812736774496,-0.9581056576837024,-0.2017952600477519,-0.4321920179128185,0.275759777109731,1.1613776421021298,-0.3961385415432182,-1.2314814040601012,-0.1220769953070125,1.6970588441427672,1.200407148062696,0.1598028645914628,1.1889047244550477,11.929328290008016,-0.8727633875095435,0.141126395615982,-1.0640117263456543
2.16,-0.4437787503519808,0.2519794522288947,1.1517024978889956,0.0200485837724192,0.1795450652906027,0.0118399933194761,-0.3546329671027132,-0.9569141514254772,-0.1777577798860067,-0.4404031396014771,0.2517301490374697,1.158444516449582,-0.3769151510235992,-1.2714814046561476,-0.0893046122131786,1.6800619191807389,1.172415328736817,0.0595753129112475,1.20187400808726,12.011922637820136,-0.8776890019833349,0.1407457406447844,-1.0568216250235112
2.18,-0.4506075529501107,0.2328278312202791,1.1484304800279177,0.0238541299047448,0.1766364778089378,0.0121056758374082,-0.3295893811219781,-0.9584210025727254,-0.1505956185314841,-0.4481336765271453,0.2267005209503072,1.15633070037438,-0.3576917605039802,-1.311481405252194,-0.0565322291193447,1.8488069183959912,1.2521792990367568,-0.0753425573624066,1.3581080677261257,12.104897002681357,-0.8847624754978687,0.140071282354945,-1.0477478547340369
2.2,-0.4569348518548328,0.2136257034330467,1.1457218860100589,0.0272737901972975,0.1714248323664061,0.0122749531684818,-0.3047289442261306,-0.9616393522153,-0.1215666602589634,-0.4670870220062096,0.1849067810916428,1.1409006991013435,-0.2352209084266274,-1.0480125951230033,-0.050595617041368,1.9177327208594703,1.2430218447923749,-0.1609174821287307,1.451447913626038,12.225163470392545,-0.8935094806206284,0.1399357442172311,-1.0371425952559223
2.22,-0.4626276888640779,0.1952049192826444,1.1435196438597863,0.0262644531222906,0.1674546060152613,0.0121606208122032,-0.2957419669081014,-0.975438135421972,-0.111663805871631,-0.4670870220062096,0.1849067810916428,1.1409006991013435,-0.2352209084266274,-1.0480125951230033,-0.050595617041368,0.9607792466485392,0.449348865901461,-0.6899391603336025,0.4951427193666174,12.325313559606911,-0.8938310146547124,0.1440374009256423,-1.0327158156130187
2.24,-0.4684401876626384,0.175629262900237,1.1414291948014124,0.0205596945931674,0.1677425790124994,0.0118526581410303,-0.2853799650449362,-0.9805198391617592,-0.0976285812533178,-0.4670870220062096,0.1849067810916428,1.1409006991013435,-0.2352209084266274,-1.0480125951230033,-0.050595617041368,0.9085459889264152,0.5181000931582608,-0.2540851869893612,0.7017612309156589,11.09740440503083,-0.8960681139027451,0.150333377130456,-1.0291120488745729
2.26,-0.4740090099884989,0.1560230362258974,1.1396571691604702,0.0144360168332032,0.1711458701214136,0.0115887530479779,-0.2716444287583571,-0.97984738699629,-0.0801733481429183,-0.4694392310904758,0.1744266551404128,1.1403947429309298,-0.2163472138875573,-1.0659309136330588,-0.0305956167433448,1.111083156128699,0.6867768143289515,0.0336226082734703,0.8727616555199796,11.352474820759198,-0.895762034582936,0.1578050770773598,-1.0266709038434907
2.28,-0.4792661359764329,0.1364651956215945,1.1382627617758807,0.0095082827125319,0.1762685665848959,0.0114288523365014,-0.2544660077813382,-0.976336320851396,-0.0601816985902253,-0.4741436492590084,0.1534664032379527,1.1393828305901026,-0.178599824809417,-1.10176755065317,0.0094043838527016,1.3295598750857311,0.8589210488509469,0.1755533072447024,0.999582477634648,11.689954476215462,-0.8940905421979266,0.1643137658823271,-1.0251056570296526
2.3000000000000003,-0.4839096857096436,0.1179645471971235,1.1373277757524598,0.0063317098584439,0.1816396455997964,0.0113820729551707,-0.2350373170776553,-0.9716997988813152,-0.0392610259761865,-0.478848067427541,0.1325061513354927,1.1383709182492752,-0.1408524357312768,-1.137604187673281,0.049404384448748,1.4462415955349637,0.971434535184143,0.2318260985040343,1.0460336307019404,11.689954476215462,-0.8918085846586562,0.170006110622341,-1.023727431570538
2.32,-0.4883692498706297,0.0985913432391205,1.136793995163753,0.0046101954205913,0.1869653495246546,0.0114454337500975,-0.2117919229462201,-0.9661234942564688,-0.0151279807208868,-0.4816651161421665,0.109754067582027,1.13935900593825,-0.1031050466531365,-1.173440824693392,0.0894043850447945,1.6984164645995894,1.1622697065717629,0.2788152312423131,1.2066522627649825,11.828595407759169,-0.8897128598408289,0.1743340754909275,-1.0221788602950874
2.34,-0.4923372207343238,0.0793393886860656,1.1367585667564153,0.0048138022387209,0.1912785385432917,0.0116480839028947,-0.1862003417817393,-0.959700002831208,0.0103691271674047,-0.4844821648567921,0.0870019838285614,1.140347093627225,-0.0653576575749962,-1.2092774617135031,0.129404385640841,1.8345931287725556,1.2795790582240396,0.3211745712630443,1.2748553944145795,11.986886431626772,-0.8885930969192635,0.1770664904813259,-1.019882727050324
2.36,-0.4956127726746226,0.0611638892718344,1.1372103354973295,0.0068177678061984,0.1939333545348947,0.0119736337656229,-0.1600126357849471,-0.9540470265957334,0.0359254691943066,-0.4863555288444641,0.063353984149593,1.1423351813311011,-0.027610268496856,-1.2451140987336142,0.1694043862368874,1.851268959044887,1.3093852998396065,0.2826488117737336,1.277817101345095,12.077035904377226,-0.8891865908926073,0.1783665528863156,-1.0160355843080449
2.38,-0.498512147550627,0.0421299866879545,1.1382295408337322,0.0104014437551335,0.1948916104175206,0.0124188200684865,-0.131419295825089,-0.950133067518128,0.0647630503236919,-0.4872852081051826,0.0388100685451218,1.1453232690498785,0.0101371205812842,-1.280950735753725,0.2094043868329338,2.0399168188403345,1.4296669979929066,0.1956979538802639,1.4418790564692654,12.178183589280708,-0.8920372315028529,0.178482797502797,-1.010259441903525
2.4,-0.5008292658131913,0.0231429913127143,1.1398473888630696,0.0142632479292293,0.1937144235822454,0.0128651351146518,-0.1019119752908999,-0.9488295587458152,0.095609481591091,-0.5050831123418814,-0.0053766666879518,1.1414676933499168,-0.0314192943349729,-0.984188848137511,0.164763051813808,2.135347408597281,1.4753660267094535,0.06517543861565,1.5423215633699547,12.435827169060758,-0.897412680572408,0.1785481962174266,-1.0023253293678902
2.42,-0.5025120800236657,0.0049020290270083,1.1417315113588948,0.0106011127686884,0.1898540002322899,0.0127473490418911,-0.0770422709094514,-0.9683367050918504,0.0999355202743667,-0.5050831123418814,-0.0053766666879518,1.1414676933499168,-0.0314192943349729,-0.984188848137511,0.164763051813808,1.5951062388407538,1.2434852190724266,-0.9753573173017672,0.2163019341637866,10.59206749765326,-0.9063946234391892,0.188364061163286,-0.986076946677309
2.44,-0.5038046246179072,-0.0145063692997369,1.143803195998923,-0.0014072254896868,0.1826964272721061,0.0121094703035035,-0.0540108235327562,-0.9702664586967836,0.1075149251763613,-0.5050831123418814,-0.0053766666879518,1.1414676933499168,-0.0314192943349729,-0.984188848137511,0.164763051813808,1.2161608609777026,1.1515723688347592,-0.0964876802466541,0.378970245099728,10.91395506005756,-0.9092216284440136,0.1990156763796293,-0.9815368606307656
2.46,-0.5046785861246603,-0.0338361362844842,1.146074154580199,-0.0140068496373726,0.1742127091664435,0.0115793660817216,-0.034870796443565,-0.9625291915436528,0.1193714778167151,-0.5053973052852312,-0.0152185551693269,1.143115323868055,-0.0114192940369497,-0.9910000042613876,0.1847630521118312,1.1903610591826437,0.9570013544595586,0.3868633576565417,0.5928276320176902,10.91395506005756,-0.9168456831268136,0.2117732342033703,-0.9704822140883947
2.48,-0.5052087356318422,-0.0529490878308038,1.1486168827089658,-0.0245804611958176,0.1659100685201828,0.0113344694355804,-0.0192599305778318,-0.9496717826806824,0.1343295269112042,-0.5060256911719306,-0.0349023321320771,1.1464105849043311,0.0285807065590967,-1.0046223165091406,0.2247630527078777,1.2577314185276671,0.7805432932866607,0.6428704431485133,0.7479024547244556,11.126840457690378,-0.9251703921567768,0.2226655800049848,-0.9583916930168584
2.5,-0.5054519001821042,-0.0708403840634949,1.1513331508172948,-0.0321134791411921,0.1591491304664087,0.0113550740853642,-0.0071833985315594,-0.9348849803363274,0.1508766950538806,-0.5066540770586301,-0.0545861090948273,1.149705845940607,0.0685807071551432,-1.0182446287568938,0.2647630533039241,1.2632309006845024,0.6038266023136202,0.7393401172177516,0.8273584071338186,11.290910750214609,-0.9335449779490356,0.232085860596943,-0.9458319662800748
2.52,-0.5054853675719568,-0.0893594892232781,1.154556827922912,-0.0375058799960285,0.1540591091478775,0.0115614469323023,0.003042157406955,-0.9182406672757344,0.1707617126807799,-0.5052824629155273,-0.0749510016699652,1.1550011070066857,0.1085807077511896,-1.031866941004647,0.3047630538999705,1.39374412781975,0.5112777969257236,0.8322156530296554,0.9942508813449644,11.602128202507629,-0.9401822660798198,0.2392877763977986,-0.9351389739102453
2.54,-0.5053379447936003,-0.1075396156463503,1.1581919666828753,-0.0405998870098169,0.1519596901689927,0.0118586230376213,0.0113438713320702,-0.9010478338156832,0.1918086973394268,-0.5039108487724243,-0.0953158942451031,1.1602963680727645,0.1485807083472361,-1.0454892532524,0.3447630544960171,1.4208162616088154,0.4150856962557629,0.859641673002548,1.0523492329323467,11.656707039002868,-0.944599859625278,0.2447022864831001,-0.926761851926355
2.56,-0.505012610103492,-0.1253730088809115,1.162259179828038,-0.0416737288083487,0.1526893605526716,0.0122049736921088,0.0210966819635523,-0.8835391569193579,0.2138658586434085,-0.5015392346144203,-0.1160213446264348,1.166591629153744,0.1885807089432825,-1.0591115655001533,0.3847630550920635,1.4901253694432368,0.4876405315741065,0.8754338448162702,1.1028580651990847,11.702868994531856,-0.945872331149645,0.247956846724086,-0.9225283865231798
2.58,-0.504500309446761,-0.1419865234095696,1.1665431545972456,-0.0408173463661329,0.1549417591349626,0.0126153201779457,0.0325254632026633,-0.8664245506459494,0.2359844117820648,-0.4981676204415151,-0.1370673528139603,1.173886890249625,0.2285807095393289,-1.0727338777479063,0.4247630556881099,1.5105935765890277,0.5714390619555479,0.8557303136704275,1.1059276569328147,11.702868994531856,-0.9453567877595696,0.2499763468930055,-0.9200554179978386
2.6,-0.5037023484676029,-0.1591259018324534,1.1715229335861514,-0.0377986589006604,0.157988353759379,0.0131848288236406,0.0468348076867436,-0.8488294392036504,0.2609250419023686,-0.5028740362866279,-0.1853077509418671,1.1783423751863489,0.1325254646927794,-0.8270245579713602,0.3359844132721809,1.685512026825087,0.715467224204017,0.8797555721149486,1.2470315060151893,11.777724496781955,-0.9444913671137404,0.2505832831001917,-0.9179238278720048
2.62,-0.5026071160715102,-0.1761932918809074,1.176752260033895,-0.0411547759822856,0.1600183236150356,0.013366072776817,0.061655903928681,-0.855774359158776,0.2592516183174413,-0.5028740362866279,-0.1853077509418671,1.1783423751863489,0.1325254646927794,-0.8270245579713602,0.3359844132721809,0.8226438377123797,0.7410548120968657,-0.3472459977562792,-0.083671179246364,11.886307340806525,-0.9452357678858854,0.2582097769099749,-0.9104225592547928
2.64,-0.5012239746090108,-0.1932247012717516,1.1819332084079566,-0.0521576987145495,0.1601146152840966,0.013117075063626,0.0758167539471258,-0.845910537769024,0.2593162276225177,-0.5028740362866279,-0.1853077509418671,1.1783423751863489,0.1325254646927794,-0.8270245579713602,0.3359844132721809,0.8628858847149478,0.7080425009222412,0.4931910694875974,0.00323046525382,10.047824498597947,-0.942293472320536,0.2672321009543918,-0.910835776521128
