t,x,y,z,roll,pitch,yaw,v_x,v_y,v_z,ref_x,ref_y,ref_z,ref_v_x,ref_v_y,ref_v_z,a_com,a_x,a_y,a_z,thrust,wind_x,wind_y,wind_z
0.0,-0.3074517285054943,-0.0678666435836402,2.208761396220833,0.0211022832107785,0.0994287429282227,0.041551547951235,0.002091060204658,-0.0009336801901895,-0.0001051896579047,-0.3073808111601034,-0.0679833505393111,2.208755837270002,0.0898558350315292,0.0441200836300598,-0.100161144549023,0.1146228199485931,0.1045530102329022,-0.0466840095094771,-0.0052594828952383,10.258410008296778,-0.9407008152389668,0.2600632301120763,-0.8774751597947178
0.02,-0.3075022962674346,-0.0680107583501731,2.208644992090894,0.0160988453726266,0.1022000564673087,0.0412681055955538,-0.0068738045919994,-0.0111717986236119,-0.012058633468194,-0.3073808111601034,-0.0679833505393111,2.208755837270002,0.0898558350315292,0.0441200836300598,-0.100161144549023,0.905638847450894,-0.448243239832873,-0.5119059216711184,-0.5976721905144625,9.584493361624936,-0.9291186377081048,0.2628039207192996,-0.8892420941801075
0.04,-0.3077053372317985,-0.0682675192011214,2.208199750152981,0.0060345469084939,0.1093861208638242,0.0406715167498304,-0.0124180958761997,-0.0126978407058584,-0.0318111180016991,-0.3073808111601034,-0.0679833505393111,2.208755837270002,0.0898558350315292,0.0441200836300598,-0.100161144549023,1.0286260442055752,-0.2772145642100141,-0.0763021041123267,-0.987624226675254,9.584493361624936,-0.9200756957062672,0.2665210209646063,-0.9016554789031612
0.06,-0.3079621277763534,-0.0684589565673662,2.2073959693514675,-0.0044137132714402,0.1182033853047739,0.0399847298485435,-0.0139703396048081,-0.0072541008573678,-0.0518474973993072,-0.3064822528097882,-0.0675421497030105,2.2077542258245115,0.1073791341891487,0.0535573064088569,-0.1201611448470462,1.0410334570703568,-0.0776121864304206,0.2721869924245283,-1.001818969880406,9.14185541875304,-0.9066239307336404,0.2709158374287149,-0.9188549944182508
0.08,-0.3082298659362116,-0.0685074273064434,2.206131013129111,-0.0145427705314929,0.1283266744595051,0.0392285741349821,-0.0123674184062391,0.0021049336977327,-0.0736718985420769,-0.3046851361091576,-0.0666597480304093,2.205751002933531,0.1424257325043877,0.0724317519664513,-0.1601611454430927,1.1900266482446094,0.0801460599284463,0.4679517277550324,-1.091220057138488,9.14185541875304,-0.8910540010974876,0.2755747173380634,-0.9368732119713048
0.1,-0.3084348625698458,-0.0683421961372775,2.2044265387988062,-0.0232020440876558,0.1386105176860939,0.0384863788450679,-0.0079041467077472,0.0138154688569135,-0.0957338860335248,-0.302888019408527,-0.0657773463578081,2.2037477800425505,0.1774723308196266,0.0913061975240455,-0.2001611460391391,1.268649597053664,0.2231635849245956,0.5855267579590409,-1.1030993745723916,9.128853999693092,-0.8743377506860358,0.2797114925048407,-0.9551547415331691
0.12,-0.3085234413224727,-0.0679252750876752,2.2022808821729645,-0.0302538291641663,0.1486711552454683,0.0377912783612728,-0.0008994949649523,0.0270092230297283,-0.1177964630685634,-0.2993385727921344,-0.0639512224073272,2.199744557121768,0.2125189291348656,0.1101806430816398,-0.2401611466351856,1.332195181493241,0.3502325871397471,0.6596877086407398,-1.103128851751933,9.18362990746391,-0.8578210618062678,0.282953404898984,-0.9724125130348958
0.14,-0.3084565685173863,-0.0672760978923969,2.199829409076349,-0.0356275456022283,0.1578459403326083,0.0371859639450979,0.0078084986554467,0.0404302261429955,-0.139206587272523,-0.2957891261757419,-0.0621250984568463,2.195741334200985,0.2475655274501045,0.1290550886392342,-0.2801611472312321,1.3363625031107862,0.4353996810199524,0.6710501556633558,-1.0705062101979772,9.18362990746391,-0.8399754808812234,0.2857355373910606,-0.9902442296176645
0.16,-0.3081870698584984,-0.0663086814551705,2.196802883850076,-0.0399944751741396,0.1670176247909881,0.0366198147023094,0.0189168843601517,0.0554088229946235,-0.1623848525406451,-0.2913635146014684,-0.0598271133674255,2.190738111265301,0.2826121257653435,0.1479295341968285,-0.3201611478272785,1.4874361981674495,0.5554192852352526,0.7489298425814028,-1.158913263406107,9.18955549196744,-0.8218335547561533,0.287733399918709,-1.0078080945825127
0.18,-0.3076752206920976,-0.0650332507263907,2.193309422514921,-0.0430344011687267,0.1756597854103149,0.036144450491391,0.0319345483297233,0.0710465858733896,-0.1858572364384323,-0.2860617380693139,-0.0570572671390649,2.184734888314716,0.3176587240805824,0.1668039797544227,-0.3601611484233249,1.5531838340343804,0.6508831984785807,0.7818881439383054,-1.1736191948893568,9.20525052751509,-0.8044983752779428,0.2887130836042174,-1.0243140824948458
0.2,-0.3068838826965241,-0.0634418937165821,2.1893444088900065,-0.0448790940088837,0.1837691938497611,0.0357647053763943,0.0467509429959179,0.087028043165635,-0.2095216012906196,-0.3060784932756114,-0.0614809214327213,2.184016560692999,0.1073622667902832,0.1184357988691572,-0.2858572379285484,1.6085200433517617,0.7408197333097294,0.7990728646122699,-1.1832182426093656,9.20525052751509,-0.7872816165135357,0.2890080270324204,-1.0402886748732283
0.22,-0.3057947160358725,-0.0615317695738873,2.18533331242311,-0.0426655110241916,0.1905516211522221,0.0357271757477474,0.0672937237057647,0.1123746385800514,-0.2114984925105316,-0.3060784932756114,-0.0614809214327213,2.184016560692999,0.1073622667902832,0.1184357988691572,-0.2858572379285484,1.6342917711430314,1.027139035492339,1.267329770720818,-0.0988445609956006,9.225782276215796,-0.7759682560128401,0.284508411549526,-1.053228757261128
0.24,-0.3042092055493038,-0.0590724569150702,2.181060824890193,-0.0352934204387123,0.1962453329077462,0.0361358106389804,0.0902192779607854,0.1311200777336699,-0.215863187208013,-0.3060784932756114,-0.0614809214327213,2.184016560692999,0.1073622667902832,0.1184357988691572,-0.2858572379285484,1.496682236451789,1.1462777127510322,0.9372719576809267,-0.218234734874069,10.555843340973295,-0.7648454057709057,0.2811371846042113,-1.0584672810763651
0.26,-0.3021545789194966,-0.0563090364730014,2.1766564725229065,-0.0267566134011046,0.2003619597835651,0.0367183557373139,0.1140319253918515,0.1440031427032083,-0.2243348687208015,-0.3050048706077086,-0.0602965634440297,2.1811579883137133,0.1224478104823951,0.1279136414683107,-0.3058572382265717,1.418436576251938,1.1906323715533054,0.6441532484769182,-0.4235840756394243,10.311427938597262,-0.7561997157634899,0.2763223582743628,-1.0628961652616964
0.28,-0.2996204596008218,-0.0533268028876758,2.1720485343714966,-0.0186492212042208,0.2028288972922198,0.0373367692546632,0.1380648785674869,0.1535802067653898,-0.2360284427486307,-0.3028576252719029,-0.0579278474666465,2.1754408435551427,0.1526188978666191,0.1468693266666178,-0.3458572388226181,1.4195445290107478,1.2016476587817724,0.4788532031090767,-0.5846787013914639,10.091466188704544,-0.7496474274911977,0.2709248633813374,-1.0664264749633474
0.3,-0.2967699937404423,-0.0503374227666378,2.1674293297484373,-0.0118614652030283,0.2037404994088345,0.0378924105080075,0.1606509530469677,0.1607282473857937,-0.2496113046833365,-0.3007103799360973,-0.0555591314892634,2.169723698796572,0.182789985250843,0.1658250118649248,-0.3858572394186645,1.3653931516607931,1.129303723974041,0.3574020310201944,-0.6791430967352879,9.918389623782788,-0.744107777102409,0.2655173309155195,-1.0702858544226863
0.32,-0.2933127029938066,-0.0470581204284174,2.162266133634421,-0.0058062208049211,0.2034099429586953,0.0384100942219139,0.1838077859241855,0.1669062440293778,-0.2660924918574459,-0.2970545802310804,-0.0522426312519649,2.1620065540081983,0.212961072635067,0.1847806970632318,-0.425857240014711,1.4543349700976376,1.1578416438608894,0.3088998321792019,-0.8240593587054701,9.78043615552997,-0.7393239738309572,0.2604446557079881,-1.074362314678387
0.34,-0.2893947781277698,-0.0436669468950648,2.1567607005395057,-0.0008749132297498,0.2018363442577693,0.0388426570770193,0.2067271226428246,0.1720815069496314,-0.2836106473873096,-0.2933987805260635,-0.0489261310146664,2.154289409219825,0.2431321600192909,0.2037363822615389,-0.4658572406107575,1.4654053322243337,1.145966835931954,0.2587631460126832,-0.8759077764931844,9.615917518025526,-0.7366982024975263,0.2559443713924609,-1.0774833700378563
0.36,-0.2850175897481368,-0.0401755492720183,2.150898017224641,0.0031873959350597,0.1988321314420318,0.039197024667366,0.2297205289987973,0.1768800427092474,-0.301762130126179,-0.2889887036364411,-0.0451357386474102,2.1455722644165505,0.2733032474035148,0.2226920674598459,-0.5058572412068039,1.4842498163269835,1.1496703177986358,0.2399267879807987,-0.9075741369434704,9.615917518025526,-0.7367069999050694,0.2521133908379245,-1.0784388819274648
0.38,-0.2804363520754691,-0.0367741924020654,2.144986155554891,0.0064457962150093,0.1943553493649237,0.039465495326038,0.2511548309380149,0.180967060374523,-0.3196011581401921,-0.283824349562213,-0.0408714541501964,2.1358551195983746,0.3034743347877388,0.2416477526581529,-0.5458572418028503,1.409223131287737,1.071715096960879,0.2043508832637805,-0.8919514007006552,9.583340384621806,-0.7382170873949359,0.248738560626581,-1.0784956840396511
0.4,-0.2751948524661544,-0.0331151178352661,2.138389992862632,0.0093573817884207,0.188145483641826,0.0396773364739514,0.2715411072528818,0.1847360562289225,-0.3390808280138403,-0.2678786105285684,-0.0277258393833392,2.1290060976478813,0.242670315576527,0.1959844580762633,-0.4196011596303082,1.4223775255913051,1.0193138157433417,0.1884497927199746,-0.9739834936824092,9.54509853174659,-0.741277369074874,0.2459195958230035,-1.0773448727366204
0.42,-0.269385332723829,-0.0293066444825517,2.131642908131992,0.0142779300451931,0.1765542941250148,0.0399298055806678,0.3077265960051011,0.1945581103984678,-0.3331313462467542,-0.2678786105285684,-0.0277258393833392,2.1290060976478813,0.242670315576527,0.1959844580762633,-0.4196011596303082,1.8981956416840755,1.8092744376109693,0.4911027084772645,0.2974740883543048,9.489898171145796,-0.7537944706443112,0.2368897959309994,-1.0751960655620516
0.44,-0.2632546204426821,-0.0255653330305126,2.125350868918639,0.0208931229618732,0.157900051092977,0.0400810210316554,0.3344828503906413,0.1983272595424934,-0.3294216401139869,-0.2678786105285684,-0.0277258393833392,2.1290060976478813,0.242670315576527,0.1959844580762633,-0.4196011596303082,1.3636949380315406,1.3378127192770095,0.1884574572012812,0.1854853066383638,10.737978427239796,-0.7755836838165914,0.239944363835155,-1.0481351954610365
0.46,-0.2563691504551431,-0.0215938024794308,2.118754156867765,0.0278208259789743,0.1337977514954549,0.0399629340843212,0.3515249377681229,0.198511136160033,-0.3305877284651152,-0.2654519073728031,-0.0257659948025766,2.1248100860515784,0.2409734125042295,0.1989879376166113,-0.4396011599283314,0.8541462328472099,0.8521043688740793,0.0091938308769773,-0.0583044175564151,10.737978427239796,-0.8021661044582581,0.2402696311058134,-1.0201106684734995
0.48,-0.2492566446860415,-0.0176450168455117,2.112077638742595,0.0339310867340754,0.1082228740578358,0.0395539804080426,0.3580122169268749,0.1963884768497842,-0.3371925905348423,-0.2605985010612725,-0.0218463056410513,2.116418062858972,0.2375796063596343,0.2049948966973074,-0.4796011605243779,0.4749070340368818,0.3243639579376012,-0.1061329655124385,-0.3302431034863523,10.320282034747834,-0.8281455368378259,0.238211692986306,-0.9955028418303388
0.5,-0.2421128314952873,-0.0137552125121211,2.105215265634248,0.0389867556636822,0.0835938473834423,0.038937519400045,0.3554442196009441,0.1927940969556158,-0.3489192543350624,-0.255745094749742,-0.0179266164795261,2.108026039666366,0.2341858002150392,0.2110018557780035,-0.5196011611204243,0.6265557057696116,-0.1283998662965441,-0.1797189947084207,-0.5863331900110041,9.961049321072096,-0.8500133734696863,0.2342450233585719,-0.9772798870703296
0.52,-0.235447888109116,-0.0101372693100829,2.0984308240924325,0.0427677417428502,0.0627076048206815,0.0382620098490824,0.3460972261747229,0.1884196711786707,-0.3646376178663713,-0.2510613787454412,-0.013706579363966,2.097634016443957,0.230791994070444,0.2170088148586996,-0.5596011617164708,0.9401713129666904,-0.467349671311057,-0.2187212888472539,-0.7859181765654449,9.669750852024665,-0.8688961562653433,0.2279617319988671,-0.9649868845083938
0.54,-0.2286771745266708,-0.0064245161164349,2.090939239585325,0.04579471176023,0.0443003825954582,0.0375545321424251,0.3312885905788533,0.183211731794496,-0.3838212942296077,-0.2463776627411404,-0.0094865422484059,2.087241993221549,0.2273981879258489,0.2230157739393957,-0.5996011623125173,1.2393867028190717,-0.7404317797934795,-0.2603969692087343,-0.959183818161824,9.437267957434416,-0.8831790227048765,0.2199069379885472,-0.9599397868497104
0.56,-0.2222456342270955,-0.002821545792056,2.0830404183137685,0.0479439325438746,0.0300922324773736,0.0369258832397833,0.3127523276438659,0.1775373582592154,-0.4051129051811499,-0.2417787918904545,-0.0051163311558285,2.0758499699842394,0.2240043817812537,0.2290227330200918,-0.6396011629085636,1.439725890165131,-0.9268131467493724,-0.2837186767640318,-1.0645805475771069,9.242033586548132,-0.8928546506428743,0.2115039999001451,-0.9605251324560548
0.58,-0.216502063845766,0.0004916189720808,2.075127077983568,0.0492529968157685,0.0205587936837271,0.0364414520646345,0.2929014410469979,0.1716173935505852,-0.4268192807307469,-0.2372647661933835,-0.0005959460862336,2.063457946732029,0.2206105756366586,0.2350296921007879,-0.6796011635046101,1.5002253333526956,-0.9925443298434006,-0.2959982354315091,-1.085318777479849,9.242033586548132,-0.8993868955345465,0.2029248855400832,-0.9649904911564468
0.6,-0.2108808157522508,0.0038521500891325,2.066337443345534,0.0497410972969547,0.0147900293957787,0.0360685287504219,0.2702241966054345,0.1648045048318784,-0.4510778083566055,-0.2018569917934161,0.0090724886496101,2.0537861139470306,0.243582352587983,0.170305945729959,-0.5132593745460736,1.694955036815467,-1.1338622220781691,-0.3406444359353416,-1.2129263812929336,9.18692720037734,-0.902338077521068,0.195497186538658,-0.9721910564691066
0.62,-0.2056871693756673,0.0071149395879146,2.057368097858403,0.0509951297017888,0.0125617173944475,0.0359206712157992,0.2506038145718062,0.1613484686788541,-0.4430189591561818,-0.2018569917934161,0.0090724886496101,2.0537861139470306,0.243582352587983,0.170305945729959,-0.5132593745460736,1.074533186402014,-0.9810191016814156,-0.1728018076512127,0.4029424600211884,9.139591597870094,-0.9066755094100758,0.1836894410831196,-0.9826744109813048
0.64,-0.2008736630468358,0.0102786503138373,2.048570229587493,0.0537423726834881,0.0121971476533013,0.0359631592943557,0.2319055073119444,0.1549083739236359,-0.4373566031181986,-0.2018569917934161,0.0090724886496101,2.0537861139470306,0.243582352587983,0.170305945729959,-0.5132593745460736,1.0285472652499634,-0.9349153629930856,-0.3220047377609114,0.2831178018991603,11.123208848359354,-0.9080006171162603,0.1808388049321866,-0.982250430885274
0.66,-0.1966409297187609,0.0131408205474155,2.0402604648530254,0.0562522962967784,0.0131508365442171,0.0360601025418512,0.2147368233118334,0.1468244764582987,-0.4376137489782302,-0.1994211682675362,0.0107755481069097,2.0486535202015697,0.23371853489618,0.1700436561658337,-0.5305473933091389,0.948919428243363,-0.8584342000055506,-0.4041948732668596,-0.0128572930015807,10.406015699442833,-0.907765366256652,0.176768247412646,-0.9848859012651908
0.68,-0.1925283033605764,0.0159798562939937,2.0314616073335863,0.0582367016770857,0.0151501857244067,0.0361688424691617,0.1975661944372653,0.1376531000166914,-0.4424490793354522,-0.1945495212157766,0.0141816670215088,2.038388332710648,0.213990899512574,0.1695190770375833,-0.5651234308352696,1.0029021156689386,-0.8585314437284053,-0.458568822080363,-0.2417665178611,10.406015699442833,-0.906229452769694,0.1721849108234234,-0.9901458758668168
0.7000000000000001,-0.1887494941088274,0.0186285144235082,2.02252104251734,0.0592754865909575,0.0178372253957917,0.0362491026599953,0.181314738867408,0.1278449286879006,-0.4513356182901591,-0.1896778741640169,0.017587785936108,2.028123145219727,0.1942632641289681,0.1689944979093328,-0.5996994683614003,1.0479511051898884,-0.8125727784928649,-0.4904085664395402,-0.4443269477353462,9.938001855547554,-0.904024332790998,0.1682156519753838,-0.9961614579556052
0.72,-0.1852852113897553,0.0210752998899332,2.013370909614415,0.0590330236759733,0.0209261589399923,0.0362601626645636,0.1660435397596006,0.1175240950449217,-0.463218471641581,-0.1857926088814376,0.0209676758942947,2.0161291558524987,0.1745356287453621,0.1684699187810823,-0.634275505887531,1.096507333591234,-0.7635599553903707,-0.5160416821489474,-0.5941426675710959,9.938001855547554,-0.9013068736254436,0.1651321453763657,-1.0028094380627446
0.74,-0.1822671858789876,0.0232061352709354,2.0044473250173143,0.057329696721118,0.0239994603325389,0.0361704059440471,0.1524844892965726,0.1074991463659948,-0.4755002409276403,-0.1819073435988582,0.0243475658524813,2.0041351664852707,0.1548079933617561,0.1679453396528318,-0.6688515434136617,1.0430595647781218,-0.6779525231514024,-0.5012474339463453,-0.614088464302967,9.73489917112238,-0.8981616521862721,0.1627946039720476,-1.0105411858430946
0.76,-0.1793610135020263,0.0252529279488326,1.9947941802404443,0.0540010369982992,0.0272248397927856,0.0359593107463302,0.1389148238116849,0.0982284644529552,-0.4891765327213322,-0.178515269200869,0.0277143413324617,1.9912767761798893,0.1350803579781502,0.1674207605245813,-0.7034275809397923,1.069020955981117,-0.6784832742443819,-0.4635340956519782,-0.6838145896845921,9.73489917112238,-0.8955757645437987,0.1626675830879317,-1.0164917843333552
0.78,-0.1767201454861393,0.0271401191694376,1.984860726241462,0.0500003166862733,0.0303842598834838,0.0356868897022311,0.1259244013257534,0.091158205255005,-0.5035088703642824,-0.1756163856874699,0.0310680023342359,1.977553984936355,0.1153527225945443,0.1668961813963309,-0.738003618465923,1.029751843650595,-0.6495211242965745,-0.3535129598975089,-0.7166168821475083,9.692145795122087,-0.8931214683511796,0.1638373680550185,-1.021142342750692
0.8,-0.1743331265289137,0.0289018890235668,1.9746318341031943,0.0458941028094973,0.0334542754944719,0.0353918677513329,0.1135035760007715,0.0855060654420298,-0.5186621189720987,-0.1704239254198517,0.0316980294321879,1.959685282723248,0.1411820122651965,0.0865454977220627,-0.5263776209811905,1.0196133208101714,-0.621041266249095,-0.2826069906487614,-0.7576624303908153,9.653998225258874,-0.8904714615491052,0.1652772423263853,-1.0259830564236694
0.8200000000000001,-0.1723713530698708,0.0305045403989826,1.964940575172284,0.0434168104979606,0.0391952954633711,0.0353256968997264,0.0946481356511809,0.0827156094333964,-0.5006685250679249,-0.1704239254198517,0.0316980294321879,1.959685282723248,0.1411820122651965,0.0865454977220627,-0.5263776209811905,1.3106140708665992,-0.9427720174795312,-0.1395228004316698,0.8996796952086883,9.611428546624666,-0.8870644283308061,0.1619141460632517,-1.0360072385737051
0.84,-0.1706331933775151,0.0321097159278626,1.9551098178027029,0.0422713898935479,0.0495667378543651,0.035530847711275,0.0808622161071003,0.0779343611847709,-0.483623270449898,-0.1704239254198517,0.0316980294321879,1.959685282723248,0.1411820122651965,0.0865454977220627,-0.5263776209811905,1.1218874915563235,-0.689295977204031,-0.2390624124312734,0.8522627309013459,11.809096318979757,-0.8802658676017454,0.1636762043061404,-1.0399150785391555
0.86,-0.1691135772859902,0.0336144431124601,1.945574982033809,0.0416796020889758,0.0620197198895739,0.0358499161459785,0.0723336427403902,0.0728275787250414,-0.4706866931884063,-0.1690121052971997,0.0325634844094085,1.954421506513436,0.1442335344530852,0.0856229562154742,-0.530951371104572,0.815737123718331,-0.4264286683355052,-0.255339122986474,0.6468288630745861,11.208191328227258,-0.8698130201020349,0.1646317025501511,-1.0476181165958591
0.88,-0.1677863173199889,0.0349488772833452,1.9367262685316384,0.0412977696424225,0.0745555892802281,0.0361859247272541,0.0682055725875034,0.0679627422706771,-0.4614080119963266,-0.1661884650518958,0.0342943943638497,1.9438939540938125,0.1503365788288624,0.0837778732022973,-0.5400988713513353,0.5630309085190616,-0.2064035076443406,-0.2432418227182188,0.463934059603982,11.208191328227258,-0.8567656046072243,0.1652212035363252,-1.057738639115502
0.9,-0.1664361738674591,0.03625490952211,1.9275774958990564,0.0409134755771905,0.0877882833335476,0.036533778437878,0.0674271760366444,0.0629558463625056,-0.4540826731938526,-0.1633648248065919,0.036025304318291,1.9333664016741885,0.1564396232046397,0.0819327901891204,-0.5492463715980985,0.4453523784507171,-0.0389198275429464,-0.2503447954085733,0.3662669401236995,11.01596955424884,-0.8430362863384954,0.1657506128463886,-1.068286426973798
0.92,-0.1650603075130614,0.037462067562975,1.9185517336409712,0.0404168105517141,0.100444878664284,0.0368409182198622,0.0705168658270571,0.0580740093309382,-0.4489719909722071,-0.1602360323424991,0.0376639601220734,1.9223814742422265,0.1625426675804169,0.0800877071759435,-0.5583938718448618,0.3856733999591056,0.1544844895206308,-0.2440918515783711,0.2555341110822756,10.874725925719758,-0.8301820020674142,0.1662868737923361,-1.078023272002429
0.94,-0.1635791284444014,0.0385729135759877,1.9096201381198064,0.0396880257226527,0.1117090536449507,0.0370647207226069,0.0775716719568326,0.0533378098339031,-0.4444760126287971,-0.1571072398784063,0.0393026159258558,1.9113965468102645,0.1686457119561941,0.0782426241627666,-0.567541372091625,0.4806654149947916,0.3527403064887788,-0.2368099748517524,0.2247989171705017,10.760248520100504,-0.8176347502733247,0.1668728412935442,-1.0875549033533345
0.96,-0.1620100850541417,0.0395423063708881,1.9012150020109264,0.0387079391578702,0.1205150121505933,0.037170619555502,0.0872289805176121,0.0490177356601537,-0.4405316269196407,-0.1538258713049191,0.0408951446543088,1.9001829318721333,0.1747487563319714,0.0763975411495897,-0.5766888723383882,0.5645458974419136,0.4828654280389755,-0.2160037086874684,0.1972192854578169,10.753855568418658,-0.8065800007132442,0.1679370711476631,-1.0955965543252206
0.98,-0.1601389276693915,0.0404777110481889,1.8924438037985625,0.0373382460310709,0.1274769855526756,0.0371570144777586,0.0993773505616268,0.0448200797224526,-0.4368307839549198,-0.1503919266220374,0.0424415463074324,1.8887406294278333,0.1808518007077486,0.0745524581364127,-0.5858363725851514,0.668766492781961,0.6074185022007316,-0.209882796885057,0.1850421482360448,10.7548420821131,-0.7975299406054628,0.169554503223817,-1.1017952536942124
1.0,-0.1580099990033709,0.0413337683710578,1.8837412853595936,0.0356297132130479,0.1319819072222335,0.0370172923732874,0.1128204201309107,0.0410702983474765,-0.4336327989324987,-0.1551700601413101,0.0427187150343115,1.8706022646008165,0.1170771100151619,0.045334527236886,-0.4674724943406,0.715898191100444,0.6721534784641957,-0.1874890687488073,0.1598992511210567,10.745827569691755,-0.7909081889759186,0.171664523454369,-1.1059540036788806
1.02,-0.1555725691741815,0.0421191017886041,1.8751880027842651,0.0336569497776636,0.1334046528903684,0.0367433193813767,0.1302256938615919,0.0377668000672868,-0.4213888275701321,-0.1551700601413101,0.0427187150343115,1.8706022646008165,0.1170771100151619,0.045334527236886,-0.4674724943406,1.0767677201346757,0.8702636865340604,-0.1651749140094822,0.6121985681183301,10.729588463613254,-0.7899250699073136,0.1726827891880713,-1.1072748368379774
1.04,-0.1529317650661333,0.0428125136021346,1.867284296825408,0.0317417741073171,0.1311820181949028,0.0363611967362073,0.1466395034286979,0.0354359433110918,-0.4112226320948392,-0.1551700601413101,0.0427187150343115,1.8706022646008165,0.1170771100151619,0.045334527236886,-0.4674724943406,0.9723651168221036,0.8206904783552987,-0.1165428378097483,0.5083097737646453,11.352396994834637,-0.7909602847082052,0.1766361741398597,-1.1038751956671689
1.06,-0.1498363800838308,0.0435011564480806,1.859150611774524,0.0298172048625104,0.1254028295119267,0.0358662175664451,0.1614468552078198,0.0335745613626995,-0.4027463513424972,-0.1539992890411585,0.0431720603066803,1.8659275396574104,0.1206170619058689,0.0454374167397727,-0.4736008364177361,0.8581517127830446,0.7403675889560964,-0.0930690974196176,0.4238140376170984,11.182558696284104,-0.7948245788789909,0.1805960090773065,-1.0984464681818962
1.08,-0.1464874320201711,0.0441575508715871,1.8511624489854683,0.0280515253820408,0.1173227682130708,0.0353299299064601,0.1722528623483604,0.0321562297050183,-0.3964422701616816,-0.1516577468408553,0.0440787508514181,1.8565780897705983,0.1276969656872829,0.0456431957455461,-0.4858575205720082,0.6295293768898086,0.5403003570270278,-0.0709165828840591,0.3152040590407828,11.024257592958747,-0.8019584299211842,0.1841733827956439,-1.090738658292019
1.1,-0.1429649548172754,0.04478943614862,1.8432816128650933,0.0264747230597559,0.1081890199505214,0.0347959777687363,0.1791084770630918,0.0311029189519029,-0.3919190307560391,-0.1493162046405521,0.0449854413961558,1.8472286398837865,0.134776869468697,0.0458489747513194,-0.4981142047262802,0.4140308303140811,0.3427807357365697,-0.052665537655768,0.2261619702821238,10.883925286786509,-0.8103041992932215,0.1872479547850559,-1.0822576573549123
1.12,-0.13952699325982,0.0453738456063511,1.8358635060468305,0.0251983004873803,0.0994456627569831,0.0343192660760679,0.1822332150552919,0.030468132614796,-0.3891353371058052,-0.1466206672511781,0.0459024208911822,1.837266355789261,0.141856773250111,0.0460547537570928,-0.5103708888805524,0.2116358402541312,0.1562368996100044,-0.0317393168553488,0.1391846825116949,10.763567537472229,-0.8196541483941187,0.1897958116445378,-1.0732903089060513
1.14,-0.1358755931636289,0.0459794025890046,1.8281021870121168,0.0241681429745983,0.0908760642243771,0.0338701467836155,0.1825414942527675,0.0301283823721062,-0.3871741718701249,-0.1439251298618042,0.0468194003862086,1.8273040716947355,0.148936677031525,0.0462605327628662,-0.5226275730348244,0.1007054538325127,0.015413959873782,-0.0169875121344892,0.0980582617840147,10.659282419262126,-0.8289531238847081,0.1915829046459151,-1.0647132598420843
1.16,-0.1322447725837336,0.0465809911483528,1.820369587366237,0.0235377508814795,0.0834249897302667,0.0334868156191999,0.1804087906511799,0.0300417346524403,-0.3861659319134902,-0.1410525948778949,0.0477415243563793,1.8170353704963529,0.1560165808129391,0.0464663117686395,-0.5348842571890966,0.1180305075997603,-0.1066351800793813,-0.0043323859832935,0.0504119978317341,10.53556906574795,-0.8373961370522411,0.1926366850431878,-1.0571123029941427
1.18,-0.1286805239242679,0.0471822896801644,1.8126481045208251,0.0233647724707893,0.0774613153549668,0.0331765103440984,0.1760305400350406,0.0300651744999347,-0.3860245117276361,-0.1380030622994503,0.0486687928016943,1.8064602521941135,0.1630964845943531,0.0466720907744129,-0.5471409413433687,0.219029835599748,-0.2189125308069611,0.001171992374721,0.0070710092927056,10.53556906574795,-0.8437165359295206,0.1930092860638989,-1.0515454339717
1.2,-0.1253961279737638,0.0477533972698394,1.8053074720475453,0.023632858504815,0.0736494662823942,0.0329572957602369,0.1698630591643377,0.0300222697567189,-0.3866780292565803,-0.1198789969225159,0.0486855484051612,1.7933468789344436,0.1461916371592596,0.0355250209629892,-0.3861797792224832,0.3101078291018881,-0.3083740435351464,-0.0021452371607938,-0.0326758764472107,10.485401330965942,-0.8482168671230417,0.1925988686009865,-1.047948905943599
1.22,-0.1219849911681556,0.0483318470076182,1.797729470506695,0.023769960923244,0.0694495143664677,0.032712400418218,0.1718347526113982,0.0279297450602609,-0.3701945264230777,-0.1198789969225159,0.0486855484051612,1.7933468789344436,0.1461916371592596,0.0355250209629892,-0.3861797792224832,0.8366183423708763,0.0985846723530234,-0.1046262348228969,0.824175141675132,10.4432589263497,-0.860496709719472,0.1885230862176455,-1.0417295196450345
1.24,-0.1185425371967476,0.0488698746213646,1.7904957633884937,0.0233125068785102,0.0623280066630439,0.032361057240985,0.1716795225887615,0.0260411854759474,-0.3542054954035594,-0.1198789969225159,0.0486855484051612,1.7933468789344436,0.1461916371592596,0.0355250209629892,-0.3861797792224832,0.8050463753824206,-0.0077615011318338,-0.0944279792156768,0.7994515509759159,11.543634788999952,-0.867061846516765,0.1915811444413702,-1.0324437397621056
1.26,-0.1151499882094793,0.0493715143807618,1.7835510667421108,0.0223293211575567,0.0536985103555315,0.0319488909675772,0.1672012540624618,0.0243000175413952,-0.3410223724277535,-0.1184170805509233,0.049040798614791,1.7894850811422187,0.1402238565841034,0.0366169902556,-0.3862108327214526,0.7015719602527956,-0.2239134263149853,-0.0870583967276105,0.6591561487902936,11.194146541247392,-0.8775323395477448,0.1951319178398657,-1.0192440439466506
1.28,-0.1120486999873015,0.0498185269583796,1.7771763058705623,0.0209253570204016,0.045253058915972,0.0315358027409255,0.1592567764940293,0.0229137812792736,-0.330637574336008,-0.1154932478077381,0.0497512990340508,1.781761485557769,0.1282882954337909,0.0388009288408218,-0.3862729397193914,0.6574199689241056,-0.3972238784216264,-0.0693118131060781,0.5192399045872736,11.194146541247392,-0.8887046936374133,0.1983793282791907,-1.0060761383586392
1.3,-0.1089813623183248,0.0502656308088069,1.7706620683224572,0.0190112357535747,0.0369748648538951,0.0311065942181796,0.1476875340447339,0.0219825907588032,-0.3213902447008058,-0.1125694150645529,0.0504617994533106,1.7740378899733191,0.1163527342834785,0.0409848674260436,-0.3863350467173302,0.7420033558180206,-0.5784621224647707,-0.0465595260235197,0.4623664817601097,10.9480096528614,-0.9001819780699436,0.2014685220861385,-0.9928916489631928
1.32,-0.1061764652896811,0.0507051872219719,1.764316255085536,0.0169255515544398,0.0299785230835025,0.0307158590857625,0.1332237671694659,0.0220924986138707,-0.3137042370224868,-0.1102423603788833,0.0512814968018315,1.7663111890389729,0.1044171731331661,0.0431688060112653,-0.3863971537152691,0.8189739708774079,-0.7231883437633979,0.0054953927533759,0.3843003839159531,10.9480096528614,-0.9102116430302364,0.2041966053768642,-0.9814694862819232
1.34,-0.1036907041626613,0.0511552901846811,1.75811573130343,0.01497758853799,0.0249944156438943,0.0303917426607878,0.1159992310416439,0.0229096872931306,-0.3067147213122915,-0.1079153056932137,0.0521011941503524,1.758584488104626,0.0924816119828537,0.0453527445964871,-0.3864592607132079,0.9303302800876978,-0.8612268063910987,0.040859433962993,0.3494757855097646,10.857780717054991,-0.9178010347757424,0.2062995088795814,-0.972806929703378
1.36,-0.1016721738603434,0.0516031041320581,1.7523505812451614,0.0133689036758157,0.0229348761566498,0.0301564666138916,0.097481913622915,0.0241539657207813,-0.3004713969644728,-0.105886640036302,0.0529754899635038,1.750856234495331,0.0805460508325412,0.0475366831817089,-0.3865213677111467,0.9790535890638776,-0.925865870936446,0.0622139213825327,0.3121662173909356,10.83488287409,-0.9237558416807472,0.2078089763442718,-0.9661271771825768
1.38,-0.0999238744968376,0.0521043086149238,1.7464085217944922,0.0119826332794645,0.0237225454153473,0.0299800645240424,0.0786284808790745,0.0259146729222305,-0.2940418575189866,-0.104156363408148,0.0539043842412857,1.7431264282110874,0.0686104896822288,0.0497206217669306,-0.3865834747090855,0.9998637326616242,-0.942671637192024,0.0880353600724619,0.3214769722743094,10.817210479854111,-0.9276822070363614,0.2087331947112221,-0.961709460202216
1.4,-0.0985372873223194,0.0526465816487825,1.7405933152577595,0.0110314280917494,0.0268005585696764,0.029867849660421,0.0612531923019215,0.0282227283883953,-0.2877887660911396,-0.0959924504528839,0.0534000422610353,1.7317064289185429,0.0921177076897087,0.0168980743474133,-0.2838148553155221,0.9304957355883602,-0.868764428857649,0.1154027733082412,0.3126545713923484,10.761486535194308,-0.9290828233959594,0.2094090853985838,-0.9596751328253612
1.42,-0.0975464633784144,0.0533011594962982,1.7349564829512112,0.0127004962117301,0.0336218920625917,0.0299885040677153,0.0393211220149734,0.0365733422244249,-0.2758530961211225,-0.0959924504528839,0.0534000422610353,1.7317064289185429,0.0921177076897087,0.0168980743474133,-0.2838148553155221,1.3164428169724005,-1.0966035143474078,0.4175306918014806,0.5967834985008552,11.203073416576444,-0.9272623908518434,0.2090673022083814,-0.9595996876053076
1.44,-0.0969611005549436,0.0540462771139611,1.7298277483654296,0.0175543920275362,0.0440912021238859,0.0304163342437965,0.0240466500915349,0.0405645817868107,-0.2646147800026438,-0.0959924504528839,0.0534000422610353,1.7317064289185429,0.0921177076897087,0.0168980743474133,-0.2838148553155221,0.9689417358168684,-0.7637235961719245,0.1995619781192895,0.5619158059239349,11.203073416576444,-0.9225920958982574,0.2046623433445933,-0.9641135721327408
1.46,-0.0966003651111684,0.0548598937074017,1.7246535435848638,0.0234834111532664,0.057026461091538,0.0310259762640802,0.0133844757025014,0.040413729098055,-0.2534271551781894,-0.0950712733759868,0.0535690230045095,1.7288682803653876,0.0948155530518355,0.0150947546324499,-0.2817694548748292,0.7727672166451787,-0.5331087194516739,-0.0075426344377842,0.55938124122272,11.07689344028404,-0.9145973142966588,0.1998292582815803,-0.971581563738076
1.48,-0.0964040124431839,0.0556431334093397,1.719695338924882,0.029058600754199,0.0706261740916646,0.0317054511366827,0.0072429072702044,0.0379179553941419,-0.2429928790612606,-0.0932289192221926,0.0539069844914577,1.7231919832590772,0.1002112437760891,0.011488115202523,-0.2776786539934434,0.6181057095554957,-0.3070784216148485,-0.1247886851956581,0.5217138058464382,11.010513124491808,-0.9046033183166876,0.1954171915886972,-0.9807017583472772
1.5,-0.0962870843703351,0.0563598190636287,1.7149379753752882,0.0338211365975931,0.0841064406047098,0.0323962435239178,0.0051359523523996,0.0340217383829737,-0.2332827708102037,-0.0913865650683985,0.054244945978406,1.7175156861527667,0.1056069345003428,0.0078814757725961,-0.2735878531120576,0.5336336952231888,-0.1053477458902395,-0.1948108505584109,0.485505412552846,10.96285096695192,-0.8942777232731882,0.1919188796319341,-0.9898584085331292
1.52,-0.0961709033132707,0.0569602007385093,1.7105922327389185,0.0375140415306435,0.0960243679611598,0.0330169781889646,0.0073706138985476,0.0295321230369742,-0.2246770546359388,-0.0892744263783916,0.0544025754938579,1.7120439290905256,0.1110026252245964,0.0042748363426693,-0.2694970522306718,0.4980178436885347,0.1117330773073971,-0.2244807672999733,0.430285808713246,10.930298177283476,-0.8837729937586805,0.1890036334370007,-0.9988702940188696
1.54,-0.0959654985211731,0.0574958963405061,1.7061909337396943,0.0405865043749726,0.1068550103640004,0.0335879826570472,0.0132193124903778,0.0243754973808995,-0.215938504290833,-0.0871622876883847,0.0545602050093098,1.7065721720282845,0.1163983159488501,0.0006681969127424,-0.2654062513492859,0.5855773337248287,0.2924349295915084,-0.2578312828037337,0.436927517255288,10.903691121995507,-0.8740954550297657,0.1869874493466025,-1.0067047828158204
1.56,-0.0956104077762434,0.0579230561052954,1.701960639519074,0.0428491939341213,0.1153858792667966,0.0340333049312786,0.0219422571139061,0.0187859355701072,-0.2075509212929736,-0.0849152567302715,0.0546276685390136,1.701202684988078,0.1217940066731038,-0.0029384425171844,-0.2613154504679001,0.6664917716817472,0.4361472311764163,-0.279478090539615,0.4193791498929705,10.902277126531772,-0.8664316954650032,0.1859017874956809,-1.0124230646769004
1.58,-0.095093200947498,0.0582222569268923,1.6980942932246197,0.0442824719493792,0.1211582754579393,0.0343172433134176,0.0319394145044565,0.0131117693715041,-0.1998631839524194,-0.082533333504052,0.0546049660829692,1.695935467969906,0.1271896973973574,-0.0065450819471113,-0.2572246495865143,0.6914488834291357,0.4998578695275226,-0.2837083099301558,0.3843868670277112,10.902277126531772,-0.8602644643553169,0.1855651674222269,-1.0164910849371442
1.6,-0.0943352390374394,0.0584175909161694,1.6941802488902151,0.0449566946922968,0.1248469224528666,0.0344551962743468,0.0432253231491472,0.0067806522160942,-0.1919503613556168,-0.0934962302222752,0.0588778453954675,1.6881011340269985,0.0550558075192452,0.0089729145735746,-0.1934665592271074,0.7583988723295576,0.5642954322345323,-0.3165558577704965,0.3956411298401269,10.900729900367878,-0.8564107258254757,0.1863235309945282,-1.018058228764452
1.62,-0.0933312099696878,0.0584521106266398,1.6904233886512945,0.0435962056240879,0.1257821588639698,0.0343274338491125,0.0565216191596618,-0.0026648609169899,-0.1840994018122848,-0.0934962302222752,0.0588778453954675,1.6881011340269985,0.0550558075192452,0.0089729145735746,-0.1934665592271074,0.9050507882123622,0.6648148005257297,-0.4722756566542058,0.3925479771666018,10.900772317276278,-0.8561274247180848,0.1879663974531414,-1.0173934060870915
1.64,-0.0920637730978424,0.0583168408378245,1.6868221086580195,0.0396815715026131,0.1235441844104683,0.0338914386460036,0.0693041348031057,-0.0096395377011899,-0.1763602878936407,-0.0934962302222752,0.0588778453954675,1.6881011340269985,0.0550558075192452,0.0089729145735746,-0.1934665592271074,0.8245191123689921,0.639125782172197,-0.348733839210004,0.3869556959322076,10.891352205886506,-0.8587521494977135,0.1935762747954152,-1.0118980721448458
1.66,-0.0906377894180728,0.0580981811821746,1.683544138152198,0.0352491213925052,0.1188003814279647,0.0333477525860234,0.0797517560211208,-0.0129012801903296,-0.1690388025724385,-0.0929456721470827,0.0589675745412032,1.6861664684347273,0.0596790861222029,0.0081451436139887,-0.192187234282045,0.6583993858008135,0.522381060900752,-0.1630871244569827,0.3660742660601068,10.8662234450494,-0.8635275935915511,0.2001789269336218,-1.004063191170161
1.68,-0.0889584516328804,0.0578230855484947,1.6802435076467777,0.0308297390549793,0.1120612609283527,0.0327694598297349,0.0872711811329417,-0.014418845084055,-0.161393743032427,-0.0918445559966978,0.0591470328326747,1.6822971372501851,0.0689256433281183,0.0064896016948169,-0.1896285843919202,0.5415064463819266,0.3759712555910489,-0.0758782446862713,0.3822529770005758,10.8662234450494,-0.8706385561513312,0.206748685639085,-0.9938018882072516
1.7,-0.0871655549681741,0.0575312696369826,1.6770933764620888,0.0270230628379083,0.1047369102815918,0.0322577884750808,0.091379547298159,-0.0147334633234286,-0.1539977610086852,-0.0907434398463129,0.0593264911241462,1.678427806065643,0.0781722005340338,0.004834059775645,-0.1870699345017954,0.4233149161072645,0.2054183082608636,-0.0157309119686773,0.3697991011870891,10.842615199797365,-0.8787486356215721,0.2126647483195287,-0.9824469084944436
1.72,-0.0854162151817026,0.0572567094851465,1.6742340868722565,0.0240835463149899,0.0981119856567876,0.0318623590639876,0.0924588074225622,-0.0142739759279878,-0.1473297004545224,-0.0891799958356322,0.0594231723196591,1.6746864073756071,0.0874187577399493,0.0031785178564732,-0.1845112846116706,0.3385223871351713,0.0539630062201569,0.0229743697720379,0.3334030277081415,10.811113760960325,-0.8873617851188887,0.2178784119307983,-0.970774176046305
1.74,-0.0835785739590928,0.0569813912461608,1.6713583408066517,0.0216445888694228,0.092150885962789,0.031544649356187,0.0910696479997951,-0.0133577276740459,-0.1405996618550459,-0.0876165518249515,0.059519853515172,1.6709450086855713,0.0966653149458647,0.0015229759373014,-0.1819526347215458,0.3466363163142229,-0.0694579711383522,0.0458124126970974,0.3365019299738245,10.754281566485588,-0.8950870594690951,0.2223063107109045,-0.9600539291057334
1.76,-0.0817959427315209,0.0567282831173839,1.6686127546524594,0.0198160867663254,0.0879769774837469,0.0313291713647311,0.0871881244863347,-0.0121194089283458,-0.1342822252463642,-0.085821943884123,0.0595751461627056,1.6672675762427884,0.1059118721517802,-0.0001325659818703,-0.179393984831421,0.3758645480961523,-0.1940761756730198,0.061915937285005,0.3158718304340849,10.754281566485588,-0.9007453093325738,0.225695627789519,-0.951828963999157
1.78,-0.0801928732751618,0.0565139346059811,1.6661179117468126,0.0185958621595791,0.0863377195519482,0.0312193430086105,0.0819038438529839,-0.0105592042443704,-0.1286377297081034,-0.0837961720131465,0.0595890502622599,1.6636541100472588,0.1151584293576956,-0.0017881079010421,-0.1768353349412962,0.3943925403368814,-0.2642140316675416,0.0780102341987693,0.2822247769130398,10.730785952365297,-0.9050258405145536,0.2281392850872693,-0.945656761752564
1.8,-0.0786073432161051,0.056324699013714,1.6636054182078193,0.0179539488898199,0.0869831865548538,0.0312008133799361,0.0771696612628195,-0.0084719947528953,-0.1229118976788682,-0.0760976810825126,0.0559859743937626,1.6596860252614074,0.0854014183313717,-0.0214802671459865,-0.1377562363930027,0.3858564522116202,-0.2367091295082203,0.1043604745737549,0.2862916014617606,10.702897768610455,-0.9072893296176168,0.229610012574957,-0.9420710139288077
1.82,-0.0770718110957389,0.0562146993632881,1.661207888349978,0.0191595150101403,0.0883090010277886,0.0313289828172896,0.076685935089906,-0.0029552387319282,-0.1171295827689931,-0.0760976810825126,0.0559859743937626,1.6596860252614074,0.0854014183313717,-0.0214802671459865,-0.1377562363930027,0.4003240990816116,-0.024186308645676,0.2758378010483551,0.2891157454937523,10.676095293060824,-0.9102899685303654,0.2303642071737986,-0.937073447546342
1.84,-0.0756179187574679,0.0562011544003894,1.659027854639443,0.0226618323059167,0.0889600133789848,0.0316063090369592,0.0763436556365078,0.0005996331805638,-0.1126451858844616,-0.0760976810825126,0.0559859743937626,1.6596860252614074,0.0854014183313717,-0.0214802671459865,-0.1377562363930027,0.2866360277269748,-0.0171139726699055,0.1777435956246016,0.224219844226578,10.654787088895318,-0.9104626988555236,0.2289655298079361,-0.9353368549879456
1.86,-0.0740965976159627,0.0562185895411609,1.6568155151360513,0.0272372096394729,0.089221682288533,0.0319501190778252,0.0757793662993876,0.0007636923836243,-0.1088654858146196,-0.0752436668991989,0.0557711717223027,1.6583084628974774,0.0861009332270493,-0.0236644797263097,-0.1395799377299826,0.1912555260382027,-0.0282144668560142,0.008202960153029,0.1889850034920981,10.531811675472454,-0.9109043663643646,0.2260943884917522,-0.9344350717924051
1.88,-0.0725891826549741,0.0562150928131597,1.654669614848744,0.0316160221379197,0.0892275193319841,0.0322703962011419,0.0749664547183998,-0.0011391641167696,-0.1059441772450145,-0.0735356385325714,0.055341566379383,1.6555533381696177,0.0874999630184044,-0.0280329048869561,-0.1432273404039423,0.1789953341461997,-0.0406455790493878,-0.0951428250196997,0.1460654284802548,10.531811675472454,-0.9114657799448984,0.2229364779338985,-0.9339866283576886
1.9,-0.0711007546687663,0.0561589484518689,1.6525737808949257,0.0353710215437607,0.0891218046186864,0.0325400406004542,0.0739049689983778,-0.0042751554014972,-0.1037763651154072,-0.071827610165944,0.0549119610364633,1.6527982134417574,0.0888989928097595,-0.0324013300476026,-0.1468747430779021,0.1978673968910179,-0.0530742860010993,-0.156799564236382,0.1083906064803671,10.485621399406227,-0.9119497888443044,0.2200593616973257,-0.9339804056729044
1.92,-0.069708448367829,0.056039903520436,1.650617319463338,0.0382807409449749,0.0890164652142982,0.032747166917677,0.0727050886801271,-0.0079774345273312,-0.1022686488245677,-0.0700496303097488,0.0542639344355112,1.6498607185801992,0.0902980226011147,-0.036769755208249,-0.1505221457518618,0.208685121159694,-0.0599940159125358,-0.1851139562917005,0.0753858145419741,10.447484303868803,-0.9123670471462682,0.2173051019097087,-0.9343299009089524
1.94,-0.0682689581651184,0.055834602070185,1.648584282526104,0.0407027865486808,0.0889692312911674,0.0329205657050501,0.0713076011710677,-0.0122848130463725,-0.1011305558963405,-0.0682716504535536,0.0536159078345592,1.6469232237186413,0.0916970523924698,-0.0411381803688954,-0.1541695484258215,0.2334616486575251,-0.0698743754529676,-0.2153689259520639,0.0569046464113591,10.416586498137804,-0.9126282426018572,0.2148693531415211,-0.9350165025842796
1.96,-0.0668582045906146,0.0555373815590495,1.6465690868985092,0.0424726113274989,0.0890264594117029,0.0330511864236628,0.069849865864085,-0.0170826241642352,-0.1004391223220817,-0.0664586948525745,0.052858670604591,1.643894543790234,0.093096082183825,-0.0455066055295419,-0.1578169510997813,0.2530912095249647,-0.0728867653491373,-0.2398905558931375,0.0345716787129413,10.391657763304464,-0.9126452230869716,0.2128296093377921,-0.9360860779995362
1.98,-0.0655450248642013,0.0551617550025726,1.6446637755693096,0.0435101416159547,0.0891853226808605,0.0331342456977713,0.0684672757196655,-0.0221308172734247,-0.1001522977379576,-0.0646107635068116,0.0519922227456066,1.6407746787949782,0.0944951119751801,-0.0498750306901883,-0.161464353773741,0.2620976798694127,-0.0691295072209767,-0.2524096554594717,0.0143412292062036,10.369876180395297,-0.9123947806615346,0.2110009297826746,-0.9376671643758596
2.0,-0.064190579084861,0.054659072280615,1.6426606171400322,0.0437767499305048,0.0894561680619078,0.0331690425623408,0.0670645304451579,-0.0278142710316599,-0.1001928989804978,-0.062121661078218,0.0540552141389013,1.6396561606824118,0.0729350885521104,-0.0252370015771852,-0.093614716409655,0.2927071462573452,-0.0701372637253783,-0.2841726879117627,-0.0020300621270098,10.350694631198166,-0.9119574696708156,0.2097512170460008,-0.9394591733512778
2.02,-0.0628491749919424,0.0539943534713016,1.6407198784158608,0.0416632790961125,0.0896018818427254,0.0330350180932133,0.0671443357731953,-0.0379341101816661,-0.0934957864114392,-0.062121661078218,0.0540552141389013,1.6396561606824118,0.0729350885521104,-0.0252370015771852,-0.093614716409655,0.6067718477216618,0.0039902664018702,-0.5059919575003087,0.3348556284529312,10.784666605390155,-0.9140830036762218,0.208460322503966,-0.9409386864679008
2.04,-0.0615085173193315,0.0531643283110264,1.6389229494849902,0.0368844933698776,0.0894590259653663,0.0327116351134025,0.0668555861498893,-0.0438615676776972,-0.086528069366196,-0.062121661078218,0.0540552141389013,1.6396561606824118,0.0729350885521104,-0.0252370015771852,-0.093614716409655,0.4576221408946104,-0.0144374811653004,-0.2963728748015526,0.3483858522621598,10.784666605390155,-0.916597907805126,0.2141382807319011,-0.9355822460647376
2.06,-0.0602452104109246,0.0523065377574228,1.6373386406876336,0.0319290112586426,0.0891901366694457,0.0323823243266692,0.0661185425530279,-0.0460582023360741,-0.080578875159444,-0.0613923101926969,0.0538028441231295,1.6387200135183153,0.0738286511185993,-0.0258582384379373,-0.0923072001439945,0.3192230755902087,-0.0368521798430679,-0.1098317329188459,0.2974597103376011,10.732045011253833,-0.9189039071501484,0.2202468134633068,-0.930246294956853
2.08,-0.0589347718295138,0.0513808556038466,1.635786887854057,0.0271504677059857,0.088880115990638,0.0320788161548516,0.0649476362547906,-0.0463985281923511,-0.0749364890200298,-0.0599336084216547,0.0532981040915858,1.636847719190122,0.0756157762515773,-0.0271007121594415,-0.0896921676126734,0.2886319654592814,-0.0585453149118675,-0.0170162928138501,0.2821193069707059,10.67685208175226,-0.9210743761638523,0.225892097223027,-0.9251552497439088
2.1,-0.0576514042154972,0.0504628622074732,1.6343412347843065,0.0231307799215919,0.0886369237104804,0.0318431720139658,0.0634447611434921,-0.0454549125118652,-0.0699365929907944,-0.0584749066506125,0.0527933640600421,1.634975424861929,0.0774029013845553,-0.0283431858809457,-0.0870771350813524,0.2652734648234907,-0.0751437555649256,0.0471807840242935,0.2499948014617732,10.631569446309186,-0.9229365938912284,0.230598654353538,-0.920667822641111
2.12,-0.0564626489644683,0.049617341077973,1.633054638619368,0.0201030860795247,0.0885354606154002,0.0316882952488158,0.0617832903899776,-0.0437496424362309,-0.0657403297355904,-0.0569268486229214,0.0522265003424232,1.633233882160302,0.0791900265175332,-0.0295856596024499,-0.0844621025500313,0.2412315091494734,-0.0830735376757242,0.0852635037817135,0.2098131627602001,10.55349143650892,-0.9246404119611304,0.2347032815448064,-0.9165233876553148
2.14,-0.0552463615717428,0.048766461744152,1.6317850358415056,0.0176615099743155,0.0885964158219941,0.0315904596954211,0.0599502930576574,-0.0415230990900659,-0.0614426708851147,-0.0553787905952303,0.0516596366248042,1.6314923394586751,0.0809771516505112,-0.0308281333239542,-0.0818470700187103,0.2587819839542384,-0.0916498666160094,0.1113271673082495,0.2148829425237853,10.55349143650892,-0.9262122369666964,0.2380178356670131,-0.9128373355527586
