t,x,y,z,roll,pitch,yaw,v_x,v_y,v_z,ref_x,ref_y,ref_z,ref_v_x,ref_v_y,ref_v_z,a_com,a_x,a_y,a_z,thrust,wind_x,wind_y,wind_z
0.0,0.3976883026965115,-0.8457631936933492,2.753391681962767,0.0247340385250581,0.0994871765827984,0.0417777585704912,-9.632175522959336e-05,0.0076241510026373,-0.0005492950663197,0.3976909184621893,-0.8455979578394169,2.7533726069352245,-0.0610966375526986,0.1059127595558936,-0.1005990307914129,0.3822259850580187,-0.0048160877614796,0.3812075501318652,-0.0274647533159859,10.255191059723074,-0.9410591570621992,0.2581340506638806,-0.8766478628547077
0.02,0.3977693980552378,-0.8459050889518946,2.7532726336779008,0.0173769768910226,0.0969423401644559,0.0412238287202987,0.0081352539607538,-0.0172194643153306,-0.0116971089358695,0.3976909184621893,-0.8455979578394169,2.7533726069352245,-0.0610966375526986,0.1059127595558936,-0.1005990307914129,1.4223552781436712,0.4115787857991719,-1.242180765898395,-0.5573906934774892,10.255191059723074,-0.941162298763246,0.2575969178000358,-0.8832820357804089
0.04,0.3979928836583667,-0.8462771552549043,2.752870492318212,0.0010706571805245,0.0889215097041686,0.0400668379011764,0.0129161135115286,-0.0177715691565299,-0.0281272247407854,0.3976909184621893,-0.8455979578394169,2.7533726069352245,-0.0610966375526986,0.1059127595558936,-0.1005990307914129,0.8560229891230411,0.2390429775387416,-0.0276052420599661,-0.8215057902457958,9.639324964760815,-0.9424065915622676,0.2710251644901932,-0.87635787986105
0.06,0.398243340800294,-0.8465625563929345,2.7521110978968686,-0.0159629390145489,0.0775007002693971,0.0390706592955133,0.0113164790822848,-0.0103621482877153,-0.0469715311589025,0.3970799520866623,-0.844538830243858,2.7523666166273104,-0.0733236639258466,0.1259127598539169,-0.1205990310894361,1.0155863236307625,-0.079981721462192,0.3704710434407278,-0.9422153209058588,9.30904993833792,-0.946006620429512,0.28362377573101,-0.8693277906579244
0.08,0.3983954091788517,-0.8466590301898451,2.751028934734045,-0.0315643742954946,0.0656281985631972,0.0384182185640329,0.0044700423420191,0.0001301499186029,-0.0660139148877998,0.3958580193356083,-0.8424205750527402,2.750354636011482,-0.0977777166721425,0.1659127604499633,-0.1605990316854826,1.139708730079028,-0.3423218370132834,0.5246149103159177,-0.9521191864448608,9.143776427303235,-0.9515908791944312,0.2948316783903102,-0.8616950758049485
0.1,0.398367007173407,-0.8465154620218363,2.7494882869176838,-0.0472019546648797,0.0536601163644175,0.0380153235400425,-0.0072172977173231,0.0139953425199791,-0.0871204827936314,0.3946360865845543,-0.8403023198616223,2.748342655395654,-0.1222317694184385,0.2059127610460098,-0.200599032281529,1.3913345143237907,-0.5843670029671179,0.6932596300688076,-1.0553283952915826,9.143776427303235,-0.9575926514208736,0.3046467330671325,-0.8550463718798998
0.12,0.3980631117728275,-0.8460666025916169,2.7475169968983213,-0.0620503096318326,0.0433833275025244,0.0378104936311444,-0.0226043708599587,0.0305055793305164,-0.1089862142874875,0.3921914511961856,-0.836184064640702,2.744330674750023,-0.1466858221647344,0.2459127616420562,-0.2405990328775754,1.5711939355138862,-0.7693536571317763,0.8255118405268651,-1.093286574692803,9.0941200057664,-0.9629121212612756,0.3131634769244029,-0.8497914940695898
0.14,0.397462692518469,-0.8453001156557594,2.745229918886854,-0.0751285309786406,0.0358007224381072,0.0377192574093925,-0.0397812759816578,0.0493680169947594,-0.1306905051218093,0.3897468158078168,-0.8320658094197819,2.740318694104393,-0.1711398749110304,0.2859127622381027,-0.280599033473622,1.6747491340631693,-0.8588452560849555,0.9431218832121508,-1.0852145417160923,9.0941200057664,-0.9671207024851508,0.3214105504844796,-0.8460205009840249
0.16,0.3964539787443975,-0.8440640638327527,2.7423649840614064,-0.0870174131806159,0.0306653382213214,0.0376622804149395,-0.0602744717312007,0.072985701578931,-0.1547124631031661,0.3866908291007906,-0.8269475541839605,2.735306713443861,-0.1955939276573262,0.3259127628341491,-0.3205990340696684,1.9715606523795877,-1.0246597874771464,1.1808842292085788,-1.2010978990678378,9.072341508125191,-0.9684931186440512,0.3284511120720106,-0.8457753225734255
0.18,0.3950139177305548,-0.842329975653944,2.7390107037642597,-0.096420679387503,0.0292346223925714,0.0375235865595591,-0.0823908371791498,0.0988615151576002,-0.1795018053453074,0.3830234910751071,-0.820829298933238,2.729294732768428,-0.2200479804036222,0.3659127634301956,-0.3605990346657148,2.105470753645896,-1.1058182723974537,1.2937906789334577,-1.2394671121070664,9.050851756584962,-0.9675171792765574,0.3326594668966975,-0.8502629978756805
0.2,0.3931426738674932,-0.8400627336561198,2.7351566628055166,-0.103287111167299,0.031312852067948,0.0372446031205413,-0.1031478851827815,0.1259759067800836,-0.2046077339160521,0.3908943758715973,-0.837386899896064,2.730035613496994,-0.1297662554249422,0.1988615166477163,-0.2795018068354236,2.1191701938977245,-1.0378524001815874,1.3557195811241731,-1.2552964285372337,9.044719779149546,-0.9637970735901804,0.3350428364793224,-0.8592166126365597
0.22,0.390969610506756,-0.837247523293814,2.73124804857428,-0.1035733893893101,0.03669725510484,0.0370642791474517,-0.123778767668196,0.1664974317485671,-0.205259211362001,0.3908943758715973,-0.837386899896064,2.730035613496994,-0.1297662554249422,0.1988615166477163,-0.2795018068354236,2.2737918334584823,-1.031544124270723,2.026076248424176,-0.0325738722974464,9.03983785673654,-0.9627190797805064,0.3320471071864062,-0.8666625923394918
0.24,0.3883053548048553,-0.8335663593423186,2.72712267972004,-0.0974859165945241,0.0456188766340239,0.0370150336376706,-0.1409739191414344,0.198234105305654,-0.207371625388742,0.3908943758715973,-0.837386899896064,2.730035613496994,-0.1297662554249422,0.1988615166477163,-0.2795018068354236,1.8078661286701223,-0.8597575736619179,1.5868336778543422,-0.1056207013370502,10.575317799894949,-0.9565129408582445,0.3281143313221025,-0.8738264518744864
0.26,0.3853455669108173,-0.829331855017098,2.722911479141576,-0.0897086602046813,0.0562178524532643,0.0369895569240813,-0.1537109840693483,0.2232919518024828,-0.2138209604996009,0.3895967133173479,-0.8353982847295868,2.72724059542864,-0.1392413390741007,0.2188615169457395,-0.2995018071334468,1.4419799039937156,-0.636853246395698,1.2528923248414423,-0.3224667555429411,10.26321965895204,-0.9487883865023196,0.3231674279011444,-0.8828475561511221
0.28,0.3823369530590838,-0.8248850507406646,2.718746630754557,-0.0824691628006869,0.0666047630316227,0.0370027212220377,-0.1621006893976143,0.2435393225861789,-0.2242567192091938,0.3870013882088491,-0.8314210543966325,2.721650559291932,-0.1581915063724176,0.258861517541786,-0.3395018077294932,1.2137217957510344,-0.419485266413297,1.012368539184802,-0.5217879354796464,9.962691065997204,-0.938646211044998,0.3175136977998616,-0.8953412175768698
0.3,0.37903220562708,-0.8198143565310362,2.7141110227033294,-0.0757201292596507,0.0769345411258933,0.037078648019254,-0.1677172167851118,0.2625164662301483,-0.2389565679849878,0.3844060631003502,-0.8274438240636781,2.716060523155223,-0.1771416736707346,0.2988615181378324,-0.3795018083255397,1.2326424003026677,-0.2808263693748772,0.9488571821984688,-0.7349924387896986,9.709942843290264,-0.9275116697646688,0.3121587144431059,-0.909069282463593
0.32,0.3756436710005068,-0.8143803289406087,2.7091456123857798,-0.0700694293536773,0.0860073386491536,0.0372311368302941,-0.1707355779089277,0.2800318413025708,-0.2570177235849601,0.3808632296269356,-0.8214665937009215,2.708470486988712,-0.1960918409690515,0.3388615187338789,-0.4195018089215861,1.2669887621914966,-0.1509180561907935,0.8757687536211256,-0.9030577799986186,9.50185481038352,-0.9168050219412872,0.3075626783490064,-0.9222343409885396
0.34,0.3722177742285625,-0.8086073535915499,2.7037972822111023,-0.0655123877902706,0.0934154441421406,0.0374631891976526,-0.1717193854524912,0.2965836062668544,-0.2769499240882327,0.3773203961535208,-0.8154893633381648,2.700880450822201,-0.2150420082673685,0.3788615193299254,-0.4595018095176326,1.2963616563466362,-0.0491903771781765,0.8275882482141811,-0.9966100251636272,9.264765187454032,-0.906197029573739,0.3031278160151784,-0.935623012390813
0.36,0.3689564132892431,-0.8028143261707361,2.6983347645273077,-0.0618150791112095,0.0988436274644185,0.037767211476828,-0.1715698738104024,0.3123623409947174,-0.2970802054058946,0.3733038084976482,-0.8085121329605071,2.6922904146407896,-0.2339921755656855,0.4188615199259718,-0.499501810113679,1.278885304935121,0.0074755821044394,0.7889367363931504,-1.0065140658830962,9.264765187454032,-0.8965787702236983,0.2992325835553081,-0.9476776836914492
0.38,0.3655328738378693,-0.7963971674101474,2.692158915792213,-0.0582749070207346,0.1030006249623969,0.0381721251412234,-0.1708140363366891,0.3284693470929211,-0.3195122587581731,0.3688134666593177,-0.800534902567948,2.6827003784444763,-0.2529423428640024,0.4588615205220182,-0.5395018107097255,1.3813073095203212,0.0377918736856677,0.8053503049101823,-1.1216026676139246,9.21563053671889,-0.8889157768278969,0.2956940536581341,-0.9574085486908864
0.4,0.3621279914962229,-0.7896630469923828,2.6855235966496,-0.0549639179027809,0.1057655230940275,0.0386483859822664,-0.1697522017441388,0.344060729823869,-0.3429445540986037,0.3569921720210349,-0.7799737000555014,2.6761833028543047,-0.2192805511327077,0.4284693485830372,-0.4195122602482892,1.4082712567950135,0.0530917296275121,0.779569136547395,-1.171614767021531,9.118000956038486,-0.8825108768256701,0.2921934140632231,-0.9659998431340936
0.42,0.3587819084134765,-0.7826127399427432,2.678684493481276,-0.0519638922465656,0.1070819863970331,0.0391821212044206,-0.1648614061599068,0.3602722679638506,-0.3383761272634539,0.3569921720210349,-0.7799737000555014,2.6761833028543047,-0.2192805511327077,0.4284693485830372,-0.4195122602482892,0.876932685642034,0.2445397792115999,0.8105769069990831,0.2284213417574898,9.118000956038486,-0.8857820885372876,0.287000823769287,-0.9677993954490528
0.44,0.3556971449385369,-0.7756306781341791,2.6722743226348085,-0.0498349018164064,0.1068174642225138,0.0397124685939911,-0.1602439461437778,0.3741387003513945,-0.3367721466868221,0.3569921720210349,-0.7799737000555014,2.6761833028543047,-0.2192805511327077,0.4284693485830372,-0.4195122602482892,0.7351388267686076,0.230873000806453,0.6933216193771963,0.0801990288315929,10.841993474226,-0.8842928495105332,0.2876228835639214,-0.966274257947409
0.46,0.35253673876258,-0.7679978503253427,2.6655032430240606,-0.0483982317431347,0.1049393296218473,0.0402865664474713,-0.1561551378376893,0.3884553854041542,-0.3406579589338739,0.3547993665097078,-0.775689006569671,2.6719881802518217,-0.2289738540919114,0.4484693488810604,-0.4395122605463125,0.7693915795665871,0.2044404153044229,0.7158342526379813,-0.1942906123525933,10.46751732523353,-0.8850464708948574,0.2894095438053734,-0.9617652484141588
0.48,0.3494483171968955,-0.7600838571278931,2.6585993525367595,-0.0477435879773856,0.1013620393737214,0.0408808299062812,-0.1530412776543042,0.4023020410421987,-0.349497507041402,0.3504137554870536,-0.7671196195980102,2.663597935046856,-0.2483604600103188,0.4884693494771068,-0.4795122611423589,0.8360077875617619,0.1556930091692526,0.6923327819022274,-0.4419774053764036,10.1339008163759,-0.8867897495243425,0.2909469953329673,-0.9576506038643152
0.5,0.3464067438946567,-0.7518967299431683,2.6514805019937087,-0.0479109871742589,0.0961664518444596,0.0414908255540955,-0.1515861326754539,0.4157880431486952,-0.3619222872092518,0.3460281444643995,-0.7585502326263495,2.65520768984189,-0.2677470659287263,0.5284693500731533,-0.5195122617384054,0.919734828558337,0.0727572489425176,0.6743001053248238,-0.6212390083924879,9.675159432995317,-0.889556975370803,0.2928519364981444,-0.9529434870918336
0.52,0.3435182188123565,-0.7438710977455716,2.644460510196992,-0.0488888123807394,0.0903135179106208,0.0420590646303312,-0.1527576723796493,0.4284171720616582,-0.3763884433955304,0.340673203145825,-0.7479808456248864,2.644817444607122,-0.2871336718471338,0.5684693506691998,-0.5595122623344518,0.9619473441729456,-0.0585769852097697,0.6314564456481514,-0.7233078093139333,9.675159432995317,-0.8933041630483816,0.2948672829115347,-0.948095526945356
0.54,0.3404287989553672,-0.7351640313495836,2.636761556743793,-0.0508492752979142,0.0839256845993357,0.0426132630626633,-0.1563211868792147,0.4417183585861792,-0.3927891926811292,0.3353182618272504,-0.7374114586234234,2.634427199372354,-0.3065202777655412,0.6084693512652463,-0.5995122629304983,1.0707529776724634,-0.1781757249782703,0.6650593262260474,-0.820037464279938,9.521993849877616,-0.8978369856001874,0.2969942927457245,-0.943287066476217
0.56,0.3372424396100882,-0.7261699414138788,2.628725397784051,-0.0532355278771406,0.0779304659524679,0.0431342945843855,-0.1622201950756766,0.4570486526545897,-0.4099972527830481,0.3294786553607157,-0.7258420716070592,2.623036954122685,-0.3259068836839486,0.6484693518612926,-0.6395122635265447,1.189467891955391,-0.294950409823097,0.7665147034205261,-0.8604030050959444,9.458447089243236,-0.9024422026964902,0.299289948748227,-0.9383151398874208
0.58,0.3340860530144262,-0.7173273889684001,2.620765227497315,-0.0550617629920767,0.0730981247746781,0.043627220379861,-0.1698118483815734,0.4727834240105301,-0.42704403969128,0.3231543837462208,-0.7132726845757937,2.610646708858114,-0.345293489602356,0.6884693524573391,-0.6795122641225911,1.2204601319126764,-0.3795826652948364,0.7867385677970212,-0.8523393454115957,9.423976078611304,-0.9064659358704532,0.3011719097808796,-0.934167842747006
0.6,0.3305878480276942,-0.7076924814277366,2.6120264234814217,-0.0562482750516524,0.0695144203355288,0.0441213011345601,-0.1797253590305684,0.4897943967033416,-0.4459784405295607,0.3255954605953475,-0.6936882177678736,2.599413025512751,-0.2180426677856986,0.5727834255006463,-0.5270440411813961,1.3657986861613256,-0.4956755324497533,0.8505486346405716,-0.946720041914037,9.340781087343204,-0.9100451495340516,0.3025147905726381,-0.9302859509322492
0.62,0.3268582465159292,-0.697652323974574,2.60318657220458,-0.0549715580868152,0.0691349225210627,0.0446052479174483,-0.1923398002357539,0.5130043088518155,-0.4355034364563578,0.3255954605953475,-0.6936882177678736,2.599413025512751,-0.2180426677856986,0.5727834255006463,-0.5270440411813961,1.4208710877421071,-0.6307220602592728,1.160495607423695,0.5237502036601477,11.2505873284299,-0.9172995308510736,0.298144362026433,-0.9284658041606966
0.64,0.3228957816561822,-0.6871787798796312,2.594558630748037,-0.0506930482443812,0.0725511427688279,0.0450864417973145,-0.2027481997256789,0.5324383645035944,-0.4279156829469441,0.3255954605953475,-0.6936882177678736,2.599413025512751,-0.2180426677856986,0.5727834255006463,-0.5270440411813961,1.1657522274672394,-0.5204199744962529,0.9717027825889456,0.3793876754706854,11.2505873284299,-0.9162455970025022,0.2978205250843245,-0.9256751632043064
0.66,0.3189668385658563,-0.6769117671194685,2.586439109442232,-0.0458956298368251,0.0779195686618958,0.045495596163814,-0.2099813741491326,0.5471979004474928,-0.427122558271448,0.3234150339174905,-0.6879603835128671,2.594142585100937,-0.2276888316665236,0.5927834257986695,-0.5470440414794193,0.8227875793153049,-0.3616587211726849,0.7379767971949225,0.0396562337748013,10.802363262162544,-0.9124124409783996,0.2958707905034708,-0.92727791902313
0.68,0.31471110526318,-0.6658272035058839,2.5778522283776253,-0.0411311609089356,0.0846107758124092,0.0458766149031987,-0.2149552749448546,0.5604790478262379,-0.4318638293039784,0.3190541805617765,-0.6765047150028541,2.5836017042773096,-0.2469811594281737,0.632783426394716,-0.5870440420754658,0.7476767614175631,-0.2486950397860968,0.6640573689372542,-0.2370635516265179,10.377519700839002,-0.9071916438433052,0.2937718105642565,-0.9308153029938708
0.7000000000000001,0.310380980367145,-0.6544920487499347,2.5691127117871457,-0.0370472508282997,0.0914389264847739,0.0462229475375177,-0.2176465115793798,0.572486321385828,-0.4418441264645643,0.3146933272060626,-0.6650490464928412,2.5730608234536816,-0.2662734871898238,0.6727834269907624,-0.6270440426715123,0.7921863801711072,-0.1345618317262611,0.6003636779795041,-0.4990148580292952,10.038578340456295,-0.901461202736552,0.2917943542641782,-0.9355785455597606
0.72,0.3062360351488086,-0.6435093625364927,2.560587026419425,-0.0338461194717744,0.0974614912120019,0.0465344073230877,-0.2184609358675107,0.5831108257439399,-0.4551089637516862,0.3093678574622661,-0.651593377953026,2.5605199426002514,-0.2855658149514739,0.7127834275868089,-0.6670440432675587,0.8507339302485453,-0.040721214406543,0.5312252179055954,-0.6632418643560928,9.76836314663069,-0.8950188790643033,0.2896901196117592,-0.9417363787368852
0.74,0.3018722143978053,-0.6317366545808735,2.5513188385716004,-0.0311972493527685,0.1029172696275988,0.0468487240276171,-0.2178208948317955,0.5937070014101432,-0.4711105719484503,0.3040423877184696,-0.6381377094132108,2.547979061746821,-0.304858142713124,0.7527834281828554,-0.7070440438636052,0.9601302726182372,0.032002051785758,0.529808783310165,-0.800080409838208,9.560046788526051,-0.8887978521888038,0.2875583591510557,-0.9484309027917872
0.76,0.2975317576329082,-0.6197468208702295,2.5417143520525447,-0.0289680542387998,0.1072833460200495,0.0471688707153685,-0.2162381269929014,0.6047016304435411,-0.488597080831992,0.2982346097806319,-0.6236820408584943,2.5344381808784897,-0.3241504704747741,0.7927834287789017,-0.7470440444596516,1.035814914147375,0.0791383919447025,0.5497314516698937,-0.874325444177082,9.392409457233953,-0.8838802905067196,0.2857391292784706,-0.953755745666814
0.78,0.293229954781214,-0.6075376278667969,2.531745335461689,-0.0268034366463786,0.1105364142497303,0.0475139807496099,-0.2140586146916661,0.6155670565801731,-0.5074312332133595,0.2919445236487529,-0.6082263722888768,2.519897299995257,-0.3434427982364241,0.8327834293749482,-0.787044045055698,1.0926264857287833,0.1089756150617668,0.5432713068315997,-0.9417076190683744,9.392409457233953,-0.880327472349584,0.2840468903831805,-0.9577140102120026
0.8,0.2891864897626062,-0.5957408466724685,2.5219143181007,-0.0247168210890942,0.1126675481385108,0.047864443110493,-0.2117244049610624,0.625555968861134,-0.5264718203305807,0.2825270240466307,-0.5767592750377882,2.506373773801021,-0.2569413067604814,0.7155670580702892,-0.6074312347034756,1.0814005518211869,0.1167104865301832,0.4994456140480441,-0.9520293558610616,9.330374652384307,-0.8773846680819304,0.2821284943859326,-0.961278872011339
0.8200000000000001,0.2849991587484542,-0.5831032451951378,2.511470663827996,-0.0220601714282166,0.1144708850934583,0.0482682683920613,-0.2069062219225697,0.6373986173121855,-0.5152985227272879,0.2825270240466307,-0.5767592750377882,2.506373773801021,-0.2569413067604814,0.7155670580702892,-0.6074312347034756,0.8489784883307722,0.2409091519246398,0.592132422552577,0.5586648801646388,9.270561227614053,-0.872677937535243,0.2731406211783755,-0.9763982124184624
0.84,0.2809185751905395,-0.5702579172519814,2.5012499637648262,-0.0194239983606352,0.1161211617617398,0.0486642553225875,-0.201417126372846,0.6466879771564992,-0.5075031741360279,0.2825270240466307,-0.5767592750377882,2.506373773801021,-0.2569413067604814,0.7155670580702892,-0.6074312347034756,0.6655633627431798,0.2744547774861827,0.4644679922156836,0.3897674295630038,11.256094437819227,-0.8725841486722793,0.2756665399807786,-0.9702738969722584
0.86,0.2771448419095417,-0.5578899311200675,2.4916189986837103,-0.017455713730789,0.1171868238564324,0.0490034683607417,-0.1961538652826098,0.6548657448169675,-0.5066537778175357,0.2799576109790259,-0.5696036044570854,2.5002994614539857,-0.2655178451742444,0.7355670583683124,-0.6274312350014988,0.488106738630146,0.2631630545118085,0.4088883830234147,0.0424698159246061,10.80725208390777,-0.8722264679587128,0.2778195063184003,-0.9654923137443864
0.88,0.2732780703625923,-0.5447091321417342,2.481443928140314,-0.0160223313681544,0.1175746287048105,0.0493183041673491,-0.1908886995773209,0.6628384538088433,-0.5111302016450183,0.2748187848438163,-0.5552922632956795,2.488150836759917,-0.2826709220017705,0.7755670589643588,-0.6674312355975452,0.5275519615557858,0.2632582852644477,0.3986354495937927,-0.2238211913741294,10.400211135964128,-0.8718384671683614,0.2795242986500241,-0.96213323232071
0.9,0.2695123577157271,-0.5313754400909971,2.471126459312245,-0.0154462624554561,0.1171141604849303,0.0495764191618009,-0.1860460211224824,0.6702424666267318,-0.5203621948608231,0.2696799587086067,-0.5409809221342737,2.476002212065847,-0.2998239988292966,0.8155670595604053,-0.7074312361935917,0.6393368422848008,0.2421339227419244,0.3702006408944247,-0.4615996607902406,10.082640167725003,-0.8726850942484465,0.2810053045335444,-0.958847797136269
0.92,0.2658388405823861,-0.5178977774666786,2.460587634518212,-0.0159080638801336,0.1157383575798327,0.0497678257121188,-0.1816355123671678,0.6772831249296973,-0.5330444471247183,0.2636834787320208,-0.5246695809430656,2.461853587341975,-0.3169770756568227,0.8555670601564518,-0.7474312367896382,0.7580616388277718,0.2205254377657312,0.3520329151482759,-0.6341126131947594,9.835162413093713,-0.8741853098115089,0.2825978790059865,-0.955812042190462
0.94,0.2624278143067892,-0.5049643725150031,2.4503271082236786,-0.0174580715475954,0.1134727666415785,0.0498838300321181,-0.1777337295428416,0.6839152769324075,-0.5463620545137597,0.2576869987554349,-0.5083582397518576,2.4477049626181038,-0.3341301524843488,0.8955670607524983,-0.7874312373856847,0.7690383864995133,0.1950891412163091,0.3316076001355084,-0.665880369452071,9.646772730502562,-0.8762431605696398,0.2844459447379655,-0.9531092089499849
0.96,0.2589095323263169,-0.4912002937323221,2.439243809394504,-0.0200017744194431,0.1100265745377057,0.0499641123270815,-0.1744277632864568,0.6923637390080207,-0.5613003013375839,0.2512616918581608,-0.4910468985457483,2.4325563378793302,-0.3512832293118749,0.9355670613485446,-0.827431237981731,0.873866612391334,0.1652983128192384,0.4224231037806614,-0.7469123411912082,9.577129216636422,-0.8795312790784706,0.2871635651939513,-0.9489350613264074
0.98,0.2554454090081618,-0.4772443988385841,2.427853264223257,-0.0225433966285923,0.1055677156017219,0.0500734730222263,-0.1722918658372274,0.7027236273840433,-0.576985684281242,0.2444075580401985,-0.4727355573247379,2.416407713125656,-0.368436306139401,0.975567061944591,-0.8674312385777775,0.9459394578492732,0.10679487246147,0.5179944188011265,-0.7842691471829033,9.521923401282038,-0.8836391459494632,0.2898966266176493,-0.9437791599357002
1.0,0.2521789512044926,-0.4637848896934127,2.416735077245077,-0.0244468798474717,0.1006109542696989,0.0502376728545861,-0.1718521077244863,0.7133779054979802,-0.5925459677451915,0.2468308157163004,-0.4421082174693819,2.3990039800091947,-0.2046009807702413,0.8027236288741594,-0.6769856857713581,0.943172108903379,0.0219879056370539,0.5327139056968466,-0.7780141731974777,9.481094255200333,-0.8886028173989604,0.2925122485134024,-0.937518462388396
1.02,0.248693102967022,-0.4493396575036697,2.4050151375956195,-0.0241398829559925,0.0972019509875458,0.0505278027529749,-0.1769777143988353,0.7301275493333748,-0.5769856802101536,0.2468308157163004,-0.4421082174693819,2.3990039800091947,-0.2046009807702413,0.8027236288741594,-0.6769856857713581,1.1714787242687748,-0.2562803337174499,0.8374821917697284,0.7780143767518954,9.438880203472763,-0.8878169123754658,0.2862522409260599,-0.9477433886687292
1.04,0.2450949747034342,-0.4345853715102387,2.393613348565282,-0.0207627434265392,0.0982680553036158,0.0509127112597874,-0.1820315331495649,0.7440036471441875,-0.5644619977897531,0.2468308157163004,-0.4421082174693819,2.3990039800091947,-0.2046009807702413,0.8027236288741594,-0.6769856857713581,0.9681551990609728,-0.2526909375364775,0.6938048905406391,0.6261841210200236,11.574647838977398,-0.8904905862660096,0.2885811315936582,-0.9382408936082638
1.06,0.241423970669128,-0.4195955976927121,2.382382359200905,-0.0162106460062177,0.102298899597353,0.0513147041585455,-0.184477601287375,0.7540587426984054,-0.5595749340564588,0.244784805908598,-0.4340809811806403,2.392234123151481,-0.2110628037568441,0.8227236291721826,-0.6969856860693813,0.5722140942701082,-0.1223034068905074,0.5027547777108954,0.2443531866647197,11.060268892661044,-0.8889890134710012,0.2887755820787459,-0.9350844973630684
1.08,0.2379144397353919,-0.4051936368458968,2.3717334532094667,-0.0120628151405667,0.1075461409845425,0.0516682786961908,-0.1845887157536238,0.7614947355496936,-0.5615814804053759,0.2406927862931932,-0.4180265086031571,2.378694409436054,-0.2239864497300497,0.862723629768229,-0.7369856866654277,0.3851381711781211,-0.0055557233124378,0.3717996425644077,-0.1003273174458585,10.572432000959452,-0.8859699870321767,0.2876120473829418,-0.9353984534660252
1.1,0.2342404019155842,-0.3898943895132273,2.360430420162603,-0.0083512961793614,0.1135337162659414,0.0519995407444835,-0.182634415171502,0.768128221246567,-0.5688564462143836,0.2366007666777883,-0.401972036025674,2.365154695720627,-0.2369100957032552,0.9027236303642756,-0.7769856872614742,0.501865397238482,0.0977150291060879,0.3316742848436693,-0.363748290450383,10.185028314042938,-0.881409120541011,0.2860427911118843,-0.9384427246992256
1.12,0.2306245945130959,-0.3744702419352319,2.3489303352937774,-0.0054532303791363,0.1192432028579921,0.0522838216409136,-0.1789617076187926,0.7741310048035892,-0.5807841352212266,0.2318625647637232,-0.3839175634183885,2.3496149819753973,-0.2498337416764608,0.942723630960322,-0.8169856878575207,0.6924448646718193,0.1836353776354715,0.3001391778511109,-0.5963844503421523,9.887944299411174,-0.8766050802063016,0.2843911088304403,-0.9425852263882885
1.14,0.2270982619914106,-0.358929124565544,2.337170297106874,-0.0032905086114632,0.124201921364286,0.0525231146011771,-0.1738030817179545,0.7797961291827471,-0.5947130287348665,0.2271243628496581,-0.3658630908111029,2.334075268230168,-0.2627573876496664,0.9827236315563684,-0.8569856884535672,0.794857109690866,0.2579312950419063,0.2832562189578946,-0.6964446756819953,9.657459732494315,-0.8719806892535612,0.282574432489449,-0.947522697393012
1.16,0.223854221102216,-0.3440547768959073,2.325724593556561,-0.0016347832362086,0.1279383001082541,0.0527235038474441,-0.1679604853916096,0.7856214769734459,-0.6094034177319805,0.2220630697862629,-0.3468086181889163,2.317535554470037,-0.275681033622872,1.022723632152415,-0.8969856890496135,0.8424341778467671,0.2921298163172409,0.2912673895349382,-0.7345194498556973,9.559584742284642,-0.8676599453474636,0.2809496522638884,-0.9521542444886402
1.18,0.2205647361332135,-0.3282783223594915,2.313360419835867,-1.8544295699271517e-05,0.1307806989641817,0.0529219367805641,-0.1613200919903171,0.7916734961928404,-0.6263102029649967,0.2166786855735375,-0.3267541455518285,2.299995840695005,-0.2886046795960775,1.062723632748461,-0.93698568964566,0.9572893346204002,0.3320196700646274,0.3026009609697289,-0.8453392616508126,9.491364363391767,-0.8642432242564838,0.2794622600620596,-0.9558415648565082
1.2,0.2174115536096066,-0.3123822083054592,2.3006430802625077,0.0015721511226334,0.1325033800558379,0.0531107628012904,-0.1544141645601032,0.7975582863192527,-0.644576163026308,0.2124987315336976,-0.2886946475498495,2.282044909687617,-0.2008102143383872,0.8916734976829566,-0.7263102044551129,1.0197645383429457,0.3452963715106949,0.2942395063206149,-0.9132980030655656,9.41647591977835,-0.8616917114217462,0.2778336253992188,-0.9589227013988924
1.22,0.2144432442194181,-0.2963500169422988,2.2878734647712955,0.0038808940122928,0.1331062156401454,0.0533365639528722,-0.142587472034551,0.8049134264217362,-0.6297926073295061,0.2124987315336976,-0.2886946475498495,2.282044909687617,-0.2008102143383872,0.8916734976829566,-0.7263102044551129,1.0155322016823949,0.5913346262776092,0.3677570051241752,0.7391777848400949,9.35315598953366,-0.8507628421413622,0.2656761883118851,-0.9832484422372162
1.24,0.2118486898723239,-0.2810143879182967,2.276016672177031,0.0063285022393545,0.1324672391472189,0.0535495960419663,-0.1312669228086933,0.809105829196338,-0.6192002314431104,0.2124987315336976,-0.2886946475498495,2.282044909687617,-0.2008102143383872,0.8916734976829566,-0.7263102044551129,0.8030091884876757,0.5660274612928867,0.2096201387300877,0.5296187943197861,11.493697053705546,-0.8537246344323375,0.269600643453193,-0.9727377369359006
1.26,0.2093431408515947,-0.2647964196998315,2.2636837181005287,0.0083137388900522,0.1302260986986362,0.053705354293852,-0.1200056407238005,0.8126017755429334,-0.6149440815725571,0.2104906293903138,-0.27977791257302,2.274781807643066,-0.2087082388080013,0.9116734979809796,-0.746310204753136,0.6268032521741034,0.5630641042446406,0.1747973173297723,0.2128074935276669,11.004816421986106,-0.858295722146112,0.272589251046325,-0.9627170165531808
1.28,0.2070553523057098,-0.2485154994078761,2.251366055468816,0.009440561030573,0.1259126815006684,0.0537665836429295,-0.1095268718098711,0.8154556987598855,-0.6169721141193191,0.206474425103546,-0.2619444426193608,2.260255603553964,-0.2245042877472293,0.9516734985770262,-0.7863102053491825,0.5524092497653288,0.5239384456964702,0.1426961608476051,-0.1014016273380991,10.219564442031697,-0.8641882932885214,0.2751101054349916,-0.9529382304369086
1.3,0.2049553747087818,-0.2321843510213152,2.238959771241446,0.0094323965699319,0.1194622309622038,0.05371603860237,-0.1014641077834256,0.8176663360528776,-0.6235037433221242,0.2024582208167783,-0.2441109726657017,2.245729399464861,-0.2403003366864574,0.9916734991730728,-0.826310205945229,0.5304650342629752,0.4031382013222742,0.1105318646496045,-0.3265814601402572,9.957070891431613,-0.8704703362491938,0.2778409244900004,-0.9434481024971249
1.32,0.2030785850660962,-0.2166332261784134,2.2270195754889155,0.0080996729926006,0.1120716278923516,0.0535630814439072,-0.0968084126786024,0.8193586395678581,-0.6329948372983717,0.1976522140830491,-0.2242775026822402,2.229203195345957,-0.2560963856256855,1.031673499769119,-0.8663102065412754,0.535304242841982,0.2327847552411589,0.0846151757490254,-0.4745546988123739,9.957070891431613,-0.8779731764849626,0.2806904889710496,-0.9338136021386484
1.34,0.2011684256933045,-0.2002273940759011,2.2142416078201714,0.005129653842495,0.1036850018437145,0.0533045279759144,-0.0947700137630958,0.8215692648072037,-0.644335563974176,0.19284620734932,-0.2044440326987787,2.2126769912270525,-0.2718924345649136,1.0716735003651656,-0.906310207137322,0.586630240489846,0.1019199457753285,0.1105312619672782,-0.5670363337902162,9.755210078313212,-0.8856647519503876,0.2835539320399172,-0.9253097489377372
1.36,0.1992680185346412,-0.1837459373808089,2.2012289448515,0.0014998904676154,0.0952906151723615,0.0530317787062731,-0.0956112355488637,0.8265652541539158,-0.65637620388307,0.1876452993921101,-0.1836105627004161,2.1951507870932465,-0.2876884835041416,1.111673500961212,-0.9463102077333684,0.6531549836389577,-0.0420610892883935,0.2497994673356041,-0.6020319954447018,9.671710259254723,-0.8932036230528697,0.2865852068237221,-0.9170018968367322
1.38,0.1974221142368141,-0.1679801217367735,2.188636224353228,-0.0016730259981637,0.0877865847018632,0.0528227664698318,-0.0987695038581061,0.8326682269838952,-0.6685567003316948,0.1820494902114196,-0.1617770926871524,2.17662458294454,-0.3034845324433696,1.1516735015572583,-0.9863102083294149,0.6992593042133786,-0.1579134154621193,0.3051486414989701,-0.6090248224312367,9.627978610354148,-0.90092622215603,0.2893976040636822,-0.908568244816226
1.4,0.1953928642468696,-0.1512527269492528,2.175120253074624,-0.0044948161294793,0.0807083094840929,0.0526628677838382,-0.1041144305689328,0.8396916503132038,-0.6824434135251141,0.1924836390439088,-0.1263467103875787,2.1552083893366425,-0.1482916914189028,0.9326682284740112,-0.7685567018218109,0.822705172165385,-0.2672463355413358,0.3511711664654304,-0.6943356596709638,9.581650063694724,-0.9080983402385672,0.2915895349715726,-0.9009146682326814
1.42,0.1932293668070946,-0.1343206697818471,2.16164232972124,-0.0048108423194313,0.0757377218511651,0.052679218917965,-0.1120965282216095,0.8525359579578585,-0.6629477558245401,0.1924836390439088,-0.1263467103875787,2.1552083893366425,-0.1482916914189028,0.9326682284740112,-0.7685567018218109,1.2336640456231904,-0.399104882633837,0.6422153822327359,0.9747828850286966,11.7620276350508,-0.905103214044297,0.2812900541968184,-0.9194682957569076
1.44,0.1908867071886059,-0.1171635124649634,2.1485507646877706,-0.00193275652895,0.0745057397694156,0.0528885296203225,-0.1213282445313234,0.8621994482785467,-0.64734159120905,0.1924836390439088,-0.1263467103875787,2.1552083893366425,-0.1482916914189028,0.9326682284740112,-0.7685567018218109,1.027326634044459,-0.4615858154856933,0.483174516034407,0.7803082307745068,11.7620276350508,-0.9107733307686664,0.2846180003572414,-0.9061860730089648
1.46,0.1885050820418158,-0.1007214170143392,2.1363258751113285,0.0019676596022828,0.076011563915701,0.0531527015037232,-0.128616184063708,0.8678822316329845,-0.6402407078706027,0.1910007221297198,-0.1170200281028386,2.1475228223184244,-0.1581961289310622,0.9526682287720344,-0.7885567021198341,0.5827319998665929,-0.364396976619228,0.2841391677218918,0.3550441669223636,11.216163216035966,-0.9129711195389644,0.285355275442847,-0.8990130463472368
1.48,0.1858674235541233,-0.0833240468175969,2.1235363153872213,0.0058193960931482,0.0792572138696191,0.0534140843664969,-0.1345602511617838,0.8716211309917401,-0.6393811382379427,0.1880348883013417,-0.0983666635333584,2.132151688281988,-0.1780050039553809,0.992668229368081,-0.8285567027158806,0.3537306957090465,-0.2972033549037939,0.1869449679377799,0.0429784816329992,10.694551800374027,-0.912901276994915,0.2845913768657502,-0.8966487400404799
1.5,0.1831274763793603,-0.0658634464097286,2.110701678176697,0.0089050469773153,0.0833307772344021,0.053628894013372,-0.1389850100958923,0.874385583378613,-0.6443562349169886,0.1850690544729637,-0.0797132989638781,2.116780554245552,-0.1978138789796996,1.0326682299641274,-0.868556703311927,0.360458997633963,-0.2212379467054201,0.1382226193436475,-0.2487548339522916,10.284121559183404,-0.9114916261366832,0.2833217420761787,-0.8972359790689922
1.52,0.1803133865561267,-0.0483536881783829,2.097712944731907,0.011098110042714,0.0875912335327513,0.0537848163069184,-0.1421006236021239,0.876685493040614,-0.6542527384449495,0.1811127768933697,-0.0590599343645956,2.099409420179313,-0.2176227540040183,1.0726682305601738,-0.9085567039079736,0.5313600804833793,-0.1557806753115842,0.1149954831000499,-0.4948251763980449,9.96013939211025,-0.9089741192975316,0.2817738803422822,-0.8999594971947273
1.54,0.1775948859400442,-0.0316807480883475,2.08516806725231,0.0123387462314908,0.0913977959194291,0.0538706955853761,-0.1438598435034733,0.878399287244433,-0.6657672355469009,0.1771564993137757,-0.038406569765313,2.082038286113075,-0.237431629028337,1.1126682311562204,-0.94855670450402,0.5886756083472338,-0.0879609950674695,0.0856897101909448,-0.5757248550975702,9.710388803047865,-0.9055405603768713,0.2798724602836722,-0.904830888176886
1.56,0.1747055568153541,-0.0140907849794476,2.071709983149099,0.0128438763036977,0.0949145152612253,0.0538954488084379,-0.1449348893863564,0.8805340391151059,-0.6795144426380861,0.1727049998585737,-0.0167532051511293,2.063667152031935,-0.2572405040526557,1.1526682317522667,-0.9885567051000664,0.6976721866456691,-0.053752294144152,0.1067375935336456,-0.6873603545592633,9.601276504609814,-0.9022056236387646,0.2784404221804331,-0.9096313318466932
1.58,0.1718016131356213,0.0035441270155293,2.0579602152391154,0.0127092366559126,0.0978278545814068,0.0538620903732894,-0.1453998942499116,0.8828698278692756,-0.6947803947469802,0.1677582785277638,0.0059001594779554,2.044296017935894,-0.2770493790769743,1.192668232348313,-1.028556705696113,0.7725306343736181,-0.0232502431777623,0.1167894377084866,-0.7632976054447016,9.516495784481776,-0.8993612716253456,0.277332162366895,-0.9140157478439892
1.6,0.1690383010615745,0.0203429347199422,2.04460264407537,0.0120927298906159,0.1000096421752339,0.0537828232048862,-0.1454637306242442,0.8853215675209136,-0.7105232699332801,0.1645316184231257,0.0476876184089931,2.0232211955017663,-0.1810451891844228,0.922972276183704,-0.7947803962370963,0.7966385967512488,-0.0031918187166288,0.1225869825819014,-0.7871437593149955,9.445779221406156,-0.8967736629495415,0.2764959249359957,-0.9182119839098926
1.62,0.1661270612133228,0.0383090588857812,2.030548781847366,0.0186224095838741,0.1025679333323139,0.0541968681804618,-0.1451339875297706,0.9074114560622584,-0.6922727290323756,0.1645316184231257,0.0476876184089931,2.0232211955017663,-0.1810451891844228,0.922972276183704,-0.7947803962370963,1.4327893682019088,0.016487154723678,1.104494427067232,0.912527045045225,9.381499956283731,-0.8859194649209888,0.2600042252814047,-0.9448589094291184
1.64,0.163245742918674,0.0565376629902448,2.016861619626376,0.0327025988921648,0.1059551703756511,0.0551602563882384,-0.1428242637645763,0.9130880752887496,-0.6779592662169953,0.1645316184231257,0.0476876184089931,2.0232211955017663,-0.1810451891844228,0.922972276183704,-0.7947803962370963,0.7785146875322049,0.1154861882597169,0.2838309613245604,0.7156731407690131,11.655488365418025,-0.8859706051633073,0.2550865458818527,-0.9389473113484328
1.66,0.1604238388424625,0.0747790641051674,2.0033497473125403,0.0480641582372151,0.1094695148835313,0.0562375984465717,-0.1393732877813743,0.9103229550966876,-0.673937791031727,0.1627211665312815,0.0569173411708301,2.015273391539395,-0.188174248171325,0.9309927658465896,-0.8147803965351195,0.2988619563398557,0.1725487991600979,-0.1382560096030993,0.2010737592634148,11.076150089879777,-0.8847647106701128,0.246459537554053,-0.9374917036059688
1.68,0.1578147396193466,0.0920105422744911,1.9905088079643396,0.0619844780553434,0.1124460457428847,0.0572133919288104,-0.1354207875571498,0.9035375758411874,-0.6779488103089456,0.1591002627475931,0.0753767866945042,1.9993777836146531,-0.2024323661451295,0.9470337451723608,-0.8547803971311659,0.4408852041792857,0.1976250112112249,-0.3392689627750023,-0.2005509638609293,10.49178626772482,-0.8827199953696764,0.2358861948474068,-0.939862387776746
1.7,0.1551542326416138,0.1099710225428101,1.9768453112818023,0.0751236529462308,0.1149115443009661,0.0580994924912188,-0.130861065572672,0.8929100101682669,-0.688473218331934,0.1554793589639046,0.0938362322181783,1.9834821756899117,-0.216690484118934,0.9630747244981324,-0.8947803977272124,0.7818237987908662,0.2279860992238938,-0.5313782836460279,-0.5262204011494187,10.04326474053778,-0.8799375735346766,0.2244735939570578,-0.9449828459640272
1.72,0.1525870818844557,0.1276918489911155,1.962914756067452,0.0862963925958767,0.1165493793054926,0.0587782136741031,-0.1261402289697674,0.8798642683521772,-0.7042557748151588,0.1511455492815259,0.1130977267081409,1.9655865677353672,-0.2309486020927385,0.9791157038239036,-0.9347803983232588,1.050674505864655,0.2360418301452296,-0.652287090804482,-0.7891278241612398,9.454999374160252,-0.8768699309633311,0.2126560830530537,-0.9521118712197434
1.74,0.1501161866894873,0.1451314545404081,1.9486391966763383,0.0954208551424632,0.1173064363643042,0.0592172203049047,-0.1212596405625245,0.8649637353804036,-0.7225793019913416,0.1468117395991472,0.1323592211981036,1.947690959780823,-0.2452067200665429,0.995156683149675,-0.9747803989193052,1.2058168126006288,0.2440294203621427,-0.7450266485886814,-0.9161763588091398,9.454999374160252,-0.8735561886490562,0.2013143404674342,-0.9605478560835004
1.76,0.1478590589942894,0.161411110945519,1.9347226251819651,0.1023005040683123,0.1172271498248389,0.0594059240672289,-0.1166720397463128,0.849725721139521,-0.7413863036728486,0.1421214769674234,0.1520217401712105,1.9287953518113776,-0.2594648380403474,1.0111976624754464,-1.0147803995153517,1.2318141819106232,0.2293800408105839,-0.7619007120441279,-0.9403500840753533,9.303095297976142,-0.8706605062039178,0.190548563166933,-0.9687880060078556
1.78,0.1455752305082566,0.1782282911315781,1.919675032504767,0.1079880556260697,0.1163616701598373,0.0593822505355122,-0.1120098605550117,0.8329704600353683,-0.7624277342583036,0.1370747613863545,0.1720852836274617,1.908899743827031,-0.2737229560141518,1.0272386418012176,-1.054780400111398,1.364932682005464,0.2331089595650537,-0.8377630552076354,-1.0520715292727467,9.303095297976142,-0.8686009631790534,0.1807964461177597,-0.976255741163396
1.8,0.1433841982038595,0.1947003682590916,1.9041951241140624,0.1121938743176791,0.1146237923955615,0.059124283113819,-0.1074197692367034,0.8153923731370086,-0.7844854273390679,0.139974737480506,0.2198768141333465,1.881553645791852,-0.1620905659890957,0.7936967211742844,-0.8624277357484197,1.4288106079549991,0.2295045659154185,-0.8789043449179856,-1.1028846540382164,9.247401168786382,-0.867318100998965,0.1722483418605728,-0.9829553858054422
1.82,0.1414257577750088,0.2101216348588291,1.8893924569759264,0.1194291634731478,0.1117646399954576,0.058926582167326,-0.0989766165874278,0.8058987206795137,-0.7728669778380796,0.139974737480506,0.2198768141333465,1.881553645791852,-0.1620905659890957,0.7936967211742844,-0.8624277357484197,0.8608202954880955,0.4221576324637807,-0.4746826228747447,0.5809224750494169,9.210101595062952,-0.8601067288031591,0.1501702465450747,-1.0061370094445392
1.84,0.1395389751147112,0.2260350001928252,1.873998918177316,0.129964957556922,0.1069290879288112,0.0586212035288655,-0.0903679165836061,0.7855297657163106,-0.7676250723948725,0.139974737480506,0.2198768141333465,1.881553645791852,-0.1620905659890957,0.7936967211742844,-0.8624277357484197,1.1363115931868335,0.4304350001910845,-1.0184477481601562,0.2620952721603509,11.210035069771948,-0.864723947540884,0.1422160472924105,-1.001031813202432
1.86,0.1378016993797435,0.2415009516454856,1.858631407421409,0.1405216711563172,0.1001582176317118,0.0579526955790713,-0.0842082422728559,0.7618255529773885,-0.7696766809879088,0.1383538318206151,0.2278137813450894,1.8729293684343675,-0.1721067070759125,0.7858419734020675,-0.8824277360464429,1.228861655156523,0.3079837155375076,-1.1852106369461046,-0.1025804296518106,10.68335050409678,-0.8698956113966893,0.131599055616539,-0.998081636774827
1.88,0.1361556921047436,0.256472543912578,1.8431598799201525,0.1506155043377428,0.0920500230524913,0.0569340217938551,-0.0810673502785769,0.7362479909886324,-0.7773754262239269,0.1351120205008331,0.2436877157685751,1.8556808137193992,-0.1921389892495461,0.770132477857634,-0.9224277366424892,1.3447560726926475,0.1570445997139506,-1.278878099437808,-0.384937261800905,10.293841199215422,-0.8756322361671531,0.1199961558522691,-0.9963223974706552
1.9,0.1346219761348259,0.2702055855671201,1.828280609310944,0.1597338878919317,0.0836678363612775,0.0557046014869346,-0.0808082814920506,0.7103965208184342,-0.7885023081075285,0.1318702091810512,0.2595616501920608,1.8384322590044309,-0.2121712714231796,0.7544229823132004,-0.9624277372385358,1.4072785145880162,0.0129534393263172,-1.2925735085099088,-0.5563440941800835,10.013963681832138,-0.8819819060184255,0.1064089010780191,-0.9957959449303372
1.92,0.1329847866809297,0.2841140525951371,1.8123579602138555,0.1688593541642824,0.0746213291787875,0.0542089375793661,-0.0832014214094947,0.6815949166047384,-0.8033437588789267,0.1276267837525876,0.2746501098383248,1.81918370425966,-0.2322035535968132,0.7387134867687668,-1.0024277378345825,1.624444662759155,-0.1196569958722054,-1.440080210684791,-0.7420725385699101,9.81048312405619,-0.8884243306503563,0.0918089355501456,-0.99638236684579
1.94,0.1312739658598592,0.297427417052477,1.7961227670662028,0.1775306242179806,0.0657489721803665,0.0525800455411589,-0.0879850987253644,0.650963598747612,-0.8195014884199792,0.123383358324124,0.2897385694845888,1.7999351495148894,-0.2522358357704468,0.7230039912243331,-1.0424277384306289,1.748022758896801,-0.2391838657934852,-1.531565892856318,-0.8078864770526217,9.65273092643747,-0.8939973329313997,0.0766914551504203,-0.9987946279648484
1.96,0.1295377482679892,0.3094793933115798,1.7803901683080288,0.1850181649121606,0.0578507656513969,0.0509626498461156,-0.0946677916059936,0.6192647873414763,-0.8357560027728231,0.1186391258413196,0.304434291742242,1.7796865947552176,-0.2722681179440804,0.7072944956798995,-1.0824277390266752,1.8122377503692668,-0.3341346440314627,-1.5849405703067865,-0.8127257176421987,9.604072506484954,-0.8991047180619881,0.0606177371104902,-1.0025806599969391
1.98,0.1275539098289055,0.3214839389956018,1.7634841603075555,0.1914149957467671,0.0504014650342581,0.0492171255421046,-0.103510079945897,0.5831266069103929,-0.8539823688169622,0.1133940863041743,0.3187372766112843,1.7584380399806443,-0.2923004001177139,0.691585000135466,-1.1224277396227216,2.0714454899480685,-0.4421144169951707,-1.8069090215541703,-0.9113183022069538,9.604072506484954,-0.9038333735256452,0.045643019238243,-1.0067555714366112
2.0,0.125375858171316,0.332745070709414,1.746206309479462,0.1957618881313614,0.0440346903648335,0.0474594313090584,-0.1139691571004,0.545215618157306,-0.8728254358576107,0.1223784058316107,0.3506402693411214,1.7207850418667077,-0.1701774355429162,0.4831266054202767,-0.9342673219343328,2.180422286312274,-0.522953857725146,-1.8955494376543425,-0.9421533520324266,9.582702310925924,-0.907943754295192,0.0337994751717463,-1.0102854665240315
2.02,0.1231077067947419,0.3427675267447886,1.729732906703814,0.2008749732223053,0.0391890807755723,0.0460422057407959,-0.1243283652769565,0.5101479843653879,-0.8605795325396689,0.1223784058316107,0.3506402693411214,1.7207850418667077,-0.1701774355429162,0.4831266054202767,-0.9342673219343328,1.928091207568832,-0.5179604088278291,-1.7533816895959065,0.6122951658970921,9.58285193831125,-0.9086088281844754,0.0119962283427505,-1.0255438861059298
2.04,0.1204960375196602,0.3525340234117929,1.7126105306000208,0.2076593931434861,0.0356332704940961,0.0448998868167114,-0.1363942481424561,0.468142927198819,-0.8527310619591649,0.1223784058316107,0.3506402693411214,1.7207850418667077,-0.1701774355429162,0.4831266054202767,-0.9342673219343328,2.220140112326084,-0.6032941432749767,-2.100252858328444,0.3924235290251987,11.493613618576092,-0.9124020949048874,0.0022777059982078,-1.024566284281723
2.06,0.1176310263943102,0.3614414332880121,1.6955921904394604,0.2144105131381591,0.0338340700857178,0.0440687559500718,-0.1494821988137516,0.4245500195305894,-0.849689652938342,0.1206766314761815,0.3554715353953241,1.7114423686473643,-0.1835109066623201,0.4631266051222535,-0.9503243125578068,2.2808365902542205,-0.6543975335647767,-2.17964538341148,0.1520704510411474,11.10951053718054,-0.9146659925934848,-0.0076945830254788,-1.025476370348532
2.08,0.1146688442730873,0.3690869641961846,1.6794458612144791,0.2205664236561521,0.03362427196028,0.0435475315240903,-0.1615184031078049,0.3822777763503455,-0.8500864748306589,0.1172730827653232,0.3651340675037297,1.6927570222086776,-0.2101778489011277,0.4231266045262071,-0.9824382938047552,2.197709162350701,-0.6018102147026652,-2.113612159012196,-0.0198410946158467,10.688628990610596,-0.915823950618999,-0.0182225658864934,-1.0276908122950963
2.1,0.1113135257411277,0.3762515451456573,1.66241509076336,0.2265388194973963,0.0344048365870759,0.0431561121460956,-0.1732783669821922,0.3363800829870719,-0.8530792853618125,0.1138695340544649,0.3747965996121352,1.674071675769991,-0.2368447911399354,0.3831266039301606,-1.014552275051703,2.373737517750942,-0.587998193719362,-2.294884668163677,-0.1496405265576816,10.555415347076632,-0.9156030308255164,-0.028788643928984,-1.0314861464344085
2.12,0.1077323635190499,0.3824633644976984,1.6452956441237692,0.231005916776361,0.035773623341824,0.0427670839470041,-0.1841877079908206,0.2876765099222217,-0.8585845562069214,0.1091326382316661,0.3824591316907385,1.6537806302689568,-0.2635117333787432,0.3431266033341142,-1.0466662562986515,2.5106571637739354,-0.545467050431421,-2.435178653242512,-0.2752635422554439,10.463501198106314,-0.91443493636468,-0.0385938255281445,-1.0366484960047058
2.14,0.1039421269684768,0.3876844987322941,1.628062274272168,0.2332694063123273,0.0374062441122644,0.0422600065469659,-0.1942611253337406,0.2375349004555245,-0.864331989650447,0.1043957424088674,0.3901216637693416,1.6334895847679227,-0.2901786756175509,0.3031266027380677,-1.0787802375456,2.5732701607405963,-0.5036708671459985,-2.507080473334859,-0.2873716721762787,10.463501198106314,-0.9130009350761158,-0.0464600895773928,-1.0423004145954136
2.16,0.1001592172244328,0.3916928132229405,1.6115821266061316,0.2326334174890105,0.039073766225222,0.0415868939626948,-0.2034081183537761,0.1875381407929201,-0.8699875952528016,0.0989921730300985,0.3967841958330437,1.612395689735715,-0.3168456178563585,0.2631266021420212,-1.110894218792548,2.55701453495976,-0.457349651001776,-2.4998379831302207,-0.2827802801177281,10.479949244414456,-0.9119687499771756,-0.0510948349773193,-1.0471417839154813
2.18,0.0959938676366823,0.3948809703188345,1.5941197258603514,0.2280723702771415,0.0409248490253697,0.0406030001199025,-0.2126330263920633,0.1350812972272604,-0.8756671366818426,0.0929219300953594,0.4024467278818446,1.5904989451723337,-0.3435125600951662,0.2231266015459748,-1.1430082000394963,2.6781880796683866,-0.4612454019143619,-2.6228421782829816,-0.2839770714520517,10.511318993859277,-0.9110651892249524,-0.0516217859130447,-1.0518906821003784
2.2,0.0916467207415541,0.397051503987562,1.5765538149346334,0.2202828903534778,0.0428180874376741,0.0393795813775791,-0.2216066635495365,0.085789025507848,-0.8803664500165841,0.0853622163170791,0.4016350351801975,1.5503363690262593,-0.277271998674473,0.0350812957371443,-0.9144195509679792,2.516116929373736,-0.4486818578736576,-2.464613585970621,-0.2349656667370747,10.523429266831954,-0.9103101190958056,-0.0488757066392305,-1.0562424486427142
2.22,0.0873632463409463,0.3982142656114539,1.5600549156058494,0.212267170778993,0.0446317066083406,0.0381608848211015,-0.2287829839784379,0.0390921166775813,-0.8561242346611552,0.0853622163170791,0.4016350351801975,1.5503363690262593,-0.277271998674473,0.0350812957371443,-0.9144195509679792,2.655082802164324,-0.3588160214450714,-2.334845441513336,1.212110767771446,10.53487376971043,-0.9167586745729398,-0.0449697052677535,-1.054521317090861
2.24,0.082714970896921,0.3984851720697999,1.5431809133261671,0.2037974484730482,0.046417578474717,0.0368352145249267,-0.2356621375940752,-0.0090057976281319,-0.8327231184949522,0.0853622163170791,0.4016350351801975,1.5503363690262593,-0.277271998674473,0.0350812957371443,-0.9144195509679792,2.6964533895709217,-0.3439576807818659,-2.404895715285666,1.1700558083101498,12.473920281499886,-0.9166968758245834,-0.0380154948685162,-1.055286836836244
2.26,0.0779323928633869,0.3978116976258826,1.5267342638656825,0.1945041716755609,0.0478662656052074,0.0353718616129293,-0.2422817973894103,-0.0552214400866043,-0.8131261598616408,0.0825894963303344,0.401985848137569,1.5411921735165794,-0.2901997931309549,0.0150812954391211,-0.9221700338252066,2.531672516011423,-0.3309829897667524,-2.310782122923617,0.9798479316655672,11.907615638528114,-0.9176622574594984,-0.029985000220998,-1.0548807650970606
2.28,0.0730179086626274,0.396244213547986,1.5106443805663936,0.1840908587187246,0.0488831763442321,0.0337420618131935,-0.248898078934312,-0.0983798133255912,-0.7966546968721296,0.0770440563568449,0.4026874740523118,1.52290378249722,-0.3160553820439188,-0.0249187051569253,-0.9376709995396612,2.333307446058033,-0.3308140772450854,-2.157918661949345,0.8235731494755594,11.907615638528114,-0.9189732009377654,-0.0213154058265833,-1.0540886217570078
2.3000000000000003,0.0682248172916977,0.3939897704144217,1.4956413717302173,0.1734125497233554,0.0494341761141692,0.0320671102978655,-0.2553682176303062,-0.1361146832862176,-0.783301473722612,0.0714986163833555,0.4033890999670547,1.5046153914778604,-0.3419109709568827,-0.0649187057529717,-0.9531719652541158,2.0273700169009587,-0.3235069347997124,-1.886743498031319,0.6676611574758795,11.68410278212832,-0.9207148065534788,-0.0115217891314265,-1.0529867771598975
2.32,0.0630434653334324,0.3908832425277233,1.4801040149375226,0.161777591004898,0.0495987896020498,0.0302188502085153,-0.26248932596498,-0.1720313081916302,-0.7711622823872835,0.0646603969642178,0.4020907258519953,1.485551952172778,-0.3677665598698466,-0.1049187063490182,-0.9686729309685704,1.9287781720469983,-0.356055416733686,-1.795831245270632,0.6069595667664296,11.492637590937193,-0.9228176192280426,-0.001375915735152,-1.0515149199982754
2.34,0.0577155758964158,0.3870937682774817,1.4647964572630428,0.1500699102456098,0.0493879840122851,0.0283281055595839,-0.2700134874831668,-0.204637049852307,-0.760109891522495,0.0578221775450801,0.4007923517369358,1.4664885128676957,-0.3936221487828105,-0.1449187069450647,-0.9841738966830252,1.7620320227103006,-0.3762080759093428,-1.630287083033842,0.5526195432394243,11.32616816481277,-0.92534147921957,0.0082828369221799,-1.049587244828425
2.36,0.0522289060638595,0.3826789266826445,1.4496993495690076,0.1383113896015128,0.0490061715590619,0.0264377871166645,-0.2783087390879539,-0.2346522690348316,-0.7500618238026974,0.0503375684031184,0.3984939776069752,1.447037549419752,-0.4194777376957743,-0.1849187075411111,-0.9996748623974798,1.636068646682768,-0.4147625802393556,-1.5007609591262294,0.5024033859898802,11.23890330343329,-0.9280466454564696,0.0184332342625758,-1.0474485865025829
2.38,0.0468562627511118,0.3779577758348398,1.435532992289133,0.1271127578830783,0.0487213706332504,0.0246814832538169,-0.2868156774195314,-0.2603639699720687,-0.7415671090411667,0.0422065695383326,0.3951956034621135,1.427199061828947,-0.4453333266087381,-0.2249187081371575,-1.0151758281119343,1.4191720682698616,-0.4253469165788726,-1.2855850468618506,0.4247357380765315,11.065221787164774,-0.9307895795643156,0.0287597612191743,-1.0449780590928877
2.4,0.0410214452232944,0.3724945832773474,1.4207846348672803,0.1155179203983896,0.0486570234670626,0.022908608592853,-0.2962156617435749,-0.2842275085137387,-0.7337340460321345,0.0325154788801352,0.3649395773362364,1.3984546368370745,-0.3292070558520437,-0.3603639714621848,-0.7212026308106904,1.3408812896053677,-0.4699992162021743,-1.1931769270835002,0.3916531504516096,11.065221787164774,-0.9336109643566428,0.0392204323997619,-1.041921802205732
2.42,0.034966083156028,0.3666291094875883,1.4064526223641642,0.1067008186654952,0.0501986252438402,0.0215368761861995,-0.3085425209127075,-0.302220707135985,-0.6986181698452039,0.0325154788801352,0.3649395773362364,1.3984546368370745,-0.3292070558520437,-0.3603639714621848,-0.7212026308106904,2.066900707587984,-0.6163429584566338,-0.8996599311123177,1.7557938093465342,12.940404697497796,-0.9422448253180068,0.0462043859653077,-1.033817327790969
2.44,0.029001469452228,0.3606949696290349,1.393500318589017,0.1009833336424771,0.0539516190708868,0.0206696977114522,-0.3183649132789676,-0.3216358268927919,-0.6666749371956254,0.0325154788801352,0.3649395773362364,1.3984546368370745,-0.3292070558520437,-0.3603639714621848,-0.7212026308106904,1.9324831041130808,-0.4911196183130045,-0.9707559878403438,1.5971616324789215,12.598551707376828,-0.9434669621655162,0.0539596761247877,-1.0289937364280592
2.46,0.0225465916907894,0.3540517666231765,1.380485548615088,0.0960072487906288,0.0592439548244814,0.0199612662653635,-0.3263360068322921,-0.3416123590669674,-0.6366304322302222,0.0292234083216148,0.3613359376216146,1.3912426105289677,-0.3376853315385461,-0.380363971760208,-0.7171297351645951,1.8474796675186032,-0.3985546776662241,-0.9988266087087748,1.5022252482701617,12.598551707376828,-0.9425614508491228,0.0602695661442609,-1.0266399908343755
2.48,0.0159560195620642,0.3470198777582531,1.3680347829873647,0.0916288783863922,0.0650911653487937,0.0193421729911908,-0.3321099678807909,-0.3604988014290932,-0.6100827802013584,0.0226392672045739,0.3541286581923709,1.3768185579127536,-0.3546418829115511,-0.4203639723562544,-0.7089839438724045,1.6543988028382963,-0.2886980524249405,-0.9443221181062889,1.3273826014431889,12.321477865521048,-0.9403918456967072,0.0654005251300033,-1.026048693695317
2.5,0.0092713554476173,0.3396237434228845,1.3560800499644583,0.0876945356534488,0.0708695022342057,0.0187438417010828,-0.3359234965828449,-0.3781357581206136,-0.5867004905143247,0.016055126087533,0.3469213787631272,1.3623945052965398,-0.3715984342845559,-0.4603639729523009,-0.700838152580214,1.476767342464885,-0.190676435102699,-0.8818478345760217,1.1691144843516854,12.072943171613588,-0.9375595243076548,0.0700403038151537,-1.0263834213046554
2.52,0.0028666388299307,0.3322822887390006,1.3451324512878655,0.0843495594079951,0.0758909423890177,0.0181615228137475,-0.3379969116659395,-0.3937695472408246,-0.5668469714872325,0.0086231574018419,0.3377140993040812,1.3483777422449357,-0.3885549856575608,-0.5003639735483474,-0.6926923612880235,1.267750596648592,-0.1036707541547277,-0.7816894560105508,0.9926759513546102,11.868657328495829,-0.9346958374051012,0.0740111464397141,-1.0271044296021563
2.54,-0.0039029481181328,0.3242444091560123,1.334007651551166,0.0813049629020526,0.0803920522149091,0.0175200196334,-0.3387897374411972,-0.4092140256713184,-0.5467144899039037,0.0011911887161508,0.3285068198450351,1.3343609791933313,-0.4055115370305658,-0.5403639741443939,-0.6845465699958329,1.2693278747067036,-0.0396412887628871,-0.7722239215246895,1.0066240791664405,11.703700826808015,-0.932659050796256,0.0773583638165756,-1.0272954364533975
2.56,-0.0106789632333566,0.3158975624363673,1.3232760919400008,0.0785232873022868,0.0839729860259936,0.0168311985920302,-0.3387508618287625,-0.4245910194193062,-0.527479806506757,-0.0066646937538653,0.318299540371088,1.3205478609240318,-0.4224680884035707,-0.5803639747404402,-0.6764007787036423,1.2312864141086055,0.0019437806217353,-0.7688496873993922,0.9617341698573368,11.599150256457506,-0.931084885475078,0.0802988523543793,-1.0272881294614415
2.58,-0.0174478637870299,0.307248101503708,1.312919629463856,0.0757301653424586,0.0866599517175214,0.0160841902301532,-0.3381676087476318,-0.4394358208854301,-0.5091147509014555,-0.0149444900082067,0.3070922608822397,1.3069383874370368,-0.4394246397765756,-0.6203639753364867,-0.6682549874114517,1.1810838053574946,0.0291626540565331,-0.742240073306194,0.918252780265072,11.599150256457506,-0.9303596241577232,0.0830240987204037,-1.0266844447417287
2.6,-0.0238647486781428,0.2987630147801202,1.3034136327423769,0.0730311381920864,0.0884547164655533,0.0153286721545218,-0.3373597537614216,-0.4528616755277728,-0.492423598249132,-0.0343562442244115,0.2852763104594365,1.287463891918783,-0.3416819151345646,-0.5394358223755462,-0.4360630374944159,1.0717984645202965,0.0403927493105138,-0.6712927321171347,0.8345576326161758,11.546586579890572,-0.9304680592364324,0.0859466309016293,-1.025248314218428
2.62,-0.0306425910384922,0.2895274713273162,1.293852720816594,0.0692821487332387,0.0912716583275971,0.0145522363155763,-0.3402064135526348,-0.4694073688828944,-0.4639189474088777,-0.0343562442244115,0.2852763104594365,1.287463891918783,-0.3416819151345646,-0.5394358223755462,-0.4360630374944159,1.654069647939163,-0.1423329895606617,-0.8272846677560813,1.4252325420127137,11.493780599901584,-0.9320497407772236,0.0891861878615574,-1.0230288111469414
2.64,-0.0374535169979409,0.2799987572194405,1.2848860447388148,0.064935763497648,0.096087651133535,0.0138818734193897,-0.3404140579255533,-0.4825000183403053,-0.4342431245786857,-0.0343562442244115,0.2852763104594365,1.287463891918783,-0.3416819151345646,-0.5394358223755462,-0.4360630374944159,1.621816147602121,-0.0103822186459268,-0.6546324728705449,1.483791141509602,12.331891844160964,-0.9323343034278766,0.0945725352282344,-1.0198661970426035
